{"data":[[{"is_transit":false,"line":2,"time":0,"station_name":"Gondangdia","station_id":"GDD","distance":0,"transit":false,"i_lat":-6.186295,"i_long":106.832183},{"i_lat":-6.198556,"station_id":"CKI","transit":false,"distance":1750,"time":3,"line":2,"i_long":106.840169,"station_name":"Cikini","is_transit":false},{"is_transit":true,"time":4,"distance":1590,"i_lat":-6.209883,"station_name":"Manggarai","i_long":106.84912,"line":2,"transit":true,"station_id":"MRI"},{"i_lat":-6.202263,"station_id":"SUD","i_long":106.822649,"transit":false,"distance":3186,"line":1,"station_name":"Sudirman","is_transit":false,"time":4},{"distance":280,"station_id":"SUDB","station_name":"Sudirman Baru","i_lat":-6.201433,"line":1,"time":1,"transit":false,"is_transit":false,"i_long":106.819881},{"transit":false,"is_transit":false,"distance":471,"i_lat":-6.20132,"i_long":106.816351,"station_id":"KAT","line":1,"time":1,"station_name":"Karet"}],[{"distance":0,"line":2,"i_lat":-6.186295,"transit":false,"is_transit":false,"time":0,"i_long":106.832183,"station_id":"GDD","station_name":"Gondangdia"},{"is_transit":false,"distance":2015,"i_lat":-6.166716,"transit":false,"i_long":106.828284,"line":2,"time":4,"station_name":"Juanda","station_id":"JUA"},{"line":2,"station_name":"Sawah Besar","distance":1149,"is_transit":false,"i_lat":-6.160725,"station_id":"SW","i_long":106.827103,"transit":false,"time":2},{"i_long":106.82482,"station_id":"MGB","station_name":"Manggabesar","line":2,"transit":false,"is_transit":false,"time":2,"i_lat":-6.149769,"distance":906},{"time":2,"station_name":"Jayakarta","i_lat":-6.141205,"station_id":"JAY","distance":1080,"i_long":106.820901,"line":2,"is_transit":false,"transit":false},{"station_id":"JAKK","line":2,"transit":true,"i_long":106.812439,"i_lat":-6.137569,"time":4,"station_name":"Jakarta Kota","distance":1264,"is_transit":true},{"is_transit":true,"i_long":106.826365,"time":3,"station_name":"Kampung Bandan","line":4,"transit":true,"distance":1364,"station_id":"KPB","i_lat":-6.132549},{"time":9,"distance":4102,"station_name":"Angke","line":1,"is_transit":false,"transit":false,"station_id":"AK","i_lat":-6.144674,"i_long":106.79867},{"is_transit":false,"distance":1230,"i_long":106.800832,"time":4,"i_lat":-6.155215,"line":1,"station_id":"DU","station_name":"Duri","transit":false},{"i_long":106.811091,"station_id":"THB","station_name":"Tanah Abang","i_lat":-6.185545,"distance":3632,"line":1,"is_transit":false,"transit":false,"time":8},{"line":1,"station_id":"KAT","transit":false,"is_transit":false,"distance":2029,"station_name":"Karet","time":5,"i_lat":-6.20132,"i_long":106.816351}],[{"transit":false,"station_name":"Gondangdia","i_long":106.832183,"station_id":"GDD","is_transit":false,"line":2,"time":0,"distance":0,"i_lat":-6.186295},{"station_id":"CKI","distance":1750,"station_name":"Cikini","is_transit":false,"time":3,"i_long":106.840169,"transit":false,"line":2,"i_lat":-6.198556},{"i_long":106.84912,"station_id":"MRI","station_name":"Manggarai","is_transit":true,"time":4,"line":2,"transit":true,"distance":1590,"i_lat":-6.209883},{"is_transit":false,"i_lat":-6.212485,"line":1,"time":2,"transit":false,"distance":1275,"i_long":106.858896,"station_name":"Matraman","station_id":"MTR"},{"distance":1377,"i_lat":-6.215091,"line":1,"i_long":106.86807400000001,"station_name":"Jatinegara","transit":true,"is_transit":true,"station_id":"JNG","time":8},{"distance":1236,"is_transit":false,"i_long":106.861737,"station_name":"Pondok Jati","station_id":"POK","time":2,"i_lat":-6.209188,"transit":false,"line":11},{"time":2,"i_long":106.855437,"i_lat":-6.193792,"distance":1829,"line":11,"station_id":"KMT","is_transit":false,"transit":false,"station_name":"Kramat"},{"i_lat":-6.185975,"station_name":"Gang Sentiong","line":11,"station_id":"GST","distance":973,"i_long":106.850107,"transit":false,"is_transit":false,"time":1},{"line":11,"i_lat":-6.174784,"station_name":"Pasar Senen","is_transit":false,"time":8,"distance":1567,"station_id":"PSE","transit":false,"i_long":106.84368},{"transit":false,"is_transit":false,"i_long":106.839204,"station_name":"Kemayoran","time":4,"station_id":"KMO","i_lat":-6.161728,"line":11,"distance":1436},{"station_name":"Rajawali","is_transit":false,"line":11,"station_id":"RJW","transit":false,"distance":1901,"i_lat":-6.14505,"time":5,"i_long":106.836569},{"i_lat":-6.132549,"i_long":106.826365,"time":3,"station_id":"KPB","station_name":"Kampung Bandan","is_transit":true,"distance":1444,"line":4,"transit":true},{"station_id":"AK","transit":false,"is_transit":false,"i_lat":-6.144674,"distance":4102,"i_long":106.79867,"time":9,"line":1,"station_name":"Angke"},{"station_name":"Duri","station_id":"DU","i_lat":-6.155215,"is_transit":false,"distance":1230,"transit":false,"time":4,"i_long":106.800832,"line":1},{"is_transit":false,"time":8,"distance":3632,"i_long":106.811091,"transit":false,"station_name":"Tanah Abang","line":1,"station_id":"THB","i_lat":-6.185545},{"transit":false,"distance":2029,"station_id":"KAT","station_name":"Karet","i_lat":-6.20132,"is_transit":false,"time":5,"line":1,"i_long":106.816351}],[{"distance":0,"is_transit":false,"line":2,"station_id":"GDD","station_name":"Gondangdia","time":0,"i_lat":-6.186295,"i_long":106.832183,"transit":false},{"station_name":"Juanda","i_long":106.828284,"line":2,"is_transit":false,"station_id":"JUA","i_lat":-6.166716,"time":4,"transit":false,"distance":2015},{"time":2,"is_transit":false,"i_lat":-6.160725,"line":2,"distance":1149,"i_long":106.827103,"transit":false,"station_name":"Sawah Besar","station_id":"SW"},{"is_transit":false,"station_id":"MGB","station_name":"Manggabesar","i_long":106.82482,"transit":false,"i_lat":-6.149769,"time":2,"line":2,"distance":906},{"i_long":106.820901,"time":2,"station_name":"Jayakarta","distance":1080,"line":2,"station_id":"JAY","is_transit":false,"transit":false,"i_lat":-6.141205},{"station_name":"Jakarta Kota","line":2,"transit":true,"i_long":106.812439,"distance":1264,"i_lat":-6.137569,"is_transit":true,"station_id":"JAKK","time":4},{"i_lat":-6.132549,"time":3,"station_name":"Kampung Bandan","transit":true,"station_id":"KPB","is_transit":true,"distance":1364,"line":4,"i_long":106.826365},{"station_id":"RJW","line":11,"is_transit":false,"time":3,"i_long":106.836569,"i_lat":-6.14505,"transit":false,"station_name":"Rajawali","distance":1444},{"is_transit":false,"distance":1901,"station_name":"Kemayoran","i_long":106.839204,"transit":false,"i_lat":-6.161728,"line":11,"time":5,"station_id":"KMO"},{"transit":false,"station_id":"PSE","line":11,"distance":1436,"time":4,"station_name":"Pasar Senen","is_transit":false,"i_lat":-6.174784,"i_long":106.84368},{"time":8,"is_transit":false,"station_name":"Gang Sentiong","station_id":"GST","transit":false,"line":11,"distance":1567,"i_lat":-6.185975,"i_long":106.850107},{"distance":973,"transit":false,"station_name":"Kramat","station_id":"KMT","i_lat":-6.193792,"i_long":106.855437,"line":11,"time":1,"is_transit":false},{"station_id":"POK","is_transit":false,"distance":1829,"i_lat":-6.209188,"i_long":106.861737,"line":11,"station_name":"Pondok Jati","time":2,"transit":false},{"is_transit":true,"i_lat":-6.215091,"i_long":106.86807400000001,"time":9,"line":1,"distance":1236,"station_name":"Jatinegara","transit":true,"station_id":"JNG"},{"distance":1377,"station_id":"MTR","station_name":"Matraman","time":2,"i_long":106.858896,"transit":false,"is_transit":false,"i_lat":-6.212485,"line":1},{"i_lat":-6.209883,"time":2,"i_long":106.84912,"is_transit":false,"station_name":"Manggarai","transit":false,"station_id":"MRI","distance":1275,"line":2},{"time":4,"i_lat":-6.202263,"distance":3186,"i_long":106.822649,"transit":false,"line":1,"station_id":"SUD","station_name":"Sudirman","is_transit":false},{"i_lat":-6.201433,"station_name":"Sudirman Baru","distance":280,"time":1,"i_long":106.819881,"line":1,"station_id":"SUDB","transit":false,"is_transit":false},{"is_transit":false,"station_id":"KAT","station_name":"Karet","i_long":106.816351,"line":1,"distance":471,"transit":false,"time":1,"i_lat":-6.20132}]]}