{"data":[[{"i_lat":-6.186295,"station_id":"GDD","transit":false,"station_name":"Gondangdia","i_long":106.832183,"time":0,"is_transit":false,"line":2,"distance":0},{"is_transit":false,"i_lat":-6.198556,"station_name":"Cikini","line":2,"i_long":106.840169,"transit":false,"station_id":"CKI","time":3,"distance":1750},{"transit":false,"station_name":"Manggarai","station_id":"MRI","line":2,"distance":1590,"time":4,"is_transit":false,"i_long":106.84912,"i_lat":-6.209883},{"i_lat":-6.226659,"i_long":106.857948,"distance":2610,"is_transit":false,"station_name":"Tebet","line":2,"transit":false,"station_id":"TEB","time":4},{"distance":1230,"station_id":"CW","transit":false,"line":2,"i_lat":-6.242512,"is_transit":false,"time":2,"i_long":106.856607,"station_name":"Cawang"},{"is_transit":false,"i_lat":-6.255332,"station_id":"DRN","station_name":"Duren Kalibata","transit":false,"time":3,"line":2,"distance":1546,"i_long":106.85449},{"line":2,"is_transit":false,"transit":false,"station_name":"Pasar Minggu Baru","station_id":"PSMB","time":2,"distance":824,"i_lat":-6.263214,"i_long":106.851577},{"transit":false,"i_long":106.843999,"line":2,"time":2,"is_transit":false,"distance":2380,"station_id":"PSM","i_lat":-6.2842400000000005,"station_name":"Pasar Minggu"},{"line":2,"distance":2820,"transit":false,"i_lat":-6.3080680000000005,"station_name":"Tanjung Barat","station_id":"TNT","time":4,"is_transit":false,"i_long":106.838896},{"i_long":106.832616,"distance":2671,"transit":false,"station_name":"Lenteng Agung","time":3,"is_transit":false,"line":2,"station_id":"LNA","i_lat":-6.330363},{"is_transit":false,"station_id":"UP","station_name":"Univ. Pancasila","time":2,"distance":1029,"line":2,"i_lat":-6.339291,"transit":false,"i_long":106.834175},{"distance":2264,"station_name":"Univ. Indonesia","i_long":106.831474,"is_transit":false,"line":2,"i_lat":-6.360749,"transit":false,"time":3,"station_id":"UI"},{"i_lat":-6.369073,"distance":1109,"is_transit":false,"time":2,"station_id":"POC","station_name":"Pondok Cina","i_long":106.831114,"transit":false,"line":2},{"i_lat":-6.391065,"is_transit":false,"station_id":"DPB","i_long":106.819451,"station_name":"Depokbaru","distance":2727,"time":4,"transit":false,"line":2},{"line":2,"time":3,"distance":1584,"transit":false,"i_long":106.816926,"is_transit":false,"station_id":"DP","station_name":"Depok","i_lat":-6.405256},{"time":6,"station_name":"Citayam","line":2,"i_long":106.800298,"distance":5084,"is_transit":false,"station_id":"CTA","transit":false,"i_lat":-6.448811},{"station_id":"BJD","transit":false,"i_long":106.792719,"i_lat":-6.493243,"is_transit":false,"station_name":"Bojonggede","line":2,"time":5,"distance":5197},{"time":5,"station_name":"Cilebut","station_id":"CLT","distance":4331,"i_lat":-6.530544,"line":2,"is_transit":false,"transit":false,"i_long":106.800016}],[{"is_transit":false,"line":2,"i_long":106.832183,"station_name":"Gondangdia","distance":0,"i_lat":-6.186295,"time":0,"transit":false,"station_id":"GDD"},{"line":2,"time":4,"is_transit":false,"station_id":"JUA","transit":false,"station_name":"Juanda","i_long":106.828284,"distance":2015,"i_lat":-6.166716},{"distance":1149,"station_name":"Sawah Besar","line":2,"station_id":"SW","transit":false,"i_lat":-6.160725,"is_transit":false,"i_long":106.827103,"time":2},{"i_long":106.82482,"station_name":"Manggabesar","transit":false,"i_lat":-6.149769,"station_id":"MGB","time":2,"distance":906,"line":2,"is_transit":false},{"i_long":106.820901,"station_id":"JAY","transit":false,"distance":1080,"line":2,"is_transit":false,"time":2,"station_name":"Jayakarta","i_lat":-6.141205},{"i_long":106.812439,"transit":true,"line":2,"station_id":"JAKK","is_transit":true,"station_name":"Jakarta Kota","i_lat":-6.137569,"distance":1264,"time":4},{"transit":true,"i_lat":-6.132549,"i_long":106.826365,"time":3,"distance":1364,"station_id":"KPB","station_name":"Kampung Bandan","is_transit":true,"line":4},{"station_name":"Angke","distance":4102,"i_lat":-6.144674,"is_transit":false,"station_id":"AK","line":1,"time":9,"transit":false,"i_long":106.79867},{"distance":1230,"transit":false,"i_lat":-6.155215,"station_name":"Duri","time":4,"line":1,"i_long":106.800832,"station_id":"DU","is_transit":false},{"line":1,"transit":false,"station_name":"Tanah Abang","i_long":106.811091,"time":8,"station_id":"THB","i_lat":-6.185545,"distance":3632,"is_transit":false},{"time":5,"transit":false,"i_lat":-6.20132,"station_id":"KAT","station_name":"Karet","i_long":106.816351,"distance":2029,"is_transit":false,"line":1},{"time":1,"distance":471,"transit":false,"station_name":"Sudirman Baru","i_long":106.819881,"station_id":"SUDB","is_transit":false,"i_lat":-6.201433,"line":1},{"distance":280,"transit":false,"station_name":"Sudirman","i_lat":-6.202263,"is_transit":false,"time":1,"station_id":"SUD","line":1,"i_long":106.822649},{"station_name":"Manggarai","i_lat":-6.209883,"i_long":106.84912,"distance":3186,"line":2,"station_id":"MRI","is_transit":true,"transit":true,"time":4},{"transit":false,"i_lat":-6.226659,"time":4,"station_name":"Tebet","line":2,"is_transit":false,"station_id":"TEB","i_long":106.857948,"distance":2610},{"distance":1230,"i_lat":-6.242512,"station_id":"CW","transit":false,"is_transit":false,"line":2,"station_name":"Cawang","time":2,"i_long":106.856607},{"line":2,"transit":false,"station_name":"Duren Kalibata","i_long":106.85449,"time":3,"distance":1546,"station_id":"DRN","i_lat":-6.255332,"is_transit":false},{"time":2,"distance":824,"station_name":"Pasar Minggu Baru","is_transit":false,"i_long":106.851577,"transit":false,"station_id":"PSMB","line":2,"i_lat":-6.263214},{"is_transit":false,"station_id":"PSM","transit":false,"time":2,"line":2,"i_long":106.843999,"i_lat":-6.2842400000000005,"station_name":"Pasar Minggu","distance":2380},{"station_name":"Tanjung Barat","line":2,"transit":false,"i_lat":-6.3080680000000005,"is_transit":false,"station_id":"TNT","time":4,"distance":2820,"i_long":106.838896},{"time":3,"transit":false,"i_lat":-6.330363,"station_id":"LNA","i_long":106.832616,"line":2,"station_name":"Lenteng Agung","is_transit":false,"distance":2671},{"transit":false,"is_transit":false,"station_id":"UP","distance":1029,"time":2,"line":2,"i_lat":-6.339291,"i_long":106.834175,"station_name":"Univ. Pancasila"},{"time":3,"distance":2264,"station_name":"Univ. Indonesia","line":2,"station_id":"UI","i_lat":-6.360749,"i_long":106.831474,"transit":false,"is_transit":false},{"station_id":"POC","i_long":106.831114,"distance":1109,"time":2,"station_name":"Pondok Cina","transit":false,"line":2,"i_lat":-6.369073,"is_transit":false},{"distance":2727,"i_lat":-6.391065,"station_id":"DPB","i_long":106.819451,"line":2,"time":4,"is_transit":false,"transit":false,"station_name":"Depokbaru"},{"distance":1584,"station_name":"Depok","i_lat":-6.405256,"i_long":106.816926,"line":2,"time":3,"is_transit":false,"transit":false,"station_id":"DP"},{"is_transit":false,"i_long":106.800298,"transit":false,"distance":5084,"line":2,"station_id":"CTA","station_name":"Citayam","time":6,"i_lat":-6.448811},{"i_lat":-6.493243,"distance":5197,"station_id":"BJD","station_name":"Bojonggede","i_long":106.792719,"is_transit":false,"transit":false,"time":5,"line":2},{"i_lat":-6.530544,"distance":4331,"i_long":106.800016,"line":2,"transit":false,"station_name":"Cilebut","time":5,"station_id":"CLT","is_transit":false}],[{"is_transit":false,"i_lat":-6.186295,"transit":false,"time":0,"i_long":106.832183,"line":2,"distance":0,"station_name":"Gondangdia","station_id":"GDD"},{"time":4,"i_lat":-6.166716,"distance":2015,"line":2,"transit":false,"is_transit":false,"station_name":"Juanda","i_long":106.828284,"station_id":"JUA"},{"station_name":"Sawah Besar","is_transit":false,"transit":false,"distance":1149,"station_id":"SW","i_lat":-6.160725,"time":2,"i_long":106.827103,"line":2},{"time":2,"distance":906,"station_name":"Manggabesar","transit":false,"i_long":106.82482,"i_lat":-6.149769,"station_id":"MGB","line":2,"is_transit":false},{"transit":false,"station_name":"Jayakarta","line":2,"time":2,"i_long":106.820901,"i_lat":-6.141205,"distance":1080,"station_id":"JAY","is_transit":false},{"time":4,"station_id":"JAKK","distance":1264,"is_transit":true,"transit":true,"i_lat":-6.137569,"i_long":106.812439,"station_name":"Jakarta Kota","line":2},{"line":4,"i_lat":-6.132549,"station_name":"Kampung Bandan","transit":true,"station_id":"KPB","i_long":106.826365,"distance":1364,"is_transit":true,"time":3},{"is_transit":false,"time":3,"station_name":"Rajawali","line":11,"station_id":"RJW","i_long":106.836569,"i_lat":-6.14505,"transit":false,"distance":1444},{"i_long":106.839204,"time":5,"distance":1901,"is_transit":false,"station_id":"KMO","transit":false,"station_name":"Kemayoran","i_lat":-6.161728,"line":11},{"time":4,"transit":false,"i_long":106.84368,"line":11,"is_transit":false,"station_id":"PSE","i_lat":-6.174784,"distance":1436,"station_name":"Pasar Senen"},{"time":8,"distance":1567,"i_lat":-6.185975,"line":11,"station_name":"Gang Sentiong","i_long":106.850107,"transit":false,"is_transit":false,"station_id":"GST"},{"transit":false,"i_long":106.855437,"line":11,"i_lat":-6.193792,"station_name":"Kramat","distance":973,"is_transit":false,"time":1,"station_id":"KMT"},{"i_lat":-6.209188,"i_long":106.861737,"line":11,"station_id":"POK","time":2,"transit":false,"station_name":"Pondok Jati","is_transit":false,"distance":1829},{"station_id":"JNG","line":1,"time":9,"transit":true,"i_lat":-6.215091,"station_name":"Jatinegara","is_transit":true,"i_long":106.86807400000001,"distance":1236},{"is_transit":false,"station_name":"Matraman","time":2,"distance":1377,"station_id":"MTR","transit":false,"i_lat":-6.212485,"line":1,"i_long":106.858896},{"line":2,"station_name":"Manggarai","i_lat":-6.209883,"transit":true,"station_id":"MRI","is_transit":true,"i_long":106.84912,"time":2,"distance":1275},{"station_id":"TEB","time":4,"station_name":"Tebet","i_lat":-6.226659,"transit":false,"distance":2610,"i_long":106.857948,"is_transit":false,"line":2},{"time":2,"i_long":106.856607,"distance":1230,"station_name":"Cawang","station_id":"CW","transit":false,"i_lat":-6.242512,"is_transit":false,"line":2},{"time":3,"i_long":106.85449,"station_id":"DRN","is_transit":false,"i_lat":-6.255332,"distance":1546,"line":2,"station_name":"Duren Kalibata","transit":false},{"time":2,"station_name":"Pasar Minggu Baru","is_transit":false,"i_long":106.851577,"i_lat":-6.263214,"line":2,"station_id":"PSMB","distance":824,"transit":false},{"is_transit":false,"station_id":"PSM","transit":false,"i_lat":-6.2842400000000005,"station_name":"Pasar Minggu","line":2,"distance":2380,"i_long":106.843999,"time":2},{"line":2,"time":4,"distance":2820,"is_transit":false,"i_lat":-6.3080680000000005,"station_id":"TNT","transit":false,"station_name":"Tanjung Barat","i_long":106.838896},{"i_long":106.832616,"station_id":"LNA","i_lat":-6.330363,"line":2,"distance":2671,"transit":false,"time":3,"station_name":"Lenteng Agung","is_transit":false},{"is_transit":false,"i_lat":-6.339291,"i_long":106.834175,"transit":false,"station_name":"Univ. Pancasila","station_id":"UP","distance":1029,"time":2,"line":2},{"transit":false,"time":3,"station_id":"UI","i_long":106.831474,"station_name":"Univ. Indonesia","i_lat":-6.360749,"line":2,"distance":2264,"is_transit":false},{"is_transit":false,"time":2,"station_id":"POC","distance":1109,"station_name":"Pondok Cina","i_long":106.831114,"i_lat":-6.369073,"line":2,"transit":false},{"transit":false,"is_transit":false,"i_lat":-6.391065,"distance":2727,"time":4,"i_long":106.819451,"station_id":"DPB","line":2,"station_name":"Depokbaru"},{"i_long":106.816926,"is_transit":false,"line":2,"station_name":"Depok","time":3,"distance":1584,"transit":false,"station_id":"DP","i_lat":-6.405256},{"i_long":106.800298,"transit":false,"line":2,"distance":5084,"is_transit":false,"i_lat":-6.448811,"station_id":"CTA","station_name":"Citayam","time":6},{"transit":false,"time":5,"is_transit":false,"line":2,"station_name":"Bojonggede","i_long":106.792719,"distance":5197,"station_id":"BJD","i_lat":-6.493243},{"i_long":106.800016,"distance":4331,"is_transit":false,"line":2,"time":5,"transit":false,"station_name":"Cilebut","i_lat":-6.530544,"station_id":"CLT"}]]}