{"data":[[{"distance":0,"line":2,"transit":false,"station_name":"Gondangdia","station_id":"GDD","time":0,"i_lat":-6.186295,"i_long":106.832183,"is_transit":false},{"line":2,"time":3,"transit":false,"station_name":"Cikini","distance":1750,"i_long":106.840169,"is_transit":false,"station_id":"CKI","i_lat":-6.198556},{"i_lat":-6.209883,"time":4,"is_transit":true,"i_long":106.84912,"line":2,"transit":true,"distance":1590,"station_id":"MRI","station_name":"Manggarai"},{"transit":false,"is_transit":false,"time":4,"line":1,"i_lat":-6.202263,"station_id":"SUD","distance":3186,"station_name":"Sudirman","i_long":106.822649},{"station_name":"Sudirman Baru","station_id":"SUDB","is_transit":false,"distance":280,"i_lat":-6.201433,"line":1,"i_long":106.819881,"time":1,"transit":false},{"is_transit":false,"station_name":"Karet","station_id":"KAT","i_lat":-6.20132,"i_long":106.816351,"transit":false,"distance":471,"time":1,"line":1},{"station_id":"THB","time":5,"distance":2029,"station_name":"Tanah Abang","is_transit":false,"i_lat":-6.185545,"transit":false,"line":1,"i_long":106.811091}],[{"time":0,"station_name":"Gondangdia","i_long":106.832183,"distance":0,"transit":false,"i_lat":-6.186295,"is_transit":false,"line":2,"station_id":"GDD"},{"station_name":"Juanda","i_long":106.828284,"is_transit":false,"time":4,"line":2,"distance":2015,"station_id":"JUA","transit":false,"i_lat":-6.166716},{"distance":1149,"station_id":"SW","station_name":"Sawah Besar","i_long":106.827103,"line":2,"time":2,"i_lat":-6.160725,"is_transit":false,"transit":false},{"station_id":"MGB","distance":906,"i_long":106.82482,"line":2,"is_transit":false,"station_name":"Manggabesar","time":2,"i_lat":-6.149769,"transit":false},{"line":2,"distance":1080,"time":2,"is_transit":false,"i_long":106.820901,"transit":false,"station_name":"Jayakarta","station_id":"JAY","i_lat":-6.141205},{"line":2,"i_lat":-6.137569,"i_long":106.812439,"station_id":"JAKK","distance":1264,"station_name":"Jakarta Kota","transit":true,"time":4,"is_transit":true},{"station_id":"KPB","time":3,"is_transit":true,"distance":1364,"transit":true,"i_lat":-6.132549,"station_name":"Kampung Bandan","line":4,"i_long":106.826365},{"transit":false,"station_name":"Angke","distance":4102,"i_long":106.79867,"time":9,"station_id":"AK","line":1,"is_transit":false,"i_lat":-6.144674},{"time":4,"i_long":106.800832,"line":1,"transit":false,"distance":1230,"station_id":"DU","station_name":"Duri","is_transit":false,"i_lat":-6.155215},{"station_id":"THB","i_long":106.811091,"line":1,"station_name":"Tanah Abang","time":8,"transit":false,"is_transit":false,"distance":3632,"i_lat":-6.185545}],[{"time":0,"station_name":"Gondangdia","distance":0,"line":2,"is_transit":false,"i_lat":-6.186295,"i_long":106.832183,"transit":false,"station_id":"GDD"},{"is_transit":false,"station_id":"CKI","transit":false,"distance":1750,"i_lat":-6.198556,"time":3,"station_name":"Cikini","line":2,"i_long":106.840169},{"time":4,"station_id":"MRI","transit":true,"station_name":"Manggarai","is_transit":true,"distance":1590,"i_lat":-6.209883,"line":2,"i_long":106.84912},{"station_id":"MTR","i_long":106.858896,"station_name":"Matraman","line":1,"time":2,"is_transit":false,"transit":false,"i_lat":-6.212485,"distance":1275},{"distance":1377,"station_name":"Jatinegara","i_long":106.86807400000001,"transit":true,"line":1,"time":8,"station_id":"JNG","i_lat":-6.215091,"is_transit":true},{"line":11,"station_name":"Pondok Jati","is_transit":false,"transit":false,"time":2,"i_long":106.861737,"i_lat":-6.209188,"distance":1236,"station_id":"POK"},{"distance":1829,"i_lat":-6.193792,"i_long":106.855437,"line":11,"station_id":"KMT","station_name":"Kramat","is_transit":false,"transit":false,"time":2},{"distance":973,"transit":false,"line":11,"is_transit":false,"i_long":106.850107,"i_lat":-6.185975,"station_name":"Gang Sentiong","station_id":"GST","time":1},{"distance":1567,"i_lat":-6.174784,"transit":false,"i_long":106.84368,"time":8,"is_transit":false,"station_id":"PSE","station_name":"Pasar Senen","line":11},{"distance":1436,"line":11,"is_transit":false,"transit":false,"i_long":106.839204,"time":4,"i_lat":-6.161728,"station_id":"KMO","station_name":"Kemayoran"},{"line":11,"station_id":"RJW","time":5,"transit":false,"is_transit":false,"station_name":"Rajawali","distance":1901,"i_lat":-6.14505,"i_long":106.836569},{"station_name":"Kampung Bandan","line":4,"station_id":"KPB","time":3,"is_transit":true,"distance":1444,"i_lat":-6.132549,"i_long":106.826365,"transit":true},{"station_name":"Angke","i_long":106.79867,"distance":4102,"transit":false,"i_lat":-6.144674,"time":9,"line":1,"station_id":"AK","is_transit":false},{"i_lat":-6.155215,"is_transit":false,"i_long":106.800832,"transit":false,"station_id":"DU","time":4,"distance":1230,"line":1,"station_name":"Duri"},{"i_long":106.811091,"station_id":"THB","transit":false,"station_name":"Tanah Abang","i_lat":-6.185545,"time":8,"distance":3632,"is_transit":false,"line":1}],[{"i_lat":-6.186295,"i_long":106.832183,"time":0,"transit":false,"station_name":"Gondangdia","station_id":"GDD","line":2,"is_transit":false,"distance":0},{"line":2,"i_long":106.828284,"distance":2015,"time":4,"transit":false,"station_name":"Juanda","is_transit":false,"i_lat":-6.166716,"station_id":"JUA"},{"time":2,"is_transit":false,"station_name":"Sawah Besar","line":2,"distance":1149,"station_id":"SW","i_lat":-6.160725,"i_long":106.827103,"transit":false},{"line":2,"transit":false,"i_lat":-6.149769,"distance":906,"is_transit":false,"time":2,"station_id":"MGB","station_name":"Manggabesar","i_long":106.82482},{"distance":1080,"i_lat":-6.141205,"station_name":"Jayakarta","line":2,"transit":false,"is_transit":false,"station_id":"JAY","i_long":106.820901,"time":2},{"i_lat":-6.137569,"station_name":"Jakarta Kota","station_id":"JAKK","is_transit":true,"distance":1264,"time":4,"i_long":106.812439,"line":2,"transit":true},{"is_transit":true,"distance":1364,"line":4,"time":3,"station_id":"KPB","transit":true,"station_name":"Kampung Bandan","i_lat":-6.132549,"i_long":106.826365},{"line":11,"station_id":"RJW","distance":1444,"transit":false,"station_name":"Rajawali","i_long":106.836569,"is_transit":false,"i_lat":-6.14505,"time":3},{"distance":1901,"station_name":"Kemayoran","is_transit":false,"i_lat":-6.161728,"i_long":106.839204,"line":11,"transit":false,"station_id":"KMO","time":5},{"transit":false,"line":11,"distance":1436,"station_id":"PSE","is_transit":false,"i_lat":-6.174784,"i_long":106.84368,"time":4,"station_name":"Pasar Senen"},{"station_name":"Gang Sentiong","line":11,"is_transit":false,"i_long":106.850107,"time":8,"station_id":"GST","i_lat":-6.185975,"transit":false,"distance":1567},{"i_lat":-6.193792,"time":1,"distance":973,"station_name":"Kramat","transit":false,"station_id":"KMT","line":11,"i_long":106.855437,"is_transit":false},{"transit":false,"i_lat":-6.209188,"i_long":106.861737,"distance":1829,"line":11,"station_id":"POK","time":2,"station_name":"Pondok Jati","is_transit":false},{"station_id":"JNG","distance":1236,"is_transit":true,"station_name":"Jatinegara","i_long":106.86807400000001,"transit":true,"time":9,"i_lat":-6.215091,"line":1},{"distance":1377,"i_lat":-6.212485,"station_id":"MTR","transit":false,"time":2,"line":1,"i_long":106.858896,"station_name":"Matraman","is_transit":false},{"transit":false,"distance":1275,"i_lat":-6.209883,"i_long":106.84912,"line":2,"station_name":"Manggarai","station_id":"MRI","time":2,"is_transit":false},{"station_name":"Sudirman","is_transit":false,"station_id":"SUD","time":4,"distance":3186,"i_lat":-6.202263,"transit":false,"i_long":106.822649,"line":1},{"i_lat":-6.201433,"transit":false,"time":1,"station_id":"SUDB","i_long":106.819881,"line":1,"distance":280,"station_name":"Sudirman Baru","is_transit":false},{"station_name":"Karet","i_lat":-6.20132,"line":1,"time":1,"is_transit":false,"distance":471,"i_long":106.816351,"station_id":"KAT","transit":false},{"time":5,"station_name":"Tanah Abang","station_id":"THB","i_long":106.811091,"line":1,"is_transit":false,"distance":2029,"transit":false,"i_lat":-6.185545}]]}