{"data":[[{"station_id":"GDD","station_name":"Gondangdia","distance":0,"i_long":106.832183,"time":0,"is_transit":false,"line":2,"i_lat":-6.186295,"transit":false},{"transit":false,"distance":1750,"station_id":"CKI","station_name":"Cikini","i_lat":-6.198556,"time":3,"is_transit":false,"i_long":106.840169,"line":0},{"station_name":"Manggarai","time":4,"distance":1590,"station_id":"MRI","i_long":106.84912,"line":0,"transit":true,"i_lat":-6.209883,"is_transit":true},{"i_long":106.822649,"transit":false,"i_lat":-6.202263,"is_transit":false,"station_id":"SUD","distance":3186,"station_name":"Sudirman","line":1,"time":4},{"distance":280,"station_name":"Sudirman Baru","transit":false,"is_transit":false,"line":1,"time":1,"station_id":"SUDB","i_lat":-6.201433,"i_long":106.819881},{"time":1,"is_transit":false,"distance":471,"station_id":"KAT","i_lat":-6.20132,"station_name":"Karet","transit":false,"i_long":106.816351,"line":1}],[{"time":0,"distance":0,"line":2,"is_transit":false,"i_long":106.832183,"station_id":"GDD","station_name":"Gondangdia","transit":false,"i_lat":-6.186295},{"station_name":"Juanda","i_lat":-6.166716,"i_long":106.828284,"is_transit":false,"station_id":"JUA","line":2,"distance":2015,"time":4,"transit":false},{"transit":false,"line":2,"station_id":"SW","i_long":106.827103,"i_lat":-6.160725,"distance":1149,"station_name":"Sawah Besar","time":2,"is_transit":false},{"station_id":"MGB","i_long":106.82482,"line":2,"is_transit":false,"distance":906,"transit":false,"station_name":"Manggabesar","time":2,"i_lat":-6.149769},{"transit":false,"i_long":106.820901,"i_lat":-6.141205,"time":2,"station_id":"JAY","line":7,"distance":1080,"is_transit":false,"station_name":"Jayakarta"},{"is_transit":true,"transit":true,"i_long":106.812439,"i_lat":-6.137569,"station_id":"JAKK","station_name":"Jakarta Kota","time":4,"distance":1264,"line":0},{"transit":false,"time":3,"is_transit":true,"i_lat":-6.132549,"i_long":106.826365,"distance":1364,"station_name":"Kampung Bandan","line":0,"station_id":"KPB"},{"distance":4102,"time":9,"transit":false,"i_long":106.79867,"i_lat":-6.144674,"station_name":"Angke","station_id":"AK","is_transit":false,"line":0},{"is_transit":true,"i_long":106.800832,"i_lat":-6.155215,"distance":1230,"transit":true,"time":4,"station_id":"DU","station_name":"Duri","line":1},{"time":8,"i_long":106.811091,"station_name":"Tanah Abang","station_id":"THB","line":1,"transit":false,"distance":3632,"is_transit":true,"i_lat":-6.185545},{"station_id":"KAT","i_long":106.816351,"station_name":"Karet","i_lat":-6.20132,"is_transit":false,"time":5,"transit":false,"line":1,"distance":2029}],[{"station_id":"GDD","i_lat":-6.186295,"line":2,"i_long":106.832183,"time":0,"transit":false,"distance":0,"is_transit":false,"station_name":"Gondangdia"},{"station_name":"Cikini","i_long":106.840169,"transit":false,"distance":1750,"line":0,"is_transit":false,"station_id":"CKI","i_lat":-6.198556,"time":3},{"time":4,"line":0,"transit":true,"i_long":106.84912,"i_lat":-6.209883,"distance":1590,"is_transit":true,"station_id":"MRI","station_name":"Manggarai"},{"i_lat":-6.212485,"line":1,"station_id":"MTR","is_transit":false,"transit":false,"time":2,"distance":1275,"station_name":"Matraman","i_long":106.858896},{"transit":true,"is_transit":true,"i_long":106.86807400000001,"station_name":"Jatinegara","time":8,"station_id":"JNG","i_lat":-6.215091,"distance":1377,"line":0},{"station_id":"POK","distance":1236,"line":11,"station_name":"Pondok Jati","i_long":106.861737,"time":2,"i_lat":-6.209188,"is_transit":false,"transit":false},{"station_name":"Kramat","line":11,"station_id":"KMT","time":2,"i_lat":-6.193792,"distance":1829,"is_transit":false,"i_long":106.855437,"transit":false},{"transit":false,"is_transit":false,"station_name":"Gang Sentiong","i_lat":-6.185975,"i_long":106.850107,"time":1,"distance":973,"station_id":"GST","line":11},{"is_transit":false,"distance":1567,"station_id":"PSE","station_name":"Pasar Senen","i_lat":-6.174784,"i_long":106.84368,"line":11,"time":8,"transit":false},{"is_transit":false,"i_long":106.839204,"line":11,"station_id":"KMO","distance":1436,"i_lat":-6.161728,"time":4,"transit":false,"station_name":"Kemayoran"},{"is_transit":false,"i_long":106.836569,"station_id":"RJW","line":11,"distance":1901,"i_lat":-6.14505,"time":5,"station_name":"Rajawali","transit":false},{"transit":true,"station_id":"KPB","time":3,"line":0,"is_transit":true,"i_long":106.826365,"distance":1444,"station_name":"Kampung Bandan","i_lat":-6.132549},{"i_lat":-6.144674,"time":9,"is_transit":false,"transit":false,"station_id":"AK","i_long":106.79867,"station_name":"Angke","line":0,"distance":4102},{"line":1,"is_transit":true,"distance":1230,"i_lat":-6.155215,"station_id":"DU","time":4,"transit":true,"station_name":"Duri","i_long":106.800832},{"time":8,"i_lat":-6.185545,"i_long":106.811091,"line":1,"station_id":"THB","transit":false,"station_name":"Tanah Abang","distance":3632,"is_transit":true},{"station_id":"KAT","time":5,"transit":false,"station_name":"Karet","i_lat":-6.20132,"is_transit":false,"line":1,"i_long":106.816351,"distance":2029}],[{"i_lat":-6.186295,"line":2,"station_id":"GDD","time":0,"station_name":"Gondangdia","i_long":106.832183,"distance":0,"is_transit":false,"transit":false},{"transit":false,"station_name":"Juanda","i_long":106.828284,"distance":2015,"i_lat":-6.166716,"line":2,"time":4,"is_transit":false,"station_id":"JUA"},{"i_long":106.827103,"transit":false,"time":2,"i_lat":-6.160725,"station_id":"SW","distance":1149,"station_name":"Sawah Besar","line":2,"is_transit":false},{"i_long":106.82482,"transit":false,"station_name":"Manggabesar","is_transit":false,"station_id":"MGB","i_lat":-6.149769,"distance":906,"line":2,"time":2},{"is_transit":false,"transit":false,"station_id":"JAY","time":2,"i_lat":-6.141205,"station_name":"Jayakarta","line":7,"i_long":106.820901,"distance":1080},{"transit":true,"distance":1264,"is_transit":true,"station_id":"JAKK","i_lat":-6.137569,"line":0,"station_name":"Jakarta Kota","i_long":106.812439,"time":4},{"is_transit":true,"station_name":"Kampung Bandan","i_lat":-6.132549,"station_id":"KPB","i_long":106.826365,"distance":1364,"line":0,"time":3,"transit":true},{"station_name":"Rajawali","line":11,"i_long":106.836569,"time":3,"is_transit":false,"station_id":"RJW","transit":false,"distance":1444,"i_lat":-6.14505},{"i_lat":-6.161728,"station_id":"KMO","i_long":106.839204,"is_transit":false,"station_name":"Kemayoran","line":11,"distance":1901,"time":5,"transit":false},{"station_name":"Pasar Senen","i_lat":-6.174784,"station_id":"PSE","i_long":106.84368,"transit":false,"line":11,"is_transit":false,"distance":1436,"time":4},{"distance":1567,"transit":false,"station_id":"GST","i_long":106.850107,"time":8,"is_transit":false,"station_name":"Gang Sentiong","i_lat":-6.185975,"line":11},{"i_lat":-6.193792,"is_transit":false,"time":1,"transit":false,"station_name":"Kramat","line":11,"distance":973,"i_long":106.855437,"station_id":"KMT"},{"is_transit":false,"line":11,"station_id":"POK","distance":1829,"i_lat":-6.209188,"transit":false,"station_name":"Pondok Jati","time":2,"i_long":106.861737},{"distance":1236,"is_transit":true,"transit":true,"station_id":"JNG","station_name":"Jatinegara","i_long":106.86807400000001,"i_lat":-6.215091,"line":0,"time":9},{"station_name":"Matraman","i_lat":-6.212485,"time":2,"i_long":106.858896,"is_transit":false,"transit":false,"line":1,"station_id":"MTR","distance":1377},{"line":0,"is_transit":true,"transit":false,"time":2,"station_id":"MRI","i_long":106.84912,"distance":1275,"station_name":"Manggarai","i_lat":-6.209883},{"station_name":"Sudirman","time":4,"i_lat":-6.202263,"i_long":106.822649,"station_id":"SUD","line":1,"is_transit":false,"transit":false,"distance":3186},{"i_lat":-6.201433,"station_id":"SUDB","distance":280,"station_name":"Sudirman Baru","i_long":106.819881,"is_transit":false,"line":1,"time":1,"transit":false},{"i_lat":-6.20132,"line":1,"i_long":106.816351,"time":1,"distance":471,"transit":false,"station_id":"KAT","station_name":"Karet","is_transit":false}]]}