{"data":[[{"distance":0,"station_id":"GDD","line":2,"station_name":"Gondangdia","is_transit":false,"i_lat":-6.186295,"transit":false,"time":0,"i_long":106.832183},{"is_transit":false,"time":3,"i_lat":-6.198556,"line":2,"station_id":"CKI","station_name":"Cikini","i_long":106.840169,"distance":1750,"transit":false},{"station_name":"Manggarai","is_transit":false,"station_id":"MRI","time":4,"i_long":106.84912,"distance":1590,"line":2,"i_lat":-6.209883,"transit":false}],[{"station_name":"Gondangdia","time":0,"is_transit":false,"distance":0,"i_lat":-6.186295,"i_long":106.832183,"transit":false,"line":2,"station_id":"GDD"},{"line":2,"i_long":106.828284,"is_transit":false,"distance":2015,"time":4,"i_lat":-6.166716,"transit":false,"station_name":"Juanda","station_id":"JUA"},{"line":2,"i_long":106.827103,"transit":false,"is_transit":false,"time":2,"distance":1149,"station_id":"SW","i_lat":-6.160725,"station_name":"Sawah Besar"},{"i_lat":-6.149769,"line":2,"distance":906,"station_name":"Manggabesar","time":2,"i_long":106.82482,"transit":false,"station_id":"MGB","is_transit":false},{"i_long":106.820901,"is_transit":false,"transit":false,"line":2,"station_id":"JAY","time":2,"i_lat":-6.141205,"station_name":"Jayakarta","distance":1080},{"station_name":"Jakarta Kota","line":2,"i_lat":-6.137569,"transit":true,"i_long":106.812439,"station_id":"JAKK","time":4,"distance":1264,"is_transit":true},{"transit":true,"distance":1364,"station_id":"KPB","i_lat":-6.132549,"time":3,"line":4,"station_name":"Kampung Bandan","is_transit":true,"i_long":106.826365},{"time":9,"i_long":106.79867,"line":1,"transit":false,"station_id":"AK","distance":4102,"station_name":"Angke","is_transit":false,"i_lat":-6.144674},{"line":1,"i_lat":-6.155215,"station_id":"DU","is_transit":false,"i_long":106.800832,"transit":false,"station_name":"Duri","time":4,"distance":1230},{"is_transit":false,"transit":false,"time":8,"i_lat":-6.185545,"i_long":106.811091,"line":1,"station_name":"Tanah Abang","station_id":"THB","distance":3632},{"station_id":"KAT","i_long":106.816351,"line":1,"is_transit":false,"time":5,"transit":false,"i_lat":-6.20132,"distance":2029,"station_name":"Karet"},{"i_lat":-6.201433,"distance":471,"is_transit":false,"line":1,"station_name":"Sudirman Baru","station_id":"SUDB","time":1,"i_long":106.819881,"transit":false},{"distance":280,"station_id":"SUD","line":1,"station_name":"Sudirman","is_transit":false,"i_lat":-6.202263,"i_long":106.822649,"time":1,"transit":false},{"is_transit":false,"station_name":"Manggarai","station_id":"MRI","i_lat":-6.209883,"transit":false,"time":4,"distance":3186,"i_long":106.84912,"line":2}],[{"i_long":106.832183,"line":2,"station_id":"GDD","time":0,"distance":0,"transit":false,"i_lat":-6.186295,"station_name":"Gondangdia","is_transit":false},{"transit":false,"i_long":106.828284,"is_transit":false,"distance":2015,"time":4,"line":2,"i_lat":-6.166716,"station_name":"Juanda","station_id":"JUA"},{"distance":1149,"line":2,"time":2,"is_transit":false,"station_name":"Sawah Besar","transit":false,"i_lat":-6.160725,"i_long":106.827103,"station_id":"SW"},{"i_long":106.82482,"line":2,"is_transit":false,"transit":false,"station_id":"MGB","time":2,"station_name":"Manggabesar","distance":906,"i_lat":-6.149769},{"time":2,"distance":1080,"i_lat":-6.141205,"station_id":"JAY","transit":false,"i_long":106.820901,"station_name":"Jayakarta","is_transit":false,"line":2},{"station_name":"Jakarta Kota","is_transit":true,"distance":1264,"time":4,"i_lat":-6.137569,"line":2,"transit":true,"station_id":"JAKK","i_long":106.812439},{"station_name":"Kampung Bandan","station_id":"KPB","transit":true,"time":3,"line":4,"i_lat":-6.132549,"distance":1364,"is_transit":true,"i_long":106.826365},{"station_name":"Rajawali","station_id":"RJW","line":11,"is_transit":false,"time":3,"distance":1444,"i_lat":-6.14505,"i_long":106.836569,"transit":false},{"transit":false,"station_id":"KMO","is_transit":false,"i_long":106.839204,"line":11,"station_name":"Kemayoran","time":5,"distance":1901,"i_lat":-6.161728},{"is_transit":false,"transit":false,"i_long":106.84368,"i_lat":-6.174784,"station_name":"Pasar Senen","station_id":"PSE","line":11,"distance":1436,"time":4},{"time":8,"station_name":"Gang Sentiong","i_long":106.850107,"line":11,"station_id":"GST","transit":false,"is_transit":false,"distance":1567,"i_lat":-6.185975},{"i_long":106.855437,"station_name":"Kramat","line":11,"is_transit":false,"station_id":"KMT","transit":false,"distance":973,"time":1,"i_lat":-6.193792},{"is_transit":false,"station_id":"POK","i_long":106.861737,"transit":false,"i_lat":-6.209188,"station_name":"Pondok Jati","time":2,"distance":1829,"line":11},{"transit":true,"distance":1236,"station_id":"JNG","is_transit":true,"i_lat":-6.215091,"i_long":106.86807400000001,"station_name":"Jatinegara","time":9,"line":1},{"station_id":"MTR","distance":1377,"i_long":106.858896,"line":1,"is_transit":false,"i_lat":-6.212485,"transit":false,"time":2,"station_name":"Matraman"},{"i_lat":-6.209883,"station_name":"Manggarai","distance":1275,"time":2,"i_long":106.84912,"line":2,"station_id":"MRI","transit":false,"is_transit":false}]]}