{"data":[[{"time":0,"i_lat":-6.186295,"station_name":"Gondangdia","transit":false,"station_id":"GDD","is_transit":false,"line":2,"i_long":106.832183,"distance":0},{"i_lat":-6.198556,"line":2,"station_id":"CKI","is_transit":false,"time":3,"i_long":106.840169,"station_name":"Cikini","distance":1750,"transit":false},{"station_id":"MRI","time":4,"is_transit":false,"line":2,"transit":false,"distance":1590,"i_lat":-6.209883,"station_name":"Manggarai","i_long":106.84912},{"station_name":"Tebet","is_transit":false,"station_id":"TEB","i_lat":-6.226659,"i_long":106.857948,"line":2,"distance":2610,"transit":false,"time":4},{"is_transit":false,"time":2,"distance":1230,"i_lat":-6.242512,"i_long":106.856607,"station_id":"CW","line":2,"transit":false,"station_name":"Cawang"},{"time":3,"distance":1546,"i_lat":-6.255332,"line":2,"station_name":"Duren Kalibata","station_id":"DRN","i_long":106.85449,"transit":false,"is_transit":false},{"line":2,"distance":824,"transit":false,"is_transit":false,"station_id":"PSMB","station_name":"Pasar Minggu Baru","time":2,"i_long":106.851577,"i_lat":-6.263214},{"distance":2380,"transit":false,"line":2,"station_name":"Pasar Minggu","is_transit":false,"time":2,"station_id":"PSM","i_lat":-6.2842400000000005,"i_long":106.843999},{"station_name":"Tanjung Barat","is_transit":false,"distance":2820,"i_lat":-6.3080680000000005,"line":2,"station_id":"TNT","time":4,"transit":false,"i_long":106.838896},{"time":3,"station_name":"Lenteng Agung","transit":false,"distance":2671,"i_lat":-6.330363,"line":2,"is_transit":false,"station_id":"LNA","i_long":106.832616},{"i_long":106.834175,"time":2,"distance":1029,"station_id":"UP","i_lat":-6.339291,"line":2,"station_name":"Univ. Pancasila","transit":false,"is_transit":false},{"time":3,"i_long":106.831474,"is_transit":false,"distance":2264,"i_lat":-6.360749,"line":2,"station_name":"Univ. Indonesia","station_id":"UI","transit":false},{"i_long":106.831114,"station_id":"POC","line":2,"is_transit":false,"distance":1109,"station_name":"Pondok Cina","i_lat":-6.369073,"transit":false,"time":2}],[{"distance":0,"i_long":106.832183,"line":2,"i_lat":-6.186295,"time":0,"station_name":"Gondangdia","station_id":"GDD","is_transit":false,"transit":false},{"transit":false,"station_id":"JUA","i_lat":-6.166716,"i_long":106.828284,"line":2,"time":4,"station_name":"Juanda","is_transit":false,"distance":2015},{"station_id":"SW","transit":false,"station_name":"Sawah Besar","time":2,"is_transit":false,"distance":1149,"i_lat":-6.160725,"i_long":106.827103,"line":2},{"station_name":"Manggabesar","line":2,"is_transit":false,"i_lat":-6.149769,"station_id":"MGB","distance":906,"i_long":106.82482,"transit":false,"time":2},{"time":2,"distance":1080,"i_long":106.820901,"transit":false,"station_name":"Jayakarta","line":2,"i_lat":-6.141205,"station_id":"JAY","is_transit":false},{"is_transit":true,"station_id":"JAKK","time":4,"transit":true,"station_name":"Jakarta Kota","distance":1264,"i_lat":-6.137569,"line":2,"i_long":106.812439},{"i_lat":-6.132549,"i_long":106.826365,"is_transit":true,"distance":1364,"transit":true,"line":4,"station_name":"Kampung Bandan","station_id":"KPB","time":3},{"is_transit":false,"station_name":"Angke","i_long":106.79867,"transit":false,"station_id":"AK","distance":4102,"i_lat":-6.144674,"line":1,"time":9},{"transit":false,"station_name":"Duri","distance":1230,"time":4,"station_id":"DU","i_lat":-6.155215,"i_long":106.800832,"line":1,"is_transit":false},{"station_id":"THB","distance":3632,"i_long":106.811091,"is_transit":false,"time":8,"transit":false,"station_name":"Tanah Abang","i_lat":-6.185545,"line":1},{"transit":false,"time":5,"distance":2029,"station_name":"Karet","line":1,"i_lat":-6.20132,"i_long":106.816351,"station_id":"KAT","is_transit":false},{"transit":false,"station_name":"Sudirman Baru","is_transit":false,"line":1,"distance":471,"station_id":"SUDB","i_long":106.819881,"time":1,"i_lat":-6.201433},{"line":1,"time":1,"transit":false,"i_lat":-6.202263,"i_long":106.822649,"station_id":"SUD","is_transit":false,"distance":280,"station_name":"Sudirman"},{"line":2,"transit":true,"station_name":"Manggarai","i_lat":-6.209883,"i_long":106.84912,"station_id":"MRI","time":4,"distance":3186,"is_transit":true},{"i_lat":-6.226659,"station_id":"TEB","i_long":106.857948,"station_name":"Tebet","is_transit":false,"line":2,"distance":2610,"time":4,"transit":false},{"i_long":106.856607,"transit":false,"distance":1230,"line":2,"is_transit":false,"time":2,"station_name":"Cawang","i_lat":-6.242512,"station_id":"CW"},{"station_id":"DRN","time":3,"station_name":"Duren Kalibata","i_lat":-6.255332,"distance":1546,"transit":false,"is_transit":false,"i_long":106.85449,"line":2},{"station_name":"Pasar Minggu Baru","time":2,"i_long":106.851577,"transit":false,"line":2,"station_id":"PSMB","i_lat":-6.263214,"is_transit":false,"distance":824},{"transit":false,"station_name":"Pasar Minggu","i_lat":-6.2842400000000005,"time":2,"station_id":"PSM","distance":2380,"line":2,"is_transit":false,"i_long":106.843999},{"is_transit":false,"time":4,"i_long":106.838896,"line":2,"station_name":"Tanjung Barat","distance":2820,"i_lat":-6.3080680000000005,"transit":false,"station_id":"TNT"},{"transit":false,"distance":2671,"station_id":"LNA","i_lat":-6.330363,"station_name":"Lenteng Agung","line":2,"is_transit":false,"time":3,"i_long":106.832616},{"i_long":106.834175,"i_lat":-6.339291,"time":2,"station_id":"UP","transit":false,"station_name":"Univ. Pancasila","is_transit":false,"line":2,"distance":1029},{"line":2,"distance":2264,"i_long":106.831474,"i_lat":-6.360749,"station_name":"Univ. Indonesia","station_id":"UI","transit":false,"is_transit":false,"time":3},{"line":2,"i_lat":-6.369073,"transit":false,"i_long":106.831114,"station_id":"POC","is_transit":false,"station_name":"Pondok Cina","time":2,"distance":1109}],[{"i_long":106.832183,"transit":false,"distance":0,"line":2,"station_name":"Gondangdia","i_lat":-6.186295,"is_transit":false,"time":0,"station_id":"GDD"},{"station_id":"JUA","line":2,"station_name":"Juanda","i_lat":-6.166716,"i_long":106.828284,"distance":2015,"is_transit":false,"time":4,"transit":false},{"line":2,"station_name":"Sawah Besar","is_transit":false,"i_long":106.827103,"distance":1149,"i_lat":-6.160725,"transit":false,"station_id":"SW","time":2},{"station_id":"MGB","distance":906,"line":2,"is_transit":false,"station_name":"Manggabesar","time":2,"i_long":106.82482,"i_lat":-6.149769,"transit":false},{"i_lat":-6.141205,"line":2,"time":2,"i_long":106.820901,"is_transit":false,"transit":false,"station_name":"Jayakarta","distance":1080,"station_id":"JAY"},{"station_name":"Jakarta Kota","station_id":"JAKK","transit":true,"is_transit":true,"distance":1264,"i_lat":-6.137569,"i_long":106.812439,"line":2,"time":4},{"i_lat":-6.132549,"distance":1364,"transit":true,"is_transit":true,"time":3,"station_name":"Kampung Bandan","station_id":"KPB","line":4,"i_long":106.826365},{"station_name":"Rajawali","distance":1444,"transit":false,"station_id":"RJW","is_transit":false,"time":3,"i_lat":-6.14505,"i_long":106.836569,"line":11},{"time":5,"distance":1901,"line":11,"station_name":"Kemayoran","station_id":"KMO","is_transit":false,"i_lat":-6.161728,"i_long":106.839204,"transit":false},{"station_name":"Pasar Senen","transit":false,"is_transit":false,"time":4,"distance":1436,"i_lat":-6.174784,"station_id":"PSE","line":11,"i_long":106.84368},{"is_transit":false,"distance":1567,"station_id":"GST","line":11,"i_lat":-6.185975,"station_name":"Gang Sentiong","time":8,"i_long":106.850107,"transit":false},{"station_name":"Kramat","distance":973,"transit":false,"station_id":"KMT","i_lat":-6.193792,"is_transit":false,"line":11,"time":1,"i_long":106.855437},{"time":2,"line":11,"i_long":106.861737,"is_transit":false,"transit":false,"station_id":"POK","i_lat":-6.209188,"distance":1829,"station_name":"Pondok Jati"},{"i_lat":-6.215091,"time":9,"station_id":"JNG","i_long":106.86807400000001,"transit":true,"line":1,"is_transit":true,"distance":1236,"station_name":"Jatinegara"},{"time":2,"station_name":"Matraman","i_lat":-6.212485,"line":1,"transit":false,"is_transit":false,"distance":1377,"i_long":106.858896,"station_id":"MTR"},{"line":2,"is_transit":true,"station_id":"MRI","station_name":"Manggarai","time":2,"i_long":106.84912,"distance":1275,"i_lat":-6.209883,"transit":true},{"i_lat":-6.226659,"station_name":"Tebet","time":4,"distance":2610,"is_transit":false,"line":2,"station_id":"TEB","transit":false,"i_long":106.857948},{"i_long":106.856607,"is_transit":false,"station_id":"CW","transit":false,"distance":1230,"station_name":"Cawang","time":2,"line":2,"i_lat":-6.242512},{"is_transit":false,"time":3,"i_long":106.85449,"distance":1546,"station_id":"DRN","transit":false,"line":2,"station_name":"Duren Kalibata","i_lat":-6.255332},{"time":2,"station_name":"Pasar Minggu Baru","is_transit":false,"transit":false,"i_lat":-6.263214,"i_long":106.851577,"station_id":"PSMB","line":2,"distance":824},{"transit":false,"is_transit":false,"station_id":"PSM","time":2,"i_long":106.843999,"line":2,"station_name":"Pasar Minggu","i_lat":-6.2842400000000005,"distance":2380},{"is_transit":false,"transit":false,"distance":2820,"line":2,"station_id":"TNT","time":4,"i_long":106.838896,"i_lat":-6.3080680000000005,"station_name":"Tanjung Barat"},{"transit":false,"time":3,"i_long":106.832616,"is_transit":false,"distance":2671,"station_id":"LNA","i_lat":-6.330363,"station_name":"Lenteng Agung","line":2},{"transit":false,"line":2,"i_long":106.834175,"station_id":"UP","time":2,"i_lat":-6.339291,"is_transit":false,"station_name":"Univ. Pancasila","distance":1029},{"line":2,"i_long":106.831474,"i_lat":-6.360749,"station_id":"UI","is_transit":false,"distance":2264,"transit":false,"station_name":"Univ. Indonesia","time":3},{"transit":false,"i_lat":-6.369073,"distance":1109,"i_long":106.831114,"line":2,"station_name":"Pondok Cina","time":2,"is_transit":false,"station_id":"POC"}]]}