{"data":[[{"is_transit":false,"i_lat":-6.186295,"time":0,"distance":0,"station_name":"Gondangdia","transit":false,"i_long":106.832183,"line":2,"station_id":"GDD"},{"i_long":106.840169,"station_id":"CKI","i_lat":-6.198556,"time":3,"distance":1750,"is_transit":false,"transit":false,"station_name":"Cikini","line":2},{"distance":1590,"station_id":"MRI","time":4,"station_name":"Manggarai","i_lat":-6.209883,"transit":false,"line":2,"is_transit":false,"i_long":106.84912},{"station_name":"Tebet","transit":false,"i_long":106.857948,"i_lat":-6.226659,"time":4,"is_transit":false,"station_id":"TEB","distance":2610,"line":2},{"i_long":106.856607,"is_transit":false,"transit":false,"time":2,"station_name":"Cawang","i_lat":-6.242512,"line":2,"distance":1230,"station_id":"CW"},{"station_id":"DRN","station_name":"Duren Kalibata","i_long":106.85449,"is_transit":false,"distance":1546,"line":2,"i_lat":-6.255332,"time":3,"transit":false},{"transit":false,"is_transit":false,"i_long":106.851577,"i_lat":-6.263214,"distance":824,"station_name":"Pasar Minggu Baru","time":2,"line":2,"station_id":"PSMB"},{"line":2,"station_name":"Pasar Minggu","is_transit":false,"time":2,"distance":2380,"i_lat":-6.2842400000000005,"i_long":106.843999,"station_id":"PSM","transit":false},{"station_name":"Tanjung Barat","is_transit":false,"transit":false,"distance":2820,"time":4,"station_id":"TNT","i_lat":-6.3080680000000005,"i_long":106.838896,"line":2},{"line":2,"is_transit":false,"transit":false,"time":3,"i_lat":-6.330363,"distance":2671,"i_long":106.832616,"station_id":"LNA","station_name":"Lenteng Agung"},{"i_lat":-6.339291,"station_id":"UP","station_name":"Univ. Pancasila","i_long":106.834175,"is_transit":false,"transit":false,"line":2,"distance":1029,"time":2},{"transit":false,"is_transit":false,"distance":2264,"i_lat":-6.360749,"station_id":"UI","i_long":106.831474,"line":2,"station_name":"Univ. Indonesia","time":3},{"i_lat":-6.369073,"distance":1109,"station_name":"Pondok Cina","transit":false,"i_long":106.831114,"line":2,"station_id":"POC","time":2,"is_transit":false},{"i_lat":-6.391065,"line":2,"i_long":106.819451,"is_transit":false,"station_id":"DPB","time":4,"distance":2727,"transit":false,"station_name":"Depokbaru"},{"time":3,"is_transit":false,"distance":1584,"transit":false,"i_lat":-6.405256,"i_long":106.816926,"station_id":"DP","station_name":"Depok","line":2},{"line":2,"i_lat":-6.448811,"transit":false,"i_long":106.800298,"distance":5084,"is_transit":false,"station_id":"CTA","station_name":"Citayam","time":6},{"station_id":"BJD","i_long":106.792719,"station_name":"Bojonggede","line":2,"i_lat":-6.493243,"transit":false,"is_transit":false,"time":5,"distance":5197},{"distance":4331,"station_id":"CLT","transit":false,"station_name":"Cilebut","i_long":106.800016,"time":5,"i_lat":-6.530544,"is_transit":false,"line":2}],[{"is_transit":false,"station_name":"Gondangdia","transit":false,"distance":0,"i_long":106.832183,"line":2,"time":0,"i_lat":-6.186295,"station_id":"GDD"},{"is_transit":false,"station_name":"Juanda","station_id":"JUA","time":4,"transit":false,"distance":2015,"i_lat":-6.166716,"line":2,"i_long":106.828284},{"line":2,"time":2,"station_id":"SW","i_lat":-6.160725,"transit":false,"is_transit":false,"i_long":106.827103,"station_name":"Sawah Besar","distance":1149},{"time":2,"line":2,"i_long":106.82482,"transit":false,"station_name":"Manggabesar","distance":906,"station_id":"MGB","is_transit":false,"i_lat":-6.149769},{"transit":false,"is_transit":false,"station_name":"Jayakarta","i_long":106.820901,"line":2,"distance":1080,"i_lat":-6.141205,"time":2,"station_id":"JAY"},{"is_transit":true,"i_long":106.812439,"transit":true,"distance":1264,"i_lat":-6.137569,"line":2,"time":4,"station_id":"JAKK","station_name":"Jakarta Kota"},{"station_name":"Kampung Bandan","i_lat":-6.132549,"distance":1364,"station_id":"KPB","transit":true,"is_transit":true,"time":3,"i_long":106.826365,"line":4},{"station_name":"Angke","time":9,"is_transit":false,"distance":4102,"transit":false,"line":1,"station_id":"AK","i_long":106.79867,"i_lat":-6.144674},{"station_id":"DU","time":4,"is_transit":false,"distance":1230,"station_name":"Duri","line":1,"transit":false,"i_lat":-6.155215,"i_long":106.800832},{"station_name":"Tanah Abang","transit":false,"distance":3632,"time":8,"line":1,"i_long":106.811091,"is_transit":false,"station_id":"THB","i_lat":-6.185545},{"is_transit":false,"transit":false,"line":1,"i_lat":-6.20132,"time":5,"station_id":"KAT","distance":2029,"i_long":106.816351,"station_name":"Karet"},{"distance":471,"transit":false,"i_lat":-6.201433,"line":1,"is_transit":false,"station_name":"Sudirman Baru","time":1,"station_id":"SUDB","i_long":106.819881},{"i_lat":-6.202263,"station_name":"Sudirman","i_long":106.822649,"distance":280,"line":1,"station_id":"SUD","is_transit":false,"transit":false,"time":1},{"line":2,"station_id":"MRI","distance":3186,"time":4,"is_transit":true,"station_name":"Manggarai","i_lat":-6.209883,"i_long":106.84912,"transit":true},{"distance":2610,"transit":false,"time":4,"station_id":"TEB","is_transit":false,"station_name":"Tebet","i_lat":-6.226659,"i_long":106.857948,"line":2},{"station_id":"CW","i_lat":-6.242512,"time":2,"line":2,"transit":false,"distance":1230,"station_name":"Cawang","i_long":106.856607,"is_transit":false},{"distance":1546,"i_lat":-6.255332,"station_id":"DRN","transit":false,"i_long":106.85449,"is_transit":false,"line":2,"time":3,"station_name":"Duren Kalibata"},{"distance":824,"time":2,"station_id":"PSMB","line":2,"i_lat":-6.263214,"is_transit":false,"station_name":"Pasar Minggu Baru","i_long":106.851577,"transit":false},{"i_long":106.843999,"line":2,"station_id":"PSM","i_lat":-6.2842400000000005,"is_transit":false,"station_name":"Pasar Minggu","distance":2380,"time":2,"transit":false},{"is_transit":false,"distance":2820,"line":2,"time":4,"transit":false,"station_name":"Tanjung Barat","station_id":"TNT","i_lat":-6.3080680000000005,"i_long":106.838896},{"transit":false,"is_transit":false,"station_name":"Lenteng Agung","line":2,"i_lat":-6.330363,"time":3,"station_id":"LNA","distance":2671,"i_long":106.832616},{"station_id":"UP","line":2,"transit":false,"i_lat":-6.339291,"distance":1029,"is_transit":false,"station_name":"Univ. Pancasila","i_long":106.834175,"time":2},{"time":3,"line":2,"station_id":"UI","is_transit":false,"station_name":"Univ. Indonesia","distance":2264,"i_long":106.831474,"transit":false,"i_lat":-6.360749},{"station_id":"POC","is_transit":false,"transit":false,"time":2,"i_long":106.831114,"distance":1109,"i_lat":-6.369073,"station_name":"Pondok Cina","line":2},{"i_long":106.819451,"i_lat":-6.391065,"is_transit":false,"transit":false,"line":2,"time":4,"distance":2727,"station_name":"Depokbaru","station_id":"DPB"},{"is_transit":false,"i_long":106.816926,"transit":false,"time":3,"station_name":"Depok","distance":1584,"i_lat":-6.405256,"line":2,"station_id":"DP"},{"station_name":"Citayam","station_id":"CTA","distance":5084,"is_transit":false,"transit":false,"i_long":106.800298,"line":2,"time":6,"i_lat":-6.448811},{"transit":false,"station_id":"BJD","i_lat":-6.493243,"time":5,"distance":5197,"is_transit":false,"station_name":"Bojonggede","i_long":106.792719,"line":2},{"station_name":"Cilebut","time":5,"transit":false,"is_transit":false,"i_lat":-6.530544,"i_long":106.800016,"station_id":"CLT","distance":4331,"line":2}],[{"station_name":"Gondangdia","i_long":106.832183,"line":2,"i_lat":-6.186295,"transit":false,"station_id":"GDD","time":0,"is_transit":false,"distance":0},{"is_transit":false,"station_name":"Juanda","line":2,"transit":false,"i_lat":-6.166716,"i_long":106.828284,"time":4,"station_id":"JUA","distance":2015},{"station_id":"SW","time":2,"distance":1149,"i_lat":-6.160725,"station_name":"Sawah Besar","is_transit":false,"line":2,"i_long":106.827103,"transit":false},{"i_long":106.82482,"time":2,"line":2,"is_transit":false,"station_id":"MGB","station_name":"Manggabesar","distance":906,"transit":false,"i_lat":-6.149769},{"time":2,"distance":1080,"i_long":106.820901,"transit":false,"station_id":"JAY","i_lat":-6.141205,"station_name":"Jayakarta","is_transit":false,"line":2},{"transit":true,"i_lat":-6.137569,"distance":1264,"station_id":"JAKK","station_name":"Jakarta Kota","line":2,"i_long":106.812439,"time":4,"is_transit":true},{"transit":true,"station_id":"KPB","station_name":"Kampung Bandan","i_long":106.826365,"time":3,"is_transit":true,"distance":1364,"i_lat":-6.132549,"line":4},{"transit":false,"station_id":"RJW","distance":1444,"is_transit":false,"i_long":106.836569,"line":11,"time":3,"station_name":"Rajawali","i_lat":-6.14505},{"time":5,"is_transit":false,"distance":1901,"i_long":106.839204,"line":11,"station_id":"KMO","i_lat":-6.161728,"transit":false,"station_name":"Kemayoran"},{"station_name":"Pasar Senen","time":4,"i_lat":-6.174784,"station_id":"PSE","distance":1436,"i_long":106.84368,"transit":false,"line":11,"is_transit":false},{"station_id":"GST","i_lat":-6.185975,"time":8,"transit":false,"station_name":"Gang Sentiong","i_long":106.850107,"distance":1567,"is_transit":false,"line":11},{"line":11,"distance":973,"i_long":106.855437,"is_transit":false,"station_id":"KMT","time":1,"i_lat":-6.193792,"transit":false,"station_name":"Kramat"},{"station_id":"POK","distance":1829,"i_long":106.861737,"station_name":"Pondok Jati","transit":false,"line":11,"time":2,"is_transit":false,"i_lat":-6.209188},{"transit":true,"i_lat":-6.215091,"station_name":"Jatinegara","station_id":"JNG","i_long":106.86807400000001,"line":1,"is_transit":true,"distance":1236,"time":9},{"distance":1377,"line":1,"station_name":"Matraman","i_long":106.858896,"time":2,"transit":false,"is_transit":false,"i_lat":-6.212485,"station_id":"MTR"},{"distance":1275,"station_name":"Manggarai","line":2,"is_transit":true,"i_lat":-6.209883,"station_id":"MRI","i_long":106.84912,"time":2,"transit":true},{"transit":false,"station_name":"Tebet","i_lat":-6.226659,"i_long":106.857948,"distance":2610,"line":2,"is_transit":false,"station_id":"TEB","time":4},{"distance":1230,"station_id":"CW","is_transit":false,"station_name":"Cawang","i_lat":-6.242512,"line":2,"i_long":106.856607,"time":2,"transit":false},{"is_transit":false,"station_name":"Duren Kalibata","station_id":"DRN","i_lat":-6.255332,"i_long":106.85449,"transit":false,"distance":1546,"time":3,"line":2},{"station_id":"PSMB","time":2,"distance":824,"station_name":"Pasar Minggu Baru","is_transit":false,"i_lat":-6.263214,"transit":false,"line":2,"i_long":106.851577},{"time":2,"station_name":"Pasar Minggu","i_long":106.843999,"distance":2380,"transit":false,"i_lat":-6.2842400000000005,"is_transit":false,"line":2,"station_id":"PSM"},{"station_name":"Tanjung Barat","i_long":106.838896,"is_transit":false,"time":4,"line":2,"distance":2820,"station_id":"TNT","transit":false,"i_lat":-6.3080680000000005},{"distance":2671,"station_id":"LNA","station_name":"Lenteng Agung","i_long":106.832616,"line":2,"time":3,"i_lat":-6.330363,"is_transit":false,"transit":false},{"station_id":"UP","distance":1029,"i_long":106.834175,"line":2,"is_transit":false,"time":2,"station_name":"Univ. Pancasila","i_lat":-6.339291,"transit":false},{"line":2,"distance":2264,"time":3,"is_transit":false,"i_long":106.831474,"station_id":"UI","transit":false,"station_name":"Univ. Indonesia","i_lat":-6.360749},{"line":2,"i_lat":-6.369073,"i_long":106.831114,"station_id":"POC","distance":1109,"time":2,"transit":false,"is_transit":false,"station_name":"Pondok Cina"},{"station_id":"DPB","time":4,"is_transit":false,"distance":2727,"transit":false,"i_lat":-6.391065,"station_name":"Depokbaru","line":2,"i_long":106.819451},{"distance":1584,"transit":false,"station_name":"Depok","i_long":106.816926,"time":3,"station_id":"DP","line":2,"is_transit":false,"i_lat":-6.405256},{"time":6,"i_long":106.800298,"line":2,"transit":false,"distance":5084,"station_id":"CTA","station_name":"Citayam","is_transit":false,"i_lat":-6.448811},{"station_id":"BJD","i_long":106.792719,"line":2,"station_name":"Bojonggede","time":5,"is_transit":false,"transit":false,"distance":5197,"i_lat":-6.493243},{"time":5,"station_name":"Cilebut","distance":4331,"line":2,"is_transit":false,"i_lat":-6.530544,"i_long":106.800016,"station_id":"CLT","transit":false}]]}