{"data":[[{"i_lat":-6.186295,"station_id":"GDD","is_transit":false,"transit":false,"line":2,"i_long":106.832183,"distance":0,"time":0,"station_name":"Gondangdia"},{"i_long":106.840169,"is_transit":false,"transit":false,"time":3,"i_lat":-6.198556,"distance":1750,"station_name":"Cikini","station_id":"CKI","line":2},{"is_transit":true,"transit":true,"i_long":106.84912,"time":4,"distance":1590,"line":2,"station_id":"MRI","station_name":"Manggarai","i_lat":-6.209883},{"distance":3186,"is_transit":false,"station_name":"Sudirman","transit":false,"time":4,"line":1,"i_lat":-6.202263,"i_long":106.822649,"station_id":"SUD"},{"station_id":"SUDB","i_lat":-6.201433,"station_name":"Sudirman Baru","transit":false,"time":1,"distance":280,"i_long":106.819881,"is_transit":false,"line":1},{"time":1,"i_long":106.816351,"i_lat":-6.20132,"is_transit":false,"transit":false,"distance":471,"station_name":"Karet","station_id":"KAT","line":1},{"station_name":"Tanah Abang","transit":true,"station_id":"THB","time":5,"i_lat":-6.185545,"line":1,"is_transit":true,"distance":2029,"i_long":106.811091},{"i_lat":-6.207404,"is_transit":false,"i_long":106.79689,"transit":false,"station_name":"Palmerah","time":6,"line":6,"station_id":"PLM","distance":3191},{"time":7,"line":6,"i_lat":-6.237242,"station_id":"KBY","transit":false,"is_transit":false,"distance":3737,"station_name":"Kebayoran","i_long":106.780334},{"is_transit":false,"i_long":106.74273,"i_lat":-6.276362,"line":6,"time":8,"distance":6218,"station_name":"Pondokranji","transit":false,"station_id":"PDJ"},{"line":6,"station_id":"JMU","i_long":106.728916,"time":3,"station_name":"Jurangmangu","is_transit":false,"transit":false,"i_lat":-6.288927,"distance":2179},{"line":6,"transit":false,"i_long":106.712277,"distance":1994,"station_name":"Sudimara","i_lat":-6.296963,"time":4,"station_id":"SDM","is_transit":false},{"station_name":"Rawa Buntu","station_id":"RU","i_lat":-6.314823,"is_transit":false,"distance":4566,"i_long":106.675475,"transit":false,"line":6,"time":6},{"transit":false,"i_long":106.66566,"line":6,"time":4,"is_transit":false,"station_id":"SRP","station_name":"Serpong","i_lat":-6.319871,"distance":2413},{"time":4,"line":3,"station_name":"Cisauk","is_transit":false,"i_lat":-6.32484,"transit":false,"i_long":106.640411,"distance":1784,"station_id":"CSK"},{"station_name":"Cicayur","distance":2519,"i_long":106.617853,"station_id":"CC","time":4,"is_transit":false,"i_lat":-6.329547,"line":3,"transit":false},{"station_id":"PRP","transit":false,"i_long":106.568863,"distance":5968,"station_name":"Parung Panjang","is_transit":false,"time":8,"i_lat":-6.3441410000000005,"line":6},{"i_lat":-6.354349,"is_transit":false,"transit":false,"line":3,"time":9,"distance":7025,"station_id":"CJT","i_long":106.508482,"station_name":"Cilejit"},{"line":0,"distance":2675,"station_id":"DAR","transit":false,"station_name":"Daru","is_transit":false,"i_lat":-6.338021,"i_long":106.491338,"time":6},{"station_name":"Tenjo","transit":false,"i_long":106.460812,"is_transit":false,"i_lat":-6.327251,"distance":3902,"line":6,"station_id":"TEJ","time":5},{"line":6,"station_name":"Tigaraksa","station_id":"TGS","i_long":106.425991,"time":5,"is_transit":false,"distance":2974,"transit":false,"i_lat":-6.328533},{"line":3,"i_long":106.411216,"distance":2651,"time":3,"station_id":"CKY","is_transit":false,"i_lat":-6.33561,"transit":false,"station_name":"Cikoya"},{"i_long":106.394373,"line":6,"transit":false,"station_name":"Maja","station_id":"MJ","time":4,"is_transit":false,"i_lat":-6.332307,"distance":1853},{"is_transit":false,"time":10,"i_long":106.332092,"transit":false,"line":3,"i_lat":-6.334892,"station_name":"Citeras","station_id":"CTR","distance":7293}],[{"i_long":106.832183,"line":2,"distance":0,"is_transit":false,"transit":false,"i_lat":-6.186295,"station_name":"Gondangdia","time":0,"station_id":"GDD"},{"station_name":"Juanda","station_id":"JUA","line":2,"distance":2015,"is_transit":false,"transit":false,"i_long":106.828284,"i_lat":-6.166716,"time":4},{"station_name":"Sawah Besar","is_transit":false,"i_long":106.827103,"line":2,"transit":false,"station_id":"SW","time":2,"distance":1149,"i_lat":-6.160725},{"station_name":"Manggabesar","i_lat":-6.149769,"is_transit":false,"i_long":106.82482,"station_id":"MGB","transit":false,"time":2,"line":2,"distance":906},{"transit":false,"line":2,"distance":1080,"i_lat":-6.141205,"station_name":"Jayakarta","is_transit":false,"time":2,"station_id":"JAY","i_long":106.820901},{"is_transit":true,"transit":true,"station_id":"JAKK","line":2,"station_name":"Jakarta Kota","time":4,"distance":1264,"i_long":106.812439,"i_lat":-6.137569},{"is_transit":true,"station_name":"Kampung Bandan","i_lat":-6.132549,"line":4,"distance":1364,"transit":true,"station_id":"KPB","i_long":106.826365,"time":3},{"distance":4102,"station_id":"AK","transit":false,"i_lat":-6.144674,"i_long":106.79867,"line":1,"time":9,"station_name":"Angke","is_transit":false},{"station_id":"DU","transit":false,"i_long":106.800832,"is_transit":false,"station_name":"Duri","line":1,"distance":1230,"time":4,"i_lat":-6.155215},{"distance":3632,"i_long":106.811091,"station_id":"THB","transit":true,"time":8,"station_name":"Tanah Abang","i_lat":-6.185545,"line":1,"is_transit":true},{"transit":false,"is_transit":false,"line":6,"time":6,"station_name":"Palmerah","station_id":"PLM","i_lat":-6.207404,"i_long":106.79689,"distance":3191},{"transit":false,"distance":3737,"i_lat":-6.237242,"station_id":"KBY","station_name":"Kebayoran","is_transit":false,"i_long":106.780334,"time":7,"line":6},{"station_name":"Pondokranji","time":8,"station_id":"PDJ","is_transit":false,"i_lat":-6.276362,"i_long":106.74273,"line":6,"transit":false,"distance":6218},{"line":6,"time":3,"i_lat":-6.288927,"distance":2179,"is_transit":false,"i_long":106.728916,"station_name":"Jurangmangu","station_id":"JMU","transit":false},{"i_long":106.712277,"i_lat":-6.296963,"is_transit":false,"station_id":"SDM","line":6,"distance":1994,"transit":false,"time":4,"station_name":"Sudimara"},{"line":6,"station_id":"RU","time":6,"transit":false,"distance":4566,"station_name":"Rawa Buntu","is_transit":false,"i_lat":-6.314823,"i_long":106.675475},{"station_name":"Serpong","distance":2413,"i_lat":-6.319871,"i_long":106.66566,"station_id":"SRP","line":6,"is_transit":false,"transit":false,"time":4},{"i_lat":-6.32484,"i_long":106.640411,"distance":1784,"time":4,"is_transit":false,"line":3,"transit":false,"station_id":"CSK","station_name":"Cisauk"},{"i_lat":-6.329547,"station_name":"Cicayur","distance":2519,"time":4,"i_long":106.617853,"is_transit":false,"station_id":"CC","transit":false,"line":3},{"line":6,"station_name":"Parung Panjang","is_transit":false,"time":8,"i_long":106.568863,"transit":false,"station_id":"PRP","distance":5968,"i_lat":-6.3441410000000005},{"time":9,"i_long":106.508482,"distance":7025,"station_name":"Cilejit","is_transit":false,"transit":false,"station_id":"CJT","i_lat":-6.354349,"line":3},{"station_id":"DAR","time":6,"is_transit":false,"transit":false,"line":0,"i_long":106.491338,"i_lat":-6.338021,"distance":2675,"station_name":"Daru"},{"i_lat":-6.327251,"time":5,"i_long":106.460812,"distance":3902,"station_name":"Tenjo","line":6,"station_id":"TEJ","is_transit":false,"transit":false},{"is_transit":false,"transit":false,"i_long":106.425991,"i_lat":-6.328533,"time":5,"station_id":"TGS","line":6,"station_name":"Tigaraksa","distance":2974},{"i_long":106.411216,"station_name":"Cikoya","i_lat":-6.33561,"line":3,"transit":false,"is_transit":false,"station_id":"CKY","time":3,"distance":2651},{"line":6,"i_long":106.394373,"i_lat":-6.332307,"time":4,"is_transit":false,"distance":1853,"station_name":"Maja","station_id":"MJ","transit":false},{"is_transit":false,"distance":7293,"transit":false,"station_name":"Citeras","time":10,"station_id":"CTR","i_lat":-6.334892,"line":3,"i_long":106.332092}],[{"station_name":"Gondangdia","i_long":106.832183,"station_id":"GDD","transit":false,"i_lat":-6.186295,"line":2,"time":0,"is_transit":false,"distance":0},{"transit":false,"i_long":106.840169,"line":2,"station_name":"Cikini","distance":1750,"is_transit":false,"i_lat":-6.198556,"time":3,"station_id":"CKI"},{"time":4,"is_transit":true,"station_name":"Manggarai","i_long":106.84912,"line":2,"i_lat":-6.209883,"station_id":"MRI","distance":1590,"transit":true},{"station_name":"Matraman","station_id":"MTR","line":1,"i_lat":-6.212485,"distance":1275,"is_transit":false,"time":2,"transit":false,"i_long":106.858896},{"time":8,"distance":1377,"is_transit":true,"i_long":106.86807400000001,"station_id":"JNG","line":1,"transit":true,"i_lat":-6.215091,"station_name":"Jatinegara"},{"i_lat":-6.209188,"station_id":"POK","i_long":106.861737,"line":11,"time":2,"transit":false,"distance":1236,"station_name":"Pondok Jati","is_transit":false},{"i_lat":-6.193792,"i_long":106.855437,"distance":1829,"is_transit":false,"station_id":"KMT","transit":false,"station_name":"Kramat","line":11,"time":2},{"line":11,"station_name":"Gang Sentiong","time":1,"is_transit":false,"station_id":"GST","i_long":106.850107,"distance":973,"transit":false,"i_lat":-6.185975},{"i_lat":-6.174784,"line":11,"distance":1567,"is_transit":false,"transit":false,"time":8,"station_id":"PSE","i_long":106.84368,"station_name":"Pasar Senen"},{"line":11,"i_lat":-6.161728,"station_id":"KMO","is_transit":false,"station_name":"Kemayoran","time":4,"transit":false,"distance":1436,"i_long":106.839204},{"is_transit":false,"distance":1901,"i_lat":-6.14505,"time":5,"line":11,"transit":false,"station_id":"RJW","i_long":106.836569,"station_name":"Rajawali"},{"line":4,"is_transit":true,"station_name":"Kampung Bandan","time":3,"transit":true,"i_lat":-6.132549,"station_id":"KPB","i_long":106.826365,"distance":1444},{"i_lat":-6.144674,"i_long":106.79867,"station_name":"Angke","line":1,"distance":4102,"station_id":"AK","transit":false,"is_transit":false,"time":9},{"is_transit":false,"distance":1230,"station_id":"DU","transit":false,"i_lat":-6.155215,"time":4,"i_long":106.800832,"line":1,"station_name":"Duri"},{"i_lat":-6.185545,"i_long":106.811091,"time":8,"station_name":"Tanah Abang","line":1,"is_transit":true,"distance":3632,"station_id":"THB","transit":true},{"is_transit":false,"station_id":"PLM","station_name":"Palmerah","transit":false,"i_long":106.79689,"i_lat":-6.207404,"time":6,"line":6,"distance":3191},{"station_id":"KBY","time":7,"i_lat":-6.237242,"i_long":106.780334,"line":6,"transit":false,"distance":3737,"is_transit":false,"station_name":"Kebayoran"},{"time":8,"station_name":"Pondokranji","station_id":"PDJ","i_lat":-6.276362,"i_long":106.74273,"line":6,"transit":false,"distance":6218,"is_transit":false},{"is_transit":false,"i_long":106.728916,"station_id":"JMU","distance":2179,"transit":false,"time":3,"i_lat":-6.288927,"station_name":"Jurangmangu","line":6},{"station_id":"SDM","is_transit":false,"distance":1994,"transit":false,"line":6,"time":4,"i_long":106.712277,"i_lat":-6.296963,"station_name":"Sudimara"},{"station_name":"Rawa Buntu","transit":false,"station_id":"RU","line":6,"distance":4566,"i_lat":-6.314823,"i_long":106.675475,"is_transit":false,"time":6},{"i_long":106.66566,"i_lat":-6.319871,"station_name":"Serpong","distance":2413,"station_id":"SRP","is_transit":false,"line":6,"transit":false,"time":4},{"i_lat":-6.32484,"station_id":"CSK","transit":false,"i_long":106.640411,"time":4,"is_transit":false,"line":3,"distance":1784,"station_name":"Cisauk"},{"time":4,"distance":2519,"transit":false,"station_id":"CC","station_name":"Cicayur","is_transit":false,"i_lat":-6.329547,"line":3,"i_long":106.617853},{"distance":5968,"i_lat":-6.3441410000000005,"station_name":"Parung Panjang","line":6,"station_id":"PRP","is_transit":false,"transit":false,"i_long":106.568863,"time":8},{"station_id":"CJT","time":9,"transit":false,"i_lat":-6.354349,"distance":7025,"i_long":106.508482,"line":3,"station_name":"Cilejit","is_transit":false},{"time":6,"station_name":"Daru","is_transit":false,"transit":false,"distance":2675,"i_long":106.491338,"station_id":"DAR","i_lat":-6.338021,"line":0},{"time":5,"station_name":"Tenjo","line":6,"is_transit":false,"i_long":106.460812,"distance":3902,"transit":false,"i_lat":-6.327251,"station_id":"TEJ"},{"line":6,"time":5,"transit":false,"i_lat":-6.328533,"station_name":"Tigaraksa","is_transit":false,"distance":2974,"i_long":106.425991,"station_id":"TGS"},{"i_lat":-6.33561,"station_name":"Cikoya","i_long":106.411216,"station_id":"CKY","is_transit":false,"time":3,"distance":2651,"transit":false,"line":3},{"is_transit":false,"station_name":"Maja","i_long":106.394373,"distance":1853,"transit":false,"line":6,"time":4,"i_lat":-6.332307,"station_id":"MJ"},{"i_long":106.332092,"time":10,"distance":7293,"station_name":"Citeras","station_id":"CTR","transit":false,"line":3,"i_lat":-6.334892,"is_transit":false}],[{"i_lat":-6.186295,"station_id":"GDD","transit":false,"time":0,"station_name":"Gondangdia","line":2,"i_long":106.832183,"is_transit":false,"distance":0},{"i_long":106.828284,"distance":2015,"station_id":"JUA","transit":false,"i_lat":-6.166716,"time":4,"line":2,"is_transit":false,"station_name":"Juanda"},{"distance":1149,"station_name":"Sawah Besar","is_transit":false,"i_long":106.827103,"time":2,"transit":false,"station_id":"SW","line":2,"i_lat":-6.160725},{"transit":false,"time":2,"station_name":"Manggabesar","distance":906,"station_id":"MGB","i_lat":-6.149769,"i_long":106.82482,"line":2,"is_transit":false},{"distance":1080,"is_transit":false,"transit":false,"station_id":"JAY","i_lat":-6.141205,"line":2,"station_name":"Jayakarta","i_long":106.820901,"time":2},{"line":2,"transit":true,"station_name":"Jakarta Kota","is_transit":true,"i_lat":-6.137569,"time":4,"distance":1264,"station_id":"JAKK","i_long":106.812439},{"i_lat":-6.132549,"is_transit":true,"time":3,"distance":1364,"transit":true,"station_name":"Kampung Bandan","i_long":106.826365,"station_id":"KPB","line":4},{"line":11,"distance":1444,"i_long":106.836569,"station_id":"RJW","station_name":"Rajawali","i_lat":-6.14505,"time":3,"is_transit":false,"transit":false},{"transit":false,"distance":1901,"station_id":"KMO","i_long":106.839204,"line":11,"station_name":"Kemayoran","time":5,"is_transit":false,"i_lat":-6.161728},{"i_lat":-6.174784,"time":4,"station_name":"Pasar Senen","is_transit":false,"line":11,"station_id":"PSE","transit":false,"i_long":106.84368,"distance":1436},{"distance":1567,"is_transit":false,"i_lat":-6.185975,"i_long":106.850107,"line":11,"time":8,"transit":false,"station_id":"GST","station_name":"Gang Sentiong"},{"station_id":"KMT","distance":973,"time":1,"transit":false,"i_lat":-6.193792,"line":11,"station_name":"Kramat","is_transit":false,"i_long":106.855437},{"distance":1829,"station_name":"Pondok Jati","i_long":106.861737,"station_id":"POK","time":2,"is_transit":false,"transit":false,"i_lat":-6.209188,"line":11},{"i_long":106.86807400000001,"station_id":"JNG","station_name":"Jatinegara","distance":1236,"time":9,"is_transit":true,"line":1,"i_lat":-6.215091,"transit":true},{"i_lat":-6.212485,"line":1,"distance":1377,"is_transit":false,"station_name":"Matraman","i_long":106.858896,"time":2,"station_id":"MTR","transit":false},{"station_id":"MRI","i_long":106.84912,"line":2,"time":2,"is_transit":false,"station_name":"Manggarai","transit":false,"i_lat":-6.209883,"distance":1275},{"is_transit":false,"transit":false,"station_name":"Sudirman","time":4,"i_lat":-6.202263,"i_long":106.822649,"line":1,"station_id":"SUD","distance":3186},{"i_lat":-6.201433,"distance":280,"station_id":"SUDB","station_name":"Sudirman Baru","is_transit":false,"time":1,"i_long":106.819881,"line":1,"transit":false},{"i_lat":-6.20132,"transit":false,"time":1,"station_name":"Karet","is_transit":false,"station_id":"KAT","i_long":106.816351,"line":1,"distance":471},{"is_transit":true,"transit":true,"time":5,"i_lat":-6.185545,"line":1,"station_id":"THB","distance":2029,"station_name":"Tanah Abang","i_long":106.811091},{"station_name":"Palmerah","is_transit":false,"distance":3191,"station_id":"PLM","i_long":106.79689,"time":6,"i_lat":-6.207404,"line":6,"transit":false},{"distance":3737,"is_transit":false,"i_long":106.780334,"line":6,"station_name":"Kebayoran","i_lat":-6.237242,"transit":false,"time":7,"station_id":"KBY"},{"distance":6218,"line":6,"transit":false,"station_name":"Pondokranji","i_lat":-6.276362,"is_transit":false,"station_id":"PDJ","i_long":106.74273,"time":8},{"time":3,"line":6,"i_lat":-6.288927,"distance":2179,"station_name":"Jurangmangu","is_transit":false,"transit":false,"station_id":"JMU","i_long":106.728916},{"time":4,"is_transit":false,"transit":false,"i_lat":-6.296963,"station_name":"Sudimara","distance":1994,"line":6,"i_long":106.712277,"station_id":"SDM"},{"i_long":106.675475,"time":6,"line":6,"distance":4566,"station_name":"Rawa Buntu","transit":false,"station_id":"RU","is_transit":false,"i_lat":-6.314823},{"distance":2413,"time":4,"station_id":"SRP","station_name":"Serpong","line":6,"i_lat":-6.319871,"is_transit":false,"i_long":106.66566,"transit":false},{"station_id":"CSK","i_lat":-6.32484,"time":4,"transit":false,"station_name":"Cisauk","i_long":106.640411,"line":3,"is_transit":false,"distance":1784},{"distance":2519,"transit":false,"station_name":"Cicayur","line":3,"time":4,"is_transit":false,"i_long":106.617853,"station_id":"CC","i_lat":-6.329547},{"transit":false,"station_name":"Parung Panjang","is_transit":false,"i_long":106.568863,"station_id":"PRP","i_lat":-6.3441410000000005,"line":6,"time":8,"distance":5968},{"station_id":"CJT","line":3,"time":9,"i_long":106.508482,"is_transit":false,"distance":7025,"station_name":"Cilejit","transit":false,"i_lat":-6.354349},{"station_name":"Daru","time":6,"line":0,"i_long":106.491338,"distance":2675,"is_transit":false,"station_id":"DAR","transit":false,"i_lat":-6.338021},{"distance":3902,"transit":false,"i_lat":-6.327251,"i_long":106.460812,"line":6,"time":5,"station_name":"Tenjo","is_transit":false,"station_id":"TEJ"},{"station_name":"Tigaraksa","time":5,"line":6,"station_id":"TGS","transit":false,"i_lat":-6.328533,"i_long":106.425991,"is_transit":false,"distance":2974},{"i_long":106.411216,"station_id":"CKY","station_name":"Cikoya","line":3,"distance":2651,"is_transit":false,"time":3,"transit":false,"i_lat":-6.33561},{"station_id":"MJ","station_name":"Maja","i_lat":-6.332307,"distance":1853,"is_transit":false,"i_long":106.394373,"time":4,"transit":false,"line":6},{"i_lat":-6.334892,"i_long":106.332092,"station_id":"CTR","transit":false,"line":3,"is_transit":false,"distance":7293,"station_name":"Citeras","time":10}]]}