{"data":[[{"line":2,"i_long":106.832183,"is_transit":false,"time":0,"i_lat":-6.186295,"station_id":"GDD","station_name":"Gondangdia","distance":0,"transit":false},{"distance":1750,"station_id":"CKI","time":3,"transit":false,"station_name":"Cikini","i_lat":-6.198556,"i_long":106.840169,"line":0,"is_transit":false},{"transit":true,"i_long":106.84912,"station_id":"MRI","time":4,"distance":1590,"line":0,"station_name":"Manggarai","is_transit":true,"i_lat":-6.209883},{"is_transit":false,"i_long":106.822649,"station_name":"Sudirman","distance":3186,"i_lat":-6.202263,"station_id":"SUD","time":4,"line":1,"transit":false},{"i_lat":-6.201433,"distance":280,"transit":false,"i_long":106.819881,"station_name":"Sudirman Baru","station_id":"SUDB","is_transit":false,"line":1,"time":1},{"i_long":106.816351,"station_id":"KAT","is_transit":false,"time":1,"station_name":"Karet","transit":false,"distance":471,"i_lat":-6.20132,"line":1},{"line":1,"transit":true,"station_name":"Tanah Abang","i_long":106.811091,"i_lat":-6.185545,"station_id":"THB","is_transit":true,"time":5,"distance":2029},{"station_name":"Palmerah","is_transit":false,"distance":3191,"i_lat":-6.207404,"i_long":106.79689,"line":6,"station_id":"PLM","transit":false,"time":6},{"line":6,"station_name":"Kebayoran","station_id":"KBY","i_lat":-6.237242,"time":7,"is_transit":false,"transit":false,"i_long":106.780334,"distance":3737},{"is_transit":false,"time":8,"i_lat":-6.276362,"i_long":106.74273,"station_name":"Pondokranji","distance":6218,"station_id":"PDJ","transit":false,"line":6},{"station_name":"Jurangmangu","i_lat":-6.288927,"time":3,"distance":2179,"i_long":106.728916,"line":6,"station_id":"JMU","is_transit":false,"transit":false},{"i_lat":-6.296963,"i_long":106.712277,"station_name":"Sudimara","station_id":"SDM","line":6,"time":4,"distance":1994,"transit":false,"is_transit":false},{"is_transit":false,"station_name":"Rawa Buntu","i_lat":-6.314823,"transit":false,"distance":4566,"time":6,"station_id":"RU","i_long":106.675475,"line":6},{"i_long":106.66566,"station_id":"SRP","is_transit":false,"station_name":"Serpong","time":4,"distance":2413,"line":6,"i_lat":-6.319871,"transit":false},{"time":4,"distance":1784,"station_name":"Cisauk","line":0,"is_transit":false,"i_lat":-6.32484,"transit":false,"station_id":"CSK","i_long":106.640411},{"i_lat":-6.329547,"station_id":"CC","is_transit":false,"i_long":106.617853,"transit":false,"line":0,"station_name":"Cicayur","time":4,"distance":2519},{"is_transit":false,"line":6,"time":8,"distance":5968,"station_name":"Parung Panjang","transit":false,"i_lat":-6.3441410000000005,"station_id":"PRP","i_long":106.568863},{"line":0,"time":9,"station_id":"CJT","is_transit":false,"i_long":106.508482,"transit":false,"station_name":"Cilejit","distance":7025,"i_lat":-6.354349},{"is_transit":false,"time":6,"station_name":"Daru","transit":false,"i_lat":-6.338021,"i_long":106.491338,"line":0,"station_id":"DAR","distance":2675},{"station_name":"Tenjo","i_lat":-6.327251,"time":5,"transit":false,"distance":3902,"i_long":106.460812,"line":6,"station_id":"TEJ","is_transit":false}],[{"time":0,"line":2,"i_lat":-6.186295,"is_transit":false,"transit":false,"i_long":106.832183,"distance":0,"station_id":"GDD","station_name":"Gondangdia"},{"time":4,"station_name":"Juanda","line":2,"i_long":106.828284,"station_id":"JUA","transit":false,"i_lat":-6.166716,"distance":2015,"is_transit":false},{"i_lat":-6.160725,"transit":false,"time":2,"distance":1149,"is_transit":false,"station_name":"Sawah Besar","i_long":106.827103,"line":2,"station_id":"SW"},{"time":2,"distance":906,"i_long":106.82482,"is_transit":false,"line":2,"transit":false,"station_name":"Manggabesar","station_id":"MGB","i_lat":-6.149769},{"transit":false,"i_long":106.820901,"station_name":"Jayakarta","is_transit":false,"distance":1080,"line":7,"time":2,"station_id":"JAY","i_lat":-6.141205},{"transit":true,"distance":1264,"station_id":"JAKK","time":4,"is_transit":true,"i_lat":-6.137569,"station_name":"Jakarta Kota","i_long":106.812439,"line":0},{"i_lat":-6.132549,"time":3,"transit":false,"distance":1364,"line":0,"i_long":106.826365,"station_name":"Kampung Bandan","station_id":"KPB","is_transit":true},{"i_long":106.79867,"station_name":"Angke","station_id":"AK","is_transit":false,"transit":false,"i_lat":-6.144674,"time":9,"line":0,"distance":4102},{"station_name":"Duri","distance":1230,"i_long":106.800832,"time":4,"transit":true,"line":1,"is_transit":true,"station_id":"DU","i_lat":-6.155215},{"i_lat":-6.185545,"transit":true,"i_long":106.811091,"line":1,"station_id":"THB","is_transit":true,"distance":3632,"station_name":"Tanah Abang","time":8},{"line":6,"i_long":106.79689,"time":6,"station_id":"PLM","distance":3191,"i_lat":-6.207404,"station_name":"Palmerah","transit":false,"is_transit":false},{"station_id":"KBY","is_transit":false,"time":7,"station_name":"Kebayoran","distance":3737,"transit":false,"i_long":106.780334,"i_lat":-6.237242,"line":6},{"time":8,"station_id":"PDJ","transit":false,"station_name":"Pondokranji","i_lat":-6.276362,"is_transit":false,"distance":6218,"i_long":106.74273,"line":6},{"is_transit":false,"i_long":106.728916,"distance":2179,"transit":false,"line":6,"time":3,"station_name":"Jurangmangu","i_lat":-6.288927,"station_id":"JMU"},{"station_id":"SDM","station_name":"Sudimara","line":6,"transit":false,"time":4,"distance":1994,"i_lat":-6.296963,"i_long":106.712277,"is_transit":false},{"time":6,"i_long":106.675475,"is_transit":false,"station_id":"RU","transit":false,"i_lat":-6.314823,"station_name":"Rawa Buntu","line":6,"distance":4566},{"is_transit":false,"i_lat":-6.319871,"station_id":"SRP","station_name":"Serpong","distance":2413,"time":4,"line":6,"transit":false,"i_long":106.66566},{"time":4,"i_lat":-6.32484,"is_transit":false,"i_long":106.640411,"station_id":"CSK","line":0,"transit":false,"distance":1784,"station_name":"Cisauk"},{"i_long":106.617853,"is_transit":false,"station_name":"Cicayur","time":4,"transit":false,"i_lat":-6.329547,"station_id":"CC","distance":2519,"line":0},{"time":8,"is_transit":false,"transit":false,"station_id":"PRP","distance":5968,"station_name":"Parung Panjang","line":6,"i_lat":-6.3441410000000005,"i_long":106.568863},{"distance":7025,"station_name":"Cilejit","time":9,"i_lat":-6.354349,"transit":false,"i_long":106.508482,"is_transit":false,"station_id":"CJT","line":0},{"station_name":"Daru","transit":false,"time":6,"distance":2675,"i_lat":-6.338021,"i_long":106.491338,"line":0,"station_id":"DAR","is_transit":false},{"time":5,"i_long":106.460812,"transit":false,"station_name":"Tenjo","line":6,"distance":3902,"is_transit":false,"station_id":"TEJ","i_lat":-6.327251}],[{"line":2,"station_name":"Gondangdia","transit":false,"i_lat":-6.186295,"i_long":106.832183,"station_id":"GDD","is_transit":false,"distance":0,"time":0},{"station_name":"Cikini","is_transit":false,"time":3,"transit":false,"i_long":106.840169,"distance":1750,"i_lat":-6.198556,"station_id":"CKI","line":0},{"time":4,"is_transit":true,"transit":true,"station_id":"MRI","i_lat":-6.209883,"station_name":"Manggarai","distance":1590,"i_long":106.84912,"line":0},{"transit":false,"time":2,"line":1,"distance":1275,"is_transit":false,"station_name":"Matraman","i_lat":-6.212485,"station_id":"MTR","i_long":106.858896},{"is_transit":true,"time":8,"i_lat":-6.215091,"line":0,"station_id":"JNG","distance":1377,"station_name":"Jatinegara","transit":true,"i_long":106.86807400000001},{"transit":false,"is_transit":false,"distance":1236,"time":2,"line":11,"i_long":106.861737,"station_name":"Pondok Jati","station_id":"POK","i_lat":-6.209188},{"i_long":106.855437,"transit":false,"i_lat":-6.193792,"is_transit":false,"line":11,"station_id":"KMT","time":2,"distance":1829,"station_name":"Kramat"},{"time":1,"line":11,"i_long":106.850107,"station_name":"Gang Sentiong","station_id":"GST","distance":973,"is_transit":false,"transit":false,"i_lat":-6.185975},{"is_transit":false,"time":8,"i_long":106.84368,"i_lat":-6.174784,"station_id":"PSE","transit":false,"station_name":"Pasar Senen","line":11,"distance":1567},{"is_transit":false,"distance":1436,"line":11,"station_name":"Kemayoran","time":4,"i_lat":-6.161728,"transit":false,"i_long":106.839204,"station_id":"KMO"},{"is_transit":false,"transit":false,"time":5,"station_id":"RJW","station_name":"Rajawali","i_lat":-6.14505,"line":11,"i_long":106.836569,"distance":1901},{"is_transit":true,"i_long":106.826365,"station_id":"KPB","line":0,"time":3,"distance":1444,"station_name":"Kampung Bandan","transit":true,"i_lat":-6.132549},{"transit":false,"station_name":"Angke","i_long":106.79867,"station_id":"AK","i_lat":-6.144674,"line":0,"is_transit":false,"time":9,"distance":4102},{"is_transit":true,"station_id":"DU","i_lat":-6.155215,"distance":1230,"time":4,"i_long":106.800832,"station_name":"Duri","transit":true,"line":1},{"line":1,"distance":3632,"time":8,"i_long":106.811091,"is_transit":true,"station_name":"Tanah Abang","station_id":"THB","transit":true,"i_lat":-6.185545},{"distance":3191,"line":6,"i_lat":-6.207404,"time":6,"station_name":"Palmerah","station_id":"PLM","transit":false,"is_transit":false,"i_long":106.79689},{"station_id":"KBY","time":7,"i_long":106.780334,"distance":3737,"transit":false,"line":6,"is_transit":false,"i_lat":-6.237242,"station_name":"Kebayoran"},{"line":6,"is_transit":false,"distance":6218,"i_lat":-6.276362,"transit":false,"i_long":106.74273,"time":8,"station_id":"PDJ","station_name":"Pondokranji"},{"line":6,"i_long":106.728916,"time":3,"i_lat":-6.288927,"station_id":"JMU","distance":2179,"station_name":"Jurangmangu","transit":false,"is_transit":false},{"station_name":"Sudimara","i_lat":-6.296963,"transit":false,"i_long":106.712277,"station_id":"SDM","line":6,"time":4,"is_transit":false,"distance":1994},{"distance":4566,"station_id":"RU","i_long":106.675475,"transit":false,"station_name":"Rawa Buntu","i_lat":-6.314823,"time":6,"line":6,"is_transit":false},{"time":4,"distance":2413,"i_lat":-6.319871,"station_id":"SRP","is_transit":false,"line":6,"transit":false,"station_name":"Serpong","i_long":106.66566},{"distance":1784,"transit":false,"i_long":106.640411,"station_id":"CSK","line":0,"time":4,"is_transit":false,"i_lat":-6.32484,"station_name":"Cisauk"},{"transit":false,"i_long":106.617853,"station_id":"CC","line":0,"distance":2519,"i_lat":-6.329547,"station_name":"Cicayur","time":4,"is_transit":false},{"station_name":"Parung Panjang","station_id":"PRP","is_transit":false,"line":6,"distance":5968,"i_long":106.568863,"time":8,"i_lat":-6.3441410000000005,"transit":false},{"is_transit":false,"time":9,"transit":false,"i_lat":-6.354349,"station_name":"Cilejit","i_long":106.508482,"station_id":"CJT","distance":7025,"line":0},{"time":6,"distance":2675,"i_long":106.491338,"line":0,"transit":false,"i_lat":-6.338021,"station_id":"DAR","is_transit":false,"station_name":"Daru"},{"station_name":"Tenjo","time":5,"transit":false,"i_lat":-6.327251,"station_id":"TEJ","is_transit":false,"distance":3902,"i_long":106.460812,"line":6}],[{"is_transit":false,"i_lat":-6.186295,"station_id":"GDD","i_long":106.832183,"transit":false,"time":0,"station_name":"Gondangdia","line":2,"distance":0},{"i_lat":-6.166716,"i_long":106.828284,"station_id":"JUA","transit":false,"is_transit":false,"time":4,"station_name":"Juanda","line":2,"distance":2015},{"line":2,"i_long":106.827103,"is_transit":false,"distance":1149,"i_lat":-6.160725,"station_name":"Sawah Besar","station_id":"SW","time":2,"transit":false},{"transit":false,"time":2,"station_id":"MGB","station_name":"Manggabesar","distance":906,"is_transit":false,"i_long":106.82482,"i_lat":-6.149769,"line":2},{"is_transit":false,"distance":1080,"station_name":"Jayakarta","transit":false,"i_lat":-6.141205,"station_id":"JAY","time":2,"i_long":106.820901,"line":7},{"transit":true,"i_lat":-6.137569,"is_transit":true,"station_id":"JAKK","i_long":106.812439,"line":0,"time":4,"distance":1264,"station_name":"Jakarta Kota"},{"line":0,"is_transit":true,"time":3,"distance":1364,"i_long":106.826365,"i_lat":-6.132549,"station_name":"Kampung Bandan","station_id":"KPB","transit":true},{"line":11,"transit":false,"station_id":"RJW","i_long":106.836569,"i_lat":-6.14505,"is_transit":false,"station_name":"Rajawali","time":3,"distance":1444},{"transit":false,"i_long":106.839204,"time":5,"distance":1901,"i_lat":-6.161728,"station_id":"KMO","station_name":"Kemayoran","is_transit":false,"line":11},{"transit":false,"line":11,"is_transit":false,"distance":1436,"station_id":"PSE","i_lat":-6.174784,"station_name":"Pasar Senen","i_long":106.84368,"time":4},{"station_id":"GST","distance":1567,"i_lat":-6.185975,"line":11,"time":8,"is_transit":false,"transit":false,"i_long":106.850107,"station_name":"Gang Sentiong"},{"line":11,"is_transit":false,"station_id":"KMT","time":1,"distance":973,"station_name":"Kramat","i_lat":-6.193792,"transit":false,"i_long":106.855437},{"station_id":"POK","i_long":106.861737,"line":11,"distance":1829,"time":2,"transit":false,"is_transit":false,"i_lat":-6.209188,"station_name":"Pondok Jati"},{"time":9,"station_name":"Jatinegara","transit":true,"distance":1236,"i_lat":-6.215091,"line":0,"i_long":106.86807400000001,"is_transit":true,"station_id":"JNG"},{"line":1,"station_name":"Matraman","time":2,"transit":false,"i_lat":-6.212485,"i_long":106.858896,"is_transit":false,"distance":1377,"station_id":"MTR"},{"time":2,"is_transit":true,"transit":false,"distance":1275,"i_lat":-6.209883,"i_long":106.84912,"line":0,"station_name":"Manggarai","station_id":"MRI"},{"time":4,"line":1,"distance":3186,"station_id":"SUD","is_transit":false,"station_name":"Sudirman","i_lat":-6.202263,"i_long":106.822649,"transit":false},{"line":1,"i_long":106.819881,"i_lat":-6.201433,"station_id":"SUDB","time":1,"is_transit":false,"station_name":"Sudirman Baru","transit":false,"distance":280},{"transit":false,"station_name":"Karet","is_transit":false,"time":1,"distance":471,"i_lat":-6.20132,"station_id":"KAT","i_long":106.816351,"line":1},{"station_name":"Tanah Abang","transit":true,"i_lat":-6.185545,"i_long":106.811091,"line":1,"time":5,"is_transit":true,"distance":2029,"station_id":"THB"},{"line":6,"i_lat":-6.207404,"time":6,"station_id":"PLM","station_name":"Palmerah","i_long":106.79689,"transit":false,"distance":3191,"is_transit":false},{"i_long":106.780334,"line":6,"distance":3737,"transit":false,"station_name":"Kebayoran","is_transit":false,"time":7,"station_id":"KBY","i_lat":-6.237242},{"time":8,"transit":false,"distance":6218,"i_long":106.74273,"station_name":"Pondokranji","is_transit":false,"line":6,"station_id":"PDJ","i_lat":-6.276362},{"station_id":"JMU","i_long":106.728916,"i_lat":-6.288927,"is_transit":false,"line":6,"distance":2179,"transit":false,"time":3,"station_name":"Jurangmangu"},{"station_name":"Sudimara","time":4,"line":6,"i_long":106.712277,"transit":false,"distance":1994,"i_lat":-6.296963,"is_transit":false,"station_id":"SDM"},{"distance":4566,"i_long":106.675475,"i_lat":-6.314823,"station_id":"RU","line":6,"time":6,"station_name":"Rawa Buntu","transit":false,"is_transit":false},{"line":6,"transit":false,"i_lat":-6.319871,"is_transit":false,"time":4,"distance":2413,"station_id":"SRP","station_name":"Serpong","i_long":106.66566},{"transit":false,"line":0,"i_long":106.640411,"time":4,"station_id":"CSK","is_transit":false,"station_name":"Cisauk","i_lat":-6.32484,"distance":1784},{"distance":2519,"transit":false,"station_name":"Cicayur","line":0,"i_lat":-6.329547,"station_id":"CC","time":4,"i_long":106.617853,"is_transit":false},{"i_long":106.568863,"station_id":"PRP","transit":false,"time":8,"is_transit":false,"i_lat":-6.3441410000000005,"line":6,"station_name":"Parung Panjang","distance":5968},{"station_name":"Cilejit","is_transit":false,"line":0,"i_long":106.508482,"station_id":"CJT","i_lat":-6.354349,"time":9,"transit":false,"distance":7025},{"transit":false,"i_lat":-6.338021,"time":6,"i_long":106.491338,"line":0,"distance":2675,"station_id":"DAR","is_transit":false,"station_name":"Daru"},{"line":6,"i_lat":-6.327251,"station_id":"TEJ","distance":3902,"transit":false,"station_name":"Tenjo","i_long":106.460812,"is_transit":false,"time":5}]]}