{"data":[[{"line":2,"distance":0,"transit":false,"station_id":"GDD","station_name":"Gondangdia","is_transit":false,"i_lat":-6.186295,"i_long":106.832183,"time":0},{"station_name":"Cikini","transit":false,"i_long":106.840169,"is_transit":false,"i_lat":-6.198556,"distance":1750,"line":2,"station_id":"CKI","time":3},{"line":2,"station_name":"Manggarai","station_id":"MRI","i_long":106.84912,"time":4,"is_transit":true,"transit":true,"distance":1590,"i_lat":-6.209883},{"line":1,"i_long":106.858896,"distance":1275,"time":2,"station_id":"MTR","is_transit":false,"i_lat":-6.212485,"transit":false,"station_name":"Matraman"},{"i_long":106.86807400000001,"line":1,"transit":false,"station_name":"Jatinegara","station_id":"JNG","time":8,"is_transit":false,"i_lat":-6.215091,"distance":1377}],[{"is_transit":false,"time":0,"i_long":106.832183,"transit":false,"line":2,"i_lat":-6.186295,"station_name":"Gondangdia","station_id":"GDD","distance":0},{"i_long":106.828284,"line":2,"distance":2015,"is_transit":false,"transit":false,"i_lat":-6.166716,"station_name":"Juanda","time":4,"station_id":"JUA"},{"station_name":"Sawah Besar","station_id":"SW","line":2,"transit":false,"is_transit":false,"distance":1149,"i_long":106.827103,"i_lat":-6.160725,"time":2},{"station_name":"Manggabesar","is_transit":false,"i_long":106.82482,"line":2,"transit":false,"station_id":"MGB","time":2,"distance":906,"i_lat":-6.149769},{"station_name":"Jayakarta","i_lat":-6.141205,"is_transit":false,"i_long":106.820901,"station_id":"JAY","transit":false,"time":2,"line":2,"distance":1080},{"transit":true,"line":2,"distance":1264,"i_lat":-6.137569,"station_name":"Jakarta Kota","is_transit":true,"time":4,"station_id":"JAKK","i_long":106.812439},{"transit":true,"is_transit":true,"station_id":"KPB","line":4,"station_name":"Kampung Bandan","time":3,"distance":1364,"i_long":106.826365,"i_lat":-6.132549},{"is_transit":false,"station_name":"Rajawali","i_lat":-6.14505,"line":11,"transit":false,"distance":1444,"station_id":"RJW","i_long":106.836569,"time":3},{"distance":1901,"station_name":"Kemayoran","station_id":"KMO","i_lat":-6.161728,"i_long":106.839204,"line":11,"time":5,"is_transit":false,"transit":false},{"station_id":"PSE","transit":false,"i_long":106.84368,"is_transit":false,"station_name":"Pasar Senen","line":11,"distance":1436,"time":4,"i_lat":-6.174784},{"distance":1567,"i_long":106.850107,"station_id":"GST","transit":false,"time":8,"station_name":"Gang Sentiong","i_lat":-6.185975,"line":11,"is_transit":false},{"transit":false,"is_transit":false,"line":11,"time":1,"station_name":"Kramat","station_id":"KMT","i_lat":-6.193792,"i_long":106.855437,"distance":973},{"transit":false,"distance":1829,"i_lat":-6.209188,"station_id":"POK","is_transit":false,"station_name":"Pondok Jati","i_long":106.861737,"time":2,"line":11},{"station_name":"Jatinegara","time":9,"station_id":"JNG","is_transit":false,"i_lat":-6.215091,"i_long":106.86807400000001,"line":1,"transit":false,"distance":1236}],[{"line":2,"time":0,"i_lat":-6.186295,"is_transit":false,"distance":0,"i_long":106.832183,"station_name":"Gondangdia","transit":false,"station_id":"GDD"},{"i_long":106.828284,"i_lat":-6.166716,"is_transit":false,"station_id":"JUA","line":2,"distance":2015,"transit":false,"time":4,"station_name":"Juanda"},{"line":2,"station_id":"SW","time":2,"transit":false,"distance":1149,"station_name":"Sawah Besar","is_transit":false,"i_lat":-6.160725,"i_long":106.827103},{"station_name":"Manggabesar","distance":906,"i_lat":-6.149769,"i_long":106.82482,"station_id":"MGB","line":2,"is_transit":false,"transit":false,"time":2},{"station_id":"JAY","i_long":106.820901,"i_lat":-6.141205,"line":2,"time":2,"is_transit":false,"distance":1080,"station_name":"Jayakarta","transit":false},{"distance":1264,"i_lat":-6.137569,"station_name":"Jakarta Kota","is_transit":true,"line":2,"time":4,"station_id":"JAKK","transit":true,"i_long":106.812439},{"line":4,"i_long":106.826365,"i_lat":-6.132549,"time":3,"transit":true,"station_id":"KPB","is_transit":true,"station_name":"Kampung Bandan","distance":1364},{"transit":false,"distance":4102,"i_lat":-6.144674,"station_id":"AK","time":9,"is_transit":false,"i_long":106.79867,"station_name":"Angke","line":1},{"is_transit":false,"station_name":"Duri","transit":false,"station_id":"DU","distance":1230,"i_lat":-6.155215,"i_long":106.800832,"line":1,"time":4},{"station_id":"THB","time":8,"i_long":106.811091,"i_lat":-6.185545,"is_transit":false,"distance":3632,"station_name":"Tanah Abang","transit":false,"line":1},{"is_transit":false,"i_long":106.816351,"transit":false,"distance":2029,"station_name":"Karet","time":5,"i_lat":-6.20132,"line":1,"station_id":"KAT"},{"is_transit":false,"station_name":"Sudirman Baru","station_id":"SUDB","time":1,"i_long":106.819881,"line":1,"transit":false,"i_lat":-6.201433,"distance":471},{"station_name":"Sudirman","is_transit":false,"distance":280,"line":1,"station_id":"SUD","time":1,"i_lat":-6.202263,"transit":false,"i_long":106.822649},{"i_long":106.84912,"transit":false,"time":4,"station_name":"Manggarai","line":2,"distance":3186,"is_transit":false,"station_id":"MRI","i_lat":-6.209883},{"i_lat":-6.212485,"station_id":"MTR","transit":false,"is_transit":false,"station_name":"Matraman","distance":1275,"i_long":106.858896,"time":2,"line":1},{"station_name":"Jatinegara","is_transit":false,"line":1,"transit":false,"time":8,"distance":1377,"station_id":"JNG","i_lat":-6.215091,"i_long":106.86807400000001}],[{"is_transit":false,"station_name":"Gondangdia","station_id":"GDD","transit":false,"i_lat":-6.186295,"line":2,"distance":0,"i_long":106.832183,"time":0},{"transit":false,"is_transit":false,"line":2,"station_id":"CKI","distance":1750,"time":3,"i_lat":-6.198556,"i_long":106.840169,"station_name":"Cikini"},{"station_name":"Manggarai","station_id":"MRI","i_lat":-6.209883,"is_transit":true,"transit":true,"distance":1590,"i_long":106.84912,"line":2,"time":4},{"transit":false,"time":4,"i_lat":-6.202263,"station_id":"SUD","i_long":106.822649,"is_transit":false,"line":1,"station_name":"Sudirman","distance":3186},{"is_transit":false,"station_id":"SUDB","transit":false,"distance":280,"station_name":"Sudirman Baru","i_lat":-6.201433,"i_long":106.819881,"line":1,"time":1},{"distance":471,"i_lat":-6.20132,"transit":false,"time":1,"station_name":"Karet","line":1,"station_id":"KAT","i_long":106.816351,"is_transit":false},{"line":1,"time":5,"is_transit":false,"station_id":"THB","i_long":106.811091,"transit":false,"i_lat":-6.185545,"distance":2029,"station_name":"Tanah Abang"},{"line":1,"station_id":"DU","transit":false,"i_lat":-6.155215,"station_name":"Duri","distance":3632,"i_long":106.800832,"time":8,"is_transit":false},{"line":1,"is_transit":false,"station_name":"Angke","station_id":"AK","i_long":106.79867,"distance":1230,"time":4,"i_lat":-6.144674,"transit":false},{"is_transit":true,"station_name":"Kampung Bandan","i_lat":-6.132549,"line":4,"station_id":"KPB","transit":true,"time":9,"distance":4102,"i_long":106.826365},{"i_lat":-6.14505,"station_id":"RJW","transit":false,"is_transit":false,"distance":1444,"time":3,"i_long":106.836569,"station_name":"Rajawali","line":11},{"transit":false,"station_id":"KMO","time":5,"distance":1901,"i_long":106.839204,"line":11,"i_lat":-6.161728,"station_name":"Kemayoran","is_transit":false},{"transit":false,"distance":1436,"is_transit":false,"time":4,"station_name":"Pasar Senen","i_lat":-6.174784,"i_long":106.84368,"line":11,"station_id":"PSE"},{"line":11,"is_transit":false,"time":8,"distance":1567,"i_lat":-6.185975,"station_name":"Gang Sentiong","station_id":"GST","transit":false,"i_long":106.850107},{"distance":973,"time":1,"station_id":"KMT","transit":false,"station_name":"Kramat","i_lat":-6.193792,"i_long":106.855437,"is_transit":false,"line":11},{"transit":false,"i_lat":-6.209188,"line":11,"time":2,"distance":1829,"is_transit":false,"station_name":"Pondok Jati","station_id":"POK","i_long":106.861737},{"line":1,"distance":1236,"station_id":"JNG","station_name":"Jatinegara","time":9,"i_long":106.86807400000001,"transit":false,"is_transit":false,"i_lat":-6.215091}]]}