{"data":[[{"station_name":"Gondangdia","distance":0,"i_long":106.832183,"transit":false,"line":2,"station_id":"GDD","is_transit":false,"time":0,"i_lat":-6.186295},{"is_transit":false,"time":4,"i_lat":-6.166716,"station_name":"Juanda","transit":false,"station_id":"JUA","distance":2015,"i_long":106.828284,"line":2},{"transit":false,"i_lat":-6.160725,"line":2,"distance":1149,"i_long":106.827103,"station_id":"SW","station_name":"Sawah Besar","time":2,"is_transit":false},{"station_id":"MGB","time":2,"is_transit":false,"distance":906,"i_long":106.82482,"line":2,"station_name":"Manggabesar","i_lat":-6.149769,"transit":false},{"line":2,"is_transit":false,"station_name":"Jayakarta","distance":1080,"time":2,"transit":false,"i_lat":-6.141205,"station_id":"JAY","i_long":106.820901},{"i_lat":-6.137569,"transit":false,"time":4,"station_id":"JAKK","i_long":106.812439,"station_name":"Jakarta Kota","is_transit":false,"line":2,"distance":1264}],[{"time":0,"transit":false,"station_name":"Gondangdia","distance":0,"is_transit":false,"station_id":"GDD","i_lat":-6.186295,"line":2,"i_long":106.832183},{"station_id":"CKI","time":3,"i_long":106.840169,"transit":false,"distance":1750,"is_transit":false,"line":2,"i_lat":-6.198556,"station_name":"Cikini"},{"i_lat":-6.209883,"i_long":106.84912,"distance":1590,"transit":true,"line":2,"time":4,"station_id":"MRI","station_name":"Manggarai","is_transit":true},{"transit":false,"station_id":"SUD","station_name":"Sudirman","is_transit":false,"time":4,"i_long":106.822649,"i_lat":-6.202263,"distance":3186,"line":1},{"i_lat":-6.201433,"transit":false,"station_name":"Sudirman Baru","distance":280,"station_id":"SUDB","time":1,"line":1,"i_long":106.819881,"is_transit":false},{"time":1,"station_id":"KAT","station_name":"Karet","is_transit":false,"transit":false,"distance":471,"i_lat":-6.20132,"i_long":106.816351,"line":1},{"time":5,"line":1,"i_lat":-6.185545,"i_long":106.811091,"distance":2029,"is_transit":false,"station_id":"THB","transit":false,"station_name":"Tanah Abang"},{"is_transit":false,"time":8,"i_lat":-6.155215,"i_long":106.800832,"station_id":"DU","station_name":"Duri","transit":false,"distance":3632,"line":1},{"station_name":"Angke","line":1,"station_id":"AK","transit":false,"time":4,"distance":1230,"is_transit":false,"i_lat":-6.144674,"i_long":106.79867},{"line":4,"station_name":"Kampung Bandan","transit":true,"is_transit":true,"time":9,"station_id":"KPB","distance":4102,"i_lat":-6.132549,"i_long":106.826365},{"station_id":"JAKK","i_lat":-6.137569,"i_long":106.812439,"is_transit":false,"distance":1364,"transit":false,"station_name":"Jakarta Kota","time":3,"line":2}],[{"is_transit":false,"time":0,"i_lat":-6.186295,"transit":false,"station_name":"Gondangdia","distance":0,"i_long":106.832183,"line":2,"station_id":"GDD"},{"station_name":"Cikini","station_id":"CKI","distance":1750,"i_lat":-6.198556,"line":2,"transit":false,"time":3,"is_transit":false,"i_long":106.840169},{"station_name":"Manggarai","time":4,"distance":1590,"station_id":"MRI","is_transit":true,"transit":true,"line":2,"i_lat":-6.209883,"i_long":106.84912},{"transit":false,"distance":1275,"station_id":"MTR","station_name":"Matraman","i_lat":-6.212485,"i_long":106.858896,"line":1,"time":2,"is_transit":false},{"distance":1377,"transit":true,"i_lat":-6.215091,"time":8,"station_name":"Jatinegara","line":1,"i_long":106.86807400000001,"station_id":"JNG","is_transit":true},{"time":2,"i_long":106.861737,"line":11,"i_lat":-6.209188,"station_name":"Pondok Jati","is_transit":false,"station_id":"POK","distance":1236,"transit":false},{"is_transit":false,"station_name":"Kramat","time":2,"distance":1829,"station_id":"KMT","i_lat":-6.193792,"transit":false,"i_long":106.855437,"line":11},{"station_name":"Gang Sentiong","time":1,"i_long":106.850107,"line":11,"station_id":"GST","i_lat":-6.185975,"is_transit":false,"distance":973,"transit":false},{"i_lat":-6.174784,"station_id":"PSE","line":11,"time":8,"i_long":106.84368,"station_name":"Pasar Senen","transit":false,"is_transit":false,"distance":1567},{"station_name":"Kemayoran","distance":1436,"i_long":106.839204,"transit":false,"line":11,"station_id":"KMO","time":4,"i_lat":-6.161728,"is_transit":false},{"i_long":106.836569,"transit":false,"distance":1901,"is_transit":false,"time":5,"station_id":"RJW","i_lat":-6.14505,"line":11,"station_name":"Rajawali"},{"i_long":106.826365,"line":4,"is_transit":true,"station_name":"Kampung Bandan","transit":true,"distance":1444,"station_id":"KPB","time":3,"i_lat":-6.132549},{"i_lat":-6.137569,"distance":1364,"line":2,"is_transit":false,"i_long":106.812439,"transit":false,"station_id":"JAKK","time":3,"station_name":"Jakarta Kota"}]]}