{"data":[[{"line":2,"transit":false,"i_lat":-6.186295,"i_long":106.832183,"distance":0,"station_name":"Gondangdia","is_transit":false,"time":0,"station_id":"GDD"},{"distance":1750,"i_long":106.840169,"line":2,"station_id":"CKI","station_name":"Cikini","transit":false,"is_transit":false,"time":3,"i_lat":-6.198556},{"station_id":"MRI","line":2,"distance":1590,"i_lat":-6.209883,"i_long":106.84912,"station_name":"Manggarai","transit":true,"is_transit":true,"time":4},{"transit":false,"station_name":"Sudirman","distance":3186,"i_long":106.822649,"station_id":"SUD","time":4,"i_lat":-6.202263,"line":1,"is_transit":false},{"is_transit":false,"distance":280,"time":1,"station_name":"Sudirman Baru","i_long":106.819881,"station_id":"SUDB","line":1,"i_lat":-6.201433,"transit":false},{"is_transit":false,"i_lat":-6.20132,"time":1,"station_id":"KAT","distance":471,"i_long":106.816351,"line":1,"transit":false,"station_name":"Karet"}],[{"transit":false,"station_id":"GDD","i_lat":-6.186295,"is_transit":false,"time":0,"i_long":106.832183,"station_name":"Gondangdia","distance":0,"line":2},{"is_transit":false,"station_id":"JUA","time":4,"transit":false,"distance":2015,"i_lat":-6.166716,"station_name":"Juanda","i_long":106.828284,"line":2},{"i_lat":-6.160725,"i_long":106.827103,"distance":1149,"transit":false,"line":2,"station_id":"SW","time":2,"station_name":"Sawah Besar","is_transit":false},{"station_name":"Manggabesar","distance":906,"station_id":"MGB","is_transit":false,"time":2,"i_lat":-6.149769,"line":2,"i_long":106.82482,"transit":false},{"time":2,"station_id":"JAY","is_transit":false,"i_lat":-6.141205,"distance":1080,"line":2,"transit":false,"i_long":106.820901,"station_name":"Jayakarta"},{"station_id":"JAKK","station_name":"Jakarta Kota","distance":1264,"i_long":106.812439,"line":2,"transit":true,"time":4,"i_lat":-6.137569,"is_transit":true},{"station_name":"Kampung Bandan","distance":1364,"i_long":106.826365,"line":4,"transit":true,"i_lat":-6.132549,"is_transit":true,"time":3,"station_id":"KPB"},{"i_lat":-6.144674,"station_name":"Angke","time":9,"is_transit":false,"line":1,"station_id":"AK","transit":false,"distance":4102,"i_long":106.79867},{"station_name":"Duri","i_long":106.800832,"transit":false,"line":1,"station_id":"DU","distance":1230,"i_lat":-6.155215,"is_transit":false,"time":4},{"transit":false,"station_id":"THB","i_lat":-6.185545,"i_long":106.811091,"distance":3632,"line":1,"station_name":"Tanah Abang","is_transit":false,"time":8},{"distance":2029,"station_id":"KAT","i_long":106.816351,"line":1,"i_lat":-6.20132,"time":5,"transit":false,"station_name":"Karet","is_transit":false}],[{"i_long":106.832183,"station_id":"GDD","transit":false,"distance":0,"line":2,"time":0,"station_name":"Gondangdia","i_lat":-6.186295,"is_transit":false},{"station_name":"Cikini","i_lat":-6.198556,"i_long":106.840169,"station_id":"CKI","is_transit":false,"distance":1750,"transit":false,"time":3,"line":2},{"station_id":"MRI","line":2,"distance":1590,"i_lat":-6.209883,"station_name":"Manggarai","time":4,"is_transit":true,"i_long":106.84912,"transit":true},{"transit":false,"station_id":"MTR","is_transit":false,"time":2,"i_long":106.858896,"station_name":"Matraman","distance":1275,"i_lat":-6.212485,"line":1},{"station_name":"Jatinegara","station_id":"JNG","i_long":106.86807400000001,"time":8,"transit":true,"distance":1377,"line":1,"i_lat":-6.215091,"is_transit":true},{"station_name":"Pondok Jati","line":11,"transit":false,"distance":1236,"station_id":"POK","is_transit":false,"i_lat":-6.209188,"i_long":106.861737,"time":2},{"is_transit":false,"station_name":"Kramat","transit":false,"distance":1829,"i_long":106.855437,"line":11,"station_id":"KMT","i_lat":-6.193792,"time":2},{"time":1,"station_id":"GST","line":11,"station_name":"Gang Sentiong","i_lat":-6.185975,"distance":973,"is_transit":false,"transit":false,"i_long":106.850107},{"transit":false,"i_lat":-6.174784,"time":8,"distance":1567,"is_transit":false,"station_name":"Pasar Senen","station_id":"PSE","i_long":106.84368,"line":11},{"time":4,"transit":false,"distance":1436,"i_long":106.839204,"line":11,"station_id":"KMO","is_transit":false,"station_name":"Kemayoran","i_lat":-6.161728},{"distance":1901,"time":5,"transit":false,"i_lat":-6.14505,"station_id":"RJW","is_transit":false,"line":11,"station_name":"Rajawali","i_long":106.836569},{"transit":true,"is_transit":true,"station_id":"KPB","line":4,"i_lat":-6.132549,"station_name":"Kampung Bandan","distance":1444,"i_long":106.826365,"time":3},{"station_name":"Angke","transit":false,"i_lat":-6.144674,"distance":4102,"time":9,"station_id":"AK","line":1,"is_transit":false,"i_long":106.79867},{"station_name":"Duri","i_lat":-6.155215,"transit":false,"i_long":106.800832,"is_transit":false,"time":4,"distance":1230,"station_id":"DU","line":1},{"line":1,"distance":3632,"i_lat":-6.185545,"is_transit":false,"station_id":"THB","station_name":"Tanah Abang","i_long":106.811091,"time":8,"transit":false},{"is_transit":false,"distance":2029,"time":5,"line":1,"station_name":"Karet","transit":false,"station_id":"KAT","i_long":106.816351,"i_lat":-6.20132}],[{"i_lat":-6.186295,"station_name":"Gondangdia","line":2,"i_long":106.832183,"transit":false,"distance":0,"is_transit":false,"time":0,"station_id":"GDD"},{"station_name":"Juanda","transit":false,"is_transit":false,"distance":2015,"time":4,"i_lat":-6.166716,"i_long":106.828284,"station_id":"JUA","line":2},{"line":2,"time":2,"transit":false,"i_long":106.827103,"station_id":"SW","distance":1149,"station_name":"Sawah Besar","i_lat":-6.160725,"is_transit":false},{"line":2,"time":2,"i_long":106.82482,"station_name":"Manggabesar","distance":906,"i_lat":-6.149769,"station_id":"MGB","is_transit":false,"transit":false},{"station_id":"JAY","i_long":106.820901,"distance":1080,"line":2,"transit":false,"is_transit":false,"time":2,"i_lat":-6.141205,"station_name":"Jayakarta"},{"i_lat":-6.137569,"distance":1264,"transit":true,"station_name":"Jakarta Kota","line":2,"i_long":106.812439,"time":4,"is_transit":true,"station_id":"JAKK"},{"distance":1364,"line":4,"transit":true,"station_name":"Kampung Bandan","station_id":"KPB","time":3,"i_lat":-6.132549,"i_long":106.826365,"is_transit":true},{"line":11,"time":3,"transit":false,"station_name":"Rajawali","distance":1444,"i_long":106.836569,"is_transit":false,"station_id":"RJW","i_lat":-6.14505},{"i_lat":-6.161728,"time":5,"is_transit":false,"i_long":106.839204,"line":11,"transit":false,"distance":1901,"station_id":"KMO","station_name":"Kemayoran"},{"transit":false,"is_transit":false,"time":4,"line":11,"i_lat":-6.174784,"station_id":"PSE","distance":1436,"station_name":"Pasar Senen","i_long":106.84368},{"transit":false,"station_id":"GST","is_transit":false,"distance":1567,"i_lat":-6.185975,"line":11,"i_long":106.850107,"time":8,"station_name":"Gang Sentiong"},{"is_transit":false,"station_name":"Kramat","station_id":"KMT","i_lat":-6.193792,"i_long":106.855437,"transit":false,"distance":973,"time":1,"line":11},{"station_id":"POK","time":2,"distance":1829,"station_name":"Pondok Jati","is_transit":false,"i_lat":-6.209188,"transit":false,"line":11,"i_long":106.861737},{"time":9,"station_name":"Jatinegara","i_long":106.86807400000001,"distance":1236,"transit":true,"i_lat":-6.215091,"is_transit":true,"line":1,"station_id":"JNG"},{"station_name":"Matraman","i_long":106.858896,"is_transit":false,"time":2,"line":1,"distance":1377,"station_id":"MTR","transit":false,"i_lat":-6.212485},{"distance":1275,"station_id":"MRI","station_name":"Manggarai","i_long":106.84912,"line":2,"time":2,"i_lat":-6.209883,"is_transit":false,"transit":false},{"station_id":"SUD","distance":3186,"i_long":106.822649,"line":1,"is_transit":false,"station_name":"Sudirman","time":4,"i_lat":-6.202263,"transit":false},{"is_transit":false,"i_long":106.819881,"i_lat":-6.201433,"line":1,"station_id":"SUDB","transit":false,"time":1,"station_name":"Sudirman Baru","distance":280},{"distance":471,"i_long":106.816351,"station_id":"KAT","line":1,"transit":false,"i_lat":-6.20132,"time":1,"station_name":"Karet","is_transit":false}]]}