{"data":[[{"station_name":"Gondangdia","is_transit":false,"transit":false,"station_id":"GDD","i_lat":-6.186295,"line":2,"i_long":106.832183,"time":0,"distance":0},{"line":0,"is_transit":false,"station_id":"CKI","time":3,"transit":false,"station_name":"Cikini","i_lat":-6.198556,"i_long":106.840169,"distance":1750},{"station_name":"Manggarai","transit":true,"i_long":106.84912,"line":0,"is_transit":true,"distance":1590,"time":4,"i_lat":-6.209883,"station_id":"MRI"},{"station_name":"Sudirman","station_id":"SUD","time":4,"transit":false,"i_lat":-6.202263,"distance":3186,"line":1,"i_long":106.822649,"is_transit":false},{"station_id":"SUDB","distance":280,"transit":false,"i_lat":-6.201433,"line":1,"station_name":"Sudirman Baru","is_transit":false,"time":1,"i_long":106.819881},{"distance":471,"station_name":"Karet","is_transit":false,"i_lat":-6.20132,"station_id":"KAT","transit":false,"i_long":106.816351,"line":1,"time":1},{"station_name":"Tanah Abang","time":5,"transit":false,"distance":2029,"i_lat":-6.185545,"line":1,"is_transit":true,"i_long":106.811091,"station_id":"THB"},{"time":8,"distance":3632,"station_name":"Duri","i_lat":-6.155215,"line":1,"i_long":106.800832,"station_id":"DU","transit":true,"is_transit":true},{"distance":1700,"i_long":106.788277,"transit":false,"station_id":"GGL","i_lat":-6.162021,"is_transit":false,"station_name":"Grogol","line":5,"time":3},{"is_transit":false,"transit":false,"time":2,"distance":2036,"station_name":"Pesing","i_long":106.771379,"line":5,"i_lat":-6.161433,"station_id":"PSG"},{"i_long":106.756522,"is_transit":false,"line":5,"station_id":"TKO","time":2,"distance":1614,"station_name":"Taman Kota","transit":false,"i_lat":-6.1587309999999995},{"station_name":"Bojongindah","time":2,"distance":2334,"station_id":"BOI","i_long":106.737035,"is_transit":false,"i_lat":-6.159876,"transit":false,"line":0}],[{"station_name":"Gondangdia","time":0,"distance":0,"line":2,"station_id":"GDD","i_long":106.832183,"transit":false,"i_lat":-6.186295,"is_transit":false},{"i_lat":-6.166716,"transit":false,"time":4,"is_transit":false,"line":2,"station_id":"JUA","station_name":"Juanda","i_long":106.828284,"distance":2015},{"line":2,"station_id":"SW","transit":false,"time":2,"i_long":106.827103,"is_transit":false,"i_lat":-6.160725,"distance":1149,"station_name":"Sawah Besar"},{"time":2,"distance":906,"is_transit":false,"line":2,"station_name":"Manggabesar","i_long":106.82482,"station_id":"MGB","transit":false,"i_lat":-6.149769},{"time":2,"is_transit":false,"i_lat":-6.141205,"line":7,"station_id":"JAY","transit":false,"i_long":106.820901,"station_name":"Jayakarta","distance":1080},{"i_lat":-6.137569,"station_id":"JAKK","is_transit":true,"time":4,"distance":1264,"station_name":"Jakarta Kota","i_long":106.812439,"line":0,"transit":true},{"line":0,"distance":1364,"station_name":"Kampung Bandan","time":3,"is_transit":true,"station_id":"KPB","i_lat":-6.132549,"i_long":106.826365,"transit":false},{"line":0,"station_name":"Angke","is_transit":false,"time":9,"transit":false,"distance":4102,"station_id":"AK","i_lat":-6.144674,"i_long":106.79867},{"distance":1230,"station_name":"Duri","station_id":"DU","transit":true,"line":1,"i_long":106.800832,"time":4,"i_lat":-6.155215,"is_transit":true},{"is_transit":false,"station_name":"Grogol","time":3,"station_id":"GGL","line":5,"transit":false,"i_long":106.788277,"distance":1700,"i_lat":-6.162021},{"transit":false,"i_long":106.771379,"time":2,"line":5,"station_name":"Pesing","i_lat":-6.161433,"is_transit":false,"distance":2036,"station_id":"PSG"},{"i_lat":-6.1587309999999995,"is_transit":false,"i_long":106.756522,"station_name":"Taman Kota","station_id":"TKO","time":2,"distance":1614,"line":5,"transit":false},{"time":2,"distance":2334,"transit":false,"i_long":106.737035,"station_name":"Bojongindah","line":0,"station_id":"BOI","is_transit":false,"i_lat":-6.159876}],[{"station_name":"Gondangdia","station_id":"GDD","i_lat":-6.186295,"line":2,"time":0,"transit":false,"distance":0,"i_long":106.832183,"is_transit":false},{"is_transit":false,"i_lat":-6.198556,"station_id":"CKI","time":3,"transit":false,"line":0,"i_long":106.840169,"distance":1750,"station_name":"Cikini"},{"station_name":"Manggarai","is_transit":true,"transit":true,"i_long":106.84912,"station_id":"MRI","i_lat":-6.209883,"line":0,"time":4,"distance":1590},{"transit":false,"line":1,"distance":1275,"i_long":106.858896,"time":2,"is_transit":false,"station_name":"Matraman","i_lat":-6.212485,"station_id":"MTR"},{"station_id":"JNG","i_lat":-6.215091,"is_transit":true,"line":0,"time":8,"transit":true,"distance":1377,"station_name":"Jatinegara","i_long":106.86807400000001},{"time":2,"i_lat":-6.209188,"station_name":"Pondok Jati","is_transit":false,"distance":1236,"i_long":106.861737,"line":11,"transit":false,"station_id":"POK"},{"i_lat":-6.193792,"distance":1829,"station_name":"Kramat","station_id":"KMT","is_transit":false,"i_long":106.855437,"line":11,"transit":false,"time":2},{"i_lat":-6.185975,"distance":973,"station_name":"Gang Sentiong","i_long":106.850107,"station_id":"GST","is_transit":false,"transit":false,"time":1,"line":11},{"transit":false,"i_lat":-6.174784,"line":11,"time":8,"station_id":"PSE","is_transit":false,"distance":1567,"station_name":"Pasar Senen","i_long":106.84368},{"is_transit":false,"transit":false,"time":4,"i_lat":-6.161728,"station_name":"Kemayoran","i_long":106.839204,"station_id":"KMO","distance":1436,"line":11},{"transit":false,"i_long":106.836569,"i_lat":-6.14505,"line":11,"time":5,"station_name":"Rajawali","distance":1901,"station_id":"RJW","is_transit":false},{"is_transit":true,"i_long":106.826365,"time":3,"i_lat":-6.132549,"transit":true,"distance":1444,"station_id":"KPB","line":0,"station_name":"Kampung Bandan"},{"i_lat":-6.144674,"transit":false,"i_long":106.79867,"station_id":"AK","is_transit":false,"line":0,"time":9,"distance":4102,"station_name":"Angke"},{"station_id":"DU","time":4,"i_long":106.800832,"i_lat":-6.155215,"is_transit":true,"line":1,"distance":1230,"station_name":"Duri","transit":true},{"i_long":106.788277,"transit":false,"station_id":"GGL","line":5,"i_lat":-6.162021,"time":3,"is_transit":false,"distance":1700,"station_name":"Grogol"},{"line":5,"is_transit":false,"station_name":"Pesing","station_id":"PSG","time":2,"transit":false,"i_long":106.771379,"distance":2036,"i_lat":-6.161433},{"transit":false,"line":5,"i_long":106.756522,"station_id":"TKO","i_lat":-6.1587309999999995,"is_transit":false,"time":2,"distance":1614,"station_name":"Taman Kota"},{"station_id":"BOI","station_name":"Bojongindah","time":2,"i_long":106.737035,"distance":2334,"is_transit":false,"transit":false,"line":0,"i_lat":-6.159876}],[{"line":2,"station_id":"GDD","is_transit":false,"distance":0,"station_name":"Gondangdia","time":0,"i_lat":-6.186295,"i_long":106.832183,"transit":false},{"i_long":106.828284,"distance":2015,"station_name":"Juanda","transit":false,"line":2,"is_transit":false,"station_id":"JUA","time":4,"i_lat":-6.166716},{"time":2,"i_long":106.827103,"transit":false,"station_name":"Sawah Besar","station_id":"SW","i_lat":-6.160725,"line":2,"is_transit":false,"distance":1149},{"i_lat":-6.149769,"time":2,"transit":false,"distance":906,"station_id":"MGB","is_transit":false,"station_name":"Manggabesar","i_long":106.82482,"line":2},{"time":2,"distance":1080,"is_transit":false,"station_id":"JAY","i_lat":-6.141205,"station_name":"Jayakarta","line":7,"transit":false,"i_long":106.820901},{"i_lat":-6.137569,"i_long":106.812439,"is_transit":true,"transit":true,"station_name":"Jakarta Kota","station_id":"JAKK","line":0,"time":4,"distance":1264},{"i_long":106.826365,"i_lat":-6.132549,"distance":1364,"time":3,"is_transit":true,"station_id":"KPB","station_name":"Kampung Bandan","line":0,"transit":true},{"i_lat":-6.14505,"station_id":"RJW","time":3,"line":11,"distance":1444,"is_transit":false,"station_name":"Rajawali","i_long":106.836569,"transit":false},{"line":11,"distance":1901,"station_id":"KMO","i_lat":-6.161728,"station_name":"Kemayoran","i_long":106.839204,"transit":false,"time":5,"is_transit":false},{"distance":1436,"line":11,"station_id":"PSE","is_transit":false,"time":4,"transit":false,"station_name":"Pasar Senen","i_long":106.84368,"i_lat":-6.174784},{"time":8,"is_transit":false,"i_lat":-6.185975,"line":11,"transit":false,"station_id":"GST","station_name":"Gang Sentiong","i_long":106.850107,"distance":1567},{"i_lat":-6.193792,"line":11,"station_name":"Kramat","time":1,"i_long":106.855437,"distance":973,"is_transit":false,"station_id":"KMT","transit":false},{"distance":1829,"line":11,"i_long":106.861737,"transit":false,"i_lat":-6.209188,"is_transit":false,"station_id":"POK","station_name":"Pondok Jati","time":2},{"is_transit":true,"time":9,"i_long":106.86807400000001,"line":0,"distance":1236,"transit":true,"station_name":"Jatinegara","station_id":"JNG","i_lat":-6.215091},{"time":2,"transit":false,"i_lat":-6.212485,"is_transit":false,"line":1,"i_long":106.858896,"station_id":"MTR","distance":1377,"station_name":"Matraman"},{"distance":1275,"station_id":"MRI","transit":false,"i_long":106.84912,"time":2,"i_lat":-6.209883,"is_transit":true,"station_name":"Manggarai","line":0},{"time":4,"i_lat":-6.202263,"station_id":"SUD","i_long":106.822649,"line":1,"is_transit":false,"distance":3186,"station_name":"Sudirman","transit":false},{"station_id":"SUDB","is_transit":false,"station_name":"Sudirman Baru","transit":false,"i_long":106.819881,"distance":280,"line":1,"time":1,"i_lat":-6.201433},{"station_name":"Karet","i_long":106.816351,"transit":false,"station_id":"KAT","time":1,"is_transit":false,"line":1,"distance":471,"i_lat":-6.20132},{"station_name":"Tanah Abang","distance":2029,"time":5,"i_lat":-6.185545,"i_long":106.811091,"line":1,"transit":false,"station_id":"THB","is_transit":true},{"station_name":"Duri","i_lat":-6.155215,"transit":true,"i_long":106.800832,"line":1,"station_id":"DU","time":8,"is_transit":true,"distance":3632},{"i_long":106.788277,"distance":1700,"line":5,"is_transit":false,"station_id":"GGL","time":3,"station_name":"Grogol","i_lat":-6.162021,"transit":false},{"time":2,"distance":2036,"transit":false,"station_id":"PSG","line":5,"station_name":"Pesing","i_long":106.771379,"is_transit":false,"i_lat":-6.161433},{"distance":1614,"i_long":106.756522,"line":5,"is_transit":false,"time":2,"station_name":"Taman Kota","station_id":"TKO","transit":false,"i_lat":-6.1587309999999995},{"station_id":"BOI","is_transit":false,"distance":2334,"line":0,"i_lat":-6.159876,"time":2,"station_name":"Bojongindah","transit":false,"i_long":106.737035}]]}