{"data":[[{"i_lat":-6.186295,"time":0,"distance":0,"i_long":106.832183,"transit":false,"station_name":"Gondangdia","station_id":"GDD","is_transit":false,"line":2},{"i_long":106.840169,"is_transit":false,"i_lat":-6.198556,"station_id":"CKI","transit":false,"time":3,"distance":1750,"station_name":"Cikini","line":2},{"i_lat":-6.209883,"station_name":"Manggarai","station_id":"MRI","distance":1590,"time":4,"is_transit":true,"i_long":106.84912,"line":2,"transit":true},{"station_id":"SUD","is_transit":false,"i_lat":-6.202263,"i_long":106.822649,"transit":false,"station_name":"Sudirman","distance":3186,"line":1,"time":4},{"station_id":"SUDB","station_name":"Sudirman Baru","transit":false,"i_long":106.819881,"i_lat":-6.201433,"is_transit":false,"distance":280,"time":1,"line":1},{"distance":471,"i_lat":-6.20132,"station_id":"KAT","i_long":106.816351,"line":1,"transit":false,"station_name":"Karet","is_transit":false,"time":1},{"distance":2029,"station_id":"THB","line":1,"is_transit":true,"i_lat":-6.185545,"time":5,"i_long":106.811091,"station_name":"Tanah Abang","transit":true},{"i_lat":-6.207404,"station_name":"Palmerah","station_id":"PLM","line":6,"is_transit":false,"distance":3191,"i_long":106.79689,"transit":false,"time":6},{"distance":3737,"transit":false,"station_id":"KBY","is_transit":false,"i_lat":-6.237242,"time":7,"line":6,"station_name":"Kebayoran","i_long":106.780334},{"time":8,"distance":6218,"transit":false,"station_id":"PDJ","i_lat":-6.276362,"i_long":106.74273,"line":6,"station_name":"Pondokranji","is_transit":false},{"line":6,"i_lat":-6.288927,"station_id":"JMU","is_transit":false,"time":3,"station_name":"Jurangmangu","transit":false,"distance":2179,"i_long":106.728916},{"line":6,"transit":false,"station_id":"SDM","station_name":"Sudimara","time":4,"i_lat":-6.296963,"i_long":106.712277,"distance":1994,"is_transit":false},{"distance":4566,"time":6,"i_long":106.675475,"is_transit":false,"transit":false,"line":6,"station_name":"Rawa Buntu","station_id":"RU","i_lat":-6.314823},{"station_name":"Serpong","line":6,"transit":false,"is_transit":false,"i_lat":-6.319871,"station_id":"SRP","time":4,"i_long":106.66566,"distance":2413},{"station_name":"Cisauk","distance":1784,"transit":false,"i_long":106.640411,"line":3,"is_transit":false,"time":4,"i_lat":-6.32484,"station_id":"CSK"},{"time":4,"station_name":"Cicayur","station_id":"CC","i_lat":-6.329547,"distance":2519,"line":3,"i_long":106.617853,"is_transit":false,"transit":false},{"station_id":"PRP","station_name":"Parung Panjang","distance":5968,"i_long":106.568863,"transit":false,"line":6,"i_lat":-6.3441410000000005,"is_transit":false,"time":8},{"line":3,"time":9,"transit":false,"station_id":"CJT","is_transit":false,"i_long":106.508482,"distance":7025,"i_lat":-6.354349,"station_name":"Cilejit"},{"distance":2675,"line":0,"time":6,"transit":false,"is_transit":false,"i_long":106.491338,"station_id":"DAR","i_lat":-6.338021,"station_name":"Daru"}],[{"station_name":"Gondangdia","line":2,"transit":false,"i_long":106.832183,"i_lat":-6.186295,"station_id":"GDD","distance":0,"is_transit":false,"time":0},{"is_transit":false,"time":4,"transit":false,"station_name":"Juanda","i_long":106.828284,"line":2,"station_id":"JUA","distance":2015,"i_lat":-6.166716},{"station_id":"SW","distance":1149,"line":2,"is_transit":false,"station_name":"Sawah Besar","i_lat":-6.160725,"i_long":106.827103,"time":2,"transit":false},{"i_long":106.82482,"line":2,"station_id":"MGB","transit":false,"i_lat":-6.149769,"distance":906,"station_name":"Manggabesar","is_transit":false,"time":2},{"transit":false,"station_name":"Jayakarta","time":2,"i_lat":-6.141205,"is_transit":false,"line":2,"distance":1080,"station_id":"JAY","i_long":106.820901},{"station_name":"Jakarta Kota","line":2,"i_long":106.812439,"station_id":"JAKK","distance":1264,"i_lat":-6.137569,"transit":true,"time":4,"is_transit":true},{"station_name":"Kampung Bandan","distance":1364,"station_id":"KPB","transit":true,"i_lat":-6.132549,"line":4,"is_transit":true,"i_long":106.826365,"time":3},{"line":1,"station_name":"Angke","transit":false,"time":9,"distance":4102,"i_lat":-6.144674,"is_transit":false,"i_long":106.79867,"station_id":"AK"},{"i_lat":-6.155215,"station_name":"Duri","line":1,"time":4,"transit":false,"distance":1230,"is_transit":false,"i_long":106.800832,"station_id":"DU"},{"station_name":"Tanah Abang","station_id":"THB","time":8,"line":1,"transit":true,"is_transit":true,"distance":3632,"i_lat":-6.185545,"i_long":106.811091},{"i_long":106.79689,"i_lat":-6.207404,"transit":false,"station_id":"PLM","time":6,"is_transit":false,"station_name":"Palmerah","distance":3191,"line":6},{"i_long":106.780334,"is_transit":false,"station_id":"KBY","transit":false,"time":7,"station_name":"Kebayoran","line":6,"distance":3737,"i_lat":-6.237242},{"is_transit":false,"i_long":106.74273,"line":6,"station_name":"Pondokranji","station_id":"PDJ","distance":6218,"time":8,"i_lat":-6.276362,"transit":false},{"is_transit":false,"i_long":106.728916,"distance":2179,"line":6,"station_id":"JMU","station_name":"Jurangmangu","transit":false,"time":3,"i_lat":-6.288927},{"time":4,"distance":1994,"i_long":106.712277,"is_transit":false,"line":6,"station_id":"SDM","station_name":"Sudimara","i_lat":-6.296963,"transit":false},{"time":6,"station_name":"Rawa Buntu","transit":false,"i_lat":-6.314823,"i_long":106.675475,"station_id":"RU","distance":4566,"line":6,"is_transit":false},{"transit":false,"station_name":"Serpong","i_lat":-6.319871,"line":6,"is_transit":false,"station_id":"SRP","time":4,"distance":2413,"i_long":106.66566},{"is_transit":false,"i_lat":-6.32484,"station_name":"Cisauk","time":4,"i_long":106.640411,"transit":false,"distance":1784,"station_id":"CSK","line":3},{"is_transit":false,"time":4,"i_lat":-6.329547,"transit":false,"station_name":"Cicayur","line":3,"i_long":106.617853,"station_id":"CC","distance":2519},{"line":6,"station_name":"Parung Panjang","station_id":"PRP","i_long":106.568863,"distance":5968,"transit":false,"is_transit":false,"i_lat":-6.3441410000000005,"time":8},{"is_transit":false,"line":3,"i_lat":-6.354349,"transit":false,"station_name":"Cilejit","distance":7025,"station_id":"CJT","time":9,"i_long":106.508482},{"is_transit":false,"time":6,"line":0,"station_id":"DAR","distance":2675,"i_long":106.491338,"transit":false,"station_name":"Daru","i_lat":-6.338021}],[{"transit":false,"time":0,"i_long":106.832183,"station_id":"GDD","line":2,"is_transit":false,"station_name":"Gondangdia","distance":0,"i_lat":-6.186295},{"station_id":"CKI","station_name":"Cikini","distance":1750,"transit":false,"i_lat":-6.198556,"time":3,"is_transit":false,"line":2,"i_long":106.840169},{"time":4,"is_transit":true,"distance":1590,"i_lat":-6.209883,"line":2,"i_long":106.84912,"station_name":"Manggarai","transit":true,"station_id":"MRI"},{"time":2,"is_transit":false,"transit":false,"station_id":"MTR","i_lat":-6.212485,"line":1,"i_long":106.858896,"station_name":"Matraman","distance":1275},{"station_name":"Jatinegara","is_transit":true,"i_long":106.86807400000001,"distance":1377,"i_lat":-6.215091,"line":1,"station_id":"JNG","time":8,"transit":true},{"is_transit":false,"i_long":106.861737,"line":11,"i_lat":-6.209188,"station_name":"Pondok Jati","transit":false,"time":2,"distance":1236,"station_id":"POK"},{"transit":false,"line":11,"is_transit":false,"distance":1829,"station_name":"Kramat","time":2,"i_lat":-6.193792,"i_long":106.855437,"station_id":"KMT"},{"time":1,"distance":973,"i_long":106.850107,"is_transit":false,"i_lat":-6.185975,"line":11,"station_id":"GST","transit":false,"station_name":"Gang Sentiong"},{"i_long":106.84368,"station_id":"PSE","station_name":"Pasar Senen","time":8,"line":11,"transit":false,"distance":1567,"is_transit":false,"i_lat":-6.174784},{"is_transit":false,"i_long":106.839204,"transit":false,"station_id":"KMO","distance":1436,"time":4,"i_lat":-6.161728,"line":11,"station_name":"Kemayoran"},{"distance":1901,"i_long":106.836569,"station_id":"RJW","time":5,"station_name":"Rajawali","transit":false,"is_transit":false,"i_lat":-6.14505,"line":11},{"station_id":"KPB","is_transit":true,"distance":1444,"i_long":106.826365,"transit":true,"i_lat":-6.132549,"line":4,"time":3,"station_name":"Kampung Bandan"},{"distance":4102,"transit":false,"station_id":"AK","is_transit":false,"i_lat":-6.144674,"station_name":"Angke","i_long":106.79867,"line":1,"time":9},{"line":1,"i_lat":-6.155215,"transit":false,"is_transit":false,"time":4,"distance":1230,"station_name":"Duri","station_id":"DU","i_long":106.800832},{"i_lat":-6.185545,"time":8,"distance":3632,"transit":true,"station_id":"THB","station_name":"Tanah Abang","is_transit":true,"i_long":106.811091,"line":1},{"distance":3191,"is_transit":false,"station_name":"Palmerah","time":6,"transit":false,"i_long":106.79689,"line":6,"i_lat":-6.207404,"station_id":"PLM"},{"is_transit":false,"i_long":106.780334,"station_name":"Kebayoran","station_id":"KBY","line":6,"i_lat":-6.237242,"distance":3737,"transit":false,"time":7},{"distance":6218,"station_name":"Pondokranji","is_transit":false,"i_lat":-6.276362,"line":6,"transit":false,"station_id":"PDJ","time":8,"i_long":106.74273},{"transit":false,"station_id":"JMU","is_transit":false,"i_lat":-6.288927,"station_name":"Jurangmangu","time":3,"distance":2179,"i_long":106.728916,"line":6},{"station_id":"SDM","station_name":"Sudimara","time":4,"i_long":106.712277,"transit":false,"distance":1994,"line":6,"is_transit":false,"i_lat":-6.296963},{"time":6,"is_transit":false,"line":6,"station_id":"RU","distance":4566,"station_name":"Rawa Buntu","i_lat":-6.314823,"transit":false,"i_long":106.675475},{"transit":false,"distance":2413,"station_id":"SRP","line":6,"i_lat":-6.319871,"i_long":106.66566,"is_transit":false,"time":4,"station_name":"Serpong"},{"i_lat":-6.32484,"i_long":106.640411,"time":4,"distance":1784,"is_transit":false,"transit":false,"station_name":"Cisauk","station_id":"CSK","line":3},{"is_transit":false,"i_long":106.617853,"distance":2519,"line":3,"i_lat":-6.329547,"transit":false,"station_name":"Cicayur","time":4,"station_id":"CC"},{"i_lat":-6.3441410000000005,"line":6,"distance":5968,"is_transit":false,"transit":false,"station_name":"Parung Panjang","station_id":"PRP","i_long":106.568863,"time":8},{"transit":false,"station_name":"Cilejit","time":9,"distance":7025,"i_long":106.508482,"line":3,"station_id":"CJT","i_lat":-6.354349,"is_transit":false},{"distance":2675,"i_long":106.491338,"is_transit":false,"station_id":"DAR","time":6,"transit":false,"i_lat":-6.338021,"line":0,"station_name":"Daru"}],[{"distance":0,"time":0,"is_transit":false,"i_lat":-6.186295,"i_long":106.832183,"transit":false,"station_name":"Gondangdia","station_id":"GDD","line":2},{"station_name":"Juanda","is_transit":false,"time":4,"distance":2015,"i_lat":-6.166716,"i_long":106.828284,"transit":false,"line":2,"station_id":"JUA"},{"station_name":"Sawah Besar","station_id":"SW","distance":1149,"transit":false,"time":2,"i_lat":-6.160725,"i_long":106.827103,"line":2,"is_transit":false},{"line":2,"i_long":106.82482,"station_name":"Manggabesar","distance":906,"i_lat":-6.149769,"is_transit":false,"transit":false,"station_id":"MGB","time":2},{"time":2,"distance":1080,"is_transit":false,"transit":false,"i_long":106.820901,"line":2,"i_lat":-6.141205,"station_id":"JAY","station_name":"Jayakarta"},{"is_transit":true,"time":4,"transit":true,"station_name":"Jakarta Kota","i_long":106.812439,"i_lat":-6.137569,"station_id":"JAKK","distance":1264,"line":2},{"time":3,"transit":true,"i_long":106.826365,"line":4,"station_id":"KPB","is_transit":true,"distance":1364,"station_name":"Kampung Bandan","i_lat":-6.132549},{"line":11,"transit":false,"station_id":"RJW","is_transit":false,"station_name":"Rajawali","i_lat":-6.14505,"i_long":106.836569,"distance":1444,"time":3},{"is_transit":false,"transit":false,"time":5,"i_lat":-6.161728,"station_name":"Kemayoran","station_id":"KMO","distance":1901,"i_long":106.839204,"line":11},{"is_transit":false,"time":4,"station_id":"PSE","distance":1436,"transit":false,"station_name":"Pasar Senen","i_long":106.84368,"line":11,"i_lat":-6.174784},{"i_long":106.850107,"station_id":"GST","transit":false,"distance":1567,"line":11,"is_transit":false,"station_name":"Gang Sentiong","time":8,"i_lat":-6.185975},{"station_name":"Kramat","is_transit":false,"i_lat":-6.193792,"time":1,"distance":973,"i_long":106.855437,"transit":false,"station_id":"KMT","line":11},{"distance":1829,"is_transit":false,"station_name":"Pondok Jati","station_id":"POK","time":2,"transit":false,"line":11,"i_lat":-6.209188,"i_long":106.861737},{"distance":1236,"i_lat":-6.215091,"station_name":"Jatinegara","station_id":"JNG","is_transit":true,"line":1,"time":9,"i_long":106.86807400000001,"transit":true},{"transit":false,"time":2,"distance":1377,"i_lat":-6.212485,"i_long":106.858896,"station_id":"MTR","line":1,"station_name":"Matraman","is_transit":false},{"distance":1275,"transit":false,"station_name":"Manggarai","station_id":"MRI","is_transit":false,"i_lat":-6.209883,"i_long":106.84912,"time":2,"line":2},{"station_id":"SUD","line":1,"is_transit":false,"station_name":"Sudirman","distance":3186,"i_lat":-6.202263,"i_long":106.822649,"transit":false,"time":4},{"station_name":"Sudirman Baru","i_long":106.819881,"transit":false,"station_id":"SUDB","i_lat":-6.201433,"line":1,"is_transit":false,"distance":280,"time":1},{"time":1,"station_id":"KAT","i_lat":-6.20132,"is_transit":false,"transit":false,"station_name":"Karet","distance":471,"line":1,"i_long":106.816351},{"transit":true,"station_id":"THB","time":5,"is_transit":true,"distance":2029,"i_long":106.811091,"line":1,"i_lat":-6.185545,"station_name":"Tanah Abang"},{"i_long":106.79689,"line":6,"is_transit":false,"i_lat":-6.207404,"transit":false,"station_name":"Palmerah","time":6,"station_id":"PLM","distance":3191},{"line":6,"transit":false,"distance":3737,"station_name":"Kebayoran","time":7,"station_id":"KBY","i_long":106.780334,"i_lat":-6.237242,"is_transit":false},{"distance":6218,"i_lat":-6.276362,"station_name":"Pondokranji","time":8,"i_long":106.74273,"transit":false,"station_id":"PDJ","line":6,"is_transit":false},{"station_name":"Jurangmangu","station_id":"JMU","time":3,"i_lat":-6.288927,"i_long":106.728916,"distance":2179,"is_transit":false,"line":6,"transit":false},{"station_name":"Sudimara","station_id":"SDM","distance":1994,"transit":false,"is_transit":false,"i_lat":-6.296963,"i_long":106.712277,"time":4,"line":6},{"line":6,"is_transit":false,"station_id":"RU","time":6,"station_name":"Rawa Buntu","transit":false,"distance":4566,"i_lat":-6.314823,"i_long":106.675475},{"station_name":"Serpong","time":4,"station_id":"SRP","i_long":106.66566,"is_transit":false,"line":6,"i_lat":-6.319871,"distance":2413,"transit":false},{"station_name":"Cisauk","station_id":"CSK","line":3,"time":4,"is_transit":false,"distance":1784,"i_lat":-6.32484,"i_long":106.640411,"transit":false},{"i_long":106.617853,"is_transit":false,"station_id":"CC","station_name":"Cicayur","transit":false,"distance":2519,"line":3,"time":4,"i_lat":-6.329547},{"is_transit":false,"i_lat":-6.3441410000000005,"distance":5968,"station_name":"Parung Panjang","station_id":"PRP","line":6,"transit":false,"time":8,"i_long":106.568863},{"transit":false,"station_name":"Cilejit","is_transit":false,"station_id":"CJT","i_long":106.508482,"distance":7025,"i_lat":-6.354349,"line":3,"time":9},{"time":6,"i_long":106.491338,"station_name":"Daru","line":0,"transit":false,"distance":2675,"station_id":"DAR","is_transit":false,"i_lat":-6.338021}]]}