{"data":[[{"distance":0,"transit":false,"station_name":"Gondangdia","i_long":106.832183,"i_lat":-6.186295,"line":2,"is_transit":false,"time":0,"station_id":"GDD"},{"i_lat":-6.198556,"station_name":"Cikini","is_transit":false,"transit":false,"i_long":106.840169,"line":2,"time":3,"station_id":"CKI","distance":1750},{"station_id":"MRI","is_transit":true,"time":4,"transit":true,"distance":1590,"line":2,"station_name":"Manggarai","i_lat":-6.209883,"i_long":106.84912},{"i_long":106.822649,"station_id":"SUD","station_name":"Sudirman","distance":3186,"line":1,"time":4,"is_transit":false,"i_lat":-6.202263,"transit":false},{"line":1,"station_name":"Sudirman Baru","i_long":106.819881,"transit":false,"is_transit":false,"time":1,"station_id":"SUDB","distance":280,"i_lat":-6.201433},{"line":1,"i_lat":-6.20132,"transit":false,"time":1,"distance":471,"is_transit":false,"station_id":"KAT","station_name":"Karet","i_long":106.816351},{"i_lat":-6.185545,"station_name":"Tanah Abang","distance":2029,"i_long":106.811091,"transit":false,"time":5,"station_id":"THB","is_transit":false,"line":1},{"i_lat":-6.155215,"time":8,"station_id":"DU","i_long":106.800832,"line":1,"distance":3632,"transit":true,"station_name":"Duri","is_transit":true},{"i_lat":-6.162021,"time":3,"transit":false,"station_name":"Grogol","is_transit":false,"distance":1700,"station_id":"GGL","line":5,"i_long":106.788277},{"i_long":106.771379,"is_transit":false,"station_name":"Pesing","distance":2036,"i_lat":-6.161433,"transit":false,"line":5,"time":2,"station_id":"PSG"},{"is_transit":false,"station_name":"Taman Kota","station_id":"TKO","distance":1614,"i_lat":-6.1587309999999995,"line":5,"transit":false,"i_long":106.756522,"time":2},{"i_lat":-6.159876,"time":2,"distance":2334,"i_long":106.737035,"is_transit":false,"line":5,"station_id":"BOI","transit":false,"station_name":"Bojongindah"},{"station_name":"Rawa Buaya","transit":false,"distance":1152,"line":5,"i_long":106.723064,"i_lat":-6.162758,"time":4,"station_id":"RW","is_transit":false},{"distance":2504,"line":5,"station_id":"KDS","i_long":106.701612,"station_name":"Kalideres","is_transit":false,"transit":false,"time":3,"i_lat":-6.166068}],[{"station_name":"Gondangdia","distance":0,"line":2,"time":0,"i_lat":-6.186295,"station_id":"GDD","i_long":106.832183,"transit":false,"is_transit":false},{"station_id":"JUA","line":2,"time":4,"is_transit":false,"distance":2015,"station_name":"Juanda","i_lat":-6.166716,"i_long":106.828284,"transit":false},{"time":2,"line":2,"is_transit":false,"station_id":"SW","i_long":106.827103,"station_name":"Sawah Besar","transit":false,"i_lat":-6.160725,"distance":1149},{"i_long":106.82482,"time":2,"distance":906,"is_transit":false,"i_lat":-6.149769,"station_name":"Manggabesar","station_id":"MGB","line":2,"transit":false},{"station_name":"Jayakarta","station_id":"JAY","i_long":106.820901,"line":2,"distance":1080,"i_lat":-6.141205,"is_transit":false,"transit":false,"time":2},{"line":2,"time":4,"transit":true,"i_long":106.812439,"station_id":"JAKK","distance":1264,"station_name":"Jakarta Kota","is_transit":true,"i_lat":-6.137569},{"transit":true,"station_id":"KPB","is_transit":true,"station_name":"Kampung Bandan","distance":1364,"time":3,"i_lat":-6.132549,"i_long":106.826365,"line":4},{"transit":false,"station_name":"Angke","i_lat":-6.144674,"i_long":106.79867,"is_transit":false,"station_id":"AK","time":9,"distance":4102,"line":1},{"station_id":"DU","transit":true,"station_name":"Duri","time":4,"distance":1230,"i_long":106.800832,"line":1,"i_lat":-6.155215,"is_transit":true},{"i_lat":-6.162021,"distance":1700,"station_id":"GGL","time":3,"transit":false,"line":5,"i_long":106.788277,"station_name":"Grogol","is_transit":false},{"transit":false,"time":2,"i_lat":-6.161433,"i_long":106.771379,"station_name":"Pesing","is_transit":false,"distance":2036,"station_id":"PSG","line":5},{"is_transit":false,"transit":false,"i_long":106.756522,"station_id":"TKO","station_name":"Taman Kota","i_lat":-6.1587309999999995,"distance":1614,"time":2,"line":5},{"station_id":"BOI","time":2,"i_lat":-6.159876,"i_long":106.737035,"line":5,"station_name":"Bojongindah","transit":false,"distance":2334,"is_transit":false},{"station_name":"Rawa Buaya","i_long":106.723064,"station_id":"RW","time":4,"line":5,"transit":false,"i_lat":-6.162758,"is_transit":false,"distance":1152},{"i_lat":-6.166068,"is_transit":false,"time":3,"station_id":"KDS","i_long":106.701612,"station_name":"Kalideres","transit":false,"distance":2504,"line":5}],[{"time":0,"station_id":"GDD","transit":false,"station_name":"Gondangdia","i_lat":-6.186295,"is_transit":false,"distance":0,"i_long":106.832183,"line":2},{"station_name":"Cikini","is_transit":false,"station_id":"CKI","line":2,"time":3,"i_long":106.840169,"transit":false,"i_lat":-6.198556,"distance":1750},{"distance":1590,"transit":true,"line":2,"station_id":"MRI","i_long":106.84912,"station_name":"Manggarai","time":4,"i_lat":-6.209883,"is_transit":true},{"station_name":"Matraman","i_lat":-6.212485,"i_long":106.858896,"time":2,"is_transit":false,"station_id":"MTR","line":1,"distance":1275,"transit":false},{"station_id":"JNG","i_lat":-6.215091,"time":8,"i_long":106.86807400000001,"is_transit":true,"line":1,"station_name":"Jatinegara","transit":true,"distance":1377},{"i_lat":-6.209188,"i_long":106.861737,"transit":false,"is_transit":false,"station_name":"Pondok Jati","distance":1236,"line":11,"station_id":"POK","time":2},{"i_long":106.855437,"station_id":"KMT","is_transit":false,"distance":1829,"transit":false,"line":11,"station_name":"Kramat","time":2,"i_lat":-6.193792},{"station_name":"Gang Sentiong","distance":973,"line":11,"is_transit":false,"i_long":106.850107,"transit":false,"time":1,"i_lat":-6.185975,"station_id":"GST"},{"i_lat":-6.174784,"time":8,"station_id":"PSE","i_long":106.84368,"transit":false,"station_name":"Pasar Senen","is_transit":false,"line":11,"distance":1567},{"station_id":"KMO","i_long":106.839204,"distance":1436,"is_transit":false,"i_lat":-6.161728,"line":11,"time":4,"transit":false,"station_name":"Kemayoran"},{"distance":1901,"line":11,"station_name":"Rajawali","station_id":"RJW","time":5,"i_long":106.836569,"i_lat":-6.14505,"is_transit":false,"transit":false},{"time":3,"transit":true,"i_long":106.826365,"line":4,"is_transit":true,"station_id":"KPB","distance":1444,"i_lat":-6.132549,"station_name":"Kampung Bandan"},{"station_id":"AK","is_transit":false,"transit":false,"station_name":"Angke","distance":4102,"i_long":106.79867,"i_lat":-6.144674,"time":9,"line":1},{"station_id":"DU","i_lat":-6.155215,"distance":1230,"is_transit":true,"time":4,"transit":true,"line":1,"i_long":106.800832,"station_name":"Duri"},{"i_lat":-6.162021,"distance":1700,"time":3,"i_long":106.788277,"line":5,"transit":false,"station_name":"Grogol","station_id":"GGL","is_transit":false},{"line":5,"is_transit":false,"station_name":"Pesing","transit":false,"station_id":"PSG","time":2,"distance":2036,"i_lat":-6.161433,"i_long":106.771379},{"is_transit":false,"line":5,"station_id":"TKO","transit":false,"station_name":"Taman Kota","i_lat":-6.1587309999999995,"time":2,"distance":1614,"i_long":106.756522},{"i_lat":-6.159876,"transit":false,"time":2,"is_transit":false,"station_id":"BOI","station_name":"Bojongindah","i_long":106.737035,"distance":2334,"line":5},{"is_transit":false,"time":4,"distance":1152,"i_lat":-6.162758,"i_long":106.723064,"line":5,"transit":false,"station_id":"RW","station_name":"Rawa Buaya"},{"distance":2504,"i_long":106.701612,"transit":false,"is_transit":false,"station_name":"Kalideres","i_lat":-6.166068,"time":3,"line":5,"station_id":"KDS"}],[{"station_id":"GDD","station_name":"Gondangdia","distance":0,"i_lat":-6.186295,"transit":false,"is_transit":false,"line":2,"time":0,"i_long":106.832183},{"distance":2015,"station_id":"JUA","station_name":"Juanda","is_transit":false,"time":4,"i_lat":-6.166716,"line":2,"transit":false,"i_long":106.828284},{"line":2,"transit":false,"i_lat":-6.160725,"is_transit":false,"station_id":"SW","time":2,"distance":1149,"station_name":"Sawah Besar","i_long":106.827103},{"i_lat":-6.149769,"station_name":"Manggabesar","station_id":"MGB","line":2,"time":2,"is_transit":false,"transit":false,"distance":906,"i_long":106.82482},{"i_lat":-6.141205,"station_name":"Jayakarta","transit":false,"is_transit":false,"time":2,"distance":1080,"station_id":"JAY","i_long":106.820901,"line":2},{"time":4,"transit":true,"line":2,"is_transit":true,"i_lat":-6.137569,"i_long":106.812439,"station_name":"Jakarta Kota","station_id":"JAKK","distance":1264},{"distance":1364,"transit":true,"station_name":"Kampung Bandan","station_id":"KPB","line":4,"is_transit":true,"time":3,"i_lat":-6.132549,"i_long":106.826365},{"station_name":"Rajawali","i_lat":-6.14505,"i_long":106.836569,"station_id":"RJW","line":11,"time":3,"distance":1444,"transit":false,"is_transit":false},{"is_transit":false,"time":5,"i_long":106.839204,"i_lat":-6.161728,"line":11,"transit":false,"station_name":"Kemayoran","distance":1901,"station_id":"KMO"},{"transit":false,"station_name":"Pasar Senen","time":4,"i_lat":-6.174784,"is_transit":false,"line":11,"distance":1436,"station_id":"PSE","i_long":106.84368},{"station_id":"GST","transit":false,"time":8,"distance":1567,"station_name":"Gang Sentiong","is_transit":false,"i_lat":-6.185975,"i_long":106.850107,"line":11},{"distance":973,"transit":false,"time":1,"is_transit":false,"station_name":"Kramat","i_long":106.855437,"station_id":"KMT","line":11,"i_lat":-6.193792},{"distance":1829,"i_lat":-6.209188,"transit":false,"is_transit":false,"station_id":"POK","i_long":106.861737,"line":11,"time":2,"station_name":"Pondok Jati"},{"line":1,"is_transit":true,"station_name":"Jatinegara","station_id":"JNG","transit":true,"time":9,"distance":1236,"i_lat":-6.215091,"i_long":106.86807400000001},{"line":1,"station_name":"Matraman","is_transit":false,"distance":1377,"i_lat":-6.212485,"i_long":106.858896,"time":2,"transit":false,"station_id":"MTR"},{"is_transit":false,"station_id":"MRI","transit":false,"distance":1275,"station_name":"Manggarai","i_long":106.84912,"line":2,"i_lat":-6.209883,"time":2},{"distance":3186,"i_lat":-6.202263,"is_transit":false,"i_long":106.822649,"time":4,"line":1,"transit":false,"station_name":"Sudirman","station_id":"SUD"},{"distance":280,"station_id":"SUDB","transit":false,"is_transit":false,"i_lat":-6.201433,"i_long":106.819881,"line":1,"station_name":"Sudirman Baru","time":1},{"is_transit":false,"line":1,"time":1,"i_lat":-6.20132,"station_name":"Karet","station_id":"KAT","i_long":106.816351,"transit":false,"distance":471},{"i_long":106.811091,"transit":false,"station_id":"THB","is_transit":false,"time":5,"line":1,"station_name":"Tanah Abang","i_lat":-6.185545,"distance":2029},{"transit":true,"is_transit":true,"distance":3632,"time":8,"i_lat":-6.155215,"station_name":"Duri","station_id":"DU","i_long":106.800832,"line":1},{"station_id":"GGL","transit":false,"distance":1700,"line":5,"is_transit":false,"time":3,"i_lat":-6.162021,"station_name":"Grogol","i_long":106.788277},{"station_id":"PSG","time":2,"i_lat":-6.161433,"station_name":"Pesing","line":5,"transit":false,"is_transit":false,"distance":2036,"i_long":106.771379},{"station_name":"Taman Kota","time":2,"distance":1614,"line":5,"station_id":"TKO","transit":false,"is_transit":false,"i_lat":-6.1587309999999995,"i_long":106.756522},{"station_id":"BOI","distance":2334,"is_transit":false,"transit":false,"i_long":106.737035,"time":2,"i_lat":-6.159876,"line":5,"station_name":"Bojongindah"},{"distance":1152,"station_id":"RW","line":5,"transit":false,"time":4,"i_long":106.723064,"station_name":"Rawa Buaya","i_lat":-6.162758,"is_transit":false},{"line":5,"station_name":"Kalideres","i_long":106.701612,"station_id":"KDS","transit":false,"time":3,"distance":2504,"i_lat":-6.166068,"is_transit":false}]]}