{"data":[[{"time":0,"is_transit":false,"distance":0,"transit":false,"line":2,"i_lat":-6.186295,"station_name":"Gondangdia","i_long":106.832183,"station_id":"GDD"},{"station_id":"CKI","transit":false,"time":3,"i_long":106.840169,"i_lat":-6.198556,"distance":1750,"is_transit":false,"station_name":"Cikini","line":0},{"distance":1590,"station_name":"Manggarai","transit":true,"is_transit":true,"time":4,"station_id":"MRI","i_long":106.84912,"line":0,"i_lat":-6.209883},{"i_lat":-6.202263,"station_id":"SUD","is_transit":false,"time":4,"distance":3186,"station_name":"Sudirman","transit":false,"i_long":106.822649,"line":1},{"time":1,"station_name":"Sudirman Baru","station_id":"SUDB","transit":false,"i_long":106.819881,"line":1,"i_lat":-6.201433,"distance":280,"is_transit":false},{"distance":471,"station_name":"Karet","is_transit":false,"transit":false,"i_lat":-6.20132,"i_long":106.816351,"line":1,"station_id":"KAT","time":1},{"is_transit":true,"station_id":"THB","distance":2029,"station_name":"Tanah Abang","time":5,"i_long":106.811091,"line":1,"transit":true,"i_lat":-6.185545},{"is_transit":false,"time":6,"station_name":"Palmerah","station_id":"PLM","transit":false,"i_long":106.79689,"line":6,"i_lat":-6.207404,"distance":3191},{"is_transit":false,"station_name":"Kebayoran","station_id":"KBY","time":7,"distance":3737,"i_lat":-6.237242,"i_long":106.780334,"line":6,"transit":false},{"transit":false,"is_transit":false,"line":6,"station_id":"PDJ","time":8,"distance":6218,"station_name":"Pondokranji","i_lat":-6.276362,"i_long":106.74273},{"i_long":106.728916,"i_lat":-6.288927,"station_name":"Jurangmangu","is_transit":false,"transit":false,"station_id":"JMU","line":6,"distance":2179,"time":3},{"distance":1994,"is_transit":false,"transit":false,"time":4,"i_long":106.712277,"station_name":"Sudimara","i_lat":-6.296963,"line":6,"station_id":"SDM"},{"station_id":"RU","time":6,"station_name":"Rawa Buntu","transit":false,"distance":4566,"i_lat":-6.314823,"i_long":106.675475,"line":6,"is_transit":false},{"station_name":"Serpong","transit":false,"i_lat":-6.319871,"distance":2413,"time":4,"line":6,"station_id":"SRP","i_long":106.66566,"is_transit":false},{"line":0,"distance":1784,"station_name":"Cisauk","i_long":106.640411,"time":4,"is_transit":false,"station_id":"CSK","transit":false,"i_lat":-6.32484},{"station_id":"CC","distance":2519,"i_lat":-6.329547,"time":4,"station_name":"Cicayur","transit":false,"line":0,"is_transit":false,"i_long":106.617853},{"time":8,"station_id":"PRP","i_lat":-6.3441410000000005,"station_name":"Parung Panjang","is_transit":false,"distance":5968,"i_long":106.568863,"transit":false,"line":6},{"station_name":"Cilejit","line":0,"station_id":"CJT","time":9,"transit":false,"i_lat":-6.354349,"distance":7025,"i_long":106.508482,"is_transit":false},{"station_name":"Daru","transit":false,"i_lat":-6.338021,"i_long":106.491338,"is_transit":false,"time":6,"line":0,"station_id":"DAR","distance":2675},{"station_name":"Tenjo","is_transit":false,"transit":false,"i_lat":-6.327251,"station_id":"TEJ","i_long":106.460812,"time":5,"line":6,"distance":3902},{"station_id":"TGS","line":6,"i_lat":-6.328533,"transit":false,"distance":2974,"i_long":106.425991,"station_name":"Tigaraksa","time":5,"is_transit":false},{"is_transit":false,"time":3,"station_id":"CKY","i_lat":-6.33561,"distance":2651,"i_long":106.411216,"station_name":"Cikoya","line":0,"transit":false},{"is_transit":false,"station_id":"MJ","station_name":"Maja","time":4,"i_lat":-6.332307,"i_long":106.394373,"line":6,"distance":1853,"transit":false},{"i_long":106.332092,"station_id":"CTR","distance":7293,"station_name":"Citeras","line":0,"time":10,"transit":false,"is_transit":false,"i_lat":-6.334892}],[{"station_name":"Gondangdia","i_lat":-6.186295,"distance":0,"station_id":"GDD","time":0,"i_long":106.832183,"is_transit":false,"line":2,"transit":false},{"time":4,"distance":2015,"station_id":"JUA","i_lat":-6.166716,"line":2,"i_long":106.828284,"is_transit":false,"station_name":"Juanda","transit":false},{"station_id":"SW","transit":false,"i_long":106.827103,"time":2,"line":2,"is_transit":false,"station_name":"Sawah Besar","i_lat":-6.160725,"distance":1149},{"transit":false,"station_id":"MGB","distance":906,"i_long":106.82482,"time":2,"i_lat":-6.149769,"station_name":"Manggabesar","line":2,"is_transit":false},{"station_id":"JAY","transit":false,"distance":1080,"line":7,"is_transit":false,"station_name":"Jayakarta","i_lat":-6.141205,"time":2,"i_long":106.820901},{"transit":true,"time":4,"is_transit":true,"station_name":"Jakarta Kota","i_lat":-6.137569,"line":0,"station_id":"JAKK","distance":1264,"i_long":106.812439},{"time":3,"station_id":"KPB","transit":false,"i_long":106.826365,"line":0,"distance":1364,"station_name":"Kampung Bandan","i_lat":-6.132549,"is_transit":true},{"is_transit":false,"i_lat":-6.144674,"transit":false,"station_id":"AK","time":9,"distance":4102,"station_name":"Angke","i_long":106.79867,"line":0},{"transit":true,"i_long":106.800832,"time":4,"station_name":"Duri","distance":1230,"is_transit":true,"i_lat":-6.155215,"line":1,"station_id":"DU"},{"i_long":106.811091,"line":1,"i_lat":-6.185545,"station_id":"THB","distance":3632,"is_transit":true,"time":8,"station_name":"Tanah Abang","transit":true},{"is_transit":false,"station_id":"PLM","time":6,"i_lat":-6.207404,"i_long":106.79689,"distance":3191,"line":6,"station_name":"Palmerah","transit":false},{"distance":3737,"is_transit":false,"time":7,"station_id":"KBY","i_lat":-6.237242,"i_long":106.780334,"line":6,"station_name":"Kebayoran","transit":false},{"station_name":"Pondokranji","transit":false,"i_lat":-6.276362,"distance":6218,"i_long":106.74273,"time":8,"line":6,"station_id":"PDJ","is_transit":false},{"i_lat":-6.288927,"is_transit":false,"i_long":106.728916,"line":6,"time":3,"station_id":"JMU","distance":2179,"station_name":"Jurangmangu","transit":false},{"line":6,"time":4,"i_lat":-6.296963,"transit":false,"station_id":"SDM","is_transit":false,"distance":1994,"station_name":"Sudimara","i_long":106.712277},{"line":6,"i_lat":-6.314823,"distance":4566,"is_transit":false,"station_name":"Rawa Buntu","transit":false,"time":6,"station_id":"RU","i_long":106.675475},{"transit":false,"i_lat":-6.319871,"time":4,"station_id":"SRP","is_transit":false,"i_long":106.66566,"line":6,"distance":2413,"station_name":"Serpong"},{"time":4,"distance":1784,"station_name":"Cisauk","line":0,"is_transit":false,"i_lat":-6.32484,"transit":false,"station_id":"CSK","i_long":106.640411},{"i_lat":-6.329547,"station_id":"CC","is_transit":false,"i_long":106.617853,"transit":false,"line":0,"station_name":"Cicayur","time":4,"distance":2519},{"is_transit":false,"line":6,"time":8,"distance":5968,"station_name":"Parung Panjang","transit":false,"i_lat":-6.3441410000000005,"station_id":"PRP","i_long":106.568863},{"transit":false,"line":0,"time":9,"station_id":"CJT","i_lat":-6.354349,"i_long":106.508482,"station_name":"Cilejit","distance":7025,"is_transit":false},{"station_name":"Daru","i_long":106.491338,"station_id":"DAR","transit":false,"i_lat":-6.338021,"is_transit":false,"time":6,"distance":2675,"line":0},{"i_lat":-6.327251,"i_long":106.460812,"is_transit":false,"station_name":"Tenjo","distance":3902,"time":5,"line":6,"station_id":"TEJ","transit":false},{"time":5,"i_long":106.425991,"transit":false,"station_name":"Tigaraksa","i_lat":-6.328533,"line":6,"is_transit":false,"station_id":"TGS","distance":2974},{"transit":false,"is_transit":false,"station_name":"Cikoya","i_lat":-6.33561,"line":0,"time":3,"distance":2651,"station_id":"CKY","i_long":106.411216},{"line":6,"is_transit":false,"station_id":"MJ","distance":1853,"transit":false,"i_lat":-6.332307,"i_long":106.394373,"time":4,"station_name":"Maja"},{"is_transit":false,"distance":7293,"line":0,"time":10,"i_lat":-6.334892,"station_id":"CTR","transit":false,"i_long":106.332092,"station_name":"Citeras"}],[{"line":2,"station_id":"GDD","time":0,"distance":0,"i_long":106.832183,"i_lat":-6.186295,"is_transit":false,"station_name":"Gondangdia","transit":false},{"station_id":"CKI","station_name":"Cikini","i_lat":-6.198556,"time":3,"line":0,"i_long":106.840169,"is_transit":false,"transit":false,"distance":1750},{"is_transit":true,"distance":1590,"station_name":"Manggarai","line":0,"time":4,"station_id":"MRI","transit":true,"i_lat":-6.209883,"i_long":106.84912},{"transit":false,"line":1,"station_name":"Matraman","i_lat":-6.212485,"is_transit":false,"station_id":"MTR","i_long":106.858896,"distance":1275,"time":2},{"station_name":"Jatinegara","is_transit":true,"i_long":106.86807400000001,"line":0,"i_lat":-6.215091,"distance":1377,"time":8,"transit":true,"station_id":"JNG"},{"time":2,"station_id":"POK","transit":false,"is_transit":false,"i_long":106.861737,"line":11,"station_name":"Pondok Jati","i_lat":-6.209188,"distance":1236},{"transit":false,"distance":1829,"time":2,"station_name":"Kramat","i_lat":-6.193792,"i_long":106.855437,"station_id":"KMT","is_transit":false,"line":11},{"line":11,"transit":false,"distance":973,"is_transit":false,"station_id":"GST","station_name":"Gang Sentiong","i_lat":-6.185975,"i_long":106.850107,"time":1},{"time":8,"i_long":106.84368,"is_transit":false,"line":11,"i_lat":-6.174784,"transit":false,"station_id":"PSE","station_name":"Pasar Senen","distance":1567},{"time":4,"station_id":"KMO","transit":false,"i_lat":-6.161728,"is_transit":false,"i_long":106.839204,"distance":1436,"line":11,"station_name":"Kemayoran"},{"i_lat":-6.14505,"station_name":"Rajawali","line":11,"station_id":"RJW","i_long":106.836569,"is_transit":false,"transit":false,"time":5,"distance":1901},{"transit":true,"time":3,"distance":1444,"i_lat":-6.132549,"station_id":"KPB","line":0,"i_long":106.826365,"station_name":"Kampung Bandan","is_transit":true},{"distance":4102,"station_name":"Angke","line":0,"i_lat":-6.144674,"time":9,"is_transit":false,"i_long":106.79867,"transit":false,"station_id":"AK"},{"line":1,"transit":true,"i_long":106.800832,"station_id":"DU","is_transit":true,"time":4,"distance":1230,"i_lat":-6.155215,"station_name":"Duri"},{"i_lat":-6.185545,"line":1,"distance":3632,"station_name":"Tanah Abang","transit":true,"station_id":"THB","time":8,"i_long":106.811091,"is_transit":true},{"station_name":"Palmerah","time":6,"i_lat":-6.207404,"line":6,"distance":3191,"is_transit":false,"transit":false,"i_long":106.79689,"station_id":"PLM"},{"transit":false,"distance":3737,"station_name":"Kebayoran","i_lat":-6.237242,"station_id":"KBY","is_transit":false,"time":7,"i_long":106.780334,"line":6},{"station_name":"Pondokranji","is_transit":false,"line":6,"transit":false,"i_lat":-6.276362,"i_long":106.74273,"station_id":"PDJ","time":8,"distance":6218},{"time":3,"distance":2179,"transit":false,"station_name":"Jurangmangu","is_transit":false,"station_id":"JMU","i_long":106.728916,"i_lat":-6.288927,"line":6},{"station_id":"SDM","line":6,"station_name":"Sudimara","i_lat":-6.296963,"is_transit":false,"i_long":106.712277,"time":4,"distance":1994,"transit":false},{"is_transit":false,"i_long":106.675475,"distance":4566,"station_name":"Rawa Buntu","i_lat":-6.314823,"line":6,"transit":false,"station_id":"RU","time":6},{"distance":2413,"i_lat":-6.319871,"station_id":"SRP","is_transit":false,"station_name":"Serpong","transit":false,"i_long":106.66566,"line":6,"time":4},{"station_id":"CSK","line":0,"is_transit":false,"station_name":"Cisauk","i_lat":-6.32484,"time":4,"distance":1784,"transit":false,"i_long":106.640411},{"is_transit":false,"transit":false,"time":4,"i_lat":-6.329547,"station_name":"Cicayur","station_id":"CC","i_long":106.617853,"distance":2519,"line":0},{"line":6,"i_long":106.568863,"distance":5968,"is_transit":false,"station_name":"Parung Panjang","transit":false,"i_lat":-6.3441410000000005,"station_id":"PRP","time":8},{"transit":false,"line":0,"distance":7025,"station_name":"Cilejit","i_long":106.508482,"time":9,"station_id":"CJT","is_transit":false,"i_lat":-6.354349},{"time":6,"i_long":106.491338,"station_id":"DAR","station_name":"Daru","i_lat":-6.338021,"distance":2675,"is_transit":false,"transit":false,"line":0},{"station_name":"Tenjo","time":5,"transit":false,"is_transit":false,"station_id":"TEJ","distance":3902,"i_lat":-6.327251,"i_long":106.460812,"line":6},{"station_name":"Tigaraksa","distance":2974,"time":5,"i_long":106.425991,"i_lat":-6.328533,"is_transit":false,"transit":false,"line":6,"station_id":"TGS"},{"time":3,"is_transit":false,"station_name":"Cikoya","line":0,"i_lat":-6.33561,"i_long":106.411216,"distance":2651,"station_id":"CKY","transit":false},{"distance":1853,"station_name":"Maja","i_lat":-6.332307,"transit":false,"time":4,"i_long":106.394373,"is_transit":false,"line":6,"station_id":"MJ"},{"distance":7293,"is_transit":false,"i_lat":-6.334892,"station_id":"CTR","time":10,"line":0,"transit":false,"station_name":"Citeras","i_long":106.332092}],[{"transit":false,"time":0,"distance":0,"station_id":"GDD","is_transit":false,"station_name":"Gondangdia","i_lat":-6.186295,"i_long":106.832183,"line":2},{"distance":2015,"i_long":106.828284,"station_id":"JUA","line":2,"station_name":"Juanda","i_lat":-6.166716,"is_transit":false,"transit":false,"time":4},{"line":2,"transit":false,"distance":1149,"i_lat":-6.160725,"station_id":"SW","i_long":106.827103,"station_name":"Sawah Besar","is_transit":false,"time":2},{"i_long":106.82482,"line":2,"station_id":"MGB","transit":false,"time":2,"distance":906,"i_lat":-6.149769,"station_name":"Manggabesar","is_transit":false},{"station_name":"Jayakarta","i_long":106.820901,"time":2,"is_transit":false,"distance":1080,"transit":false,"i_lat":-6.141205,"station_id":"JAY","line":7},{"transit":true,"i_long":106.812439,"line":0,"is_transit":true,"i_lat":-6.137569,"time":4,"station_id":"JAKK","distance":1264,"station_name":"Jakarta Kota"},{"distance":1364,"transit":true,"station_id":"KPB","i_lat":-6.132549,"is_transit":true,"i_long":106.826365,"time":3,"line":0,"station_name":"Kampung Bandan"},{"station_id":"RJW","transit":false,"line":11,"time":3,"is_transit":false,"distance":1444,"i_lat":-6.14505,"station_name":"Rajawali","i_long":106.836569},{"station_id":"KMO","is_transit":false,"distance":1901,"station_name":"Kemayoran","transit":false,"time":5,"i_long":106.839204,"i_lat":-6.161728,"line":11},{"i_lat":-6.174784,"i_long":106.84368,"time":4,"station_name":"Pasar Senen","is_transit":false,"transit":false,"distance":1436,"line":11,"station_id":"PSE"},{"transit":false,"i_lat":-6.185975,"i_long":106.850107,"time":8,"distance":1567,"line":11,"station_id":"GST","station_name":"Gang Sentiong","is_transit":false},{"station_name":"Kramat","station_id":"KMT","is_transit":false,"time":1,"distance":973,"i_long":106.855437,"i_lat":-6.193792,"line":11,"transit":false},{"station_id":"POK","i_long":106.861737,"is_transit":false,"distance":1829,"transit":false,"time":2,"station_name":"Pondok Jati","i_lat":-6.209188,"line":11},{"i_long":106.86807400000001,"i_lat":-6.215091,"distance":1236,"station_id":"JNG","station_name":"Jatinegara","is_transit":true,"transit":true,"time":9,"line":0},{"distance":1377,"i_lat":-6.212485,"i_long":106.858896,"station_name":"Matraman","transit":false,"is_transit":false,"station_id":"MTR","line":1,"time":2},{"time":2,"line":0,"is_transit":true,"i_long":106.84912,"station_id":"MRI","distance":1275,"station_name":"Manggarai","i_lat":-6.209883,"transit":false},{"time":4,"transit":false,"i_lat":-6.202263,"line":1,"i_long":106.822649,"distance":3186,"station_id":"SUD","is_transit":false,"station_name":"Sudirman"},{"i_long":106.819881,"line":1,"time":1,"distance":280,"station_id":"SUDB","is_transit":false,"station_name":"Sudirman Baru","transit":false,"i_lat":-6.201433},{"station_id":"KAT","station_name":"Karet","transit":false,"line":1,"time":1,"is_transit":false,"i_long":106.816351,"distance":471,"i_lat":-6.20132},{"is_transit":true,"line":1,"time":5,"i_long":106.811091,"station_name":"Tanah Abang","distance":2029,"station_id":"THB","transit":true,"i_lat":-6.185545},{"time":6,"station_name":"Palmerah","transit":false,"i_long":106.79689,"i_lat":-6.207404,"line":6,"station_id":"PLM","distance":3191,"is_transit":false},{"i_lat":-6.237242,"i_long":106.780334,"time":7,"line":6,"transit":false,"station_name":"Kebayoran","distance":3737,"is_transit":false,"station_id":"KBY"},{"transit":false,"station_id":"PDJ","distance":6218,"i_long":106.74273,"station_name":"Pondokranji","i_lat":-6.276362,"line":6,"time":8,"is_transit":false},{"i_long":106.728916,"station_id":"JMU","i_lat":-6.288927,"time":3,"distance":2179,"station_name":"Jurangmangu","line":6,"transit":false,"is_transit":false},{"i_long":106.712277,"distance":1994,"station_id":"SDM","transit":false,"time":4,"station_name":"Sudimara","i_lat":-6.296963,"is_transit":false,"line":6},{"is_transit":false,"i_lat":-6.314823,"i_long":106.675475,"station_name":"Rawa Buntu","transit":false,"line":6,"station_id":"RU","distance":4566,"time":6},{"i_lat":-6.319871,"i_long":106.66566,"is_transit":false,"transit":false,"station_id":"SRP","station_name":"Serpong","line":6,"time":4,"distance":2413},{"station_name":"Cisauk","time":4,"station_id":"CSK","transit":false,"i_lat":-6.32484,"distance":1784,"is_transit":false,"i_long":106.640411,"line":0},{"is_transit":false,"transit":false,"i_lat":-6.329547,"time":4,"i_long":106.617853,"station_id":"CC","line":0,"station_name":"Cicayur","distance":2519},{"i_long":106.568863,"station_name":"Parung Panjang","transit":false,"station_id":"PRP","time":8,"i_lat":-6.3441410000000005,"line":6,"is_transit":false,"distance":5968},{"station_name":"Cilejit","i_long":106.508482,"i_lat":-6.354349,"time":9,"line":0,"station_id":"CJT","transit":false,"is_transit":false,"distance":7025},{"station_name":"Daru","transit":false,"is_transit":false,"i_lat":-6.338021,"i_long":106.491338,"distance":2675,"station_id":"DAR","line":0,"time":6},{"is_transit":false,"transit":false,"i_lat":-6.327251,"station_id":"TEJ","time":5,"distance":3902,"i_long":106.460812,"line":6,"station_name":"Tenjo"},{"station_id":"TGS","station_name":"Tigaraksa","i_lat":-6.328533,"time":5,"transit":false,"line":6,"i_long":106.425991,"is_transit":false,"distance":2974},{"line":0,"station_id":"CKY","distance":2651,"transit":false,"i_long":106.411216,"station_name":"Cikoya","is_transit":false,"time":3,"i_lat":-6.33561},{"is_transit":false,"transit":false,"time":4,"station_name":"Maja","i_lat":-6.332307,"i_long":106.394373,"line":6,"station_id":"MJ","distance":1853},{"distance":7293,"station_name":"Citeras","line":0,"i_lat":-6.334892,"i_long":106.332092,"station_id":"CTR","time":10,"is_transit":false,"transit":false}]]}