{"data":[[{"is_transit":false,"i_long":106.832183,"distance":0,"transit":false,"line":2,"time":0,"station_name":"Gondangdia","station_id":"GDD","i_lat":-6.186295},{"line":2,"distance":2015,"transit":false,"station_name":"Juanda","is_transit":false,"station_id":"JUA","i_lat":-6.166716,"i_long":106.828284,"time":4},{"i_lat":-6.160725,"i_long":106.827103,"line":2,"station_id":"SW","is_transit":false,"transit":false,"station_name":"Sawah Besar","time":2,"distance":1149},{"station_name":"Manggabesar","distance":906,"station_id":"MGB","time":2,"i_long":106.82482,"transit":false,"i_lat":-6.149769,"is_transit":false,"line":2},{"distance":1080,"station_name":"Jayakarta","is_transit":false,"i_long":106.820901,"i_lat":-6.141205,"time":2,"line":2,"transit":false,"station_id":"JAY"},{"station_name":"Jakarta Kota","transit":true,"distance":1264,"i_lat":-6.137569,"time":4,"station_id":"JAKK","i_long":106.812439,"is_transit":true,"line":2},{"distance":1364,"i_long":106.826365,"i_lat":-6.132549,"line":4,"station_name":"Kampung Bandan","time":3,"transit":true,"station_id":"KPB","is_transit":true},{"line":1,"i_long":106.79867,"transit":false,"time":9,"is_transit":false,"i_lat":-6.144674,"distance":4102,"station_name":"Angke","station_id":"AK"}],[{"is_transit":false,"line":2,"distance":0,"transit":false,"i_lat":-6.186295,"station_id":"GDD","station_name":"Gondangdia","time":0,"i_long":106.832183},{"transit":false,"station_id":"CKI","station_name":"Cikini","time":3,"is_transit":false,"distance":1750,"i_lat":-6.198556,"i_long":106.840169,"line":2},{"i_lat":-6.209883,"station_id":"MRI","transit":true,"distance":1590,"line":2,"station_name":"Manggarai","time":4,"is_transit":true,"i_long":106.84912},{"i_long":106.822649,"transit":false,"station_name":"Sudirman","station_id":"SUD","i_lat":-6.202263,"is_transit":false,"line":1,"time":4,"distance":3186},{"station_name":"Sudirman Baru","distance":280,"station_id":"SUDB","is_transit":false,"i_lat":-6.201433,"line":1,"time":1,"i_long":106.819881,"transit":false},{"i_long":106.816351,"line":1,"station_name":"Karet","station_id":"KAT","i_lat":-6.20132,"distance":471,"transit":false,"is_transit":false,"time":1},{"i_lat":-6.185545,"i_long":106.811091,"station_name":"Tanah Abang","is_transit":false,"line":1,"transit":false,"time":5,"station_id":"THB","distance":2029},{"station_name":"Duri","distance":3632,"station_id":"DU","i_lat":-6.155215,"line":1,"transit":false,"i_long":106.800832,"time":8,"is_transit":false},{"time":4,"distance":1230,"transit":false,"station_name":"Angke","i_long":106.79867,"i_lat":-6.144674,"is_transit":false,"line":1,"station_id":"AK"}],[{"transit":false,"station_id":"GDD","is_transit":false,"i_long":106.832183,"station_name":"Gondangdia","distance":0,"i_lat":-6.186295,"line":2,"time":0},{"station_name":"Cikini","time":3,"distance":1750,"i_lat":-6.198556,"i_long":106.840169,"transit":false,"station_id":"CKI","is_transit":false,"line":2},{"i_long":106.84912,"line":2,"station_id":"MRI","time":4,"is_transit":true,"distance":1590,"transit":true,"station_name":"Manggarai","i_lat":-6.209883},{"distance":1275,"time":2,"i_lat":-6.212485,"i_long":106.858896,"transit":false,"is_transit":false,"station_name":"Matraman","station_id":"MTR","line":1},{"station_id":"JNG","time":8,"transit":true,"i_lat":-6.215091,"is_transit":true,"i_long":106.86807400000001,"line":1,"distance":1377,"station_name":"Jatinegara"},{"time":2,"i_long":106.861737,"station_name":"Pondok Jati","line":11,"transit":false,"station_id":"POK","is_transit":false,"i_lat":-6.209188,"distance":1236},{"i_lat":-6.193792,"distance":1829,"station_id":"KMT","transit":false,"station_name":"Kramat","line":11,"is_transit":false,"i_long":106.855437,"time":2},{"station_id":"GST","is_transit":false,"station_name":"Gang Sentiong","time":1,"i_long":106.850107,"transit":false,"distance":973,"i_lat":-6.185975,"line":11},{"i_lat":-6.174784,"station_id":"PSE","transit":false,"station_name":"Pasar Senen","is_transit":false,"line":11,"i_long":106.84368,"distance":1567,"time":8},{"transit":false,"i_long":106.839204,"station_name":"Kemayoran","is_transit":false,"station_id":"KMO","distance":1436,"i_lat":-6.161728,"time":4,"line":11},{"time":5,"station_id":"RJW","is_transit":false,"distance":1901,"i_lat":-6.14505,"i_long":106.836569,"transit":false,"station_name":"Rajawali","line":11},{"time":3,"distance":1444,"station_name":"Kampung Bandan","station_id":"KPB","is_transit":true,"i_long":106.826365,"line":4,"i_lat":-6.132549,"transit":true},{"time":9,"i_long":106.79867,"distance":4102,"transit":false,"i_lat":-6.144674,"station_name":"Angke","station_id":"AK","is_transit":false,"line":1}],[{"station_name":"Gondangdia","transit":false,"is_transit":false,"station_id":"GDD","time":0,"distance":0,"i_lat":-6.186295,"i_long":106.832183,"line":2},{"line":2,"station_name":"Juanda","time":4,"transit":false,"distance":2015,"i_lat":-6.166716,"is_transit":false,"station_id":"JUA","i_long":106.828284},{"i_long":106.827103,"time":2,"distance":1149,"line":2,"is_transit":false,"station_name":"Sawah Besar","transit":false,"station_id":"SW","i_lat":-6.160725},{"station_name":"Manggabesar","time":2,"i_long":106.82482,"distance":906,"transit":false,"i_lat":-6.149769,"line":2,"station_id":"MGB","is_transit":false},{"time":2,"distance":1080,"i_lat":-6.141205,"is_transit":false,"transit":false,"i_long":106.820901,"station_id":"JAY","line":2,"station_name":"Jayakarta"},{"station_name":"Jakarta Kota","time":4,"i_long":106.812439,"station_id":"JAKK","i_lat":-6.137569,"transit":true,"is_transit":true,"distance":1264,"line":2},{"i_lat":-6.132549,"line":4,"i_long":106.826365,"station_name":"Kampung Bandan","transit":true,"is_transit":true,"station_id":"KPB","time":3,"distance":1364},{"station_id":"RJW","station_name":"Rajawali","transit":false,"line":11,"distance":1444,"time":3,"is_transit":false,"i_lat":-6.14505,"i_long":106.836569},{"station_name":"Kemayoran","time":5,"i_lat":-6.161728,"is_transit":false,"i_long":106.839204,"line":11,"station_id":"KMO","transit":false,"distance":1901},{"line":11,"transit":false,"i_lat":-6.174784,"i_long":106.84368,"distance":1436,"station_name":"Pasar Senen","time":4,"station_id":"PSE","is_transit":false},{"distance":1567,"i_long":106.850107,"line":11,"station_id":"GST","transit":false,"station_name":"Gang Sentiong","time":8,"is_transit":false,"i_lat":-6.185975},{"station_id":"KMT","line":11,"distance":973,"i_lat":-6.193792,"i_long":106.855437,"transit":false,"station_name":"Kramat","time":1,"is_transit":false},{"transit":false,"station_name":"Pondok Jati","distance":1829,"i_long":106.861737,"station_id":"POK","time":2,"i_lat":-6.209188,"line":11,"is_transit":false},{"is_transit":true,"distance":1236,"time":9,"station_name":"Jatinegara","i_long":106.86807400000001,"station_id":"JNG","line":1,"i_lat":-6.215091,"transit":true},{"is_transit":false,"i_lat":-6.212485,"time":2,"station_id":"MTR","distance":1377,"i_long":106.858896,"line":1,"transit":false,"station_name":"Matraman"},{"transit":false,"station_id":"MRI","i_lat":-6.209883,"is_transit":false,"time":2,"i_long":106.84912,"station_name":"Manggarai","distance":1275,"line":2},{"is_transit":false,"station_id":"SUD","time":4,"transit":false,"distance":3186,"i_lat":-6.202263,"station_name":"Sudirman","i_long":106.822649,"line":1},{"transit":false,"is_transit":false,"distance":280,"station_name":"Sudirman Baru","i_long":106.819881,"station_id":"SUDB","line":1,"i_lat":-6.201433,"time":1},{"i_long":106.816351,"line":1,"transit":false,"station_name":"Karet","is_transit":false,"i_lat":-6.20132,"distance":471,"station_id":"KAT","time":1},{"distance":2029,"time":5,"i_long":106.811091,"line":1,"is_transit":false,"transit":false,"station_id":"THB","station_name":"Tanah Abang","i_lat":-6.185545},{"station_id":"DU","is_transit":false,"i_lat":-6.155215,"time":8,"i_long":106.800832,"station_name":"Duri","transit":false,"distance":3632,"line":1},{"time":4,"line":1,"station_id":"AK","is_transit":false,"distance":1230,"transit":false,"station_name":"Angke","i_lat":-6.144674,"i_long":106.79867}]]}