{"data":[[{"distance":0,"i_lat":-6.186295,"is_transit":false,"line":2,"station_name":"Gondangdia","time":0,"station_id":"GDD","transit":false,"i_long":106.832183},{"is_transit":false,"line":2,"i_long":106.840169,"transit":false,"station_name":"Cikini","i_lat":-6.198556,"time":3,"distance":1750,"station_id":"CKI"},{"distance":1590,"is_transit":true,"i_lat":-6.209883,"line":2,"transit":true,"station_id":"MRI","i_long":106.84912,"station_name":"Manggarai","time":4},{"line":1,"i_lat":-6.202263,"i_long":106.822649,"station_name":"Sudirman","station_id":"SUD","distance":3186,"is_transit":false,"time":4,"transit":false},{"station_id":"SUDB","line":1,"distance":280,"transit":false,"i_lat":-6.201433,"time":1,"i_long":106.819881,"station_name":"Sudirman Baru","is_transit":false},{"line":1,"transit":false,"station_name":"Karet","is_transit":false,"time":1,"i_long":106.816351,"station_id":"KAT","distance":471,"i_lat":-6.20132},{"line":1,"station_name":"Tanah Abang","transit":false,"time":5,"is_transit":false,"i_long":106.811091,"distance":2029,"i_lat":-6.185545,"station_id":"THB"},{"line":1,"i_lat":-6.155215,"is_transit":true,"station_name":"Duri","time":8,"station_id":"DU","distance":3632,"i_long":106.800832,"transit":true},{"time":3,"transit":false,"line":5,"is_transit":false,"station_id":"GGL","i_lat":-6.162021,"distance":1700,"i_long":106.788277,"station_name":"Grogol"},{"i_long":106.771379,"time":2,"transit":false,"line":5,"i_lat":-6.161433,"station_name":"Pesing","station_id":"PSG","distance":2036,"is_transit":false},{"is_transit":false,"time":2,"distance":1614,"i_lat":-6.1587309999999995,"station_id":"TKO","i_long":106.756522,"station_name":"Taman Kota","transit":false,"line":5},{"i_lat":-6.159876,"station_name":"Bojongindah","is_transit":false,"line":5,"time":2,"distance":2334,"transit":false,"i_long":106.737035,"station_id":"BOI"},{"station_id":"RW","distance":1152,"station_name":"Rawa Buaya","time":4,"transit":false,"line":5,"is_transit":false,"i_lat":-6.162758,"i_long":106.723064},{"line":5,"distance":2504,"station_id":"KDS","transit":false,"station_name":"Kalideres","is_transit":false,"time":3,"i_lat":-6.166068,"i_long":106.701612}],[{"i_lat":-6.186295,"i_long":106.832183,"station_id":"GDD","is_transit":false,"distance":0,"transit":false,"line":2,"time":0,"station_name":"Gondangdia"},{"station_id":"JUA","station_name":"Juanda","transit":false,"distance":2015,"is_transit":false,"i_lat":-6.166716,"time":4,"line":2,"i_long":106.828284},{"station_name":"Sawah Besar","transit":false,"i_lat":-6.160725,"i_long":106.827103,"line":2,"station_id":"SW","time":2,"distance":1149,"is_transit":false},{"time":2,"line":2,"distance":906,"is_transit":false,"transit":false,"i_lat":-6.149769,"i_long":106.82482,"station_name":"Manggabesar","station_id":"MGB"},{"station_id":"JAY","transit":false,"i_long":106.820901,"distance":1080,"is_transit":false,"line":2,"i_lat":-6.141205,"time":2,"station_name":"Jayakarta"},{"is_transit":true,"station_name":"Jakarta Kota","transit":true,"i_long":106.812439,"station_id":"JAKK","distance":1264,"line":2,"time":4,"i_lat":-6.137569},{"transit":true,"i_lat":-6.132549,"i_long":106.826365,"line":4,"distance":1364,"station_id":"KPB","time":3,"is_transit":true,"station_name":"Kampung Bandan"},{"transit":false,"station_name":"Angke","line":1,"i_long":106.79867,"station_id":"AK","i_lat":-6.144674,"time":9,"distance":4102,"is_transit":false},{"is_transit":true,"i_long":106.800832,"i_lat":-6.155215,"distance":1230,"transit":true,"station_name":"Duri","time":4,"station_id":"DU","line":1},{"time":3,"is_transit":false,"distance":1700,"station_name":"Grogol","i_long":106.788277,"line":5,"transit":false,"station_id":"GGL","i_lat":-6.162021},{"line":5,"station_name":"Pesing","time":2,"distance":2036,"is_transit":false,"transit":false,"i_long":106.771379,"station_id":"PSG","i_lat":-6.161433},{"distance":1614,"i_lat":-6.1587309999999995,"time":2,"is_transit":false,"transit":false,"i_long":106.756522,"station_name":"Taman Kota","line":5,"station_id":"TKO"},{"station_id":"BOI","time":2,"distance":2334,"is_transit":false,"transit":false,"i_long":106.737035,"line":5,"i_lat":-6.159876,"station_name":"Bojongindah"},{"station_name":"Rawa Buaya","station_id":"RW","time":4,"distance":1152,"i_long":106.723064,"line":5,"i_lat":-6.162758,"transit":false,"is_transit":false},{"transit":false,"time":3,"distance":2504,"station_name":"Kalideres","i_long":106.701612,"i_lat":-6.166068,"line":5,"station_id":"KDS","is_transit":false}],[{"transit":false,"time":0,"i_lat":-6.186295,"line":2,"station_name":"Gondangdia","distance":0,"i_long":106.832183,"station_id":"GDD","is_transit":false},{"station_id":"CKI","line":2,"station_name":"Cikini","distance":1750,"is_transit":false,"time":3,"transit":false,"i_lat":-6.198556,"i_long":106.840169},{"line":2,"time":4,"transit":true,"is_transit":true,"i_long":106.84912,"distance":1590,"station_id":"MRI","i_lat":-6.209883,"station_name":"Manggarai"},{"line":1,"i_lat":-6.212485,"transit":false,"station_id":"MTR","time":2,"is_transit":false,"distance":1275,"i_long":106.858896,"station_name":"Matraman"},{"is_transit":true,"time":8,"i_long":106.86807400000001,"i_lat":-6.215091,"station_name":"Jatinegara","distance":1377,"line":1,"station_id":"JNG","transit":true},{"i_lat":-6.209188,"i_long":106.861737,"line":11,"station_id":"POK","distance":1236,"station_name":"Pondok Jati","time":2,"is_transit":false,"transit":false},{"transit":false,"time":2,"is_transit":false,"station_name":"Kramat","i_long":106.855437,"line":11,"i_lat":-6.193792,"station_id":"KMT","distance":1829},{"i_lat":-6.185975,"time":1,"station_name":"Gang Sentiong","is_transit":false,"transit":false,"station_id":"GST","distance":973,"i_long":106.850107,"line":11},{"time":8,"i_lat":-6.174784,"is_transit":false,"i_long":106.84368,"transit":false,"line":11,"station_name":"Pasar Senen","distance":1567,"station_id":"PSE"},{"is_transit":false,"line":11,"time":4,"distance":1436,"transit":false,"i_lat":-6.161728,"i_long":106.839204,"station_id":"KMO","station_name":"Kemayoran"},{"line":11,"i_long":106.836569,"is_transit":false,"station_name":"Rajawali","i_lat":-6.14505,"transit":false,"station_id":"RJW","time":5,"distance":1901},{"distance":1444,"i_long":106.826365,"i_lat":-6.132549,"time":3,"is_transit":true,"station_name":"Kampung Bandan","line":4,"station_id":"KPB","transit":true},{"time":9,"distance":4102,"is_transit":false,"station_name":"Angke","transit":false,"station_id":"AK","i_long":106.79867,"line":1,"i_lat":-6.144674},{"station_id":"DU","time":4,"line":1,"transit":true,"station_name":"Duri","is_transit":true,"i_lat":-6.155215,"distance":1230,"i_long":106.800832},{"i_long":106.788277,"line":5,"i_lat":-6.162021,"time":3,"distance":1700,"is_transit":false,"station_id":"GGL","station_name":"Grogol","transit":false},{"distance":2036,"station_name":"Pesing","station_id":"PSG","time":2,"i_long":106.771379,"transit":false,"line":5,"i_lat":-6.161433,"is_transit":false},{"station_id":"TKO","distance":1614,"is_transit":false,"i_lat":-6.1587309999999995,"station_name":"Taman Kota","time":2,"i_long":106.756522,"transit":false,"line":5},{"time":2,"transit":false,"is_transit":false,"i_lat":-6.159876,"i_long":106.737035,"station_id":"BOI","distance":2334,"line":5,"station_name":"Bojongindah"},{"station_name":"Rawa Buaya","transit":false,"distance":1152,"station_id":"RW","time":4,"i_lat":-6.162758,"i_long":106.723064,"line":5,"is_transit":false},{"is_transit":false,"i_long":106.701612,"i_lat":-6.166068,"distance":2504,"line":5,"station_id":"KDS","time":3,"station_name":"Kalideres","transit":false}],[{"station_name":"Gondangdia","time":0,"is_transit":false,"distance":0,"line":2,"i_lat":-6.186295,"transit":false,"i_long":106.832183,"station_id":"GDD"},{"line":2,"i_lat":-6.166716,"transit":false,"time":4,"i_long":106.828284,"station_id":"JUA","station_name":"Juanda","distance":2015,"is_transit":false},{"station_id":"SW","time":2,"distance":1149,"i_lat":-6.160725,"station_name":"Sawah Besar","i_long":106.827103,"line":2,"is_transit":false,"transit":false},{"station_name":"Manggabesar","time":2,"is_transit":false,"station_id":"MGB","transit":false,"distance":906,"i_lat":-6.149769,"i_long":106.82482,"line":2},{"station_name":"Jayakarta","station_id":"JAY","time":2,"i_lat":-6.141205,"line":2,"transit":false,"distance":1080,"i_long":106.820901,"is_transit":false},{"station_id":"JAKK","distance":1264,"station_name":"Jakarta Kota","line":2,"i_lat":-6.137569,"is_transit":true,"transit":true,"time":4,"i_long":106.812439},{"distance":1364,"line":4,"station_id":"KPB","i_lat":-6.132549,"time":3,"transit":true,"i_long":106.826365,"is_transit":true,"station_name":"Kampung Bandan"},{"station_id":"RJW","time":3,"i_long":106.836569,"line":11,"station_name":"Rajawali","i_lat":-6.14505,"is_transit":false,"transit":false,"distance":1444},{"i_lat":-6.161728,"i_long":106.839204,"line":11,"station_name":"Kemayoran","transit":false,"station_id":"KMO","time":5,"is_transit":false,"distance":1901},{"station_name":"Pasar Senen","station_id":"PSE","transit":false,"i_long":106.84368,"time":4,"line":11,"distance":1436,"is_transit":false,"i_lat":-6.174784},{"station_name":"Gang Sentiong","station_id":"GST","is_transit":false,"distance":1567,"line":11,"i_lat":-6.185975,"i_long":106.850107,"transit":false,"time":8},{"distance":973,"station_id":"KMT","time":1,"transit":false,"line":11,"i_long":106.855437,"is_transit":false,"i_lat":-6.193792,"station_name":"Kramat"},{"i_lat":-6.209188,"line":11,"station_id":"POK","distance":1829,"i_long":106.861737,"time":2,"transit":false,"station_name":"Pondok Jati","is_transit":false},{"line":1,"is_transit":true,"i_long":106.86807400000001,"station_name":"Jatinegara","distance":1236,"transit":true,"i_lat":-6.215091,"time":9,"station_id":"JNG"},{"station_name":"Matraman","transit":false,"i_long":106.858896,"is_transit":false,"i_lat":-6.212485,"time":2,"station_id":"MTR","distance":1377,"line":1},{"time":2,"line":2,"transit":false,"is_transit":false,"station_name":"Manggarai","i_lat":-6.209883,"station_id":"MRI","distance":1275,"i_long":106.84912},{"time":4,"station_id":"SUD","distance":3186,"i_long":106.822649,"line":1,"transit":false,"station_name":"Sudirman","is_transit":false,"i_lat":-6.202263},{"station_id":"SUDB","station_name":"Sudirman Baru","time":1,"i_lat":-6.201433,"is_transit":false,"distance":280,"transit":false,"line":1,"i_long":106.819881},{"is_transit":false,"distance":471,"time":1,"i_long":106.816351,"i_lat":-6.20132,"station_name":"Karet","station_id":"KAT","transit":false,"line":1},{"station_name":"Tanah Abang","i_long":106.811091,"line":1,"time":5,"station_id":"THB","distance":2029,"is_transit":false,"transit":false,"i_lat":-6.185545},{"station_id":"DU","line":1,"station_name":"Duri","time":8,"i_long":106.800832,"transit":true,"distance":3632,"i_lat":-6.155215,"is_transit":true},{"is_transit":false,"i_lat":-6.162021,"transit":false,"line":5,"station_id":"GGL","i_long":106.788277,"station_name":"Grogol","time":3,"distance":1700},{"time":2,"transit":false,"station_id":"PSG","distance":2036,"i_long":106.771379,"station_name":"Pesing","is_transit":false,"i_lat":-6.161433,"line":5},{"i_lat":-6.1587309999999995,"station_id":"TKO","transit":false,"distance":1614,"station_name":"Taman Kota","line":5,"is_transit":false,"time":2,"i_long":106.756522},{"station_name":"Bojongindah","time":2,"i_long":106.737035,"is_transit":false,"line":5,"transit":false,"i_lat":-6.159876,"station_id":"BOI","distance":2334},{"transit":false,"distance":1152,"line":5,"station_name":"Rawa Buaya","is_transit":false,"i_long":106.723064,"station_id":"RW","time":4,"i_lat":-6.162758},{"station_name":"Kalideres","i_long":106.701612,"transit":false,"i_lat":-6.166068,"time":3,"station_id":"KDS","is_transit":false,"line":5,"distance":2504}]]}