{"data":[[{"distance":0,"line":2,"i_lat":-6.186295,"station_name":"Gondangdia","transit":false,"station_id":"GDD","is_transit":false,"time":0,"i_long":106.832183},{"line":2,"station_name":"Cikini","time":3,"transit":false,"i_lat":-6.198556,"i_long":106.840169,"distance":1750,"station_id":"CKI","is_transit":false},{"distance":1590,"time":4,"station_id":"MRI","line":2,"i_lat":-6.209883,"transit":true,"i_long":106.84912,"station_name":"Manggarai","is_transit":true},{"i_long":106.822649,"station_name":"Sudirman","line":1,"transit":false,"distance":3186,"i_lat":-6.202263,"station_id":"SUD","time":4,"is_transit":false},{"distance":280,"line":1,"is_transit":false,"i_long":106.819881,"time":1,"transit":false,"station_id":"SUDB","i_lat":-6.201433,"station_name":"Sudirman Baru"},{"i_lat":-6.20132,"is_transit":false,"i_long":106.816351,"station_name":"Karet","line":1,"station_id":"KAT","transit":false,"time":1,"distance":471},{"time":5,"transit":false,"station_id":"THB","distance":2029,"i_lat":-6.185545,"station_name":"Tanah Abang","is_transit":false,"i_long":106.811091,"line":1},{"transit":true,"station_name":"Duri","station_id":"DU","line":1,"i_long":106.800832,"distance":3632,"i_lat":-6.155215,"is_transit":true,"time":8},{"transit":false,"station_name":"Grogol","time":3,"distance":1700,"is_transit":false,"i_long":106.788277,"station_id":"GGL","line":5,"i_lat":-6.162021},{"i_lat":-6.161433,"distance":2036,"i_long":106.771379,"line":5,"transit":false,"station_name":"Pesing","time":2,"station_id":"PSG","is_transit":false},{"station_name":"Taman Kota","distance":1614,"is_transit":false,"time":2,"i_long":106.756522,"line":5,"transit":false,"station_id":"TKO","i_lat":-6.1587309999999995},{"line":5,"i_long":106.737035,"i_lat":-6.159876,"station_name":"Bojongindah","is_transit":false,"distance":2334,"time":2,"station_id":"BOI","transit":false},{"is_transit":false,"line":5,"station_name":"Rawa Buaya","station_id":"RW","time":4,"distance":1152,"transit":false,"i_lat":-6.162758,"i_long":106.723064},{"i_lat":-6.166068,"line":5,"is_transit":false,"distance":2504,"station_id":"KDS","i_long":106.701612,"station_name":"Kalideres","transit":false,"time":3}],[{"station_id":"GDD","is_transit":false,"distance":0,"line":2,"transit":false,"i_long":106.832183,"station_name":"Gondangdia","i_lat":-6.186295,"time":0},{"transit":false,"time":4,"i_lat":-6.166716,"distance":2015,"is_transit":false,"station_name":"Juanda","line":2,"i_long":106.828284,"station_id":"JUA"},{"station_name":"Sawah Besar","transit":false,"i_long":106.827103,"line":2,"i_lat":-6.160725,"is_transit":false,"time":2,"station_id":"SW","distance":1149},{"i_lat":-6.149769,"line":2,"transit":false,"time":2,"i_long":106.82482,"station_id":"MGB","station_name":"Manggabesar","distance":906,"is_transit":false},{"distance":1080,"time":2,"station_name":"Jayakarta","i_long":106.820901,"transit":false,"i_lat":-6.141205,"line":2,"is_transit":false,"station_id":"JAY"},{"line":2,"station_id":"JAKK","i_long":106.812439,"time":4,"station_name":"Jakarta Kota","is_transit":true,"distance":1264,"transit":true,"i_lat":-6.137569},{"station_name":"Kampung Bandan","transit":true,"is_transit":true,"distance":1364,"station_id":"KPB","i_long":106.826365,"i_lat":-6.132549,"time":3,"line":4},{"station_name":"Angke","station_id":"AK","transit":false,"line":1,"is_transit":false,"distance":4102,"time":9,"i_lat":-6.144674,"i_long":106.79867},{"line":1,"transit":true,"i_lat":-6.155215,"distance":1230,"station_id":"DU","station_name":"Duri","is_transit":true,"time":4,"i_long":106.800832},{"station_name":"Grogol","is_transit":false,"distance":1700,"transit":false,"station_id":"GGL","line":5,"time":3,"i_long":106.788277,"i_lat":-6.162021},{"is_transit":false,"transit":false,"line":5,"station_id":"PSG","distance":2036,"station_name":"Pesing","i_long":106.771379,"time":2,"i_lat":-6.161433},{"time":2,"station_id":"TKO","station_name":"Taman Kota","is_transit":false,"distance":1614,"i_lat":-6.1587309999999995,"transit":false,"line":5,"i_long":106.756522},{"time":2,"line":5,"station_name":"Bojongindah","station_id":"BOI","distance":2334,"transit":false,"is_transit":false,"i_lat":-6.159876,"i_long":106.737035},{"station_id":"RW","distance":1152,"time":4,"transit":false,"station_name":"Rawa Buaya","i_long":106.723064,"is_transit":false,"line":5,"i_lat":-6.162758},{"distance":2504,"time":3,"i_long":106.701612,"station_id":"KDS","transit":false,"station_name":"Kalideres","is_transit":false,"i_lat":-6.166068,"line":5}],[{"i_long":106.832183,"i_lat":-6.186295,"distance":0,"station_id":"GDD","time":0,"station_name":"Gondangdia","is_transit":false,"transit":false,"line":2},{"distance":1750,"time":3,"station_name":"Cikini","i_lat":-6.198556,"station_id":"CKI","i_long":106.840169,"line":2,"transit":false,"is_transit":false},{"station_name":"Manggarai","is_transit":true,"i_long":106.84912,"transit":true,"time":4,"i_lat":-6.209883,"line":2,"distance":1590,"station_id":"MRI"},{"i_lat":-6.212485,"station_name":"Matraman","time":2,"transit":false,"station_id":"MTR","i_long":106.858896,"is_transit":false,"distance":1275,"line":1},{"station_id":"JNG","line":1,"time":8,"distance":1377,"i_lat":-6.215091,"i_long":106.86807400000001,"station_name":"Jatinegara","is_transit":true,"transit":true},{"time":2,"transit":false,"station_name":"Pondok Jati","i_long":106.861737,"station_id":"POK","distance":1236,"i_lat":-6.209188,"line":11,"is_transit":false},{"line":11,"i_lat":-6.193792,"i_long":106.855437,"station_id":"KMT","station_name":"Kramat","transit":false,"is_transit":false,"distance":1829,"time":2},{"distance":973,"line":11,"transit":false,"station_name":"Gang Sentiong","station_id":"GST","is_transit":false,"i_lat":-6.185975,"time":1,"i_long":106.850107},{"station_name":"Pasar Senen","transit":false,"i_long":106.84368,"line":11,"station_id":"PSE","is_transit":false,"i_lat":-6.174784,"time":8,"distance":1567},{"i_lat":-6.161728,"distance":1436,"station_name":"Kemayoran","time":4,"line":11,"is_transit":false,"transit":false,"i_long":106.839204,"station_id":"KMO"},{"time":5,"transit":false,"is_transit":false,"i_lat":-6.14505,"i_long":106.836569,"distance":1901,"station_name":"Rajawali","line":11,"station_id":"RJW"},{"station_id":"KPB","is_transit":true,"transit":true,"station_name":"Kampung Bandan","i_lat":-6.132549,"i_long":106.826365,"line":4,"distance":1444,"time":3},{"station_name":"Angke","i_lat":-6.144674,"station_id":"AK","is_transit":false,"distance":4102,"time":9,"i_long":106.79867,"line":1,"transit":false},{"station_id":"DU","time":4,"i_lat":-6.155215,"station_name":"Duri","is_transit":true,"distance":1230,"transit":true,"i_long":106.800832,"line":1},{"line":5,"station_name":"Grogol","station_id":"GGL","is_transit":false,"time":3,"distance":1700,"transit":false,"i_lat":-6.162021,"i_long":106.788277},{"distance":2036,"is_transit":false,"time":2,"i_lat":-6.161433,"station_name":"Pesing","i_long":106.771379,"line":5,"transit":false,"station_id":"PSG"},{"is_transit":false,"i_long":106.756522,"station_id":"TKO","station_name":"Taman Kota","time":2,"i_lat":-6.1587309999999995,"line":5,"transit":false,"distance":1614},{"distance":2334,"i_lat":-6.159876,"station_id":"BOI","is_transit":false,"time":2,"station_name":"Bojongindah","transit":false,"i_long":106.737035,"line":5},{"transit":false,"station_id":"RW","time":4,"is_transit":false,"station_name":"Rawa Buaya","i_lat":-6.162758,"i_long":106.723064,"line":5,"distance":1152},{"station_name":"Kalideres","i_long":106.701612,"i_lat":-6.166068,"line":5,"transit":false,"is_transit":false,"distance":2504,"time":3,"station_id":"KDS"}],[{"i_long":106.832183,"transit":false,"station_name":"Gondangdia","station_id":"GDD","time":0,"distance":0,"is_transit":false,"i_lat":-6.186295,"line":2},{"distance":2015,"station_name":"Juanda","line":2,"station_id":"JUA","i_lat":-6.166716,"is_transit":false,"transit":false,"time":4,"i_long":106.828284},{"line":2,"time":2,"distance":1149,"station_id":"SW","station_name":"Sawah Besar","is_transit":false,"i_long":106.827103,"i_lat":-6.160725,"transit":false},{"i_long":106.82482,"is_transit":false,"station_name":"Manggabesar","line":2,"transit":false,"i_lat":-6.149769,"time":2,"station_id":"MGB","distance":906},{"transit":false,"is_transit":false,"time":2,"i_long":106.820901,"station_name":"Jayakarta","i_lat":-6.141205,"line":2,"distance":1080,"station_id":"JAY"},{"i_lat":-6.137569,"transit":true,"line":2,"i_long":106.812439,"time":4,"station_id":"JAKK","station_name":"Jakarta Kota","is_transit":true,"distance":1264},{"distance":1364,"time":3,"i_lat":-6.132549,"is_transit":true,"i_long":106.826365,"line":4,"transit":true,"station_id":"KPB","station_name":"Kampung Bandan"},{"i_long":106.836569,"time":3,"transit":false,"station_name":"Rajawali","i_lat":-6.14505,"line":11,"distance":1444,"station_id":"RJW","is_transit":false},{"transit":false,"station_name":"Kemayoran","distance":1901,"i_long":106.839204,"time":5,"line":11,"is_transit":false,"i_lat":-6.161728,"station_id":"KMO"},{"time":4,"transit":false,"station_id":"PSE","i_long":106.84368,"line":11,"distance":1436,"i_lat":-6.174784,"is_transit":false,"station_name":"Pasar Senen"},{"i_long":106.850107,"line":11,"i_lat":-6.185975,"station_name":"Gang Sentiong","distance":1567,"station_id":"GST","is_transit":false,"time":8,"transit":false},{"i_long":106.855437,"i_lat":-6.193792,"distance":973,"is_transit":false,"time":1,"station_id":"KMT","station_name":"Kramat","line":11,"transit":false},{"i_long":106.861737,"is_transit":false,"time":2,"station_id":"POK","distance":1829,"line":11,"station_name":"Pondok Jati","i_lat":-6.209188,"transit":false},{"is_transit":true,"i_long":106.86807400000001,"time":9,"distance":1236,"line":1,"station_name":"Jatinegara","transit":true,"station_id":"JNG","i_lat":-6.215091},{"station_name":"Matraman","i_long":106.858896,"distance":1377,"is_transit":false,"i_lat":-6.212485,"station_id":"MTR","time":2,"transit":false,"line":1},{"time":2,"is_transit":false,"i_lat":-6.209883,"i_long":106.84912,"line":2,"distance":1275,"station_name":"Manggarai","station_id":"MRI","transit":false},{"is_transit":false,"i_long":106.822649,"transit":false,"station_id":"SUD","time":4,"i_lat":-6.202263,"distance":3186,"line":1,"station_name":"Sudirman"},{"distance":280,"i_lat":-6.201433,"line":1,"i_long":106.819881,"transit":false,"is_transit":false,"time":1,"station_id":"SUDB","station_name":"Sudirman Baru"},{"is_transit":false,"time":1,"station_id":"KAT","transit":false,"distance":471,"station_name":"Karet","i_lat":-6.20132,"line":1,"i_long":106.816351},{"distance":2029,"station_id":"THB","station_name":"Tanah Abang","i_lat":-6.185545,"line":1,"is_transit":false,"time":5,"i_long":106.811091,"transit":false},{"distance":3632,"is_transit":true,"time":8,"transit":true,"i_lat":-6.155215,"line":1,"i_long":106.800832,"station_id":"DU","station_name":"Duri"},{"is_transit":false,"station_name":"Grogol","station_id":"GGL","line":5,"distance":1700,"time":3,"transit":false,"i_long":106.788277,"i_lat":-6.162021},{"is_transit":false,"i_long":106.771379,"line":5,"time":2,"station_name":"Pesing","distance":2036,"transit":false,"i_lat":-6.161433,"station_id":"PSG"},{"station_name":"Taman Kota","line":5,"transit":false,"i_lat":-6.1587309999999995,"i_long":106.756522,"is_transit":false,"time":2,"station_id":"TKO","distance":1614},{"is_transit":false,"transit":false,"line":5,"station_id":"BOI","station_name":"Bojongindah","i_long":106.737035,"time":2,"distance":2334,"i_lat":-6.159876},{"transit":false,"station_name":"Rawa Buaya","station_id":"RW","time":4,"line":5,"is_transit":false,"i_lat":-6.162758,"i_long":106.723064,"distance":1152},{"i_lat":-6.166068,"transit":false,"time":3,"i_long":106.701612,"distance":2504,"station_name":"Kalideres","station_id":"KDS","line":5,"is_transit":false}]]}