{"data":[[{"distance":0,"time":0,"is_transit":false,"transit":false,"station_name":"Gondangdia","i_lat":-6.186295,"line":2,"station_id":"GDD","i_long":106.832183},{"station_id":"CKI","is_transit":false,"distance":1750,"line":2,"time":3,"i_long":106.840169,"i_lat":-6.198556,"transit":false,"station_name":"Cikini"},{"station_id":"MRI","time":4,"transit":true,"station_name":"Manggarai","i_lat":-6.209883,"distance":1590,"line":2,"is_transit":true,"i_long":106.84912},{"line":1,"time":4,"i_lat":-6.202263,"is_transit":false,"i_long":106.822649,"transit":false,"station_id":"SUD","station_name":"Sudirman","distance":3186},{"time":1,"transit":false,"i_long":106.819881,"is_transit":false,"i_lat":-6.201433,"station_name":"Sudirman Baru","line":1,"station_id":"SUDB","distance":280},{"time":1,"i_lat":-6.20132,"transit":false,"i_long":106.816351,"line":1,"station_name":"Karet","station_id":"KAT","distance":471,"is_transit":false},{"distance":2029,"transit":false,"is_transit":false,"i_long":106.811091,"i_lat":-6.185545,"time":5,"station_id":"THB","station_name":"Tanah Abang","line":1},{"i_long":106.800832,"station_id":"DU","transit":true,"i_lat":-6.155215,"station_name":"Duri","distance":3632,"time":8,"is_transit":true,"line":1},{"distance":1700,"is_transit":false,"i_long":106.788277,"line":5,"station_id":"GGL","time":3,"i_lat":-6.162021,"station_name":"Grogol","transit":false},{"distance":2036,"station_name":"Pesing","line":5,"transit":false,"time":2,"i_lat":-6.161433,"i_long":106.771379,"is_transit":false,"station_id":"PSG"},{"station_id":"TKO","time":2,"i_lat":-6.1587309999999995,"i_long":106.756522,"distance":1614,"transit":false,"is_transit":false,"station_name":"Taman Kota","line":5},{"station_name":"Bojongindah","distance":2334,"time":2,"is_transit":false,"i_long":106.737035,"transit":false,"station_id":"BOI","i_lat":-6.159876,"line":5}],[{"transit":false,"station_name":"Gondangdia","i_long":106.832183,"line":2,"station_id":"GDD","i_lat":-6.186295,"is_transit":false,"distance":0,"time":0},{"line":2,"transit":false,"station_name":"Juanda","i_lat":-6.166716,"distance":2015,"is_transit":false,"station_id":"JUA","time":4,"i_long":106.828284},{"line":2,"station_name":"Sawah Besar","is_transit":false,"i_lat":-6.160725,"time":2,"distance":1149,"transit":false,"i_long":106.827103,"station_id":"SW"},{"time":2,"transit":false,"is_transit":false,"i_long":106.82482,"station_id":"MGB","distance":906,"station_name":"Manggabesar","line":2,"i_lat":-6.149769},{"i_long":106.820901,"line":2,"station_name":"Jayakarta","transit":false,"i_lat":-6.141205,"is_transit":false,"station_id":"JAY","time":2,"distance":1080},{"time":4,"i_lat":-6.137569,"station_id":"JAKK","line":2,"distance":1264,"is_transit":true,"i_long":106.812439,"transit":true,"station_name":"Jakarta Kota"},{"station_name":"Kampung Bandan","i_lat":-6.132549,"line":4,"station_id":"KPB","time":3,"distance":1364,"transit":true,"is_transit":true,"i_long":106.826365},{"i_long":106.79867,"time":9,"distance":4102,"line":1,"station_id":"AK","is_transit":false,"transit":false,"i_lat":-6.144674,"station_name":"Angke"},{"i_long":106.800832,"station_id":"DU","distance":1230,"transit":true,"is_transit":true,"station_name":"Duri","i_lat":-6.155215,"line":1,"time":4},{"i_long":106.788277,"distance":1700,"station_name":"Grogol","i_lat":-6.162021,"time":3,"station_id":"GGL","line":5,"is_transit":false,"transit":false},{"is_transit":false,"station_id":"PSG","i_long":106.771379,"station_name":"Pesing","time":2,"distance":2036,"transit":false,"i_lat":-6.161433,"line":5},{"i_lat":-6.1587309999999995,"i_long":106.756522,"line":5,"station_id":"TKO","station_name":"Taman Kota","time":2,"distance":1614,"transit":false,"is_transit":false},{"i_long":106.737035,"transit":false,"i_lat":-6.159876,"time":2,"station_name":"Bojongindah","is_transit":false,"station_id":"BOI","line":5,"distance":2334}],[{"time":0,"i_lat":-6.186295,"i_long":106.832183,"transit":false,"station_name":"Gondangdia","station_id":"GDD","is_transit":false,"line":2,"distance":0},{"station_name":"Cikini","i_lat":-6.198556,"transit":false,"i_long":106.840169,"line":2,"station_id":"CKI","time":3,"is_transit":false,"distance":1750},{"i_long":106.84912,"line":2,"station_name":"Manggarai","distance":1590,"transit":true,"station_id":"MRI","i_lat":-6.209883,"time":4,"is_transit":true},{"station_id":"MTR","i_lat":-6.212485,"transit":false,"distance":1275,"is_transit":false,"time":2,"i_long":106.858896,"line":1,"station_name":"Matraman"},{"time":8,"station_name":"Jatinegara","transit":true,"distance":1377,"station_id":"JNG","i_lat":-6.215091,"is_transit":true,"line":1,"i_long":106.86807400000001},{"i_lat":-6.209188,"line":11,"station_id":"POK","distance":1236,"station_name":"Pondok Jati","time":2,"is_transit":false,"transit":false,"i_long":106.861737},{"time":2,"station_id":"KMT","is_transit":false,"station_name":"Kramat","i_lat":-6.193792,"transit":false,"i_long":106.855437,"distance":1829,"line":11},{"i_lat":-6.185975,"i_long":106.850107,"line":11,"distance":973,"transit":false,"is_transit":false,"station_id":"GST","station_name":"Gang Sentiong","time":1},{"transit":false,"distance":1567,"i_long":106.84368,"station_name":"Pasar Senen","station_id":"PSE","time":8,"line":11,"i_lat":-6.174784,"is_transit":false},{"i_lat":-6.161728,"station_name":"Kemayoran","transit":false,"is_transit":false,"line":11,"distance":1436,"i_long":106.839204,"station_id":"KMO","time":4},{"is_transit":false,"station_name":"Rajawali","line":11,"station_id":"RJW","transit":false,"i_long":106.836569,"distance":1901,"time":5,"i_lat":-6.14505},{"i_long":106.826365,"station_id":"KPB","station_name":"Kampung Bandan","transit":true,"time":3,"is_transit":true,"i_lat":-6.132549,"line":4,"distance":1444},{"i_lat":-6.144674,"i_long":106.79867,"is_transit":false,"distance":4102,"time":9,"transit":false,"line":1,"station_id":"AK","station_name":"Angke"},{"transit":true,"is_transit":true,"station_name":"Duri","time":4,"line":1,"station_id":"DU","i_long":106.800832,"distance":1230,"i_lat":-6.155215},{"i_lat":-6.162021,"station_name":"Grogol","is_transit":false,"station_id":"GGL","i_long":106.788277,"distance":1700,"line":5,"transit":false,"time":3},{"station_id":"PSG","i_long":106.771379,"distance":2036,"line":5,"station_name":"Pesing","transit":false,"i_lat":-6.161433,"time":2,"is_transit":false},{"station_name":"Taman Kota","i_lat":-6.1587309999999995,"line":5,"distance":1614,"is_transit":false,"station_id":"TKO","transit":false,"i_long":106.756522,"time":2},{"distance":2334,"station_name":"Bojongindah","station_id":"BOI","is_transit":false,"time":2,"i_lat":-6.159876,"line":5,"i_long":106.737035,"transit":false}],[{"time":0,"station_id":"GDD","is_transit":false,"i_lat":-6.186295,"distance":0,"line":2,"transit":false,"i_long":106.832183,"station_name":"Gondangdia"},{"station_id":"JUA","distance":2015,"station_name":"Juanda","i_long":106.828284,"line":2,"transit":false,"time":4,"i_lat":-6.166716,"is_transit":false},{"is_transit":false,"station_name":"Sawah Besar","i_long":106.827103,"line":2,"transit":false,"i_lat":-6.160725,"station_id":"SW","time":2,"distance":1149},{"i_lat":-6.149769,"station_name":"Manggabesar","time":2,"is_transit":false,"line":2,"station_id":"MGB","transit":false,"distance":906,"i_long":106.82482},{"station_name":"Jayakarta","i_long":106.820901,"transit":false,"line":2,"station_id":"JAY","distance":1080,"i_lat":-6.141205,"is_transit":false,"time":2},{"station_id":"JAKK","transit":true,"i_lat":-6.137569,"i_long":106.812439,"distance":1264,"line":2,"time":4,"is_transit":true,"station_name":"Jakarta Kota"},{"distance":1364,"station_id":"KPB","i_long":106.826365,"line":4,"i_lat":-6.132549,"time":3,"transit":true,"station_name":"Kampung Bandan","is_transit":true},{"i_long":106.836569,"station_id":"RJW","transit":false,"distance":1444,"line":11,"time":3,"station_name":"Rajawali","i_lat":-6.14505,"is_transit":false},{"station_name":"Kemayoran","i_lat":-6.161728,"i_long":106.839204,"station_id":"KMO","is_transit":false,"distance":1901,"transit":false,"time":5,"line":11},{"station_id":"PSE","line":11,"distance":1436,"i_lat":-6.174784,"time":4,"station_name":"Pasar Senen","is_transit":false,"i_long":106.84368,"transit":false},{"transit":false,"station_id":"GST","time":8,"is_transit":false,"i_long":106.850107,"station_name":"Gang Sentiong","distance":1567,"i_lat":-6.185975,"line":11},{"station_id":"KMT","station_name":"Kramat","i_long":106.855437,"time":1,"transit":false,"distance":973,"line":11,"i_lat":-6.193792,"is_transit":false},{"station_name":"Pondok Jati","line":11,"distance":1829,"transit":false,"station_id":"POK","is_transit":false,"i_lat":-6.209188,"i_long":106.861737,"time":2},{"is_transit":true,"station_name":"Jatinegara","distance":1236,"transit":true,"i_long":106.86807400000001,"line":1,"station_id":"JNG","i_lat":-6.215091,"time":9},{"time":2,"station_id":"MTR","line":1,"station_name":"Matraman","i_lat":-6.212485,"distance":1377,"is_transit":false,"transit":false,"i_long":106.858896},{"transit":false,"i_lat":-6.209883,"time":2,"distance":1275,"is_transit":false,"station_id":"MRI","station_name":"Manggarai","i_long":106.84912,"line":2},{"time":4,"transit":false,"distance":3186,"i_long":106.822649,"line":1,"station_id":"SUD","is_transit":false,"station_name":"Sudirman","i_lat":-6.202263},{"station_id":"SUDB","transit":false,"line":1,"distance":280,"station_name":"Sudirman Baru","time":1,"is_transit":false,"i_long":106.819881,"i_lat":-6.201433},{"time":1,"is_transit":false,"station_name":"Karet","i_lat":-6.20132,"distance":471,"i_long":106.816351,"line":1,"transit":false,"station_id":"KAT"},{"distance":2029,"i_lat":-6.185545,"line":1,"transit":false,"time":5,"station_id":"THB","is_transit":false,"station_name":"Tanah Abang","i_long":106.811091},{"distance":3632,"station_name":"Duri","i_lat":-6.155215,"is_transit":true,"i_long":106.800832,"station_id":"DU","line":1,"transit":true,"time":8},{"transit":false,"is_transit":false,"station_id":"GGL","i_long":106.788277,"i_lat":-6.162021,"time":3,"station_name":"Grogol","distance":1700,"line":5},{"line":5,"transit":false,"station_name":"Pesing","i_long":106.771379,"is_transit":false,"distance":2036,"station_id":"PSG","time":2,"i_lat":-6.161433},{"i_long":106.756522,"i_lat":-6.1587309999999995,"line":5,"is_transit":false,"station_name":"Taman Kota","station_id":"TKO","time":2,"distance":1614,"transit":false},{"distance":2334,"i_long":106.737035,"i_lat":-6.159876,"line":5,"transit":false,"station_name":"Bojongindah","station_id":"BOI","is_transit":false,"time":2}]]}