{"data":[[{"i_lat":-6.186295,"is_transit":false,"station_name":"Gondangdia","station_id":"GDD","distance":0,"transit":false,"i_long":106.832183,"line":2,"time":0},{"transit":false,"is_transit":false,"i_long":106.828284,"line":2,"time":4,"station_id":"JUA","station_name":"Juanda","i_lat":-6.166716,"distance":2015},{"station_id":"SW","transit":false,"station_name":"Sawah Besar","time":2,"is_transit":false,"i_long":106.827103,"line":2,"distance":1149,"i_lat":-6.160725},{"time":2,"distance":906,"transit":false,"station_name":"Manggabesar","i_lat":-6.149769,"i_long":106.82482,"is_transit":false,"line":2,"station_id":"MGB"},{"transit":false,"time":2,"i_long":106.820901,"line":2,"i_lat":-6.141205,"station_id":"JAY","is_transit":false,"distance":1080,"station_name":"Jayakarta"},{"i_lat":-6.137569,"station_name":"Jakarta Kota","i_long":106.812439,"transit":true,"station_id":"JAKK","distance":1264,"time":4,"line":2,"is_transit":true},{"line":4,"is_transit":true,"time":3,"i_lat":-6.132549,"transit":true,"station_name":"Kampung Bandan","station_id":"KPB","distance":1364,"i_long":106.826365},{"station_id":"AK","i_lat":-6.144674,"time":9,"line":1,"transit":false,"is_transit":false,"distance":4102,"station_name":"Angke","i_long":106.79867}],[{"is_transit":false,"station_name":"Gondangdia","time":0,"i_long":106.832183,"distance":0,"transit":false,"line":2,"station_id":"GDD","i_lat":-6.186295},{"line":2,"i_long":106.840169,"distance":1750,"i_lat":-6.198556,"is_transit":false,"station_name":"Cikini","station_id":"CKI","transit":false,"time":3},{"i_lat":-6.209883,"transit":true,"station_name":"Manggarai","time":4,"line":2,"distance":1590,"is_transit":true,"i_long":106.84912,"station_id":"MRI"},{"time":4,"transit":false,"station_id":"SUD","i_lat":-6.202263,"i_long":106.822649,"distance":3186,"line":1,"is_transit":false,"station_name":"Sudirman"},{"line":1,"transit":false,"station_name":"Sudirman Baru","distance":280,"is_transit":false,"i_lat":-6.201433,"station_id":"SUDB","time":1,"i_long":106.819881},{"transit":false,"time":1,"is_transit":false,"i_lat":-6.20132,"station_name":"Karet","station_id":"KAT","i_long":106.816351,"line":1,"distance":471},{"i_lat":-6.185545,"time":5,"distance":2029,"station_name":"Tanah Abang","line":1,"station_id":"THB","transit":false,"i_long":106.811091,"is_transit":false},{"transit":false,"station_name":"Duri","i_long":106.800832,"line":1,"distance":3632,"station_id":"DU","time":8,"is_transit":false,"i_lat":-6.155215},{"distance":1230,"i_long":106.79867,"line":1,"station_id":"AK","station_name":"Angke","i_lat":-6.144674,"time":4,"transit":false,"is_transit":false}],[{"i_lat":-6.186295,"transit":false,"station_name":"Gondangdia","station_id":"GDD","is_transit":false,"i_long":106.832183,"distance":0,"line":2,"time":0},{"is_transit":false,"i_lat":-6.198556,"time":3,"station_id":"CKI","distance":1750,"line":2,"station_name":"Cikini","transit":false,"i_long":106.840169},{"distance":1590,"i_long":106.84912,"i_lat":-6.209883,"transit":true,"is_transit":true,"time":4,"station_name":"Manggarai","station_id":"MRI","line":2},{"time":2,"station_name":"Matraman","transit":false,"station_id":"MTR","is_transit":false,"i_long":106.858896,"i_lat":-6.212485,"line":1,"distance":1275},{"transit":true,"is_transit":true,"station_id":"JNG","i_lat":-6.215091,"time":8,"line":1,"station_name":"Jatinegara","distance":1377,"i_long":106.86807400000001},{"line":11,"station_id":"POK","is_transit":false,"i_lat":-6.209188,"station_name":"Pondok Jati","distance":1236,"time":2,"transit":false,"i_long":106.861737},{"time":2,"i_lat":-6.193792,"line":11,"station_id":"KMT","i_long":106.855437,"station_name":"Kramat","transit":false,"distance":1829,"is_transit":false},{"station_name":"Gang Sentiong","distance":973,"line":11,"station_id":"GST","time":1,"is_transit":false,"i_lat":-6.185975,"i_long":106.850107,"transit":false},{"transit":false,"station_name":"Pasar Senen","station_id":"PSE","i_long":106.84368,"is_transit":false,"time":8,"distance":1567,"i_lat":-6.174784,"line":11},{"i_long":106.839204,"line":11,"is_transit":false,"time":4,"station_name":"Kemayoran","transit":false,"station_id":"KMO","i_lat":-6.161728,"distance":1436},{"i_lat":-6.14505,"line":11,"is_transit":false,"station_name":"Rajawali","time":5,"transit":false,"station_id":"RJW","i_long":106.836569,"distance":1901},{"distance":1444,"transit":true,"station_name":"Kampung Bandan","i_lat":-6.132549,"station_id":"KPB","i_long":106.826365,"line":4,"time":3,"is_transit":true},{"i_long":106.79867,"is_transit":false,"station_id":"AK","i_lat":-6.144674,"station_name":"Angke","distance":4102,"line":1,"time":9,"transit":false}],[{"distance":0,"station_id":"GDD","i_lat":-6.186295,"transit":false,"station_name":"Gondangdia","is_transit":false,"line":2,"time":0,"i_long":106.832183},{"station_id":"JUA","i_lat":-6.166716,"i_long":106.828284,"is_transit":false,"distance":2015,"transit":false,"time":4,"line":2,"station_name":"Juanda"},{"time":2,"is_transit":false,"i_long":106.827103,"transit":false,"i_lat":-6.160725,"line":2,"station_name":"Sawah Besar","station_id":"SW","distance":1149},{"station_name":"Manggabesar","station_id":"MGB","distance":906,"line":2,"i_lat":-6.149769,"is_transit":false,"time":2,"i_long":106.82482,"transit":false},{"time":2,"transit":false,"i_long":106.820901,"station_name":"Jayakarta","distance":1080,"is_transit":false,"line":2,"i_lat":-6.141205,"station_id":"JAY"},{"distance":1264,"transit":true,"station_id":"JAKK","is_transit":true,"i_lat":-6.137569,"i_long":106.812439,"station_name":"Jakarta Kota","time":4,"line":2},{"line":4,"time":3,"i_lat":-6.132549,"transit":true,"station_name":"Kampung Bandan","station_id":"KPB","is_transit":true,"distance":1364,"i_long":106.826365},{"line":11,"is_transit":false,"i_long":106.836569,"transit":false,"time":3,"station_id":"RJW","distance":1444,"i_lat":-6.14505,"station_name":"Rajawali"},{"distance":1901,"station_id":"KMO","is_transit":false,"i_long":106.839204,"transit":false,"station_name":"Kemayoran","i_lat":-6.161728,"line":11,"time":5},{"station_name":"Pasar Senen","distance":1436,"i_lat":-6.174784,"line":11,"i_long":106.84368,"transit":false,"station_id":"PSE","time":4,"is_transit":false},{"transit":false,"distance":1567,"line":11,"time":8,"station_name":"Gang Sentiong","i_lat":-6.185975,"station_id":"GST","is_transit":false,"i_long":106.850107},{"station_id":"KMT","distance":973,"station_name":"Kramat","transit":false,"i_long":106.855437,"time":1,"i_lat":-6.193792,"line":11,"is_transit":false},{"is_transit":false,"time":2,"station_name":"Pondok Jati","i_long":106.861737,"i_lat":-6.209188,"transit":false,"distance":1829,"station_id":"POK","line":11},{"station_name":"Jatinegara","is_transit":true,"station_id":"JNG","line":1,"time":9,"i_lat":-6.215091,"i_long":106.86807400000001,"transit":true,"distance":1236},{"line":1,"station_id":"MTR","transit":false,"i_long":106.858896,"station_name":"Matraman","is_transit":false,"time":2,"i_lat":-6.212485,"distance":1377},{"station_name":"Manggarai","i_long":106.84912,"line":2,"is_transit":false,"time":2,"distance":1275,"i_lat":-6.209883,"transit":false,"station_id":"MRI"},{"line":1,"station_name":"Sudirman","i_long":106.822649,"is_transit":false,"time":4,"i_lat":-6.202263,"transit":false,"station_id":"SUD","distance":3186},{"line":1,"transit":false,"time":1,"distance":280,"station_name":"Sudirman Baru","i_lat":-6.201433,"i_long":106.819881,"is_transit":false,"station_id":"SUDB"},{"is_transit":false,"time":1,"transit":false,"distance":471,"i_long":106.816351,"station_id":"KAT","i_lat":-6.20132,"line":1,"station_name":"Karet"},{"station_id":"THB","line":1,"transit":false,"i_lat":-6.185545,"i_long":106.811091,"time":5,"distance":2029,"station_name":"Tanah Abang","is_transit":false},{"transit":false,"line":1,"is_transit":false,"distance":3632,"i_long":106.800832,"time":8,"station_name":"Duri","station_id":"DU","i_lat":-6.155215},{"distance":1230,"station_id":"AK","i_lat":-6.144674,"line":1,"transit":false,"time":4,"is_transit":false,"i_long":106.79867,"station_name":"Angke"}]]}