{"data":[[{"distance":0,"station_name":"Gondangdia","line":2,"is_transit":false,"i_long":106.832183,"transit":false,"station_id":"GDD","i_lat":-6.186295,"time":0},{"time":4,"i_long":106.828284,"distance":2015,"i_lat":-6.166716,"line":2,"transit":false,"station_name":"Juanda","station_id":"JUA","is_transit":false},{"station_name":"Sawah Besar","is_transit":false,"time":2,"i_long":106.827103,"i_lat":-6.160725,"distance":1149,"transit":false,"station_id":"SW","line":2},{"line":2,"time":2,"transit":false,"i_long":106.82482,"distance":906,"station_id":"MGB","i_lat":-6.149769,"station_name":"Manggabesar","is_transit":false},{"i_lat":-6.141205,"station_id":"JAY","transit":false,"line":2,"is_transit":false,"i_long":106.820901,"distance":1080,"station_name":"Jayakarta","time":2},{"is_transit":true,"i_lat":-6.137569,"transit":true,"line":2,"station_name":"Jakarta Kota","time":4,"distance":1264,"i_long":106.812439,"station_id":"JAKK"},{"i_lat":-6.132549,"transit":true,"station_id":"KPB","i_long":106.826365,"time":3,"line":4,"station_name":"Kampung Bandan","is_transit":true,"distance":1364},{"station_id":"AC","time":4,"transit":false,"i_lat":-6.128023,"line":4,"station_name":"Ancol","is_transit":false,"distance":2185,"i_long":106.84464},{"i_long":106.880089,"station_id":"TPK","is_transit":false,"time":9,"line":4,"i_lat":-6.1109480000000005,"distance":4566,"station_name":"Tanjung Priuk","transit":false}],[{"transit":false,"i_long":106.832183,"distance":0,"line":2,"station_name":"Gondangdia","is_transit":false,"station_id":"GDD","i_lat":-6.186295,"time":0},{"station_name":"Cikini","distance":1750,"i_lat":-6.198556,"line":2,"transit":false,"i_long":106.840169,"station_id":"CKI","is_transit":false,"time":3},{"station_name":"Manggarai","line":2,"i_lat":-6.209883,"is_transit":true,"distance":1590,"time":4,"transit":true,"station_id":"MRI","i_long":106.84912},{"station_id":"SUD","time":4,"distance":3186,"i_lat":-6.202263,"i_long":106.822649,"transit":false,"is_transit":false,"station_name":"Sudirman","line":1},{"distance":280,"time":1,"station_name":"Sudirman Baru","station_id":"SUDB","line":1,"is_transit":false,"i_lat":-6.201433,"i_long":106.819881,"transit":false},{"transit":false,"time":1,"station_name":"Karet","line":1,"i_long":106.816351,"is_transit":false,"station_id":"KAT","i_lat":-6.20132,"distance":471},{"time":5,"distance":2029,"transit":false,"i_lat":-6.185545,"line":1,"station_id":"THB","station_name":"Tanah Abang","is_transit":false,"i_long":106.811091},{"is_transit":false,"line":1,"transit":false,"station_name":"Duri","station_id":"DU","i_lat":-6.155215,"i_long":106.800832,"time":8,"distance":3632},{"is_transit":false,"i_lat":-6.144674,"station_id":"AK","transit":false,"distance":1230,"time":4,"line":1,"i_long":106.79867,"station_name":"Angke"},{"distance":4102,"is_transit":true,"i_lat":-6.132549,"time":9,"transit":true,"station_id":"KPB","station_name":"Kampung Bandan","i_long":106.826365,"line":4},{"distance":2185,"i_long":106.84464,"station_name":"Ancol","station_id":"AC","is_transit":false,"time":4,"line":4,"transit":false,"i_lat":-6.128023},{"transit":false,"time":9,"is_transit":false,"station_id":"TPK","distance":4566,"line":4,"station_name":"Tanjung Priuk","i_lat":-6.1109480000000005,"i_long":106.880089}],[{"transit":false,"station_name":"Gondangdia","distance":0,"i_long":106.832183,"is_transit":false,"line":2,"time":0,"station_id":"GDD","i_lat":-6.186295},{"i_lat":-6.198556,"transit":false,"line":2,"i_long":106.840169,"is_transit":false,"distance":1750,"station_id":"CKI","station_name":"Cikini","time":3},{"transit":true,"station_id":"MRI","distance":1590,"i_long":106.84912,"is_transit":true,"station_name":"Manggarai","i_lat":-6.209883,"time":4,"line":2},{"i_long":106.858896,"transit":false,"is_transit":false,"i_lat":-6.212485,"distance":1275,"station_id":"MTR","line":1,"station_name":"Matraman","time":2},{"line":1,"transit":true,"station_id":"JNG","is_transit":true,"station_name":"Jatinegara","time":8,"distance":1377,"i_long":106.86807400000001,"i_lat":-6.215091},{"i_long":106.861737,"i_lat":-6.209188,"line":11,"is_transit":false,"station_id":"POK","transit":false,"time":2,"station_name":"Pondok Jati","distance":1236},{"time":2,"station_name":"Kramat","is_transit":false,"i_lat":-6.193792,"distance":1829,"transit":false,"i_long":106.855437,"station_id":"KMT","line":11},{"distance":973,"line":11,"time":1,"i_long":106.850107,"is_transit":false,"transit":false,"i_lat":-6.185975,"station_name":"Gang Sentiong","station_id":"GST"},{"transit":false,"time":8,"is_transit":false,"distance":1567,"i_lat":-6.174784,"i_long":106.84368,"station_name":"Pasar Senen","station_id":"PSE","line":11},{"transit":false,"station_name":"Kemayoran","station_id":"KMO","line":11,"i_long":106.839204,"is_transit":false,"distance":1436,"time":4,"i_lat":-6.161728},{"i_lat":-6.14505,"i_long":106.836569,"station_name":"Rajawali","transit":false,"is_transit":false,"time":5,"distance":1901,"line":11,"station_id":"RJW"},{"time":3,"i_lat":-6.132549,"station_name":"Kampung Bandan","distance":1444,"is_transit":true,"i_long":106.826365,"station_id":"KPB","line":4,"transit":true},{"i_long":106.84464,"i_lat":-6.128023,"distance":2185,"station_id":"AC","time":4,"line":4,"is_transit":false,"station_name":"Ancol","transit":false},{"distance":4566,"is_transit":false,"station_name":"Tanjung Priuk","time":9,"i_lat":-6.1109480000000005,"transit":false,"i_long":106.880089,"line":4,"station_id":"TPK"}]]}