{"data":[[{"station_id":"GDD","station_name":"Gondangdia","is_transit":false,"time":0,"distance":0,"transit":false,"i_long":106.832183,"line":2,"i_lat":-6.186295},{"is_transit":false,"station_name":"Cikini","time":3,"i_long":106.840169,"distance":1750,"transit":false,"line":0,"i_lat":-6.198556,"station_id":"CKI"},{"station_id":"MRI","transit":true,"i_lat":-6.209883,"is_transit":true,"i_long":106.84912,"time":4,"station_name":"Manggarai","distance":1590,"line":0},{"time":4,"line":2,"is_transit":false,"station_id":"TEB","station_name":"Tebet","transit":false,"i_long":106.857948,"i_lat":-6.226659,"distance":2610},{"time":2,"distance":1230,"station_id":"CW","transit":false,"station_name":"Cawang","is_transit":false,"i_long":106.856607,"line":0,"i_lat":-6.242512},{"i_lat":-6.255332,"time":3,"is_transit":false,"station_name":"Duren Kalibata","station_id":"DRN","line":0,"distance":1546,"i_long":106.85449,"transit":false},{"station_id":"PSMB","time":2,"distance":824,"i_lat":-6.263214,"is_transit":false,"transit":false,"line":2,"i_long":106.851577,"station_name":"Pasar Minggu Baru"},{"time":2,"transit":false,"station_name":"Pasar Minggu","i_long":106.843999,"distance":2380,"is_transit":false,"i_lat":-6.2842400000000005,"line":2,"station_id":"PSM"},{"i_lat":-6.3080680000000005,"i_long":106.838896,"is_transit":false,"station_id":"TNT","distance":2820,"line":2,"transit":false,"station_name":"Tanjung Barat","time":4},{"transit":false,"time":3,"i_lat":-6.330363,"line":2,"station_name":"Lenteng Agung","distance":2671,"is_transit":false,"i_long":106.832616,"station_id":"LNA"},{"station_name":"Univ. Pancasila","time":2,"i_lat":-6.339291,"i_long":106.834175,"distance":1029,"station_id":"UP","is_transit":false,"line":2,"transit":false},{"station_name":"Univ. Indonesia","time":3,"station_id":"UI","i_lat":-6.360749,"is_transit":false,"distance":2264,"i_long":106.831474,"line":2,"transit":false},{"station_id":"POC","time":2,"station_name":"Pondok Cina","line":2,"distance":1109,"i_long":106.831114,"is_transit":false,"i_lat":-6.369073,"transit":false}],[{"station_name":"Gondangdia","transit":false,"i_lat":-6.186295,"distance":0,"is_transit":false,"i_long":106.832183,"line":2,"station_id":"GDD","time":0},{"time":4,"station_name":"Juanda","line":2,"transit":false,"is_transit":false,"i_lat":-6.166716,"station_id":"JUA","i_long":106.828284,"distance":2015},{"time":2,"transit":false,"line":2,"i_long":106.827103,"station_name":"Sawah Besar","station_id":"SW","i_lat":-6.160725,"distance":1149,"is_transit":false},{"station_name":"Manggabesar","station_id":"MGB","is_transit":false,"transit":false,"i_long":106.82482,"i_lat":-6.149769,"line":2,"distance":906,"time":2},{"is_transit":false,"i_long":106.820901,"station_id":"JAY","time":2,"i_lat":-6.141205,"line":7,"distance":1080,"transit":false,"station_name":"Jayakarta"},{"distance":1264,"i_lat":-6.137569,"i_long":106.812439,"station_name":"Jakarta Kota","is_transit":true,"time":4,"line":0,"station_id":"JAKK","transit":true},{"i_lat":-6.132549,"station_id":"KPB","transit":false,"is_transit":true,"line":0,"station_name":"Kampung Bandan","distance":1364,"time":3,"i_long":106.826365},{"distance":4102,"transit":false,"i_lat":-6.144674,"time":9,"station_id":"AK","i_long":106.79867,"line":0,"station_name":"Angke","is_transit":false},{"is_transit":true,"distance":1230,"line":1,"station_id":"DU","i_long":106.800832,"station_name":"Duri","time":4,"transit":true,"i_lat":-6.155215},{"distance":3632,"transit":false,"i_long":106.811091,"time":8,"i_lat":-6.185545,"station_id":"THB","is_transit":true,"line":1,"station_name":"Tanah Abang"},{"i_lat":-6.20132,"i_long":106.816351,"station_name":"Karet","line":1,"distance":2029,"time":5,"is_transit":false,"transit":false,"station_id":"KAT"},{"station_id":"SUDB","station_name":"Sudirman Baru","time":1,"distance":471,"transit":false,"i_long":106.819881,"is_transit":false,"line":1,"i_lat":-6.201433},{"line":1,"transit":false,"time":1,"station_id":"SUD","distance":280,"station_name":"Sudirman","i_lat":-6.202263,"i_long":106.822649,"is_transit":false},{"station_id":"MRI","transit":true,"station_name":"Manggarai","i_long":106.84912,"is_transit":true,"i_lat":-6.209883,"time":4,"line":0,"distance":3186},{"distance":2610,"i_long":106.857948,"line":2,"station_name":"Tebet","station_id":"TEB","is_transit":false,"transit":false,"i_lat":-6.226659,"time":4},{"distance":1230,"time":2,"station_name":"Cawang","i_lat":-6.242512,"is_transit":false,"transit":false,"i_long":106.856607,"line":0,"station_id":"CW"},{"station_name":"Duren Kalibata","line":0,"is_transit":false,"station_id":"DRN","time":3,"transit":false,"distance":1546,"i_long":106.85449,"i_lat":-6.255332},{"i_long":106.851577,"i_lat":-6.263214,"time":2,"is_transit":false,"station_id":"PSMB","transit":false,"station_name":"Pasar Minggu Baru","distance":824,"line":2},{"distance":2380,"i_lat":-6.2842400000000005,"i_long":106.843999,"transit":false,"station_id":"PSM","station_name":"Pasar Minggu","line":2,"is_transit":false,"time":2},{"i_lat":-6.3080680000000005,"line":2,"i_long":106.838896,"distance":2820,"station_id":"TNT","is_transit":false,"station_name":"Tanjung Barat","time":4,"transit":false},{"station_name":"Lenteng Agung","is_transit":false,"transit":false,"i_lat":-6.330363,"i_long":106.832616,"distance":2671,"time":3,"line":2,"station_id":"LNA"},{"is_transit":false,"i_lat":-6.339291,"station_id":"UP","station_name":"Univ. Pancasila","line":2,"transit":false,"time":2,"distance":1029,"i_long":106.834175},{"time":3,"line":2,"station_id":"UI","i_lat":-6.360749,"is_transit":false,"i_long":106.831474,"distance":2264,"transit":false,"station_name":"Univ. Indonesia"},{"is_transit":false,"station_name":"Pondok Cina","time":2,"transit":false,"i_long":106.831114,"line":2,"station_id":"POC","i_lat":-6.369073,"distance":1109}],[{"is_transit":false,"line":2,"distance":0,"station_id":"GDD","time":0,"transit":false,"station_name":"Gondangdia","i_lat":-6.186295,"i_long":106.832183},{"time":4,"transit":false,"line":2,"distance":2015,"station_name":"Juanda","i_lat":-6.166716,"station_id":"JUA","is_transit":false,"i_long":106.828284},{"time":2,"distance":1149,"transit":false,"station_id":"SW","is_transit":false,"station_name":"Sawah Besar","i_lat":-6.160725,"i_long":106.827103,"line":2},{"i_lat":-6.149769,"station_id":"MGB","distance":906,"i_long":106.82482,"time":2,"transit":false,"station_name":"Manggabesar","is_transit":false,"line":2},{"line":7,"distance":1080,"station_name":"Jayakarta","time":2,"i_lat":-6.141205,"i_long":106.820901,"station_id":"JAY","is_transit":false,"transit":false},{"time":4,"line":0,"transit":true,"station_name":"Jakarta Kota","station_id":"JAKK","is_transit":true,"distance":1264,"i_lat":-6.137569,"i_long":106.812439},{"time":3,"transit":true,"station_name":"Kampung Bandan","is_transit":true,"i_lat":-6.132549,"station_id":"KPB","i_long":106.826365,"distance":1364,"line":0},{"line":11,"time":3,"station_id":"RJW","station_name":"Rajawali","distance":1444,"transit":false,"i_long":106.836569,"is_transit":false,"i_lat":-6.14505},{"distance":1901,"transit":false,"line":11,"station_id":"KMO","station_name":"Kemayoran","i_lat":-6.161728,"i_long":106.839204,"is_transit":false,"time":5},{"line":11,"transit":false,"i_long":106.84368,"station_id":"PSE","time":4,"station_name":"Pasar Senen","is_transit":false,"distance":1436,"i_lat":-6.174784},{"i_lat":-6.185975,"i_long":106.850107,"station_name":"Gang Sentiong","line":11,"transit":false,"station_id":"GST","is_transit":false,"time":8,"distance":1567},{"time":1,"station_name":"Kramat","line":11,"i_lat":-6.193792,"transit":false,"distance":973,"i_long":106.855437,"is_transit":false,"station_id":"KMT"},{"station_name":"Pondok Jati","transit":false,"distance":1829,"i_lat":-6.209188,"line":11,"i_long":106.861737,"time":2,"station_id":"POK","is_transit":false},{"station_name":"Jatinegara","transit":true,"i_long":106.86807400000001,"station_id":"JNG","time":9,"distance":1236,"is_transit":true,"line":0,"i_lat":-6.215091},{"time":2,"transit":false,"i_lat":-6.212485,"i_long":106.858896,"station_name":"Matraman","distance":1377,"station_id":"MTR","line":1,"is_transit":false},{"transit":true,"station_name":"Manggarai","station_id":"MRI","is_transit":true,"i_long":106.84912,"time":2,"distance":1275,"i_lat":-6.209883,"line":0},{"station_id":"TEB","i_long":106.857948,"transit":false,"time":4,"is_transit":false,"station_name":"Tebet","line":2,"distance":2610,"i_lat":-6.226659},{"distance":1230,"is_transit":false,"line":0,"time":2,"i_lat":-6.242512,"station_id":"CW","station_name":"Cawang","i_long":106.856607,"transit":false},{"distance":1546,"station_id":"DRN","i_long":106.85449,"i_lat":-6.255332,"station_name":"Duren Kalibata","is_transit":false,"line":0,"time":3,"transit":false},{"station_id":"PSMB","i_lat":-6.263214,"i_long":106.851577,"line":2,"time":2,"is_transit":false,"station_name":"Pasar Minggu Baru","distance":824,"transit":false},{"is_transit":false,"distance":2380,"station_id":"PSM","i_long":106.843999,"i_lat":-6.2842400000000005,"station_name":"Pasar Minggu","time":2,"transit":false,"line":2},{"station_name":"Tanjung Barat","distance":2820,"time":4,"station_id":"TNT","is_transit":false,"transit":false,"i_long":106.838896,"i_lat":-6.3080680000000005,"line":2},{"transit":false,"is_transit":false,"time":3,"i_lat":-6.330363,"i_long":106.832616,"line":2,"station_id":"LNA","station_name":"Lenteng Agung","distance":2671},{"distance":1029,"line":2,"transit":false,"i_long":106.834175,"time":2,"station_id":"UP","is_transit":false,"i_lat":-6.339291,"station_name":"Univ. Pancasila"},{"station_name":"Univ. Indonesia","transit":false,"i_lat":-6.360749,"station_id":"UI","distance":2264,"line":2,"is_transit":false,"i_long":106.831474,"time":3},{"station_name":"Pondok Cina","time":2,"is_transit":false,"i_lat":-6.369073,"distance":1109,"transit":false,"i_long":106.831114,"line":2,"station_id":"POC"}]]}