{"data":[[{"is_transit":false,"station_id":"GDD","time":0,"station_name":"Gondangdia","transit":false,"i_lat":-6.186295,"distance":0,"i_long":106.832183,"line":2},{"distance":2015,"is_transit":false,"station_name":"Juanda","i_lat":-6.166716,"time":4,"transit":false,"i_long":106.828284,"station_id":"JUA","line":2},{"i_lat":-6.160725,"station_name":"Sawah Besar","station_id":"SW","i_long":106.827103,"line":2,"is_transit":false,"transit":false,"distance":1149,"time":2},{"time":2,"station_name":"Manggabesar","i_long":106.82482,"i_lat":-6.149769,"line":2,"transit":false,"station_id":"MGB","is_transit":false,"distance":906},{"transit":false,"is_transit":false,"i_lat":-6.141205,"station_name":"Jayakarta","distance":1080,"line":2,"station_id":"JAY","time":2,"i_long":106.820901},{"i_lat":-6.137569,"distance":1264,"line":2,"is_transit":false,"i_long":106.812439,"station_name":"Jakarta Kota","station_id":"JAKK","time":4,"transit":false}],[{"line":2,"time":0,"transit":false,"distance":0,"station_name":"Gondangdia","is_transit":false,"i_long":106.832183,"station_id":"GDD","i_lat":-6.186295},{"line":2,"time":3,"is_transit":false,"transit":false,"distance":1750,"station_name":"Cikini","station_id":"CKI","i_lat":-6.198556,"i_long":106.840169},{"is_transit":true,"station_name":"Manggarai","i_lat":-6.209883,"i_long":106.84912,"transit":true,"distance":1590,"line":2,"station_id":"MRI","time":4},{"transit":false,"is_transit":false,"station_id":"SUD","distance":3186,"line":1,"time":4,"i_lat":-6.202263,"station_name":"Sudirman","i_long":106.822649},{"distance":280,"station_name":"Sudirman Baru","i_lat":-6.201433,"time":1,"i_long":106.819881,"line":1,"transit":false,"is_transit":false,"station_id":"SUDB"},{"transit":false,"i_lat":-6.20132,"station_name":"Karet","time":1,"i_long":106.816351,"is_transit":false,"line":1,"distance":471,"station_id":"KAT"},{"time":5,"transit":false,"distance":2029,"i_long":106.811091,"i_lat":-6.185545,"station_id":"THB","station_name":"Tanah Abang","is_transit":false,"line":1},{"is_transit":false,"station_name":"Duri","distance":3632,"line":1,"transit":false,"station_id":"DU","i_lat":-6.155215,"i_long":106.800832,"time":8},{"transit":false,"line":1,"station_id":"AK","station_name":"Angke","distance":1230,"time":4,"is_transit":false,"i_lat":-6.144674,"i_long":106.79867},{"i_long":106.826365,"station_id":"KPB","i_lat":-6.132549,"distance":4102,"time":9,"is_transit":true,"line":4,"station_name":"Kampung Bandan","transit":true},{"distance":1364,"i_long":106.812439,"station_id":"JAKK","time":3,"is_transit":false,"i_lat":-6.137569,"line":2,"transit":false,"station_name":"Jakarta Kota"}],[{"is_transit":false,"i_lat":-6.186295,"station_id":"GDD","station_name":"Gondangdia","line":2,"time":0,"i_long":106.832183,"transit":false,"distance":0},{"station_id":"CKI","time":3,"i_lat":-6.198556,"transit":false,"distance":1750,"station_name":"Cikini","line":2,"i_long":106.840169,"is_transit":false},{"station_name":"Manggarai","i_lat":-6.209883,"transit":true,"distance":1590,"station_id":"MRI","is_transit":true,"i_long":106.84912,"time":4,"line":2},{"station_name":"Matraman","is_transit":false,"station_id":"MTR","transit":false,"i_long":106.858896,"line":1,"time":2,"i_lat":-6.212485,"distance":1275},{"station_id":"JNG","distance":1377,"time":8,"is_transit":true,"i_lat":-6.215091,"i_long":106.86807400000001,"line":1,"station_name":"Jatinegara","transit":true},{"distance":1236,"transit":false,"line":11,"station_name":"Pondok Jati","time":2,"is_transit":false,"station_id":"POK","i_lat":-6.209188,"i_long":106.861737},{"station_id":"KMT","i_lat":-6.193792,"is_transit":false,"distance":1829,"i_long":106.855437,"line":11,"station_name":"Kramat","time":2,"transit":false},{"station_id":"GST","is_transit":false,"i_lat":-6.185975,"i_long":106.850107,"time":1,"transit":false,"line":11,"distance":973,"station_name":"Gang Sentiong"},{"station_name":"Pasar Senen","i_long":106.84368,"line":11,"station_id":"PSE","time":8,"transit":false,"i_lat":-6.174784,"distance":1567,"is_transit":false},{"station_id":"KMO","transit":false,"is_transit":false,"i_lat":-6.161728,"station_name":"Kemayoran","line":11,"time":4,"distance":1436,"i_long":106.839204},{"distance":1901,"line":11,"i_long":106.836569,"transit":false,"i_lat":-6.14505,"station_id":"RJW","station_name":"Rajawali","is_transit":false,"time":5},{"i_long":106.826365,"station_id":"KPB","i_lat":-6.132549,"is_transit":true,"station_name":"Kampung Bandan","transit":true,"line":4,"distance":1444,"time":3},{"station_id":"JAKK","station_name":"Jakarta Kota","line":2,"i_lat":-6.137569,"time":3,"transit":false,"is_transit":false,"i_long":106.812439,"distance":1364}]]}