{"data":[[{"station_id":"GDD","time":0,"is_transit":false,"transit":false,"station_name":"Gondangdia","i_lat":-6.186295,"line":2,"distance":0,"i_long":106.832183},{"line":2,"distance":1750,"station_name":"Cikini","transit":false,"station_id":"CKI","time":3,"i_lat":-6.198556,"i_long":106.840169,"is_transit":false},{"i_long":106.84912,"time":4,"is_transit":true,"line":2,"i_lat":-6.209883,"station_id":"MRI","station_name":"Manggarai","transit":true,"distance":1590},{"transit":false,"station_id":"SUD","i_lat":-6.202263,"line":1,"distance":3186,"is_transit":false,"time":4,"station_name":"Sudirman","i_long":106.822649},{"is_transit":false,"station_id":"SUDB","distance":280,"i_lat":-6.201433,"time":1,"transit":false,"station_name":"Sudirman Baru","i_long":106.819881,"line":1},{"distance":471,"station_id":"KAT","transit":false,"station_name":"Karet","is_transit":false,"i_long":106.816351,"line":1,"i_lat":-6.20132,"time":1},{"distance":2029,"is_transit":true,"i_lat":-6.185545,"station_id":"THB","transit":true,"line":1,"station_name":"Tanah Abang","i_long":106.811091,"time":5},{"distance":3191,"i_long":106.79689,"is_transit":false,"time":6,"transit":false,"i_lat":-6.207404,"station_name":"Palmerah","line":6,"station_id":"PLM"},{"i_lat":-6.237242,"i_long":106.780334,"transit":false,"station_name":"Kebayoran","station_id":"KBY","time":7,"is_transit":false,"distance":3737,"line":6},{"distance":6218,"line":6,"station_id":"PDJ","station_name":"Pondokranji","transit":false,"i_lat":-6.276362,"i_long":106.74273,"is_transit":false,"time":8},{"station_id":"JMU","station_name":"Jurangmangu","is_transit":false,"i_long":106.728916,"i_lat":-6.288927,"time":3,"line":6,"distance":2179,"transit":false},{"transit":false,"line":6,"i_lat":-6.296963,"station_name":"Sudimara","i_long":106.712277,"is_transit":false,"distance":1994,"station_id":"SDM","time":4},{"i_long":106.675475,"station_name":"Rawa Buntu","station_id":"RU","is_transit":false,"i_lat":-6.314823,"line":6,"time":6,"distance":4566,"transit":false},{"time":4,"transit":false,"is_transit":false,"i_lat":-6.319871,"i_long":106.66566,"station_id":"SRP","distance":2413,"line":6,"station_name":"Serpong"},{"station_name":"Cisauk","transit":false,"distance":1784,"station_id":"CSK","time":4,"i_lat":-6.32484,"i_long":106.640411,"line":3,"is_transit":false},{"is_transit":false,"i_long":106.617853,"i_lat":-6.329547,"distance":2519,"line":3,"station_id":"CC","time":4,"station_name":"Cicayur","transit":false},{"time":8,"station_name":"Parung Panjang","is_transit":false,"distance":5968,"line":6,"i_lat":-6.3441410000000005,"transit":false,"i_long":106.568863,"station_id":"PRP"},{"station_id":"CJT","i_long":106.508482,"distance":7025,"station_name":"Cilejit","transit":false,"i_lat":-6.354349,"time":9,"is_transit":false,"line":3},{"transit":false,"station_id":"DAR","line":0,"is_transit":false,"station_name":"Daru","time":6,"i_long":106.491338,"i_lat":-6.338021,"distance":2675},{"is_transit":false,"time":5,"distance":3902,"station_name":"Tenjo","line":6,"transit":false,"i_long":106.460812,"i_lat":-6.327251,"station_id":"TEJ"}],[{"time":0,"i_long":106.832183,"station_id":"GDD","distance":0,"station_name":"Gondangdia","is_transit":false,"line":2,"transit":false,"i_lat":-6.186295},{"time":4,"is_transit":false,"transit":false,"station_name":"Juanda","i_lat":-6.166716,"i_long":106.828284,"line":2,"station_id":"JUA","distance":2015},{"i_lat":-6.160725,"transit":false,"time":2,"is_transit":false,"i_long":106.827103,"station_name":"Sawah Besar","line":2,"station_id":"SW","distance":1149},{"time":2,"line":2,"i_lat":-6.149769,"transit":false,"station_name":"Manggabesar","is_transit":false,"distance":906,"i_long":106.82482,"station_id":"MGB"},{"i_long":106.820901,"station_id":"JAY","is_transit":false,"station_name":"Jayakarta","transit":false,"line":2,"time":2,"i_lat":-6.141205,"distance":1080},{"station_id":"JAKK","time":4,"station_name":"Jakarta Kota","line":2,"distance":1264,"is_transit":true,"i_lat":-6.137569,"transit":true,"i_long":106.812439},{"i_long":106.826365,"station_id":"KPB","time":3,"station_name":"Kampung Bandan","transit":true,"line":4,"i_lat":-6.132549,"distance":1364,"is_transit":true},{"is_transit":false,"transit":false,"station_name":"Angke","i_long":106.79867,"line":1,"station_id":"AK","distance":4102,"i_lat":-6.144674,"time":9},{"station_id":"DU","is_transit":false,"distance":1230,"line":1,"transit":false,"station_name":"Duri","i_lat":-6.155215,"time":4,"i_long":106.800832},{"distance":3632,"time":8,"is_transit":true,"transit":true,"i_lat":-6.185545,"station_id":"THB","station_name":"Tanah Abang","i_long":106.811091,"line":1},{"i_lat":-6.207404,"station_name":"Palmerah","station_id":"PLM","i_long":106.79689,"time":6,"is_transit":false,"transit":false,"line":6,"distance":3191},{"station_name":"Kebayoran","transit":false,"line":6,"time":7,"is_transit":false,"distance":3737,"i_long":106.780334,"station_id":"KBY","i_lat":-6.237242},{"i_long":106.74273,"is_transit":false,"station_id":"PDJ","distance":6218,"transit":false,"time":8,"station_name":"Pondokranji","i_lat":-6.276362,"line":6},{"station_id":"JMU","time":3,"station_name":"Jurangmangu","i_lat":-6.288927,"is_transit":false,"distance":2179,"transit":false,"line":6,"i_long":106.728916},{"is_transit":false,"distance":1994,"time":4,"i_long":106.712277,"i_lat":-6.296963,"station_name":"Sudimara","station_id":"SDM","transit":false,"line":6},{"station_name":"Rawa Buntu","i_long":106.675475,"line":6,"time":6,"station_id":"RU","is_transit":false,"distance":4566,"transit":false,"i_lat":-6.314823},{"station_id":"SRP","line":6,"station_name":"Serpong","time":4,"i_long":106.66566,"transit":false,"distance":2413,"i_lat":-6.319871,"is_transit":false},{"i_long":106.640411,"line":3,"i_lat":-6.32484,"is_transit":false,"transit":false,"station_id":"CSK","station_name":"Cisauk","distance":1784,"time":4},{"station_id":"CC","station_name":"Cicayur","transit":false,"time":4,"is_transit":false,"i_lat":-6.329547,"i_long":106.617853,"distance":2519,"line":3},{"transit":false,"line":6,"station_name":"Parung Panjang","i_long":106.568863,"distance":5968,"i_lat":-6.3441410000000005,"time":8,"is_transit":false,"station_id":"PRP"},{"transit":false,"is_transit":false,"time":9,"distance":7025,"line":3,"i_lat":-6.354349,"station_name":"Cilejit","station_id":"CJT","i_long":106.508482},{"station_id":"DAR","time":6,"station_name":"Daru","i_long":106.491338,"line":0,"i_lat":-6.338021,"is_transit":false,"transit":false,"distance":2675},{"time":5,"station_name":"Tenjo","i_lat":-6.327251,"distance":3902,"is_transit":false,"station_id":"TEJ","i_long":106.460812,"line":6,"transit":false}],[{"station_id":"GDD","line":2,"transit":false,"time":0,"is_transit":false,"i_long":106.832183,"i_lat":-6.186295,"distance":0,"station_name":"Gondangdia"},{"is_transit":false,"transit":false,"line":2,"time":3,"station_name":"Cikini","i_lat":-6.198556,"i_long":106.840169,"distance":1750,"station_id":"CKI"},{"i_lat":-6.209883,"line":2,"time":4,"station_name":"Manggarai","i_long":106.84912,"transit":true,"is_transit":true,"station_id":"MRI","distance":1590},{"i_lat":-6.212485,"time":2,"transit":false,"station_name":"Matraman","line":1,"station_id":"MTR","distance":1275,"is_transit":false,"i_long":106.858896},{"i_long":106.86807400000001,"station_id":"JNG","i_lat":-6.215091,"is_transit":true,"time":8,"transit":true,"distance":1377,"station_name":"Jatinegara","line":1},{"time":2,"i_long":106.861737,"station_name":"Pondok Jati","is_transit":false,"distance":1236,"station_id":"POK","transit":false,"i_lat":-6.209188,"line":11},{"is_transit":false,"station_name":"Kramat","i_lat":-6.193792,"line":11,"distance":1829,"transit":false,"i_long":106.855437,"station_id":"KMT","time":2},{"line":11,"transit":false,"distance":973,"station_name":"Gang Sentiong","i_long":106.850107,"station_id":"GST","time":1,"i_lat":-6.185975,"is_transit":false},{"station_id":"PSE","transit":false,"station_name":"Pasar Senen","line":11,"i_long":106.84368,"time":8,"is_transit":false,"distance":1567,"i_lat":-6.174784},{"is_transit":false,"i_lat":-6.161728,"line":11,"station_name":"Kemayoran","transit":false,"i_long":106.839204,"station_id":"KMO","distance":1436,"time":4},{"line":11,"transit":false,"station_id":"RJW","is_transit":false,"time":5,"distance":1901,"station_name":"Rajawali","i_lat":-6.14505,"i_long":106.836569},{"is_transit":true,"line":4,"i_lat":-6.132549,"transit":true,"station_id":"KPB","station_name":"Kampung Bandan","time":3,"distance":1444,"i_long":106.826365},{"station_name":"Angke","time":9,"line":1,"is_transit":false,"distance":4102,"station_id":"AK","i_lat":-6.144674,"i_long":106.79867,"transit":false},{"is_transit":false,"station_id":"DU","transit":false,"station_name":"Duri","i_lat":-6.155215,"i_long":106.800832,"time":4,"distance":1230,"line":1},{"transit":true,"time":8,"station_id":"THB","station_name":"Tanah Abang","i_lat":-6.185545,"distance":3632,"i_long":106.811091,"line":1,"is_transit":true},{"time":6,"is_transit":false,"i_long":106.79689,"station_name":"Palmerah","i_lat":-6.207404,"line":6,"transit":false,"distance":3191,"station_id":"PLM"},{"transit":false,"station_id":"KBY","distance":3737,"time":7,"station_name":"Kebayoran","i_long":106.780334,"line":6,"is_transit":false,"i_lat":-6.237242},{"station_id":"PDJ","transit":false,"i_lat":-6.276362,"station_name":"Pondokranji","time":8,"i_long":106.74273,"distance":6218,"is_transit":false,"line":6},{"station_id":"JMU","i_lat":-6.288927,"transit":false,"time":3,"is_transit":false,"line":6,"i_long":106.728916,"distance":2179,"station_name":"Jurangmangu"},{"i_long":106.712277,"station_name":"Sudimara","i_lat":-6.296963,"is_transit":false,"transit":false,"distance":1994,"time":4,"line":6,"station_id":"SDM"},{"time":6,"is_transit":false,"line":6,"station_id":"RU","distance":4566,"i_long":106.675475,"transit":false,"station_name":"Rawa Buntu","i_lat":-6.314823},{"station_name":"Serpong","is_transit":false,"line":6,"distance":2413,"i_lat":-6.319871,"i_long":106.66566,"station_id":"SRP","time":4,"transit":false},{"line":3,"distance":1784,"transit":false,"time":4,"i_lat":-6.32484,"is_transit":false,"station_id":"CSK","station_name":"Cisauk","i_long":106.640411},{"station_name":"Cicayur","is_transit":false,"time":4,"i_long":106.617853,"i_lat":-6.329547,"transit":false,"distance":2519,"line":3,"station_id":"CC"},{"time":8,"station_id":"PRP","station_name":"Parung Panjang","distance":5968,"transit":false,"i_lat":-6.3441410000000005,"i_long":106.568863,"line":6,"is_transit":false},{"distance":7025,"i_lat":-6.354349,"i_long":106.508482,"is_transit":false,"station_name":"Cilejit","transit":false,"station_id":"CJT","time":9,"line":3},{"time":6,"is_transit":false,"distance":2675,"i_long":106.491338,"station_name":"Daru","transit":false,"station_id":"DAR","i_lat":-6.338021,"line":0},{"is_transit":false,"i_long":106.460812,"station_name":"Tenjo","station_id":"TEJ","distance":3902,"time":5,"transit":false,"i_lat":-6.327251,"line":6}],[{"station_id":"GDD","transit":false,"i_lat":-6.186295,"station_name":"Gondangdia","line":2,"time":0,"i_long":106.832183,"is_transit":false,"distance":0},{"station_id":"JUA","distance":2015,"i_lat":-6.166716,"line":2,"i_long":106.828284,"time":4,"is_transit":false,"transit":false,"station_name":"Juanda"},{"i_lat":-6.160725,"line":2,"time":2,"is_transit":false,"distance":1149,"transit":false,"station_name":"Sawah Besar","i_long":106.827103,"station_id":"SW"},{"transit":false,"station_name":"Manggabesar","i_lat":-6.149769,"station_id":"MGB","distance":906,"line":2,"time":2,"i_long":106.82482,"is_transit":false},{"station_id":"JAY","i_lat":-6.141205,"transit":false,"distance":1080,"time":2,"station_name":"Jayakarta","is_transit":false,"i_long":106.820901,"line":2},{"station_id":"JAKK","transit":true,"i_long":106.812439,"line":2,"distance":1264,"i_lat":-6.137569,"is_transit":true,"time":4,"station_name":"Jakarta Kota"},{"i_long":106.826365,"time":3,"station_name":"Kampung Bandan","line":4,"station_id":"KPB","transit":true,"i_lat":-6.132549,"is_transit":true,"distance":1364},{"station_name":"Rajawali","i_lat":-6.14505,"time":3,"station_id":"RJW","distance":1444,"transit":false,"i_long":106.836569,"is_transit":false,"line":11},{"i_lat":-6.161728,"is_transit":false,"station_id":"KMO","transit":false,"i_long":106.839204,"time":5,"station_name":"Kemayoran","line":11,"distance":1901},{"distance":1436,"transit":false,"station_name":"Pasar Senen","station_id":"PSE","i_lat":-6.174784,"time":4,"line":11,"is_transit":false,"i_long":106.84368},{"distance":1567,"is_transit":false,"station_name":"Gang Sentiong","i_long":106.850107,"line":11,"station_id":"GST","i_lat":-6.185975,"time":8,"transit":false},{"distance":973,"line":11,"station_name":"Kramat","i_lat":-6.193792,"station_id":"KMT","transit":false,"is_transit":false,"time":1,"i_long":106.855437},{"transit":false,"i_lat":-6.209188,"line":11,"station_id":"POK","is_transit":false,"station_name":"Pondok Jati","distance":1829,"time":2,"i_long":106.861737},{"station_name":"Jatinegara","transit":true,"i_lat":-6.215091,"time":9,"station_id":"JNG","line":1,"is_transit":true,"distance":1236,"i_long":106.86807400000001},{"station_name":"Matraman","i_long":106.858896,"distance":1377,"i_lat":-6.212485,"time":2,"transit":false,"station_id":"MTR","is_transit":false,"line":1},{"is_transit":false,"station_name":"Manggarai","i_long":106.84912,"i_lat":-6.209883,"transit":false,"line":2,"station_id":"MRI","time":2,"distance":1275},{"line":1,"transit":false,"i_lat":-6.202263,"i_long":106.822649,"time":4,"is_transit":false,"distance":3186,"station_name":"Sudirman","station_id":"SUD"},{"transit":false,"distance":280,"i_lat":-6.201433,"station_id":"SUDB","is_transit":false,"i_long":106.819881,"time":1,"line":1,"station_name":"Sudirman Baru"},{"transit":false,"i_long":106.816351,"time":1,"is_transit":false,"distance":471,"station_name":"Karet","station_id":"KAT","i_lat":-6.20132,"line":1},{"station_id":"THB","time":5,"i_lat":-6.185545,"i_long":106.811091,"station_name":"Tanah Abang","line":1,"distance":2029,"is_transit":true,"transit":true},{"station_id":"PLM","time":6,"i_lat":-6.207404,"line":6,"transit":false,"is_transit":false,"distance":3191,"i_long":106.79689,"station_name":"Palmerah"},{"i_long":106.780334,"station_name":"Kebayoran","transit":false,"time":7,"i_lat":-6.237242,"is_transit":false,"distance":3737,"line":6,"station_id":"KBY"},{"is_transit":false,"transit":false,"station_name":"Pondokranji","i_lat":-6.276362,"i_long":106.74273,"line":6,"station_id":"PDJ","distance":6218,"time":8},{"station_name":"Jurangmangu","station_id":"JMU","is_transit":false,"distance":2179,"transit":false,"i_long":106.728916,"line":6,"i_lat":-6.288927,"time":3},{"i_long":106.712277,"station_name":"Sudimara","station_id":"SDM","line":6,"is_transit":false,"time":4,"distance":1994,"i_lat":-6.296963,"transit":false},{"station_id":"RU","is_transit":false,"distance":4566,"i_long":106.675475,"line":6,"i_lat":-6.314823,"station_name":"Rawa Buntu","time":6,"transit":false},{"i_lat":-6.319871,"distance":2413,"time":4,"station_id":"SRP","line":6,"i_long":106.66566,"station_name":"Serpong","transit":false,"is_transit":false},{"line":3,"distance":1784,"i_long":106.640411,"i_lat":-6.32484,"transit":false,"time":4,"station_id":"CSK","is_transit":false,"station_name":"Cisauk"},{"distance":2519,"i_lat":-6.329547,"transit":false,"station_id":"CC","time":4,"i_long":106.617853,"line":3,"is_transit":false,"station_name":"Cicayur"},{"distance":5968,"i_long":106.568863,"transit":false,"i_lat":-6.3441410000000005,"line":6,"is_transit":false,"station_name":"Parung Panjang","station_id":"PRP","time":8},{"line":3,"i_lat":-6.354349,"station_id":"CJT","station_name":"Cilejit","distance":7025,"transit":false,"is_transit":false,"i_long":106.508482,"time":9},{"is_transit":false,"station_id":"DAR","distance":2675,"i_long":106.491338,"line":0,"transit":false,"i_lat":-6.338021,"station_name":"Daru","time":6},{"station_id":"TEJ","time":5,"distance":3902,"transit":false,"station_name":"Tenjo","i_long":106.460812,"is_transit":false,"i_lat":-6.327251,"line":6}]]}