{"data":[[{"distance":0,"line":2,"is_transit":false,"time":0,"i_long":106.832183,"station_name":"Gondangdia","transit":false,"station_id":"GDD","i_lat":-6.186295},{"distance":1750,"transit":false,"line":0,"station_id":"CKI","time":3,"i_long":106.840169,"i_lat":-6.198556,"station_name":"Cikini","is_transit":false},{"is_transit":true,"station_id":"MRI","transit":true,"line":0,"i_long":106.84912,"time":4,"i_lat":-6.209883,"distance":1590,"station_name":"Manggarai"},{"distance":1275,"line":1,"is_transit":false,"station_id":"MTR","station_name":"Matraman","time":2,"i_lat":-6.212485,"i_long":106.858896,"transit":false},{"i_lat":-6.215091,"distance":1377,"i_long":106.86807400000001,"station_id":"JNG","transit":true,"line":0,"station_name":"Jatinegara","is_transit":true,"time":8},{"station_id":"POK","transit":false,"is_transit":false,"time":2,"distance":1236,"station_name":"Pondok Jati","i_lat":-6.209188,"line":11,"i_long":106.861737},{"distance":1829,"transit":false,"i_long":106.855437,"i_lat":-6.193792,"station_id":"KMT","is_transit":false,"time":2,"line":11,"station_name":"Kramat"}],[{"station_id":"GDD","station_name":"Gondangdia","time":0,"transit":false,"i_lat":-6.186295,"line":2,"i_long":106.832183,"is_transit":false,"distance":0},{"is_transit":false,"line":2,"station_name":"Juanda","station_id":"JUA","time":4,"transit":false,"i_long":106.828284,"distance":2015,"i_lat":-6.166716},{"is_transit":false,"time":2,"station_id":"SW","i_lat":-6.160725,"distance":1149,"line":2,"station_name":"Sawah Besar","transit":false,"i_long":106.827103},{"station_name":"Manggabesar","is_transit":false,"station_id":"MGB","transit":false,"i_lat":-6.149769,"line":2,"distance":906,"time":2,"i_long":106.82482},{"station_name":"Jayakarta","distance":1080,"time":2,"is_transit":false,"transit":false,"i_long":106.820901,"line":7,"i_lat":-6.141205,"station_id":"JAY"},{"transit":true,"time":4,"line":0,"i_long":106.812439,"i_lat":-6.137569,"distance":1264,"station_id":"JAKK","station_name":"Jakarta Kota","is_transit":true},{"i_lat":-6.132549,"transit":true,"station_id":"KPB","distance":1364,"is_transit":true,"i_long":106.826365,"line":0,"station_name":"Kampung Bandan","time":3},{"time":3,"line":11,"distance":1444,"station_name":"Rajawali","is_transit":false,"station_id":"RJW","i_lat":-6.14505,"i_long":106.836569,"transit":false},{"i_lat":-6.161728,"station_name":"Kemayoran","is_transit":false,"i_long":106.839204,"distance":1901,"line":11,"station_id":"KMO","transit":false,"time":5},{"transit":false,"station_id":"PSE","i_long":106.84368,"distance":1436,"time":4,"is_transit":false,"station_name":"Pasar Senen","i_lat":-6.174784,"line":11},{"line":11,"is_transit":false,"transit":false,"i_long":106.850107,"i_lat":-6.185975,"distance":1567,"station_name":"Gang Sentiong","time":8,"station_id":"GST"},{"distance":973,"is_transit":false,"i_lat":-6.193792,"i_long":106.855437,"station_name":"Kramat","line":11,"station_id":"KMT","time":1,"transit":false}],[{"distance":0,"station_id":"GDD","transit":false,"station_name":"Gondangdia","i_long":106.832183,"time":0,"is_transit":false,"i_lat":-6.186295,"line":2},{"station_name":"Cikini","time":3,"i_long":106.840169,"line":0,"station_id":"CKI","is_transit":false,"distance":1750,"transit":false,"i_lat":-6.198556},{"time":4,"is_transit":true,"transit":true,"line":0,"station_name":"Manggarai","station_id":"MRI","i_lat":-6.209883,"distance":1590,"i_long":106.84912},{"distance":3186,"line":1,"station_id":"SUD","time":4,"transit":false,"i_long":106.822649,"station_name":"Sudirman","i_lat":-6.202263,"is_transit":false},{"i_lat":-6.201433,"i_long":106.819881,"transit":false,"time":1,"station_id":"SUDB","distance":280,"line":1,"station_name":"Sudirman Baru","is_transit":false},{"is_transit":false,"transit":false,"time":1,"station_id":"KAT","distance":471,"i_long":106.816351,"line":1,"i_lat":-6.20132,"station_name":"Karet"},{"distance":2029,"i_lat":-6.185545,"station_id":"THB","i_long":106.811091,"time":5,"transit":false,"station_name":"Tanah Abang","line":1,"is_transit":true},{"station_id":"DU","station_name":"Duri","distance":3632,"transit":true,"is_transit":true,"i_long":106.800832,"time":8,"i_lat":-6.155215,"line":1},{"transit":false,"station_name":"Angke","line":0,"station_id":"AK","distance":1230,"time":4,"i_lat":-6.144674,"is_transit":false,"i_long":106.79867},{"i_lat":-6.132549,"transit":true,"line":0,"is_transit":true,"distance":4102,"i_long":106.826365,"time":9,"station_name":"Kampung Bandan","station_id":"KPB"},{"i_lat":-6.14505,"station_id":"RJW","station_name":"Rajawali","time":3,"distance":1444,"transit":false,"i_long":106.836569,"is_transit":false,"line":11},{"station_id":"KMO","is_transit":false,"transit":false,"time":5,"station_name":"Kemayoran","i_lat":-6.161728,"distance":1901,"line":11,"i_long":106.839204},{"i_long":106.84368,"station_name":"Pasar Senen","time":4,"station_id":"PSE","transit":false,"i_lat":-6.174784,"line":11,"distance":1436,"is_transit":false},{"time":8,"line":11,"i_lat":-6.185975,"station_name":"Gang Sentiong","station_id":"GST","is_transit":false,"transit":false,"i_long":106.850107,"distance":1567},{"time":1,"transit":false,"i_long":106.855437,"line":11,"station_name":"Kramat","distance":973,"is_transit":false,"i_lat":-6.193792,"station_id":"KMT"}],[{"transit":false,"station_name":"Gondangdia","is_transit":false,"time":0,"distance":0,"i_lat":-6.186295,"station_id":"GDD","i_long":106.832183,"line":2},{"distance":2015,"time":4,"i_long":106.828284,"line":2,"is_transit":false,"transit":false,"station_id":"JUA","station_name":"Juanda","i_lat":-6.166716},{"station_id":"SW","distance":1149,"time":2,"station_name":"Sawah Besar","transit":false,"line":2,"is_transit":false,"i_lat":-6.160725,"i_long":106.827103},{"distance":906,"station_name":"Manggabesar","station_id":"MGB","line":2,"time":2,"transit":false,"i_lat":-6.149769,"i_long":106.82482,"is_transit":false},{"is_transit":false,"station_name":"Jayakarta","time":2,"i_lat":-6.141205,"station_id":"JAY","transit":false,"distance":1080,"line":7,"i_long":106.820901},{"station_id":"JAKK","station_name":"Jakarta Kota","transit":true,"i_long":106.812439,"i_lat":-6.137569,"is_transit":true,"line":0,"time":4,"distance":1264},{"distance":1364,"time":3,"line":0,"i_long":106.826365,"is_transit":true,"transit":false,"station_id":"KPB","station_name":"Kampung Bandan","i_lat":-6.132549},{"station_name":"Angke","i_lat":-6.144674,"is_transit":false,"line":0,"distance":4102,"transit":false,"i_long":106.79867,"time":9,"station_id":"AK"},{"i_lat":-6.155215,"line":1,"distance":1230,"i_long":106.800832,"station_name":"Duri","time":4,"is_transit":true,"transit":true,"station_id":"DU"},{"line":1,"station_id":"THB","distance":3632,"time":8,"i_lat":-6.185545,"transit":false,"is_transit":true,"i_long":106.811091,"station_name":"Tanah Abang"},{"line":1,"station_id":"KAT","distance":2029,"i_lat":-6.20132,"is_transit":false,"i_long":106.816351,"time":5,"transit":false,"station_name":"Karet"},{"line":1,"station_name":"Sudirman Baru","time":1,"transit":false,"i_lat":-6.201433,"i_long":106.819881,"is_transit":false,"station_id":"SUDB","distance":471},{"distance":280,"station_name":"Sudirman","station_id":"SUD","time":1,"i_long":106.822649,"line":1,"i_lat":-6.202263,"transit":false,"is_transit":false},{"distance":3186,"transit":false,"i_long":106.84912,"station_name":"Manggarai","line":0,"i_lat":-6.209883,"is_transit":true,"time":4,"station_id":"MRI"},{"i_lat":-6.212485,"transit":false,"i_long":106.858896,"line":1,"station_name":"Matraman","distance":1275,"is_transit":false,"station_id":"MTR","time":2},{"i_lat":-6.215091,"line":0,"i_long":106.86807400000001,"distance":1377,"station_id":"JNG","station_name":"Jatinegara","is_transit":true,"time":8,"transit":true},{"station_id":"POK","transit":false,"i_lat":-6.209188,"line":11,"distance":1236,"time":2,"i_long":106.861737,"is_transit":false,"station_name":"Pondok Jati"},{"i_lat":-6.193792,"distance":1829,"station_id":"KMT","line":11,"transit":false,"is_transit":false,"time":2,"station_name":"Kramat","i_long":106.855437}]]}