{"data":[[{"transit":false,"i_long":106.832183,"distance":0,"line":2,"station_id":"GDD","is_transit":false,"time":0,"station_name":"Gondangdia","i_lat":-6.186295},{"i_long":106.840169,"i_lat":-6.198556,"is_transit":false,"station_name":"Cikini","distance":1750,"time":3,"transit":false,"station_id":"CKI","line":0},{"distance":1590,"line":0,"station_id":"MRI","is_transit":true,"transit":true,"i_lat":-6.209883,"i_long":106.84912,"time":4,"station_name":"Manggarai"},{"time":4,"line":2,"is_transit":false,"station_id":"TEB","station_name":"Tebet","transit":false,"i_long":106.857948,"distance":2610,"i_lat":-6.226659},{"i_lat":-6.242512,"i_long":106.856607,"line":0,"station_name":"Cawang","distance":1230,"time":2,"station_id":"CW","is_transit":false,"transit":false},{"station_id":"DRN","distance":1546,"time":3,"i_long":106.85449,"line":0,"is_transit":false,"station_name":"Duren Kalibata","transit":false,"i_lat":-6.255332},{"is_transit":false,"time":2,"i_long":106.851577,"line":2,"i_lat":-6.263214,"station_id":"PSMB","distance":824,"station_name":"Pasar Minggu Baru","transit":false},{"i_long":106.843999,"transit":false,"line":2,"is_transit":false,"distance":2380,"station_name":"Pasar Minggu","time":2,"i_lat":-6.2842400000000005,"station_id":"PSM"},{"station_name":"Tanjung Barat","transit":false,"is_transit":false,"line":2,"station_id":"TNT","distance":2820,"i_lat":-6.3080680000000005,"i_long":106.838896,"time":4},{"i_lat":-6.330363,"distance":2671,"station_id":"LNA","station_name":"Lenteng Agung","time":3,"transit":false,"i_long":106.832616,"line":2,"is_transit":false},{"i_lat":-6.339291,"station_name":"Univ. Pancasila","is_transit":false,"time":2,"station_id":"UP","transit":false,"distance":1029,"i_long":106.834175,"line":2},{"is_transit":false,"time":3,"i_lat":-6.360749,"i_long":106.831474,"distance":2264,"station_id":"UI","station_name":"Univ. Indonesia","line":2,"transit":false},{"line":2,"is_transit":false,"i_lat":-6.369073,"station_id":"POC","distance":1109,"i_long":106.831114,"transit":false,"station_name":"Pondok Cina","time":2},{"station_id":"DPB","is_transit":false,"i_long":106.819451,"station_name":"Depokbaru","transit":false,"time":4,"distance":2727,"i_lat":-6.391065,"line":0},{"station_name":"Depok","distance":1584,"i_long":106.816926,"line":0,"time":3,"is_transit":false,"transit":false,"station_id":"DP","i_lat":-6.405256},{"station_id":"CTA","distance":5084,"time":6,"line":1,"i_lat":-6.448811,"transit":false,"i_long":106.800298,"is_transit":true,"station_name":"Citayam"},{"is_transit":false,"i_long":106.792719,"transit":false,"i_lat":-6.493243,"station_name":"Bojonggede","line":0,"station_id":"BJD","distance":5197,"time":5},{"line":0,"station_name":"Cilebut","distance":4331,"transit":false,"i_lat":-6.530544,"station_id":"CLT","i_long":106.800016,"is_transit":false,"time":5}],[{"time":0,"is_transit":false,"transit":false,"line":2,"station_name":"Gondangdia","i_long":106.832183,"distance":0,"i_lat":-6.186295,"station_id":"GDD"},{"transit":false,"station_id":"JUA","station_name":"Juanda","is_transit":false,"time":4,"distance":2015,"line":2,"i_long":106.828284,"i_lat":-6.166716},{"transit":false,"i_long":106.827103,"station_id":"SW","is_transit":false,"i_lat":-6.160725,"distance":1149,"time":2,"station_name":"Sawah Besar","line":2},{"i_long":106.82482,"distance":906,"is_transit":false,"time":2,"station_id":"MGB","station_name":"Manggabesar","transit":false,"i_lat":-6.149769,"line":2},{"distance":1080,"i_long":106.820901,"is_transit":false,"i_lat":-6.141205,"station_id":"JAY","transit":false,"time":2,"station_name":"Jayakarta","line":7},{"station_name":"Jakarta Kota","time":4,"line":0,"transit":true,"i_lat":-6.137569,"i_long":106.812439,"is_transit":true,"distance":1264,"station_id":"JAKK"},{"line":0,"station_id":"KPB","distance":1364,"i_long":106.826365,"transit":false,"is_transit":true,"time":3,"station_name":"Kampung Bandan","i_lat":-6.132549},{"time":9,"i_lat":-6.144674,"station_id":"AK","is_transit":false,"distance":4102,"station_name":"Angke","line":0,"i_long":106.79867,"transit":false},{"station_name":"Duri","line":1,"station_id":"DU","time":4,"transit":true,"distance":1230,"i_long":106.800832,"is_transit":true,"i_lat":-6.155215},{"station_id":"THB","distance":3632,"line":1,"station_name":"Tanah Abang","is_transit":true,"i_long":106.811091,"transit":false,"i_lat":-6.185545,"time":8},{"is_transit":false,"station_name":"Karet","line":1,"transit":false,"i_long":106.816351,"distance":2029,"i_lat":-6.20132,"station_id":"KAT","time":5},{"line":1,"distance":471,"station_id":"SUDB","station_name":"Sudirman Baru","i_long":106.819881,"is_transit":false,"time":1,"transit":false,"i_lat":-6.201433},{"i_lat":-6.202263,"distance":280,"transit":false,"line":1,"station_id":"SUD","time":1,"is_transit":false,"station_name":"Sudirman","i_long":106.822649},{"distance":3186,"line":0,"transit":true,"time":4,"station_id":"MRI","station_name":"Manggarai","i_lat":-6.209883,"is_transit":true,"i_long":106.84912},{"distance":2610,"station_name":"Tebet","line":2,"transit":false,"i_long":106.857948,"i_lat":-6.226659,"station_id":"TEB","is_transit":false,"time":4},{"is_transit":false,"distance":1230,"line":0,"time":2,"i_lat":-6.242512,"station_id":"CW","i_long":106.856607,"transit":false,"station_name":"Cawang"},{"transit":false,"time":3,"i_lat":-6.255332,"line":0,"station_id":"DRN","distance":1546,"station_name":"Duren Kalibata","is_transit":false,"i_long":106.85449},{"station_id":"PSMB","is_transit":false,"distance":824,"i_long":106.851577,"line":2,"station_name":"Pasar Minggu Baru","transit":false,"time":2,"i_lat":-6.263214},{"i_long":106.843999,"time":2,"i_lat":-6.2842400000000005,"is_transit":false,"distance":2380,"station_name":"Pasar Minggu","station_id":"PSM","transit":false,"line":2},{"i_lat":-6.3080680000000005,"distance":2820,"line":2,"i_long":106.838896,"station_name":"Tanjung Barat","time":4,"station_id":"TNT","is_transit":false,"transit":false},{"i_long":106.832616,"line":2,"transit":false,"is_transit":false,"station_id":"LNA","time":3,"distance":2671,"i_lat":-6.330363,"station_name":"Lenteng Agung"},{"i_lat":-6.339291,"station_id":"UP","distance":1029,"station_name":"Univ. Pancasila","i_long":106.834175,"line":2,"is_transit":false,"time":2,"transit":false},{"i_long":106.831474,"is_transit":false,"station_id":"UI","distance":2264,"time":3,"station_name":"Univ. Indonesia","transit":false,"line":2,"i_lat":-6.360749},{"station_id":"POC","i_lat":-6.369073,"station_name":"Pondok Cina","distance":1109,"is_transit":false,"time":2,"transit":false,"i_long":106.831114,"line":2},{"i_long":106.819451,"line":0,"time":4,"distance":2727,"is_transit":false,"transit":false,"i_lat":-6.391065,"station_id":"DPB","station_name":"Depokbaru"},{"i_lat":-6.405256,"is_transit":false,"station_name":"Depok","transit":false,"time":3,"line":0,"station_id":"DP","i_long":106.816926,"distance":1584},{"time":6,"is_transit":true,"distance":5084,"line":1,"station_name":"Citayam","i_lat":-6.448811,"station_id":"CTA","transit":false,"i_long":106.800298},{"i_lat":-6.493243,"distance":5197,"station_id":"BJD","transit":false,"line":0,"is_transit":false,"station_name":"Bojonggede","time":5,"i_long":106.792719},{"transit":false,"station_id":"CLT","is_transit":false,"i_lat":-6.530544,"time":5,"i_long":106.800016,"distance":4331,"line":0,"station_name":"Cilebut"}],[{"line":2,"station_name":"Gondangdia","transit":false,"is_transit":false,"i_lat":-6.186295,"station_id":"GDD","time":0,"distance":0,"i_long":106.832183},{"is_transit":false,"station_id":"JUA","transit":false,"i_lat":-6.166716,"i_long":106.828284,"time":4,"station_name":"Juanda","line":2,"distance":2015},{"transit":false,"distance":1149,"i_lat":-6.160725,"time":2,"station_name":"Sawah Besar","is_transit":false,"line":2,"station_id":"SW","i_long":106.827103},{"i_lat":-6.149769,"station_id":"MGB","time":2,"station_name":"Manggabesar","is_transit":false,"transit":false,"distance":906,"i_long":106.82482,"line":2},{"station_id":"JAY","transit":false,"distance":1080,"time":2,"station_name":"Jayakarta","i_lat":-6.141205,"is_transit":false,"i_long":106.820901,"line":7},{"time":4,"distance":1264,"line":0,"transit":true,"station_name":"Jakarta Kota","station_id":"JAKK","i_lat":-6.137569,"i_long":106.812439,"is_transit":true},{"distance":1364,"is_transit":true,"time":3,"transit":true,"station_name":"Kampung Bandan","i_long":106.826365,"line":0,"station_id":"KPB","i_lat":-6.132549},{"distance":1444,"i_lat":-6.14505,"is_transit":false,"transit":false,"station_id":"RJW","time":3,"i_long":106.836569,"station_name":"Rajawali","line":11},{"transit":false,"line":11,"i_lat":-6.161728,"station_id":"KMO","distance":1901,"i_long":106.839204,"is_transit":false,"time":5,"station_name":"Kemayoran"},{"transit":false,"station_id":"PSE","time":4,"station_name":"Pasar Senen","i_long":106.84368,"line":11,"is_transit":false,"distance":1436,"i_lat":-6.174784},{"station_id":"GST","transit":false,"is_transit":false,"distance":1567,"i_long":106.850107,"i_lat":-6.185975,"time":8,"station_name":"Gang Sentiong","line":11},{"transit":false,"i_long":106.855437,"is_transit":false,"distance":973,"time":1,"station_name":"Kramat","i_lat":-6.193792,"line":11,"station_id":"KMT"},{"distance":1829,"is_transit":false,"line":11,"transit":false,"station_id":"POK","station_name":"Pondok Jati","time":2,"i_long":106.861737,"i_lat":-6.209188},{"station_name":"Jatinegara","line":0,"transit":true,"is_transit":true,"distance":1236,"i_lat":-6.215091,"i_long":106.86807400000001,"station_id":"JNG","time":9},{"distance":1377,"station_name":"Matraman","i_lat":-6.212485,"transit":false,"line":1,"station_id":"MTR","is_transit":false,"i_long":106.858896,"time":2},{"distance":1275,"station_name":"Manggarai","transit":true,"station_id":"MRI","is_transit":true,"i_lat":-6.209883,"time":2,"i_long":106.84912,"line":0},{"i_long":106.857948,"station_name":"Tebet","distance":2610,"is_transit":false,"station_id":"TEB","time":4,"i_lat":-6.226659,"transit":false,"line":2},{"transit":false,"station_id":"CW","distance":1230,"i_long":106.856607,"station_name":"Cawang","i_lat":-6.242512,"line":0,"time":2,"is_transit":false},{"line":0,"transit":false,"i_lat":-6.255332,"station_id":"DRN","station_name":"Duren Kalibata","distance":1546,"time":3,"i_long":106.85449,"is_transit":false},{"i_long":106.851577,"transit":false,"i_lat":-6.263214,"line":2,"station_id":"PSMB","distance":824,"station_name":"Pasar Minggu Baru","time":2,"is_transit":false},{"i_lat":-6.2842400000000005,"i_long":106.843999,"station_id":"PSM","time":2,"is_transit":false,"distance":2380,"transit":false,"line":2,"station_name":"Pasar Minggu"},{"i_long":106.838896,"time":4,"station_id":"TNT","i_lat":-6.3080680000000005,"is_transit":false,"transit":false,"station_name":"Tanjung Barat","distance":2820,"line":2},{"distance":2671,"i_lat":-6.330363,"i_long":106.832616,"time":3,"station_id":"LNA","transit":false,"station_name":"Lenteng Agung","line":2,"is_transit":false},{"is_transit":false,"station_name":"Univ. Pancasila","time":2,"i_lat":-6.339291,"distance":1029,"station_id":"UP","i_long":106.834175,"transit":false,"line":2},{"is_transit":false,"distance":2264,"transit":false,"station_id":"UI","time":3,"line":2,"station_name":"Univ. Indonesia","i_long":106.831474,"i_lat":-6.360749},{"is_transit":false,"station_name":"Pondok Cina","i_lat":-6.369073,"transit":false,"i_long":106.831114,"distance":1109,"time":2,"line":2,"station_id":"POC"},{"station_id":"DPB","distance":2727,"station_name":"Depokbaru","transit":false,"is_transit":false,"i_lat":-6.391065,"i_long":106.819451,"time":4,"line":0},{"station_id":"DP","transit":false,"i_long":106.816926,"distance":1584,"is_transit":false,"time":3,"i_lat":-6.405256,"line":0,"station_name":"Depok"},{"distance":5084,"transit":false,"time":6,"i_long":106.800298,"station_name":"Citayam","i_lat":-6.448811,"station_id":"CTA","line":1,"is_transit":true},{"station_name":"Bojonggede","line":0,"distance":5197,"station_id":"BJD","transit":false,"i_long":106.792719,"is_transit":false,"time":5,"i_lat":-6.493243},{"distance":4331,"station_id":"CLT","i_lat":-6.530544,"time":5,"station_name":"Cilebut","i_long":106.800016,"transit":false,"is_transit":false,"line":0}]]}