{"data":[[{"time":0,"station_id":"GDD","distance":0,"transit":false,"station_name":"Gondangdia","i_lat":-6.186295,"i_long":106.832183,"line":2,"is_transit":false},{"station_name":"Cikini","line":2,"transit":false,"time":3,"i_long":106.840169,"i_lat":-6.198556,"is_transit":false,"station_id":"CKI","distance":1750},{"station_id":"MRI","line":2,"station_name":"Manggarai","transit":false,"distance":1590,"time":4,"i_long":106.84912,"i_lat":-6.209883,"is_transit":false},{"time":4,"line":2,"station_name":"Tebet","distance":2610,"transit":false,"station_id":"TEB","i_long":106.857948,"is_transit":false,"i_lat":-6.226659},{"distance":1230,"station_id":"CW","time":2,"is_transit":false,"i_lat":-6.242512,"i_long":106.856607,"line":2,"transit":false,"station_name":"Cawang"},{"distance":1546,"station_name":"Duren Kalibata","transit":false,"line":2,"is_transit":false,"time":3,"i_lat":-6.255332,"station_id":"DRN","i_long":106.85449},{"i_lat":-6.263214,"is_transit":false,"transit":false,"distance":824,"i_long":106.851577,"station_name":"Pasar Minggu Baru","line":2,"station_id":"PSMB","time":2},{"time":2,"line":2,"station_id":"PSM","distance":2380,"station_name":"Pasar Minggu","is_transit":false,"i_long":106.843999,"i_lat":-6.2842400000000005,"transit":false},{"station_id":"TNT","station_name":"Tanjung Barat","is_transit":false,"line":2,"distance":2820,"transit":false,"time":4,"i_long":106.838896,"i_lat":-6.3080680000000005},{"distance":2671,"is_transit":false,"i_lat":-6.330363,"i_long":106.832616,"line":2,"transit":false,"time":3,"station_name":"Lenteng Agung","station_id":"LNA"},{"station_name":"Univ. Pancasila","i_long":106.834175,"station_id":"UP","transit":false,"time":2,"distance":1029,"line":2,"is_transit":false,"i_lat":-6.339291},{"i_lat":-6.360749,"i_long":106.831474,"time":3,"transit":false,"station_id":"UI","station_name":"Univ. Indonesia","is_transit":false,"line":2,"distance":2264},{"transit":false,"distance":1109,"is_transit":false,"line":2,"station_id":"POC","i_lat":-6.369073,"time":2,"station_name":"Pondok Cina","i_long":106.831114},{"station_name":"Depokbaru","distance":2727,"i_long":106.819451,"line":2,"i_lat":-6.391065,"station_id":"DPB","time":4,"is_transit":false,"transit":false},{"transit":false,"i_lat":-6.405256,"time":3,"station_id":"DP","is_transit":false,"distance":1584,"i_long":106.816926,"station_name":"Depok","line":2},{"distance":5084,"station_id":"CTA","station_name":"Citayam","is_transit":false,"transit":false,"time":6,"i_long":106.800298,"line":2,"i_lat":-6.448811},{"station_name":"Bojonggede","i_lat":-6.493243,"time":5,"is_transit":false,"line":2,"distance":5197,"station_id":"BJD","i_long":106.792719,"transit":false},{"line":2,"distance":4331,"station_name":"Cilebut","is_transit":false,"transit":false,"i_lat":-6.530544,"station_id":"CLT","time":5,"i_long":106.800016}],[{"line":2,"distance":0,"i_lat":-6.186295,"station_id":"GDD","is_transit":false,"transit":false,"station_name":"Gondangdia","time":0,"i_long":106.832183},{"station_id":"JUA","i_lat":-6.166716,"distance":2015,"time":4,"is_transit":false,"i_long":106.828284,"line":2,"transit":false,"station_name":"Juanda"},{"time":2,"distance":1149,"i_long":106.827103,"station_name":"Sawah Besar","i_lat":-6.160725,"station_id":"SW","line":2,"is_transit":false,"transit":false},{"station_name":"Manggabesar","is_transit":false,"i_lat":-6.149769,"line":2,"time":2,"distance":906,"station_id":"MGB","transit":false,"i_long":106.82482},{"time":2,"is_transit":false,"station_name":"Jayakarta","station_id":"JAY","line":2,"transit":false,"i_long":106.820901,"distance":1080,"i_lat":-6.141205},{"station_id":"JAKK","distance":1264,"i_lat":-6.137569,"station_name":"Jakarta Kota","i_long":106.812439,"is_transit":true,"transit":true,"line":2,"time":4},{"distance":1364,"is_transit":true,"transit":true,"i_lat":-6.132549,"line":4,"i_long":106.826365,"time":3,"station_name":"Kampung Bandan","station_id":"KPB"},{"is_transit":false,"i_lat":-6.144674,"time":9,"station_name":"Angke","i_long":106.79867,"distance":4102,"station_id":"AK","line":1,"transit":false},{"transit":false,"is_transit":false,"i_lat":-6.155215,"i_long":106.800832,"time":4,"distance":1230,"station_name":"Duri","line":1,"station_id":"DU"},{"transit":false,"i_long":106.811091,"time":8,"line":1,"distance":3632,"station_id":"THB","station_name":"Tanah Abang","is_transit":false,"i_lat":-6.185545},{"i_long":106.816351,"station_id":"KAT","transit":false,"distance":2029,"station_name":"Karet","is_transit":false,"i_lat":-6.20132,"line":1,"time":5},{"station_name":"Sudirman Baru","i_lat":-6.201433,"line":1,"transit":false,"is_transit":false,"time":1,"i_long":106.819881,"station_id":"SUDB","distance":471},{"station_name":"Sudirman","is_transit":false,"time":1,"line":1,"distance":280,"transit":false,"station_id":"SUD","i_lat":-6.202263,"i_long":106.822649},{"transit":true,"time":4,"distance":3186,"i_lat":-6.209883,"i_long":106.84912,"line":2,"station_id":"MRI","is_transit":true,"station_name":"Manggarai"},{"station_name":"Tebet","station_id":"TEB","is_transit":false,"i_lat":-6.226659,"distance":2610,"i_long":106.857948,"line":2,"transit":false,"time":4},{"distance":1230,"time":2,"is_transit":false,"station_name":"Cawang","transit":false,"station_id":"CW","i_lat":-6.242512,"i_long":106.856607,"line":2},{"i_long":106.85449,"i_lat":-6.255332,"transit":false,"is_transit":false,"station_name":"Duren Kalibata","station_id":"DRN","line":2,"time":3,"distance":1546},{"station_id":"PSMB","station_name":"Pasar Minggu Baru","is_transit":false,"time":2,"i_lat":-6.263214,"distance":824,"transit":false,"line":2,"i_long":106.851577},{"station_name":"Pasar Minggu","station_id":"PSM","distance":2380,"i_long":106.843999,"time":2,"transit":false,"line":2,"is_transit":false,"i_lat":-6.2842400000000005},{"station_id":"TNT","is_transit":false,"i_long":106.838896,"transit":false,"line":2,"station_name":"Tanjung Barat","distance":2820,"i_lat":-6.3080680000000005,"time":4},{"distance":2671,"time":3,"transit":false,"i_long":106.832616,"station_id":"LNA","station_name":"Lenteng Agung","line":2,"is_transit":false,"i_lat":-6.330363},{"time":2,"station_id":"UP","is_transit":false,"i_long":106.834175,"line":2,"i_lat":-6.339291,"station_name":"Univ. Pancasila","distance":1029,"transit":false},{"station_id":"UI","station_name":"Univ. Indonesia","is_transit":false,"distance":2264,"time":3,"i_long":106.831474,"line":2,"transit":false,"i_lat":-6.360749},{"station_id":"POC","transit":false,"time":2,"is_transit":false,"i_long":106.831114,"distance":1109,"station_name":"Pondok Cina","line":2,"i_lat":-6.369073},{"is_transit":false,"i_lat":-6.391065,"i_long":106.819451,"station_name":"Depokbaru","time":4,"line":2,"station_id":"DPB","transit":false,"distance":2727},{"transit":false,"time":3,"line":2,"distance":1584,"station_id":"DP","station_name":"Depok","i_long":106.816926,"is_transit":false,"i_lat":-6.405256},{"line":2,"station_name":"Citayam","time":6,"distance":5084,"station_id":"CTA","transit":false,"i_long":106.800298,"i_lat":-6.448811,"is_transit":false},{"distance":5197,"i_long":106.792719,"i_lat":-6.493243,"line":2,"station_name":"Bojonggede","station_id":"BJD","transit":false,"is_transit":false,"time":5},{"time":5,"is_transit":false,"transit":false,"station_name":"Cilebut","distance":4331,"i_lat":-6.530544,"line":2,"station_id":"CLT","i_long":106.800016}],[{"i_long":106.832183,"i_lat":-6.186295,"time":0,"is_transit":false,"transit":false,"station_name":"Gondangdia","line":2,"station_id":"GDD","distance":0},{"i_long":106.828284,"station_id":"JUA","station_name":"Juanda","i_lat":-6.166716,"distance":2015,"is_transit":false,"transit":false,"line":2,"time":4},{"is_transit":false,"station_id":"SW","i_lat":-6.160725,"time":2,"station_name":"Sawah Besar","i_long":106.827103,"line":2,"transit":false,"distance":1149},{"time":2,"distance":906,"line":2,"is_transit":false,"station_id":"MGB","transit":false,"i_lat":-6.149769,"station_name":"Manggabesar","i_long":106.82482},{"is_transit":false,"transit":false,"station_id":"JAY","station_name":"Jayakarta","time":2,"i_long":106.820901,"distance":1080,"line":2,"i_lat":-6.141205},{"is_transit":true,"line":2,"station_name":"Jakarta Kota","distance":1264,"time":4,"i_lat":-6.137569,"i_long":106.812439,"transit":true,"station_id":"JAKK"},{"i_long":106.826365,"station_id":"KPB","distance":1364,"transit":true,"station_name":"Kampung Bandan","is_transit":true,"line":4,"i_lat":-6.132549,"time":3},{"distance":1444,"time":3,"transit":false,"i_long":106.836569,"is_transit":false,"station_id":"RJW","station_name":"Rajawali","line":11,"i_lat":-6.14505},{"station_id":"KMO","is_transit":false,"transit":false,"distance":1901,"station_name":"Kemayoran","line":11,"time":5,"i_long":106.839204,"i_lat":-6.161728},{"transit":false,"distance":1436,"i_lat":-6.174784,"i_long":106.84368,"line":11,"station_name":"Pasar Senen","station_id":"PSE","time":4,"is_transit":false},{"transit":false,"time":8,"distance":1567,"line":11,"i_lat":-6.185975,"is_transit":false,"station_id":"GST","station_name":"Gang Sentiong","i_long":106.850107},{"is_transit":false,"i_lat":-6.193792,"i_long":106.855437,"time":1,"line":11,"station_id":"KMT","station_name":"Kramat","transit":false,"distance":973},{"is_transit":false,"i_long":106.861737,"station_name":"Pondok Jati","station_id":"POK","distance":1829,"line":11,"time":2,"transit":false,"i_lat":-6.209188},{"i_long":106.86807400000001,"is_transit":true,"transit":true,"station_name":"Jatinegara","line":1,"i_lat":-6.215091,"distance":1236,"time":9,"station_id":"JNG"},{"line":1,"time":2,"is_transit":false,"station_id":"MTR","i_lat":-6.212485,"transit":false,"station_name":"Matraman","distance":1377,"i_long":106.858896},{"i_long":106.84912,"transit":true,"distance":1275,"line":2,"station_id":"MRI","is_transit":true,"station_name":"Manggarai","i_lat":-6.209883,"time":2},{"station_name":"Tebet","station_id":"TEB","is_transit":false,"line":2,"transit":false,"i_long":106.857948,"time":4,"distance":2610,"i_lat":-6.226659},{"station_name":"Cawang","time":2,"is_transit":false,"distance":1230,"i_lat":-6.242512,"transit":false,"station_id":"CW","line":2,"i_long":106.856607},{"station_id":"DRN","i_lat":-6.255332,"i_long":106.85449,"line":2,"station_name":"Duren Kalibata","time":3,"distance":1546,"is_transit":false,"transit":false},{"time":2,"i_lat":-6.263214,"i_long":106.851577,"station_name":"Pasar Minggu Baru","is_transit":false,"transit":false,"station_id":"PSMB","line":2,"distance":824},{"is_transit":false,"i_long":106.843999,"i_lat":-6.2842400000000005,"station_id":"PSM","station_name":"Pasar Minggu","distance":2380,"transit":false,"line":2,"time":2},{"line":2,"i_long":106.838896,"station_name":"Tanjung Barat","i_lat":-6.3080680000000005,"station_id":"TNT","is_transit":false,"distance":2820,"time":4,"transit":false},{"is_transit":false,"i_lat":-6.330363,"i_long":106.832616,"transit":false,"station_name":"Lenteng Agung","station_id":"LNA","time":3,"distance":2671,"line":2},{"i_long":106.834175,"i_lat":-6.339291,"transit":false,"is_transit":false,"station_name":"Univ. Pancasila","distance":1029,"station_id":"UP","line":2,"time":2},{"distance":2264,"time":3,"i_lat":-6.360749,"station_id":"UI","is_transit":false,"station_name":"Univ. Indonesia","i_long":106.831474,"line":2,"transit":false},{"i_long":106.831114,"station_id":"POC","time":2,"i_lat":-6.369073,"line":2,"station_name":"Pondok Cina","transit":false,"is_transit":false,"distance":1109},{"distance":2727,"is_transit":false,"i_lat":-6.391065,"station_id":"DPB","time":4,"transit":false,"i_long":106.819451,"line":2,"station_name":"Depokbaru"},{"station_name":"Depok","time":3,"transit":false,"station_id":"DP","i_lat":-6.405256,"is_transit":false,"distance":1584,"line":2,"i_long":106.816926},{"transit":false,"distance":5084,"is_transit":false,"time":6,"station_name":"Citayam","station_id":"CTA","i_lat":-6.448811,"line":2,"i_long":106.800298},{"i_long":106.792719,"line":2,"transit":false,"station_name":"Bojonggede","is_transit":false,"time":5,"distance":5197,"i_lat":-6.493243,"station_id":"BJD"},{"transit":false,"time":5,"distance":4331,"line":2,"i_lat":-6.530544,"is_transit":false,"i_long":106.800016,"station_id":"CLT","station_name":"Cilebut"}]]}