{"data":[[{"station_name":"Gondangdia","line":2,"i_lat":-6.186295,"time":0,"i_long":106.832183,"transit":false,"distance":0,"is_transit":false,"station_id":"GDD"},{"station_id":"CKI","is_transit":false,"i_lat":-6.198556,"i_long":106.840169,"station_name":"Cikini","distance":1750,"line":2,"time":3,"transit":false},{"is_transit":true,"line":2,"time":4,"station_id":"MRI","i_long":106.84912,"transit":true,"i_lat":-6.209883,"distance":1590,"station_name":"Manggarai"},{"time":4,"distance":3186,"is_transit":false,"station_name":"Sudirman","station_id":"SUD","i_long":106.822649,"i_lat":-6.202263,"line":1,"transit":false},{"line":1,"station_id":"SUDB","time":1,"i_long":106.819881,"i_lat":-6.201433,"is_transit":false,"station_name":"Sudirman Baru","transit":false,"distance":280},{"is_transit":false,"i_lat":-6.20132,"station_id":"KAT","distance":471,"transit":false,"i_long":106.816351,"time":1,"station_name":"Karet","line":1},{"i_lat":-6.185545,"is_transit":true,"i_long":106.811091,"station_name":"Tanah Abang","time":5,"station_id":"THB","distance":2029,"line":1,"transit":true},{"i_long":106.79689,"line":6,"transit":false,"is_transit":false,"i_lat":-6.207404,"station_id":"PLM","station_name":"Palmerah","time":6,"distance":3191},{"station_name":"Kebayoran","station_id":"KBY","time":7,"line":6,"is_transit":false,"i_lat":-6.237242,"i_long":106.780334,"distance":3737,"transit":false},{"station_name":"Pondokranji","time":8,"distance":6218,"i_long":106.74273,"transit":false,"i_lat":-6.276362,"is_transit":false,"station_id":"PDJ","line":6},{"station_id":"JMU","line":6,"is_transit":false,"station_name":"Jurangmangu","time":3,"distance":2179,"i_long":106.728916,"transit":false,"i_lat":-6.288927},{"i_lat":-6.296963,"i_long":106.712277,"time":4,"distance":1994,"is_transit":false,"station_name":"Sudimara","line":6,"station_id":"SDM","transit":false},{"transit":false,"station_id":"RU","time":6,"station_name":"Rawa Buntu","i_lat":-6.314823,"i_long":106.675475,"is_transit":false,"distance":4566,"line":6},{"distance":2413,"i_lat":-6.319871,"station_name":"Serpong","is_transit":false,"time":4,"transit":false,"i_long":106.66566,"line":6,"station_id":"SRP"},{"distance":1784,"transit":false,"i_lat":-6.32484,"time":4,"is_transit":false,"i_long":106.640411,"line":3,"station_id":"CSK","station_name":"Cisauk"},{"station_name":"Cicayur","distance":2519,"time":4,"i_lat":-6.329547,"line":3,"i_long":106.617853,"transit":false,"station_id":"CC","is_transit":false},{"line":6,"distance":5968,"is_transit":false,"station_name":"Parung Panjang","i_long":106.568863,"i_lat":-6.3441410000000005,"transit":false,"station_id":"PRP","time":8},{"distance":7025,"transit":false,"is_transit":false,"station_id":"CJT","line":3,"station_name":"Cilejit","i_long":106.508482,"time":9,"i_lat":-6.354349},{"time":6,"transit":false,"station_name":"Daru","i_long":106.491338,"is_transit":false,"line":0,"station_id":"DAR","i_lat":-6.338021,"distance":2675},{"i_long":106.460812,"is_transit":false,"station_name":"Tenjo","distance":3902,"time":5,"i_lat":-6.327251,"line":6,"transit":false,"station_id":"TEJ"},{"time":5,"i_long":106.425991,"line":6,"distance":2974,"i_lat":-6.328533,"station_name":"Tigaraksa","is_transit":false,"transit":false,"station_id":"TGS"},{"is_transit":false,"station_id":"CKY","time":3,"transit":false,"i_long":106.411216,"i_lat":-6.33561,"line":3,"station_name":"Cikoya","distance":2651},{"station_name":"Maja","line":6,"station_id":"MJ","i_long":106.394373,"i_lat":-6.332307,"transit":false,"is_transit":false,"time":4,"distance":1853},{"time":10,"station_name":"Citeras","i_long":106.332092,"station_id":"CTR","transit":false,"distance":7293,"is_transit":false,"line":3,"i_lat":-6.334892}],[{"i_lat":-6.186295,"line":2,"station_name":"Gondangdia","transit":false,"distance":0,"station_id":"GDD","i_long":106.832183,"time":0,"is_transit":false},{"line":2,"station_id":"JUA","i_lat":-6.166716,"transit":false,"i_long":106.828284,"distance":2015,"time":4,"station_name":"Juanda","is_transit":false},{"transit":false,"station_id":"SW","i_lat":-6.160725,"is_transit":false,"distance":1149,"time":2,"line":2,"i_long":106.827103,"station_name":"Sawah Besar"},{"i_long":106.82482,"station_id":"MGB","time":2,"i_lat":-6.149769,"station_name":"Manggabesar","transit":false,"line":2,"is_transit":false,"distance":906},{"i_lat":-6.141205,"i_long":106.820901,"distance":1080,"transit":false,"station_name":"Jayakarta","line":2,"station_id":"JAY","is_transit":false,"time":2},{"is_transit":true,"line":2,"station_id":"JAKK","distance":1264,"station_name":"Jakarta Kota","i_lat":-6.137569,"time":4,"i_long":106.812439,"transit":true},{"time":3,"i_lat":-6.132549,"i_long":106.826365,"line":4,"station_name":"Kampung Bandan","distance":1364,"transit":true,"is_transit":true,"station_id":"KPB"},{"is_transit":false,"transit":false,"i_long":106.79867,"line":1,"distance":4102,"i_lat":-6.144674,"time":9,"station_id":"AK","station_name":"Angke"},{"is_transit":false,"transit":false,"time":4,"distance":1230,"station_id":"DU","i_long":106.800832,"line":1,"station_name":"Duri","i_lat":-6.155215},{"transit":true,"i_lat":-6.185545,"station_id":"THB","station_name":"Tanah Abang","time":8,"line":1,"i_long":106.811091,"is_transit":true,"distance":3632},{"line":6,"station_name":"Palmerah","is_transit":false,"time":6,"station_id":"PLM","i_lat":-6.207404,"i_long":106.79689,"distance":3191,"transit":false},{"line":6,"distance":3737,"is_transit":false,"station_id":"KBY","i_lat":-6.237242,"station_name":"Kebayoran","time":7,"transit":false,"i_long":106.780334},{"distance":6218,"line":6,"station_name":"Pondokranji","i_long":106.74273,"is_transit":false,"station_id":"PDJ","time":8,"i_lat":-6.276362,"transit":false},{"time":3,"i_lat":-6.288927,"i_long":106.728916,"line":6,"station_id":"JMU","distance":2179,"station_name":"Jurangmangu","transit":false,"is_transit":false},{"station_id":"SDM","is_transit":false,"time":4,"transit":false,"i_lat":-6.296963,"station_name":"Sudimara","distance":1994,"line":6,"i_long":106.712277},{"time":6,"i_lat":-6.314823,"i_long":106.675475,"line":6,"is_transit":false,"station_name":"Rawa Buntu","distance":4566,"station_id":"RU","transit":false},{"station_name":"Serpong","is_transit":false,"i_lat":-6.319871,"transit":false,"distance":2413,"station_id":"SRP","i_long":106.66566,"line":6,"time":4},{"time":4,"station_id":"CSK","distance":1784,"i_lat":-6.32484,"transit":false,"station_name":"Cisauk","is_transit":false,"i_long":106.640411,"line":3},{"station_name":"Cicayur","time":4,"i_long":106.617853,"station_id":"CC","transit":false,"line":3,"is_transit":false,"distance":2519,"i_lat":-6.329547},{"i_long":106.568863,"line":6,"station_id":"PRP","station_name":"Parung Panjang","is_transit":false,"distance":5968,"transit":false,"i_lat":-6.3441410000000005,"time":8},{"station_name":"Cilejit","distance":7025,"is_transit":false,"time":9,"i_long":106.508482,"transit":false,"line":3,"i_lat":-6.354349,"station_id":"CJT"},{"time":6,"line":0,"station_name":"Daru","station_id":"DAR","is_transit":false,"i_lat":-6.338021,"i_long":106.491338,"distance":2675,"transit":false},{"i_long":106.460812,"distance":3902,"time":5,"station_id":"TEJ","line":6,"transit":false,"is_transit":false,"station_name":"Tenjo","i_lat":-6.327251},{"station_name":"Tigaraksa","is_transit":false,"i_lat":-6.328533,"distance":2974,"station_id":"TGS","time":5,"transit":false,"line":6,"i_long":106.425991},{"transit":false,"i_lat":-6.33561,"station_name":"Cikoya","distance":2651,"i_long":106.411216,"is_transit":false,"line":3,"station_id":"CKY","time":3},{"i_lat":-6.332307,"is_transit":false,"station_id":"MJ","time":4,"transit":false,"distance":1853,"station_name":"Maja","i_long":106.394373,"line":6},{"transit":false,"i_long":106.332092,"line":3,"station_name":"Citeras","distance":7293,"i_lat":-6.334892,"time":10,"is_transit":false,"station_id":"CTR"}],[{"distance":0,"station_id":"GDD","is_transit":false,"time":0,"station_name":"Gondangdia","transit":false,"line":2,"i_lat":-6.186295,"i_long":106.832183},{"station_name":"Cikini","transit":false,"time":3,"distance":1750,"station_id":"CKI","i_long":106.840169,"i_lat":-6.198556,"line":2,"is_transit":false},{"station_id":"MRI","is_transit":true,"i_lat":-6.209883,"time":4,"i_long":106.84912,"distance":1590,"line":2,"station_name":"Manggarai","transit":true},{"time":2,"i_long":106.858896,"i_lat":-6.212485,"line":1,"station_name":"Matraman","transit":false,"is_transit":false,"distance":1275,"station_id":"MTR"},{"time":8,"station_name":"Jatinegara","i_long":106.86807400000001,"i_lat":-6.215091,"line":1,"transit":true,"is_transit":true,"station_id":"JNG","distance":1377},{"distance":1236,"i_lat":-6.209188,"station_name":"Pondok Jati","i_long":106.861737,"line":11,"transit":false,"is_transit":false,"time":2,"station_id":"POK"},{"distance":1829,"is_transit":false,"transit":false,"i_long":106.855437,"station_id":"KMT","line":11,"time":2,"station_name":"Kramat","i_lat":-6.193792},{"is_transit":false,"transit":false,"line":11,"distance":973,"time":1,"station_id":"GST","i_long":106.850107,"i_lat":-6.185975,"station_name":"Gang Sentiong"},{"station_id":"PSE","distance":1567,"transit":false,"line":11,"is_transit":false,"i_long":106.84368,"station_name":"Pasar Senen","i_lat":-6.174784,"time":8},{"transit":false,"is_transit":false,"i_lat":-6.161728,"i_long":106.839204,"distance":1436,"line":11,"station_name":"Kemayoran","station_id":"KMO","time":4},{"station_id":"RJW","station_name":"Rajawali","is_transit":false,"i_lat":-6.14505,"distance":1901,"time":5,"transit":false,"i_long":106.836569,"line":11},{"is_transit":true,"i_lat":-6.132549,"station_id":"KPB","distance":1444,"transit":true,"line":4,"i_long":106.826365,"station_name":"Kampung Bandan","time":3},{"distance":4102,"transit":false,"i_lat":-6.144674,"station_id":"AK","station_name":"Angke","line":1,"time":9,"is_transit":false,"i_long":106.79867},{"i_long":106.800832,"is_transit":false,"i_lat":-6.155215,"line":1,"station_id":"DU","transit":false,"distance":1230,"station_name":"Duri","time":4},{"station_name":"Tanah Abang","is_transit":true,"station_id":"THB","line":1,"i_lat":-6.185545,"i_long":106.811091,"time":8,"transit":true,"distance":3632},{"distance":3191,"time":6,"i_lat":-6.207404,"station_name":"Palmerah","i_long":106.79689,"station_id":"PLM","transit":false,"is_transit":false,"line":6},{"distance":3737,"station_name":"Kebayoran","station_id":"KBY","i_lat":-6.237242,"line":6,"transit":false,"i_long":106.780334,"time":7,"is_transit":false},{"transit":false,"time":8,"is_transit":false,"i_long":106.74273,"line":6,"distance":6218,"i_lat":-6.276362,"station_name":"Pondokranji","station_id":"PDJ"},{"time":3,"i_lat":-6.288927,"i_long":106.728916,"transit":false,"station_name":"Jurangmangu","is_transit":false,"distance":2179,"station_id":"JMU","line":6},{"station_name":"Sudimara","i_lat":-6.296963,"i_long":106.712277,"distance":1994,"transit":false,"is_transit":false,"station_id":"SDM","line":6,"time":4},{"station_name":"Rawa Buntu","time":6,"line":6,"station_id":"RU","is_transit":false,"distance":4566,"i_long":106.675475,"transit":false,"i_lat":-6.314823},{"transit":false,"i_lat":-6.319871,"station_id":"SRP","is_transit":false,"line":6,"distance":2413,"i_long":106.66566,"station_name":"Serpong","time":4},{"is_transit":false,"time":4,"station_name":"Cisauk","distance":1784,"transit":false,"line":3,"station_id":"CSK","i_long":106.640411,"i_lat":-6.32484},{"line":3,"is_transit":false,"time":4,"station_name":"Cicayur","transit":false,"distance":2519,"station_id":"CC","i_long":106.617853,"i_lat":-6.329547},{"time":8,"i_lat":-6.3441410000000005,"i_long":106.568863,"station_name":"Parung Panjang","distance":5968,"is_transit":false,"transit":false,"line":6,"station_id":"PRP"},{"station_name":"Cilejit","station_id":"CJT","time":9,"line":3,"i_lat":-6.354349,"distance":7025,"is_transit":false,"transit":false,"i_long":106.508482},{"is_transit":false,"transit":false,"line":0,"time":6,"i_lat":-6.338021,"distance":2675,"i_long":106.491338,"station_name":"Daru","station_id":"DAR"},{"is_transit":false,"distance":3902,"transit":false,"i_long":106.460812,"line":6,"time":5,"i_lat":-6.327251,"station_id":"TEJ","station_name":"Tenjo"},{"distance":2974,"i_long":106.425991,"station_name":"Tigaraksa","transit":false,"i_lat":-6.328533,"line":6,"is_transit":false,"station_id":"TGS","time":5},{"i_long":106.411216,"station_name":"Cikoya","distance":2651,"station_id":"CKY","transit":false,"i_lat":-6.33561,"is_transit":false,"line":3,"time":3},{"i_lat":-6.332307,"i_long":106.394373,"station_id":"MJ","line":6,"distance":1853,"time":4,"is_transit":false,"station_name":"Maja","transit":false},{"line":3,"is_transit":false,"time":10,"transit":false,"i_lat":-6.334892,"distance":7293,"station_id":"CTR","i_long":106.332092,"station_name":"Citeras"}],[{"transit":false,"is_transit":false,"time":0,"line":2,"i_lat":-6.186295,"station_name":"Gondangdia","distance":0,"station_id":"GDD","i_long":106.832183},{"distance":2015,"line":2,"time":4,"station_id":"JUA","i_long":106.828284,"i_lat":-6.166716,"transit":false,"is_transit":false,"station_name":"Juanda"},{"station_id":"SW","i_lat":-6.160725,"transit":false,"station_name":"Sawah Besar","distance":1149,"is_transit":false,"time":2,"i_long":106.827103,"line":2},{"transit":false,"line":2,"is_transit":false,"station_id":"MGB","i_lat":-6.149769,"station_name":"Manggabesar","time":2,"distance":906,"i_long":106.82482},{"time":2,"i_long":106.820901,"transit":false,"is_transit":false,"distance":1080,"line":2,"station_name":"Jayakarta","station_id":"JAY","i_lat":-6.141205},{"transit":true,"line":2,"is_transit":true,"station_name":"Jakarta Kota","distance":1264,"time":4,"station_id":"JAKK","i_lat":-6.137569,"i_long":106.812439},{"is_transit":true,"distance":1364,"time":3,"transit":true,"i_lat":-6.132549,"i_long":106.826365,"station_name":"Kampung Bandan","line":4,"station_id":"KPB"},{"station_name":"Rajawali","station_id":"RJW","transit":false,"i_long":106.836569,"distance":1444,"is_transit":false,"line":11,"time":3,"i_lat":-6.14505},{"time":5,"is_transit":false,"transit":false,"i_lat":-6.161728,"i_long":106.839204,"station_name":"Kemayoran","station_id":"KMO","line":11,"distance":1901},{"distance":1436,"station_id":"PSE","i_long":106.84368,"station_name":"Pasar Senen","i_lat":-6.174784,"is_transit":false,"line":11,"time":4,"transit":false},{"i_lat":-6.185975,"station_name":"Gang Sentiong","is_transit":false,"time":8,"transit":false,"i_long":106.850107,"line":11,"distance":1567,"station_id":"GST"},{"i_lat":-6.193792,"is_transit":false,"transit":false,"station_name":"Kramat","station_id":"KMT","time":1,"distance":973,"i_long":106.855437,"line":11},{"i_lat":-6.209188,"i_long":106.861737,"station_id":"POK","time":2,"transit":false,"is_transit":false,"line":11,"station_name":"Pondok Jati","distance":1829},{"time":9,"i_lat":-6.215091,"line":1,"i_long":106.86807400000001,"station_id":"JNG","distance":1236,"station_name":"Jatinegara","is_transit":true,"transit":true},{"i_long":106.858896,"distance":1377,"is_transit":false,"transit":false,"station_name":"Matraman","station_id":"MTR","time":2,"i_lat":-6.212485,"line":1},{"i_lat":-6.209883,"station_name":"Manggarai","is_transit":false,"station_id":"MRI","distance":1275,"line":2,"time":2,"transit":false,"i_long":106.84912},{"is_transit":false,"distance":3186,"station_name":"Sudirman","transit":false,"i_lat":-6.202263,"time":4,"station_id":"SUD","i_long":106.822649,"line":1},{"line":1,"station_id":"SUDB","time":1,"i_lat":-6.201433,"i_long":106.819881,"is_transit":false,"station_name":"Sudirman Baru","transit":false,"distance":280},{"station_name":"Karet","i_lat":-6.20132,"distance":471,"is_transit":false,"i_long":106.816351,"station_id":"KAT","transit":false,"line":1,"time":1},{"i_lat":-6.185545,"station_id":"THB","distance":2029,"is_transit":true,"time":5,"line":1,"station_name":"Tanah Abang","i_long":106.811091,"transit":true},{"station_id":"PLM","line":6,"transit":false,"station_name":"Palmerah","i_lat":-6.207404,"is_transit":false,"i_long":106.79689,"distance":3191,"time":6},{"i_long":106.780334,"time":7,"transit":false,"distance":3737,"i_lat":-6.237242,"station_id":"KBY","is_transit":false,"station_name":"Kebayoran","line":6},{"station_id":"PDJ","time":8,"i_lat":-6.276362,"station_name":"Pondokranji","transit":false,"is_transit":false,"line":6,"distance":6218,"i_long":106.74273},{"i_long":106.728916,"station_id":"JMU","is_transit":false,"i_lat":-6.288927,"line":6,"time":3,"distance":2179,"station_name":"Jurangmangu","transit":false},{"station_name":"Sudimara","is_transit":false,"transit":false,"i_lat":-6.296963,"i_long":106.712277,"distance":1994,"line":6,"station_id":"SDM","time":4},{"is_transit":false,"station_id":"RU","i_lat":-6.314823,"station_name":"Rawa Buntu","distance":4566,"i_long":106.675475,"transit":false,"time":6,"line":6},{"station_id":"SRP","transit":false,"distance":2413,"time":4,"i_lat":-6.319871,"station_name":"Serpong","line":6,"is_transit":false,"i_long":106.66566},{"time":4,"station_id":"CSK","line":3,"station_name":"Cisauk","transit":false,"i_long":106.640411,"distance":1784,"i_lat":-6.32484,"is_transit":false},{"i_lat":-6.329547,"station_name":"Cicayur","distance":2519,"is_transit":false,"i_long":106.617853,"time":4,"line":3,"transit":false,"station_id":"CC"},{"i_lat":-6.3441410000000005,"time":8,"distance":5968,"transit":false,"station_name":"Parung Panjang","i_long":106.568863,"is_transit":false,"line":6,"station_id":"PRP"},{"station_id":"CJT","line":3,"distance":7025,"i_lat":-6.354349,"i_long":106.508482,"transit":false,"is_transit":false,"time":9,"station_name":"Cilejit"},{"transit":false,"line":0,"time":6,"i_lat":-6.338021,"station_id":"DAR","i_long":106.491338,"is_transit":false,"station_name":"Daru","distance":2675},{"time":5,"i_long":106.460812,"distance":3902,"transit":false,"is_transit":false,"line":6,"station_id":"TEJ","i_lat":-6.327251,"station_name":"Tenjo"},{"is_transit":false,"distance":2974,"i_long":106.425991,"transit":false,"line":6,"time":5,"station_name":"Tigaraksa","station_id":"TGS","i_lat":-6.328533},{"station_name":"Cikoya","transit":false,"i_lat":-6.33561,"line":3,"is_transit":false,"distance":2651,"i_long":106.411216,"time":3,"station_id":"CKY"},{"line":6,"time":4,"station_name":"Maja","i_lat":-6.332307,"station_id":"MJ","transit":false,"distance":1853,"i_long":106.394373,"is_transit":false},{"is_transit":false,"station_name":"Citeras","station_id":"CTR","i_long":106.332092,"line":3,"distance":7293,"i_lat":-6.334892,"time":10,"transit":false}]]}