{"data":[[{"line":2,"i_lat":-6.186295,"station_name":"Gondangdia","transit":false,"distance":0,"is_transit":false,"i_long":106.832183,"station_id":"GDD","time":0},{"i_long":106.840169,"time":3,"station_id":"CKI","distance":1750,"station_name":"Cikini","i_lat":-6.198556,"transit":false,"is_transit":false,"line":0},{"i_lat":-6.209883,"time":4,"distance":1590,"station_name":"Manggarai","line":0,"station_id":"MRI","transit":true,"is_transit":true,"i_long":106.84912},{"time":2,"i_long":106.858896,"i_lat":-6.212485,"is_transit":false,"distance":1275,"station_id":"MTR","transit":false,"line":1,"station_name":"Matraman"},{"station_name":"Jatinegara","line":0,"station_id":"JNG","i_long":106.86807400000001,"time":8,"transit":false,"is_transit":true,"distance":1377,"i_lat":-6.215091}],[{"distance":0,"transit":false,"is_transit":false,"station_id":"GDD","i_lat":-6.186295,"i_long":106.832183,"station_name":"Gondangdia","line":2,"time":0},{"i_lat":-6.166716,"time":4,"is_transit":false,"line":2,"station_id":"JUA","distance":2015,"station_name":"Juanda","transit":false,"i_long":106.828284},{"line":2,"station_id":"SW","i_long":106.827103,"station_name":"Sawah Besar","transit":false,"time":2,"i_lat":-6.160725,"is_transit":false,"distance":1149},{"transit":false,"is_transit":false,"distance":906,"i_lat":-6.149769,"time":2,"station_name":"Manggabesar","line":2,"station_id":"MGB","i_long":106.82482},{"line":7,"distance":1080,"time":2,"station_id":"JAY","i_lat":-6.141205,"is_transit":false,"station_name":"Jayakarta","i_long":106.820901,"transit":false},{"distance":1264,"i_lat":-6.137569,"i_long":106.812439,"transit":true,"is_transit":true,"station_id":"JAKK","line":0,"time":4,"station_name":"Jakarta Kota"},{"transit":true,"distance":1364,"i_long":106.826365,"line":0,"station_id":"KPB","i_lat":-6.132549,"station_name":"Kampung Bandan","is_transit":true,"time":3},{"transit":false,"i_long":106.836569,"i_lat":-6.14505,"station_name":"Rajawali","line":11,"station_id":"RJW","is_transit":false,"time":3,"distance":1444},{"line":11,"is_transit":false,"i_lat":-6.161728,"time":5,"station_id":"KMO","distance":1901,"i_long":106.839204,"transit":false,"station_name":"Kemayoran"},{"station_name":"Pasar Senen","line":11,"time":4,"i_lat":-6.174784,"station_id":"PSE","distance":1436,"i_long":106.84368,"is_transit":false,"transit":false},{"transit":false,"is_transit":false,"i_long":106.850107,"line":11,"time":8,"station_id":"GST","distance":1567,"i_lat":-6.185975,"station_name":"Gang Sentiong"},{"line":11,"transit":false,"station_name":"Kramat","i_lat":-6.193792,"i_long":106.855437,"is_transit":false,"station_id":"KMT","time":1,"distance":973},{"i_lat":-6.209188,"transit":false,"station_id":"POK","station_name":"Pondok Jati","distance":1829,"i_long":106.861737,"line":11,"time":2,"is_transit":false},{"is_transit":true,"time":9,"i_long":106.86807400000001,"station_name":"Jatinegara","i_lat":-6.215091,"distance":1236,"station_id":"JNG","transit":false,"line":0}],[{"station_name":"Gondangdia","station_id":"GDD","i_lat":-6.186295,"time":0,"is_transit":false,"transit":false,"i_long":106.832183,"distance":0,"line":2},{"transit":false,"i_long":106.828284,"is_transit":false,"line":2,"time":4,"station_id":"JUA","distance":2015,"station_name":"Juanda","i_lat":-6.166716},{"station_name":"Sawah Besar","i_lat":-6.160725,"time":2,"is_transit":false,"distance":1149,"line":2,"transit":false,"station_id":"SW","i_long":106.827103},{"line":2,"distance":906,"time":2,"is_transit":false,"i_long":106.82482,"station_name":"Manggabesar","transit":false,"station_id":"MGB","i_lat":-6.149769},{"line":7,"distance":1080,"station_name":"Jayakarta","transit":false,"station_id":"JAY","is_transit":false,"i_lat":-6.141205,"time":2,"i_long":106.820901},{"i_long":106.812439,"transit":true,"is_transit":true,"station_name":"Jakarta Kota","station_id":"JAKK","time":4,"i_lat":-6.137569,"distance":1264,"line":0},{"distance":1364,"i_lat":-6.132549,"line":0,"is_transit":true,"time":3,"station_id":"KPB","transit":false,"i_long":106.826365,"station_name":"Kampung Bandan"},{"station_id":"AK","i_lat":-6.144674,"time":9,"line":0,"station_name":"Angke","distance":4102,"transit":false,"i_long":106.79867,"is_transit":false},{"is_transit":true,"i_lat":-6.155215,"station_id":"DU","distance":1230,"time":4,"transit":true,"line":1,"station_name":"Duri","i_long":106.800832},{"i_lat":-6.185545,"station_id":"THB","is_transit":true,"transit":false,"line":1,"station_name":"Tanah Abang","i_long":106.811091,"time":8,"distance":3632},{"station_id":"KAT","distance":2029,"station_name":"Karet","line":1,"time":5,"i_long":106.816351,"is_transit":false,"i_lat":-6.20132,"transit":false},{"i_long":106.819881,"is_transit":false,"time":1,"station_id":"SUDB","distance":471,"station_name":"Sudirman Baru","i_lat":-6.201433,"line":1,"transit":false},{"station_name":"Sudirman","i_long":106.822649,"time":1,"station_id":"SUD","i_lat":-6.202263,"is_transit":false,"transit":false,"distance":280,"line":1},{"time":4,"line":0,"station_id":"MRI","distance":3186,"station_name":"Manggarai","transit":false,"i_long":106.84912,"i_lat":-6.209883,"is_transit":true},{"is_transit":false,"i_lat":-6.212485,"distance":1275,"transit":false,"time":2,"line":1,"station_name":"Matraman","station_id":"MTR","i_long":106.858896},{"i_long":106.86807400000001,"transit":false,"station_name":"Jatinegara","is_transit":true,"distance":1377,"i_lat":-6.215091,"line":0,"time":8,"station_id":"JNG"}],[{"station_id":"GDD","station_name":"Gondangdia","i_long":106.832183,"is_transit":false,"transit":false,"line":2,"time":0,"i_lat":-6.186295,"distance":0},{"i_lat":-6.198556,"line":0,"is_transit":false,"i_long":106.840169,"distance":1750,"station_name":"Cikini","time":3,"transit":false,"station_id":"CKI"},{"station_name":"Manggarai","station_id":"MRI","is_transit":true,"time":4,"distance":1590,"i_lat":-6.209883,"i_long":106.84912,"transit":true,"line":0},{"distance":3186,"line":1,"is_transit":false,"station_id":"SUD","station_name":"Sudirman","time":4,"i_long":106.822649,"i_lat":-6.202263,"transit":false},{"station_id":"SUDB","time":1,"transit":false,"is_transit":false,"i_lat":-6.201433,"line":1,"station_name":"Sudirman Baru","i_long":106.819881,"distance":280},{"i_lat":-6.20132,"station_id":"KAT","distance":471,"station_name":"Karet","i_long":106.816351,"line":1,"time":1,"transit":false,"is_transit":false},{"station_id":"THB","line":1,"station_name":"Tanah Abang","distance":2029,"i_lat":-6.185545,"is_transit":true,"time":5,"transit":false,"i_long":106.811091},{"transit":true,"i_lat":-6.155215,"i_long":106.800832,"line":1,"time":8,"distance":3632,"station_id":"DU","is_transit":true,"station_name":"Duri"},{"i_long":106.79867,"station_id":"AK","station_name":"Angke","transit":false,"is_transit":false,"line":0,"distance":1230,"i_lat":-6.144674,"time":4},{"station_id":"KPB","is_transit":true,"distance":4102,"station_name":"Kampung Bandan","i_lat":-6.132549,"time":9,"line":0,"transit":true,"i_long":106.826365},{"distance":1444,"station_name":"Rajawali","i_lat":-6.14505,"i_long":106.836569,"transit":false,"line":11,"station_id":"RJW","is_transit":false,"time":3},{"is_transit":false,"station_id":"KMO","station_name":"Kemayoran","i_long":106.839204,"time":5,"distance":1901,"transit":false,"i_lat":-6.161728,"line":11},{"i_lat":-6.174784,"i_long":106.84368,"transit":false,"station_name":"Pasar Senen","distance":1436,"station_id":"PSE","time":4,"is_transit":false,"line":11},{"transit":false,"distance":1567,"station_id":"GST","i_lat":-6.185975,"is_transit":false,"i_long":106.850107,"station_name":"Gang Sentiong","line":11,"time":8},{"station_name":"Kramat","i_lat":-6.193792,"is_transit":false,"distance":973,"station_id":"KMT","i_long":106.855437,"line":11,"time":1,"transit":false},{"i_lat":-6.209188,"is_transit":false,"time":2,"i_long":106.861737,"line":11,"station_name":"Pondok Jati","station_id":"POK","transit":false,"distance":1829},{"transit":false,"station_id":"JNG","time":9,"line":0,"i_long":106.86807400000001,"is_transit":true,"station_name":"Jatinegara","i_lat":-6.215091,"distance":1236}]]}