{"data":[[{"i_lat":-6.186295,"station_name":"Gondangdia","line":2,"i_long":106.832183,"station_id":"GDD","transit":false,"is_transit":false,"distance":0,"time":0},{"i_lat":-6.198556,"distance":1750,"is_transit":false,"station_id":"CKI","time":3,"station_name":"Cikini","i_long":106.840169,"line":2,"transit":false},{"distance":1590,"line":2,"station_name":"Manggarai","station_id":"MRI","transit":true,"i_long":106.84912,"is_transit":true,"i_lat":-6.209883,"time":4},{"is_transit":false,"i_long":106.822649,"station_name":"Sudirman","time":4,"station_id":"SUD","distance":3186,"i_lat":-6.202263,"line":1,"transit":false},{"distance":280,"line":1,"i_lat":-6.201433,"is_transit":false,"transit":false,"station_name":"Sudirman Baru","time":1,"i_long":106.819881,"station_id":"SUDB"},{"station_name":"Karet","i_lat":-6.20132,"i_long":106.816351,"is_transit":false,"distance":471,"station_id":"KAT","line":1,"transit":false,"time":1},{"is_transit":true,"station_id":"THB","station_name":"Tanah Abang","distance":2029,"i_lat":-6.185545,"line":1,"time":5,"i_long":106.811091,"transit":true},{"i_long":106.79689,"station_id":"PLM","i_lat":-6.207404,"distance":3191,"is_transit":false,"transit":false,"time":6,"station_name":"Palmerah","line":6},{"time":7,"i_lat":-6.237242,"line":6,"station_name":"Kebayoran","distance":3737,"i_long":106.780334,"station_id":"KBY","transit":false,"is_transit":false},{"is_transit":false,"station_id":"PDJ","line":6,"distance":6218,"i_long":106.74273,"time":8,"transit":false,"station_name":"Pondokranji","i_lat":-6.276362},{"i_long":106.728916,"is_transit":false,"station_id":"JMU","transit":false,"station_name":"Jurangmangu","time":3,"line":6,"i_lat":-6.288927,"distance":2179},{"station_name":"Sudimara","i_long":106.712277,"is_transit":false,"time":4,"line":6,"station_id":"SDM","i_lat":-6.296963,"distance":1994,"transit":false},{"station_name":"Rawa Buntu","time":6,"is_transit":false,"station_id":"RU","i_lat":-6.314823,"line":6,"transit":false,"distance":4566,"i_long":106.675475},{"distance":2413,"transit":false,"station_name":"Serpong","is_transit":false,"time":4,"i_long":106.66566,"i_lat":-6.319871,"station_id":"SRP","line":6},{"time":4,"station_id":"CSK","transit":false,"distance":1784,"i_long":106.640411,"is_transit":false,"i_lat":-6.32484,"line":3,"station_name":"Cisauk"},{"station_name":"Cicayur","i_long":106.617853,"station_id":"CC","distance":2519,"time":4,"i_lat":-6.329547,"line":3,"transit":false,"is_transit":false},{"transit":false,"line":6,"i_lat":-6.3441410000000005,"station_id":"PRP","is_transit":false,"distance":5968,"i_long":106.568863,"station_name":"Parung Panjang","time":8}],[{"station_name":"Gondangdia","i_long":106.832183,"line":2,"is_transit":false,"station_id":"GDD","distance":0,"i_lat":-6.186295,"transit":false,"time":0},{"i_long":106.828284,"transit":false,"i_lat":-6.166716,"distance":2015,"time":4,"is_transit":false,"station_id":"JUA","station_name":"Juanda","line":2},{"time":2,"station_id":"SW","is_transit":false,"i_long":106.827103,"i_lat":-6.160725,"distance":1149,"line":2,"station_name":"Sawah Besar","transit":false},{"station_name":"Manggabesar","i_long":106.82482,"time":2,"i_lat":-6.149769,"line":2,"is_transit":false,"transit":false,"distance":906,"station_id":"MGB"},{"line":2,"transit":false,"distance":1080,"i_lat":-6.141205,"station_id":"JAY","time":2,"i_long":106.820901,"station_name":"Jayakarta","is_transit":false},{"i_lat":-6.137569,"station_name":"Jakarta Kota","line":2,"distance":1264,"transit":true,"time":4,"is_transit":true,"i_long":106.812439,"station_id":"JAKK"},{"station_id":"KPB","is_transit":true,"time":3,"distance":1364,"i_long":106.826365,"transit":true,"i_lat":-6.132549,"station_name":"Kampung Bandan","line":4},{"is_transit":false,"line":1,"distance":4102,"station_name":"Angke","i_lat":-6.144674,"i_long":106.79867,"station_id":"AK","transit":false,"time":9},{"time":4,"line":1,"station_id":"DU","distance":1230,"station_name":"Duri","i_lat":-6.155215,"transit":false,"is_transit":false,"i_long":106.800832},{"transit":true,"station_id":"THB","station_name":"Tanah Abang","i_lat":-6.185545,"time":8,"distance":3632,"i_long":106.811091,"line":1,"is_transit":true},{"distance":3191,"line":6,"station_name":"Palmerah","transit":false,"station_id":"PLM","is_transit":false,"time":6,"i_lat":-6.207404,"i_long":106.79689},{"transit":false,"time":7,"is_transit":false,"line":6,"distance":3737,"i_long":106.780334,"station_name":"Kebayoran","i_lat":-6.237242,"station_id":"KBY"},{"transit":false,"is_transit":false,"distance":6218,"station_id":"PDJ","i_lat":-6.276362,"time":8,"station_name":"Pondokranji","line":6,"i_long":106.74273},{"station_name":"Jurangmangu","line":6,"time":3,"station_id":"JMU","i_lat":-6.288927,"is_transit":false,"transit":false,"i_long":106.728916,"distance":2179},{"station_id":"SDM","i_long":106.712277,"station_name":"Sudimara","time":4,"line":6,"i_lat":-6.296963,"transit":false,"distance":1994,"is_transit":false},{"transit":false,"is_transit":false,"i_lat":-6.314823,"station_id":"RU","distance":4566,"time":6,"i_long":106.675475,"station_name":"Rawa Buntu","line":6},{"is_transit":false,"station_name":"Serpong","i_lat":-6.319871,"station_id":"SRP","distance":2413,"time":4,"line":6,"transit":false,"i_long":106.66566},{"line":3,"transit":false,"station_name":"Cisauk","i_lat":-6.32484,"i_long":106.640411,"is_transit":false,"time":4,"station_id":"CSK","distance":1784},{"transit":false,"distance":2519,"i_lat":-6.329547,"line":3,"station_name":"Cicayur","station_id":"CC","time":4,"i_long":106.617853,"is_transit":false},{"station_name":"Parung Panjang","distance":5968,"time":8,"transit":false,"is_transit":false,"i_lat":-6.3441410000000005,"station_id":"PRP","i_long":106.568863,"line":6}],[{"i_long":106.832183,"line":2,"station_name":"Gondangdia","distance":0,"station_id":"GDD","time":0,"i_lat":-6.186295,"transit":false,"is_transit":false},{"distance":1750,"line":2,"i_long":106.840169,"is_transit":false,"transit":false,"time":3,"i_lat":-6.198556,"station_id":"CKI","station_name":"Cikini"},{"i_lat":-6.209883,"distance":1590,"time":4,"i_long":106.84912,"line":2,"station_id":"MRI","transit":true,"is_transit":true,"station_name":"Manggarai"},{"station_id":"MTR","is_transit":false,"distance":1275,"time":2,"i_long":106.858896,"i_lat":-6.212485,"line":1,"transit":false,"station_name":"Matraman"},{"station_id":"JNG","station_name":"Jatinegara","time":8,"i_lat":-6.215091,"i_long":106.86807400000001,"is_transit":true,"transit":true,"line":1,"distance":1377},{"time":2,"i_lat":-6.209188,"i_long":106.861737,"distance":1236,"transit":false,"is_transit":false,"line":11,"station_name":"Pondok Jati","station_id":"POK"},{"station_name":"Kramat","distance":1829,"line":11,"station_id":"KMT","is_transit":false,"time":2,"i_lat":-6.193792,"i_long":106.855437,"transit":false},{"line":11,"transit":false,"is_transit":false,"time":1,"i_long":106.850107,"i_lat":-6.185975,"station_id":"GST","station_name":"Gang Sentiong","distance":973},{"transit":false,"time":8,"distance":1567,"i_long":106.84368,"station_name":"Pasar Senen","is_transit":false,"station_id":"PSE","i_lat":-6.174784,"line":11},{"is_transit":false,"time":4,"transit":false,"i_lat":-6.161728,"distance":1436,"i_long":106.839204,"line":11,"station_id":"KMO","station_name":"Kemayoran"},{"is_transit":false,"station_name":"Rajawali","distance":1901,"station_id":"RJW","time":5,"i_lat":-6.14505,"i_long":106.836569,"line":11,"transit":false},{"time":3,"is_transit":true,"i_lat":-6.132549,"station_name":"Kampung Bandan","i_long":106.826365,"distance":1444,"line":4,"transit":true,"station_id":"KPB"},{"is_transit":false,"distance":4102,"line":1,"station_id":"AK","i_lat":-6.144674,"i_long":106.79867,"station_name":"Angke","time":9,"transit":false},{"station_name":"Duri","distance":1230,"time":4,"is_transit":false,"i_lat":-6.155215,"i_long":106.800832,"transit":false,"station_id":"DU","line":1},{"station_name":"Tanah Abang","station_id":"THB","is_transit":true,"time":8,"distance":3632,"line":1,"transit":true,"i_lat":-6.185545,"i_long":106.811091},{"is_transit":false,"transit":false,"distance":3191,"i_lat":-6.207404,"station_name":"Palmerah","time":6,"line":6,"i_long":106.79689,"station_id":"PLM"},{"station_id":"KBY","transit":false,"station_name":"Kebayoran","i_lat":-6.237242,"i_long":106.780334,"line":6,"is_transit":false,"distance":3737,"time":7},{"i_lat":-6.276362,"is_transit":false,"i_long":106.74273,"time":8,"distance":6218,"station_name":"Pondokranji","line":6,"transit":false,"station_id":"PDJ"},{"station_id":"JMU","i_lat":-6.288927,"i_long":106.728916,"line":6,"transit":false,"station_name":"Jurangmangu","is_transit":false,"distance":2179,"time":3},{"station_id":"SDM","transit":false,"distance":1994,"time":4,"i_lat":-6.296963,"line":6,"station_name":"Sudimara","is_transit":false,"i_long":106.712277},{"line":6,"transit":false,"i_lat":-6.314823,"time":6,"station_id":"RU","station_name":"Rawa Buntu","is_transit":false,"distance":4566,"i_long":106.675475},{"distance":2413,"station_id":"SRP","i_long":106.66566,"time":4,"is_transit":false,"station_name":"Serpong","line":6,"transit":false,"i_lat":-6.319871},{"station_name":"Cisauk","i_lat":-6.32484,"line":3,"station_id":"CSK","transit":false,"is_transit":false,"i_long":106.640411,"distance":1784,"time":4},{"transit":false,"i_lat":-6.329547,"line":3,"station_name":"Cicayur","time":4,"i_long":106.617853,"station_id":"CC","is_transit":false,"distance":2519},{"i_lat":-6.3441410000000005,"is_transit":false,"distance":5968,"i_long":106.568863,"station_id":"PRP","line":6,"time":8,"transit":false,"station_name":"Parung Panjang"}],[{"is_transit":false,"line":2,"station_name":"Gondangdia","time":0,"i_long":106.832183,"station_id":"GDD","distance":0,"i_lat":-6.186295,"transit":false},{"is_transit":false,"i_long":106.828284,"i_lat":-6.166716,"station_id":"JUA","station_name":"Juanda","transit":false,"distance":2015,"line":2,"time":4},{"station_name":"Sawah Besar","i_long":106.827103,"distance":1149,"station_id":"SW","time":2,"i_lat":-6.160725,"line":2,"transit":false,"is_transit":false},{"transit":false,"i_long":106.82482,"station_name":"Manggabesar","station_id":"MGB","distance":906,"is_transit":false,"i_lat":-6.149769,"line":2,"time":2},{"i_long":106.820901,"distance":1080,"line":2,"transit":false,"i_lat":-6.141205,"is_transit":false,"station_id":"JAY","station_name":"Jayakarta","time":2},{"time":4,"line":2,"station_name":"Jakarta Kota","station_id":"JAKK","is_transit":true,"distance":1264,"i_lat":-6.137569,"transit":true,"i_long":106.812439},{"station_id":"KPB","is_transit":true,"i_long":106.826365,"line":4,"transit":true,"station_name":"Kampung Bandan","distance":1364,"i_lat":-6.132549,"time":3},{"is_transit":false,"time":3,"distance":1444,"station_id":"RJW","transit":false,"i_long":106.836569,"i_lat":-6.14505,"line":11,"station_name":"Rajawali"},{"i_lat":-6.161728,"line":11,"i_long":106.839204,"is_transit":false,"station_id":"KMO","station_name":"Kemayoran","time":5,"transit":false,"distance":1901},{"distance":1436,"station_id":"PSE","i_lat":-6.174784,"transit":false,"time":4,"i_long":106.84368,"line":11,"is_transit":false,"station_name":"Pasar Senen"},{"time":8,"line":11,"is_transit":false,"i_lat":-6.185975,"distance":1567,"i_long":106.850107,"station_name":"Gang Sentiong","station_id":"GST","transit":false},{"line":11,"station_name":"Kramat","is_transit":false,"i_long":106.855437,"time":1,"transit":false,"station_id":"KMT","i_lat":-6.193792,"distance":973},{"transit":false,"station_name":"Pondok Jati","i_lat":-6.209188,"time":2,"is_transit":false,"station_id":"POK","line":11,"i_long":106.861737,"distance":1829},{"distance":1236,"time":9,"station_name":"Jatinegara","is_transit":true,"line":1,"i_lat":-6.215091,"i_long":106.86807400000001,"transit":true,"station_id":"JNG"},{"distance":1377,"station_name":"Matraman","station_id":"MTR","time":2,"line":1,"transit":false,"i_long":106.858896,"is_transit":false,"i_lat":-6.212485},{"i_lat":-6.209883,"distance":1275,"station_id":"MRI","station_name":"Manggarai","is_transit":false,"line":2,"time":2,"i_long":106.84912,"transit":false},{"is_transit":false,"time":4,"station_id":"SUD","distance":3186,"i_lat":-6.202263,"i_long":106.822649,"line":1,"transit":false,"station_name":"Sudirman"},{"i_lat":-6.201433,"transit":false,"is_transit":false,"distance":280,"station_name":"Sudirman Baru","i_long":106.819881,"station_id":"SUDB","time":1,"line":1},{"is_transit":false,"station_id":"KAT","transit":false,"distance":471,"i_lat":-6.20132,"time":1,"i_long":106.816351,"station_name":"Karet","line":1},{"time":5,"line":1,"station_name":"Tanah Abang","is_transit":true,"distance":2029,"station_id":"THB","transit":true,"i_lat":-6.185545,"i_long":106.811091},{"i_lat":-6.207404,"time":6,"distance":3191,"station_id":"PLM","station_name":"Palmerah","transit":false,"is_transit":false,"line":6,"i_long":106.79689},{"is_transit":false,"distance":3737,"time":7,"station_name":"Kebayoran","i_lat":-6.237242,"transit":false,"i_long":106.780334,"line":6,"station_id":"KBY"},{"station_id":"PDJ","station_name":"Pondokranji","transit":false,"is_transit":false,"i_long":106.74273,"i_lat":-6.276362,"time":8,"line":6,"distance":6218},{"station_id":"JMU","distance":2179,"i_long":106.728916,"is_transit":false,"station_name":"Jurangmangu","time":3,"i_lat":-6.288927,"transit":false,"line":6},{"i_long":106.712277,"station_name":"Sudimara","i_lat":-6.296963,"station_id":"SDM","transit":false,"distance":1994,"time":4,"line":6,"is_transit":false},{"line":6,"i_lat":-6.314823,"station_id":"RU","station_name":"Rawa Buntu","is_transit":false,"transit":false,"distance":4566,"i_long":106.675475,"time":6},{"time":4,"i_lat":-6.319871,"station_id":"SRP","distance":2413,"station_name":"Serpong","is_transit":false,"line":6,"transit":false,"i_long":106.66566},{"transit":false,"station_name":"Cisauk","i_lat":-6.32484,"time":4,"station_id":"CSK","distance":1784,"line":3,"is_transit":false,"i_long":106.640411},{"line":3,"distance":2519,"station_id":"CC","transit":false,"is_transit":false,"i_long":106.617853,"time":4,"station_name":"Cicayur","i_lat":-6.329547},{"station_name":"Parung Panjang","line":6,"is_transit":false,"station_id":"PRP","distance":5968,"time":8,"transit":false,"i_lat":-6.3441410000000005,"i_long":106.568863}]]}