{"data":[[{"is_transit":false,"i_lat":-6.186295,"transit":false,"i_long":106.832183,"line":2,"station_id":"GDD","time":0,"station_name":"Gondangdia","distance":0},{"time":3,"station_name":"Cikini","distance":1750,"i_long":106.840169,"line":0,"transit":false,"i_lat":-6.198556,"station_id":"CKI","is_transit":false},{"station_id":"MRI","line":0,"distance":1590,"is_transit":true,"i_lat":-6.209883,"station_name":"Manggarai","i_long":106.84912,"transit":true,"time":4},{"transit":false,"i_lat":-6.226659,"is_transit":false,"time":4,"i_long":106.857948,"distance":2610,"line":2,"station_name":"Tebet","station_id":"TEB"},{"i_long":106.856607,"time":2,"station_id":"CW","line":0,"station_name":"Cawang","is_transit":false,"transit":false,"distance":1230,"i_lat":-6.242512}],[{"time":0,"transit":false,"is_transit":false,"distance":0,"station_name":"Gondangdia","station_id":"GDD","i_lat":-6.186295,"line":2,"i_long":106.832183},{"time":4,"is_transit":false,"distance":2015,"station_id":"JUA","i_lat":-6.166716,"station_name":"Juanda","i_long":106.828284,"transit":false,"line":2},{"line":2,"time":2,"i_long":106.827103,"station_name":"Sawah Besar","distance":1149,"station_id":"SW","is_transit":false,"transit":false,"i_lat":-6.160725},{"station_name":"Manggabesar","transit":false,"distance":906,"time":2,"i_lat":-6.149769,"i_long":106.82482,"line":2,"station_id":"MGB","is_transit":false},{"transit":false,"line":7,"is_transit":false,"station_name":"Jayakarta","i_long":106.820901,"distance":1080,"station_id":"JAY","i_lat":-6.141205,"time":2},{"station_id":"JAKK","i_lat":-6.137569,"time":4,"station_name":"Jakarta Kota","transit":true,"is_transit":true,"distance":1264,"i_long":106.812439,"line":0},{"i_lat":-6.132549,"distance":1364,"station_id":"KPB","station_name":"Kampung Bandan","i_long":106.826365,"line":0,"is_transit":true,"transit":false,"time":3},{"time":9,"transit":false,"line":0,"distance":4102,"station_id":"AK","is_transit":false,"i_lat":-6.144674,"i_long":106.79867,"station_name":"Angke"},{"distance":1230,"i_lat":-6.155215,"station_id":"DU","i_long":106.800832,"transit":true,"station_name":"Duri","is_transit":true,"line":1,"time":4},{"line":1,"transit":false,"is_transit":true,"station_id":"THB","time":8,"station_name":"Tanah Abang","i_lat":-6.185545,"distance":3632,"i_long":106.811091},{"distance":2029,"i_lat":-6.20132,"station_name":"Karet","is_transit":false,"time":5,"station_id":"KAT","transit":false,"i_long":106.816351,"line":1},{"station_name":"Sudirman Baru","is_transit":false,"distance":471,"station_id":"SUDB","line":1,"time":1,"transit":false,"i_lat":-6.201433,"i_long":106.819881},{"distance":280,"station_id":"SUD","line":1,"i_long":106.822649,"time":1,"transit":false,"station_name":"Sudirman","i_lat":-6.202263,"is_transit":false},{"i_long":106.84912,"transit":true,"line":0,"is_transit":true,"distance":3186,"time":4,"i_lat":-6.209883,"station_id":"MRI","station_name":"Manggarai"},{"is_transit":false,"transit":false,"i_long":106.857948,"i_lat":-6.226659,"station_name":"Tebet","time":4,"distance":2610,"station_id":"TEB","line":2},{"i_lat":-6.242512,"distance":1230,"i_long":106.856607,"time":2,"is_transit":false,"line":0,"station_id":"CW","station_name":"Cawang","transit":false}],[{"distance":0,"is_transit":false,"transit":false,"station_name":"Gondangdia","i_long":106.832183,"station_id":"GDD","time":0,"line":2,"i_lat":-6.186295},{"transit":false,"time":4,"line":2,"station_id":"JUA","station_name":"Juanda","distance":2015,"i_lat":-6.166716,"i_long":106.828284,"is_transit":false},{"transit":false,"i_lat":-6.160725,"time":2,"i_long":106.827103,"distance":1149,"is_transit":false,"station_name":"Sawah Besar","line":2,"station_id":"SW"},{"time":2,"distance":906,"i_lat":-6.149769,"is_transit":false,"line":2,"transit":false,"station_id":"MGB","station_name":"Manggabesar","i_long":106.82482},{"is_transit":false,"time":2,"transit":false,"i_long":106.820901,"i_lat":-6.141205,"station_id":"JAY","line":7,"distance":1080,"station_name":"Jayakarta"},{"line":0,"i_long":106.812439,"station_name":"Jakarta Kota","time":4,"distance":1264,"station_id":"JAKK","is_transit":true,"transit":true,"i_lat":-6.137569},{"i_lat":-6.132549,"distance":1364,"is_transit":true,"time":3,"i_long":106.826365,"station_id":"KPB","line":0,"transit":true,"station_name":"Kampung Bandan"},{"i_long":106.836569,"station_id":"RJW","time":3,"i_lat":-6.14505,"distance":1444,"is_transit":false,"transit":false,"line":11,"station_name":"Rajawali"},{"i_lat":-6.161728,"station_id":"KMO","station_name":"Kemayoran","is_transit":false,"i_long":106.839204,"distance":1901,"line":11,"time":5,"transit":false},{"line":11,"i_long":106.84368,"i_lat":-6.174784,"station_id":"PSE","time":4,"station_name":"Pasar Senen","distance":1436,"is_transit":false,"transit":false},{"station_name":"Gang Sentiong","line":11,"i_long":106.850107,"station_id":"GST","i_lat":-6.185975,"transit":false,"is_transit":false,"time":8,"distance":1567},{"time":1,"line":11,"i_long":106.855437,"station_id":"KMT","distance":973,"station_name":"Kramat","transit":false,"i_lat":-6.193792,"is_transit":false},{"transit":false,"is_transit":false,"i_long":106.861737,"station_name":"Pondok Jati","line":11,"time":2,"i_lat":-6.209188,"station_id":"POK","distance":1829},{"is_transit":true,"i_long":106.86807400000001,"distance":1236,"i_lat":-6.215091,"line":0,"time":9,"station_name":"Jatinegara","transit":true,"station_id":"JNG"},{"is_transit":false,"station_name":"Matraman","distance":1377,"transit":false,"i_long":106.858896,"time":2,"i_lat":-6.212485,"line":1,"station_id":"MTR"},{"station_name":"Manggarai","distance":1275,"time":2,"i_long":106.84912,"line":0,"station_id":"MRI","is_transit":true,"transit":true,"i_lat":-6.209883},{"station_name":"Tebet","i_long":106.857948,"line":2,"transit":false,"is_transit":false,"distance":2610,"time":4,"station_id":"TEB","i_lat":-6.226659},{"is_transit":false,"station_name":"Cawang","distance":1230,"transit":false,"i_lat":-6.242512,"i_long":106.856607,"time":2,"station_id":"CW","line":0}]]}