{"data":[[{"station_id":"GDD","time":0,"distance":0,"transit":false,"i_lat":-6.186295,"i_long":106.832183,"line":2,"is_transit":false,"station_name":"Gondangdia"},{"line":0,"distance":1750,"transit":false,"station_id":"CKI","time":3,"is_transit":false,"station_name":"Cikini","i_lat":-6.198556,"i_long":106.840169},{"i_lat":-6.209883,"station_id":"MRI","time":4,"transit":true,"i_long":106.84912,"distance":1590,"line":0,"is_transit":true,"station_name":"Manggarai"},{"time":4,"distance":3186,"transit":false,"station_id":"SUD","line":1,"is_transit":false,"i_long":106.822649,"station_name":"Sudirman","i_lat":-6.202263},{"is_transit":false,"distance":280,"station_name":"Sudirman Baru","i_lat":-6.201433,"line":1,"time":1,"transit":false,"station_id":"SUDB","i_long":106.819881},{"line":1,"station_id":"KAT","distance":471,"time":1,"transit":false,"i_long":106.816351,"station_name":"Karet","i_lat":-6.20132,"is_transit":false},{"station_id":"THB","transit":true,"line":1,"i_long":106.811091,"is_transit":true,"distance":2029,"time":5,"i_lat":-6.185545,"station_name":"Tanah Abang"},{"i_lat":-6.207404,"line":6,"station_id":"PLM","transit":false,"time":6,"distance":3191,"station_name":"Palmerah","is_transit":false,"i_long":106.79689},{"transit":false,"station_name":"Kebayoran","is_transit":false,"i_long":106.780334,"i_lat":-6.237242,"line":6,"station_id":"KBY","time":7,"distance":3737},{"station_name":"Pondokranji","time":8,"i_lat":-6.276362,"line":6,"transit":false,"station_id":"PDJ","i_long":106.74273,"is_transit":false,"distance":6218},{"transit":false,"distance":2179,"i_lat":-6.288927,"line":6,"is_transit":false,"station_id":"JMU","i_long":106.728916,"time":3,"station_name":"Jurangmangu"},{"time":4,"is_transit":false,"distance":1994,"station_name":"Sudimara","line":6,"i_long":106.712277,"station_id":"SDM","i_lat":-6.296963,"transit":false},{"is_transit":false,"distance":4566,"time":6,"station_name":"Rawa Buntu","station_id":"RU","transit":false,"i_long":106.675475,"i_lat":-6.314823,"line":6},{"station_id":"SRP","distance":2413,"station_name":"Serpong","time":4,"is_transit":false,"i_lat":-6.319871,"i_long":106.66566,"transit":false,"line":6},{"time":4,"station_name":"Cisauk","transit":false,"is_transit":false,"station_id":"CSK","i_long":106.640411,"line":0,"distance":1784,"i_lat":-6.32484},{"is_transit":false,"station_id":"CC","distance":2519,"line":0,"station_name":"Cicayur","time":4,"i_lat":-6.329547,"i_long":106.617853,"transit":false},{"distance":5968,"i_lat":-6.3441410000000005,"station_id":"PRP","line":6,"i_long":106.568863,"time":8,"is_transit":false,"transit":false,"station_name":"Parung Panjang"},{"time":9,"i_lat":-6.354349,"station_name":"Cilejit","is_transit":false,"line":0,"i_long":106.508482,"distance":7025,"station_id":"CJT","transit":false},{"time":6,"distance":2675,"station_name":"Daru","i_lat":-6.338021,"station_id":"DAR","is_transit":false,"line":0,"i_long":106.491338,"transit":false}],[{"station_id":"GDD","transit":false,"station_name":"Gondangdia","distance":0,"time":0,"line":2,"i_long":106.832183,"is_transit":false,"i_lat":-6.186295},{"line":2,"station_name":"Juanda","i_long":106.828284,"i_lat":-6.166716,"distance":2015,"station_id":"JUA","time":4,"is_transit":false,"transit":false},{"i_lat":-6.160725,"is_transit":false,"time":2,"station_id":"SW","station_name":"Sawah Besar","transit":false,"i_long":106.827103,"line":2,"distance":1149},{"time":2,"i_long":106.82482,"line":2,"station_id":"MGB","distance":906,"station_name":"Manggabesar","i_lat":-6.149769,"is_transit":false,"transit":false},{"is_transit":false,"station_name":"Jayakarta","station_id":"JAY","distance":1080,"i_lat":-6.141205,"i_long":106.820901,"time":2,"transit":false,"line":7},{"distance":1264,"i_lat":-6.137569,"station_id":"JAKK","i_long":106.812439,"station_name":"Jakarta Kota","time":4,"line":0,"is_transit":true,"transit":true},{"is_transit":true,"distance":1364,"transit":false,"line":0,"station_id":"KPB","station_name":"Kampung Bandan","i_lat":-6.132549,"i_long":106.826365,"time":3},{"distance":4102,"transit":false,"line":0,"station_name":"Angke","is_transit":false,"i_long":106.79867,"station_id":"AK","time":9,"i_lat":-6.144674},{"station_name":"Duri","transit":true,"distance":1230,"time":4,"i_lat":-6.155215,"i_long":106.800832,"line":1,"station_id":"DU","is_transit":true},{"line":1,"station_id":"THB","time":8,"is_transit":true,"i_lat":-6.185545,"i_long":106.811091,"distance":3632,"transit":true,"station_name":"Tanah Abang"},{"line":6,"time":6,"i_long":106.79689,"station_id":"PLM","is_transit":false,"station_name":"Palmerah","transit":false,"i_lat":-6.207404,"distance":3191},{"is_transit":false,"station_name":"Kebayoran","time":7,"line":6,"transit":false,"station_id":"KBY","distance":3737,"i_lat":-6.237242,"i_long":106.780334},{"i_long":106.74273,"i_lat":-6.276362,"station_id":"PDJ","is_transit":false,"distance":6218,"station_name":"Pondokranji","transit":false,"line":6,"time":8},{"distance":2179,"is_transit":false,"station_id":"JMU","line":6,"station_name":"Jurangmangu","time":3,"transit":false,"i_lat":-6.288927,"i_long":106.728916},{"i_lat":-6.296963,"i_long":106.712277,"line":6,"transit":false,"distance":1994,"station_id":"SDM","is_transit":false,"time":4,"station_name":"Sudimara"},{"is_transit":false,"time":6,"i_lat":-6.314823,"distance":4566,"line":6,"station_name":"Rawa Buntu","transit":false,"i_long":106.675475,"station_id":"RU"},{"transit":false,"line":6,"is_transit":false,"time":4,"station_name":"Serpong","i_lat":-6.319871,"i_long":106.66566,"station_id":"SRP","distance":2413},{"transit":false,"line":0,"time":4,"distance":1784,"station_name":"Cisauk","i_lat":-6.32484,"is_transit":false,"station_id":"CSK","i_long":106.640411},{"line":0,"time":4,"is_transit":false,"transit":false,"station_id":"CC","distance":2519,"i_long":106.617853,"i_lat":-6.329547,"station_name":"Cicayur"},{"i_lat":-6.3441410000000005,"is_transit":false,"i_long":106.568863,"station_name":"Parung Panjang","transit":false,"station_id":"PRP","time":8,"distance":5968,"line":6},{"transit":false,"line":0,"i_long":106.508482,"is_transit":false,"station_name":"Cilejit","distance":7025,"station_id":"CJT","time":9,"i_lat":-6.354349},{"is_transit":false,"time":6,"station_id":"DAR","i_long":106.491338,"station_name":"Daru","line":0,"distance":2675,"transit":false,"i_lat":-6.338021}],[{"i_long":106.832183,"line":2,"is_transit":false,"time":0,"transit":false,"i_lat":-6.186295,"station_name":"Gondangdia","distance":0,"station_id":"GDD"},{"station_name":"Cikini","i_long":106.840169,"is_transit":false,"distance":1750,"line":0,"transit":false,"time":3,"station_id":"CKI","i_lat":-6.198556},{"is_transit":true,"time":4,"station_id":"MRI","transit":true,"i_lat":-6.209883,"station_name":"Manggarai","i_long":106.84912,"distance":1590,"line":0},{"transit":false,"is_transit":false,"time":2,"station_id":"MTR","distance":1275,"i_long":106.858896,"station_name":"Matraman","line":1,"i_lat":-6.212485},{"line":0,"transit":true,"station_id":"JNG","time":8,"station_name":"Jatinegara","is_transit":true,"i_lat":-6.215091,"i_long":106.86807400000001,"distance":1377},{"station_id":"POK","distance":1236,"i_lat":-6.209188,"line":11,"i_long":106.861737,"is_transit":false,"station_name":"Pondok Jati","time":2,"transit":false},{"line":11,"distance":1829,"station_id":"KMT","time":2,"station_name":"Kramat","i_lat":-6.193792,"i_long":106.855437,"is_transit":false,"transit":false},{"i_long":106.850107,"distance":973,"time":1,"station_name":"Gang Sentiong","transit":false,"is_transit":false,"i_lat":-6.185975,"line":11,"station_id":"GST"},{"station_id":"PSE","is_transit":false,"station_name":"Pasar Senen","i_lat":-6.174784,"time":8,"line":11,"distance":1567,"transit":false,"i_long":106.84368},{"is_transit":false,"time":4,"station_name":"Kemayoran","distance":1436,"transit":false,"i_long":106.839204,"station_id":"KMO","i_lat":-6.161728,"line":11},{"station_name":"Rajawali","i_lat":-6.14505,"station_id":"RJW","is_transit":false,"time":5,"transit":false,"i_long":106.836569,"line":11,"distance":1901},{"station_name":"Kampung Bandan","i_long":106.826365,"i_lat":-6.132549,"distance":1444,"is_transit":true,"transit":true,"line":0,"time":3,"station_id":"KPB"},{"transit":false,"station_id":"AK","i_lat":-6.144674,"time":9,"i_long":106.79867,"station_name":"Angke","is_transit":false,"distance":4102,"line":0},{"station_name":"Duri","distance":1230,"transit":true,"i_lat":-6.155215,"i_long":106.800832,"station_id":"DU","line":1,"is_transit":true,"time":4},{"i_long":106.811091,"is_transit":true,"line":1,"distance":3632,"time":8,"station_id":"THB","station_name":"Tanah Abang","transit":true,"i_lat":-6.185545},{"transit":false,"line":6,"i_lat":-6.207404,"i_long":106.79689,"time":6,"is_transit":false,"station_id":"PLM","station_name":"Palmerah","distance":3191},{"station_id":"KBY","line":6,"transit":false,"distance":3737,"i_long":106.780334,"i_lat":-6.237242,"station_name":"Kebayoran","time":7,"is_transit":false},{"is_transit":false,"time":8,"transit":false,"station_id":"PDJ","distance":6218,"i_lat":-6.276362,"station_name":"Pondokranji","i_long":106.74273,"line":6},{"i_lat":-6.288927,"line":6,"station_id":"JMU","time":3,"distance":2179,"station_name":"Jurangmangu","transit":false,"is_transit":false,"i_long":106.728916},{"is_transit":false,"i_lat":-6.296963,"station_name":"Sudimara","time":4,"transit":false,"station_id":"SDM","line":6,"distance":1994,"i_long":106.712277},{"i_long":106.675475,"station_id":"RU","distance":4566,"line":6,"i_lat":-6.314823,"transit":false,"is_transit":false,"time":6,"station_name":"Rawa Buntu"},{"station_id":"SRP","station_name":"Serpong","transit":false,"i_lat":-6.319871,"distance":2413,"is_transit":false,"i_long":106.66566,"time":4,"line":6},{"is_transit":false,"transit":false,"distance":1784,"i_long":106.640411,"line":0,"station_id":"CSK","i_lat":-6.32484,"station_name":"Cisauk","time":4},{"distance":2519,"station_name":"Cicayur","transit":false,"i_long":106.617853,"is_transit":false,"time":4,"line":0,"i_lat":-6.329547,"station_id":"CC"},{"station_id":"PRP","line":6,"is_transit":false,"station_name":"Parung Panjang","i_long":106.568863,"transit":false,"time":8,"distance":5968,"i_lat":-6.3441410000000005},{"station_name":"Cilejit","time":9,"i_long":106.508482,"distance":7025,"is_transit":false,"transit":false,"i_lat":-6.354349,"station_id":"CJT","line":0},{"station_id":"DAR","time":6,"distance":2675,"i_lat":-6.338021,"is_transit":false,"station_name":"Daru","transit":false,"line":0,"i_long":106.491338}],[{"distance":0,"time":0,"station_id":"GDD","i_lat":-6.186295,"line":2,"station_name":"Gondangdia","i_long":106.832183,"is_transit":false,"transit":false},{"station_name":"Juanda","i_lat":-6.166716,"i_long":106.828284,"line":2,"transit":false,"station_id":"JUA","is_transit":false,"time":4,"distance":2015},{"line":2,"is_transit":false,"distance":1149,"transit":false,"i_long":106.827103,"time":2,"station_name":"Sawah Besar","station_id":"SW","i_lat":-6.160725},{"line":2,"station_name":"Manggabesar","is_transit":false,"transit":false,"station_id":"MGB","distance":906,"i_long":106.82482,"time":2,"i_lat":-6.149769},{"time":2,"transit":false,"line":7,"is_transit":false,"station_name":"Jayakarta","station_id":"JAY","distance":1080,"i_long":106.820901,"i_lat":-6.141205},{"time":4,"distance":1264,"transit":true,"i_lat":-6.137569,"station_id":"JAKK","station_name":"Jakarta Kota","i_long":106.812439,"is_transit":true,"line":0},{"line":0,"i_long":106.826365,"station_name":"Kampung Bandan","time":3,"station_id":"KPB","transit":true,"is_transit":true,"i_lat":-6.132549,"distance":1364},{"i_long":106.836569,"is_transit":false,"i_lat":-6.14505,"time":3,"distance":1444,"transit":false,"line":11,"station_name":"Rajawali","station_id":"RJW"},{"i_lat":-6.161728,"time":5,"i_long":106.839204,"station_id":"KMO","transit":false,"line":11,"station_name":"Kemayoran","is_transit":false,"distance":1901},{"time":4,"station_name":"Pasar Senen","is_transit":false,"distance":1436,"i_lat":-6.174784,"line":11,"transit":false,"i_long":106.84368,"station_id":"PSE"},{"i_long":106.850107,"line":11,"station_name":"Gang Sentiong","time":8,"i_lat":-6.185975,"transit":false,"distance":1567,"station_id":"GST","is_transit":false},{"line":11,"transit":false,"station_id":"KMT","i_long":106.855437,"station_name":"Kramat","time":1,"i_lat":-6.193792,"distance":973,"is_transit":false},{"i_lat":-6.209188,"distance":1829,"station_name":"Pondok Jati","time":2,"station_id":"POK","is_transit":false,"transit":false,"line":11,"i_long":106.861737},{"distance":1236,"station_name":"Jatinegara","transit":true,"time":9,"i_long":106.86807400000001,"is_transit":true,"i_lat":-6.215091,"line":0,"station_id":"JNG"},{"distance":1377,"i_lat":-6.212485,"line":1,"is_transit":false,"station_id":"MTR","time":2,"station_name":"Matraman","transit":false,"i_long":106.858896},{"time":2,"line":0,"station_id":"MRI","i_long":106.84912,"i_lat":-6.209883,"station_name":"Manggarai","distance":1275,"transit":false,"is_transit":true},{"is_transit":false,"distance":3186,"station_name":"Sudirman","i_long":106.822649,"line":1,"station_id":"SUD","i_lat":-6.202263,"transit":false,"time":4},{"station_id":"SUDB","i_long":106.819881,"time":1,"distance":280,"station_name":"Sudirman Baru","is_transit":false,"line":1,"transit":false,"i_lat":-6.201433},{"i_long":106.816351,"station_name":"Karet","i_lat":-6.20132,"transit":false,"station_id":"KAT","line":1,"is_transit":false,"time":1,"distance":471},{"station_id":"THB","time":5,"is_transit":true,"transit":true,"distance":2029,"i_lat":-6.185545,"station_name":"Tanah Abang","i_long":106.811091,"line":1},{"i_lat":-6.207404,"i_long":106.79689,"line":6,"station_id":"PLM","distance":3191,"station_name":"Palmerah","transit":false,"is_transit":false,"time":6},{"i_long":106.780334,"distance":3737,"is_transit":false,"time":7,"station_id":"KBY","station_name":"Kebayoran","line":6,"transit":false,"i_lat":-6.237242},{"station_name":"Pondokranji","i_lat":-6.276362,"transit":false,"station_id":"PDJ","i_long":106.74273,"is_transit":false,"line":6,"distance":6218,"time":8},{"distance":2179,"i_lat":-6.288927,"time":3,"station_name":"Jurangmangu","transit":false,"i_long":106.728916,"line":6,"station_id":"JMU","is_transit":false},{"station_id":"SDM","is_transit":false,"i_lat":-6.296963,"station_name":"Sudimara","i_long":106.712277,"distance":1994,"transit":false,"time":4,"line":6},{"time":6,"i_lat":-6.314823,"distance":4566,"line":6,"i_long":106.675475,"transit":false,"station_name":"Rawa Buntu","station_id":"RU","is_transit":false},{"time":4,"i_long":106.66566,"station_name":"Serpong","distance":2413,"is_transit":false,"transit":false,"line":6,"station_id":"SRP","i_lat":-6.319871},{"i_long":106.640411,"station_id":"CSK","transit":false,"line":0,"time":4,"station_name":"Cisauk","distance":1784,"i_lat":-6.32484,"is_transit":false},{"transit":false,"station_id":"CC","time":4,"distance":2519,"is_transit":false,"station_name":"Cicayur","i_lat":-6.329547,"i_long":106.617853,"line":0},{"is_transit":false,"transit":false,"i_lat":-6.3441410000000005,"distance":5968,"line":6,"station_name":"Parung Panjang","station_id":"PRP","time":8,"i_long":106.568863},{"is_transit":false,"station_id":"CJT","transit":false,"station_name":"Cilejit","time":9,"i_long":106.508482,"line":0,"i_lat":-6.354349,"distance":7025},{"is_transit":false,"time":6,"i_long":106.491338,"distance":2675,"station_name":"Daru","transit":false,"station_id":"DAR","i_lat":-6.338021,"line":0}]]}