{"data":[[{"line":2,"is_transit":false,"station_name":"Gondangdia","station_id":"GDD","transit":false,"distance":0,"i_lat":-6.186295,"time":0,"i_long":106.832183},{"i_long":106.840169,"distance":1750,"station_name":"Cikini","line":2,"is_transit":false,"i_lat":-6.198556,"time":3,"transit":false,"station_id":"CKI"},{"line":2,"station_id":"MRI","i_long":106.84912,"is_transit":true,"distance":1590,"i_lat":-6.209883,"station_name":"Manggarai","time":4,"transit":true},{"is_transit":false,"station_id":"SUD","line":1,"i_lat":-6.202263,"transit":false,"station_name":"Sudirman","i_long":106.822649,"distance":3186,"time":4},{"transit":false,"distance":280,"is_transit":false,"line":1,"station_id":"SUDB","i_lat":-6.201433,"i_long":106.819881,"station_name":"Sudirman Baru","time":1},{"time":1,"station_id":"KAT","is_transit":false,"station_name":"Karet","transit":false,"distance":471,"i_lat":-6.20132,"line":1,"i_long":106.816351},{"is_transit":false,"station_name":"Tanah Abang","station_id":"THB","time":5,"i_long":106.811091,"i_lat":-6.185545,"distance":2029,"line":1,"transit":false},{"i_long":106.800832,"station_name":"Duri","is_transit":true,"i_lat":-6.155215,"station_id":"DU","time":8,"line":1,"transit":true,"distance":3632},{"time":3,"is_transit":false,"i_long":106.788277,"station_name":"Grogol","distance":1700,"station_id":"GRG","transit":false,"i_lat":-6.162021,"line":5},{"is_transit":false,"i_long":106.771379,"distance":2036,"line":5,"station_id":"PSG","i_lat":-6.161433,"transit":false,"station_name":"Pesing","time":2},{"i_lat":-6.1587309999999995,"line":5,"station_id":"TKO","is_transit":false,"distance":1614,"time":2,"station_name":"Taman Kota","i_long":106.756522,"transit":false},{"distance":2334,"station_id":"BOI","i_long":106.737035,"station_name":"Bojongindah","line":5,"is_transit":false,"i_lat":-6.159876,"transit":false,"time":2}],[{"distance":0,"i_long":106.832183,"transit":false,"line":2,"station_name":"Gondangdia","time":0,"station_id":"GDD","is_transit":false,"i_lat":-6.186295},{"transit":false,"is_transit":false,"time":4,"distance":2015,"i_lat":-6.166716,"station_id":"JUA","i_long":106.828284,"line":2,"station_name":"Juanda"},{"station_id":"SW","is_transit":false,"distance":1149,"i_lat":-6.160725,"line":2,"i_long":106.827103,"station_name":"Sawah Besar","transit":false,"time":2},{"distance":906,"transit":false,"station_name":"Manggabesar","i_lat":-6.149769,"time":2,"station_id":"MGB","is_transit":false,"i_long":106.82482,"line":2},{"time":2,"distance":1080,"station_id":"JAY","is_transit":false,"station_name":"Jayakarta","i_long":106.820901,"i_lat":-6.141205,"line":2,"transit":false},{"time":4,"distance":1264,"transit":true,"i_lat":-6.137569,"i_long":106.812439,"station_name":"Jakarta Kota","is_transit":true,"station_id":"JAKK","line":2},{"transit":true,"i_lat":-6.132549,"i_long":106.826365,"time":3,"is_transit":true,"line":4,"distance":1364,"station_id":"KPB","station_name":"Kampung Bandan"},{"transit":false,"line":1,"is_transit":false,"distance":4102,"station_id":"AK","time":9,"i_lat":-6.144674,"station_name":"Angke","i_long":106.79867},{"distance":1230,"time":4,"is_transit":true,"transit":true,"line":1,"i_lat":-6.155215,"station_id":"DU","i_long":106.800832,"station_name":"Duri"},{"distance":1700,"transit":false,"i_lat":-6.162021,"station_name":"Grogol","station_id":"GRG","time":3,"line":5,"is_transit":false,"i_long":106.788277},{"distance":2036,"i_long":106.771379,"line":5,"is_transit":false,"station_id":"PSG","time":2,"i_lat":-6.161433,"transit":false,"station_name":"Pesing"},{"i_long":106.756522,"i_lat":-6.1587309999999995,"line":5,"station_id":"TKO","distance":1614,"is_transit":false,"transit":false,"time":2,"station_name":"Taman Kota"},{"is_transit":false,"i_lat":-6.159876,"i_long":106.737035,"line":5,"time":2,"station_name":"Bojongindah","station_id":"BOI","transit":false,"distance":2334}],[{"line":2,"i_long":106.832183,"i_lat":-6.186295,"time":0,"is_transit":false,"distance":0,"transit":false,"station_id":"GDD","station_name":"Gondangdia"},{"transit":false,"time":3,"station_id":"CKI","i_lat":-6.198556,"distance":1750,"i_long":106.840169,"station_name":"Cikini","is_transit":false,"line":2},{"station_name":"Manggarai","is_transit":true,"station_id":"MRI","i_long":106.84912,"line":2,"distance":1590,"transit":true,"time":4,"i_lat":-6.209883},{"transit":false,"i_long":106.858896,"distance":1275,"station_name":"Matraman","station_id":"MTR","is_transit":false,"i_lat":-6.212485,"time":2,"line":1},{"transit":true,"time":8,"distance":1377,"station_id":"JNG","is_transit":true,"line":1,"station_name":"Jatinegara","i_long":106.86807400000001,"i_lat":-6.215091},{"time":2,"distance":1236,"i_long":106.861737,"station_name":"Pondok Jati","line":11,"station_id":"POK","is_transit":false,"i_lat":-6.209188,"transit":false},{"station_name":"Kramat","station_id":"KMT","time":2,"transit":false,"i_lat":-6.193792,"is_transit":false,"i_long":106.855437,"line":11,"distance":1829},{"time":1,"line":11,"station_name":"Gang Sentiong","is_transit":false,"station_id":"GST","i_long":106.850107,"distance":973,"i_lat":-6.185975,"transit":false},{"station_id":"PSE","time":8,"line":11,"i_lat":-6.174784,"station_name":"Pasar Senen","is_transit":false,"transit":false,"distance":1567,"i_long":106.84368},{"station_name":"Kemayoran","station_id":"KMO","time":4,"line":11,"transit":false,"i_lat":-6.161728,"i_long":106.839204,"distance":1436,"is_transit":false},{"station_name":"Rajawali","station_id":"RJW","line":11,"i_lat":-6.14505,"transit":false,"is_transit":false,"distance":1901,"i_long":106.836569,"time":5},{"time":3,"distance":1444,"i_lat":-6.132549,"transit":true,"i_long":106.826365,"station_name":"Kampung Bandan","station_id":"KPB","is_transit":true,"line":4},{"distance":4102,"is_transit":false,"i_long":106.79867,"station_id":"AK","time":9,"transit":false,"line":1,"i_lat":-6.144674,"station_name":"Angke"},{"time":4,"station_id":"DU","i_lat":-6.155215,"station_name":"Duri","is_transit":true,"distance":1230,"transit":true,"i_long":106.800832,"line":1},{"i_lat":-6.162021,"i_long":106.788277,"line":5,"station_id":"GRG","station_name":"Grogol","is_transit":false,"time":3,"distance":1700,"transit":false},{"i_long":106.771379,"line":5,"distance":2036,"is_transit":false,"transit":false,"station_name":"Pesing","time":2,"i_lat":-6.161433,"station_id":"PSG"},{"is_transit":false,"transit":false,"i_lat":-6.1587309999999995,"i_long":106.756522,"station_name":"Taman Kota","station_id":"TKO","time":2,"distance":1614,"line":5},{"station_id":"BOI","distance":2334,"transit":false,"is_transit":false,"i_long":106.737035,"i_lat":-6.159876,"line":5,"station_name":"Bojongindah","time":2}],[{"line":2,"distance":0,"transit":false,"is_transit":false,"station_name":"Gondangdia","i_lat":-6.186295,"i_long":106.832183,"station_id":"GDD","time":0},{"station_id":"JUA","i_long":106.828284,"time":4,"distance":2015,"is_transit":false,"transit":false,"line":2,"station_name":"Juanda","i_lat":-6.166716},{"time":2,"transit":false,"line":2,"distance":1149,"is_transit":false,"i_long":106.827103,"station_id":"SW","station_name":"Sawah Besar","i_lat":-6.160725},{"station_id":"MGB","distance":906,"station_name":"Manggabesar","is_transit":false,"i_long":106.82482,"i_lat":-6.149769,"line":2,"transit":false,"time":2},{"is_transit":false,"i_long":106.820901,"transit":false,"station_name":"Jayakarta","station_id":"JAY","distance":1080,"line":2,"i_lat":-6.141205,"time":2},{"distance":1264,"time":4,"is_transit":true,"i_long":106.812439,"station_id":"JAKK","station_name":"Jakarta Kota","i_lat":-6.137569,"transit":true,"line":2},{"line":4,"transit":true,"i_long":106.826365,"i_lat":-6.132549,"station_name":"Kampung Bandan","distance":1364,"station_id":"KPB","time":3,"is_transit":true},{"time":3,"station_name":"Rajawali","distance":1444,"i_long":106.836569,"line":11,"i_lat":-6.14505,"is_transit":false,"transit":false,"station_id":"RJW"},{"transit":false,"i_long":106.839204,"time":5,"station_name":"Kemayoran","i_lat":-6.161728,"line":11,"station_id":"KMO","is_transit":false,"distance":1901},{"line":11,"time":4,"transit":false,"distance":1436,"station_name":"Pasar Senen","station_id":"PSE","i_long":106.84368,"is_transit":false,"i_lat":-6.174784},{"station_name":"Gang Sentiong","distance":1567,"transit":false,"station_id":"GST","is_transit":false,"time":8,"i_lat":-6.185975,"i_long":106.850107,"line":11},{"is_transit":false,"time":1,"i_long":106.855437,"line":11,"station_name":"Kramat","transit":false,"station_id":"KMT","i_lat":-6.193792,"distance":973},{"distance":1829,"transit":false,"i_long":106.861737,"line":11,"station_name":"Pondok Jati","is_transit":false,"i_lat":-6.209188,"time":2,"station_id":"POK"},{"time":9,"is_transit":true,"station_name":"Jatinegara","distance":1236,"line":1,"station_id":"JNG","i_long":106.86807400000001,"i_lat":-6.215091,"transit":true},{"station_name":"Matraman","is_transit":false,"transit":false,"time":2,"i_lat":-6.212485,"distance":1377,"i_long":106.858896,"line":1,"station_id":"MTR"},{"line":2,"transit":false,"station_id":"MRI","time":2,"station_name":"Manggarai","i_lat":-6.209883,"is_transit":false,"i_long":106.84912,"distance":1275},{"line":1,"distance":3186,"i_lat":-6.202263,"station_id":"SUD","station_name":"Sudirman","i_long":106.822649,"time":4,"transit":false,"is_transit":false},{"transit":false,"i_long":106.819881,"distance":280,"i_lat":-6.201433,"line":1,"time":1,"station_name":"Sudirman Baru","is_transit":false,"station_id":"SUDB"},{"transit":false,"line":1,"i_lat":-6.20132,"time":1,"station_name":"Karet","distance":471,"station_id":"KAT","is_transit":false,"i_long":106.816351},{"station_id":"THB","i_long":106.811091,"i_lat":-6.185545,"station_name":"Tanah Abang","is_transit":false,"time":5,"distance":2029,"transit":false,"line":1},{"station_name":"Duri","distance":3632,"i_lat":-6.155215,"station_id":"DU","i_long":106.800832,"line":1,"transit":true,"is_transit":true,"time":8},{"distance":1700,"station_name":"Grogol","is_transit":false,"i_lat":-6.162021,"station_id":"GRG","i_long":106.788277,"line":5,"time":3,"transit":false},{"line":5,"distance":2036,"station_id":"PSG","time":2,"station_name":"Pesing","i_lat":-6.161433,"is_transit":false,"i_long":106.771379,"transit":false},{"station_name":"Taman Kota","is_transit":false,"transit":false,"i_long":106.756522,"time":2,"line":5,"distance":1614,"i_lat":-6.1587309999999995,"station_id":"TKO"},{"i_long":106.737035,"station_id":"BOI","i_lat":-6.159876,"distance":2334,"line":5,"station_name":"Bojongindah","time":2,"transit":false,"is_transit":false}]]}