{"data":[[{"distance":0,"transit":false,"time":0,"station_name":"Gondangdia","station_id":"GDD","is_transit":false,"i_lat":-6.186295,"i_long":106.832183,"line":2},{"station_name":"Cikini","i_lat":-6.198556,"line":2,"distance":1750,"i_long":106.840169,"time":3,"station_id":"CKI","is_transit":false,"transit":false},{"station_name":"Manggarai","station_id":"MRI","i_long":106.84912,"transit":true,"time":4,"is_transit":true,"distance":1590,"i_lat":-6.209883,"line":2},{"station_id":"SUD","distance":3186,"i_long":106.822649,"is_transit":false,"time":4,"i_lat":-6.202263,"transit":false,"station_name":"Sudirman","line":1},{"i_long":106.819881,"station_name":"Sudirman Baru","distance":280,"time":1,"is_transit":false,"i_lat":-6.201433,"transit":false,"station_id":"SUDB","line":1},{"is_transit":false,"distance":471,"i_lat":-6.20132,"transit":false,"station_name":"Karet","station_id":"KAT","i_long":106.816351,"line":1,"time":1},{"distance":2029,"station_name":"Tanah Abang","transit":false,"station_id":"THB","is_transit":false,"time":5,"i_lat":-6.185545,"line":1,"i_long":106.811091},{"time":8,"transit":true,"station_id":"DU","is_transit":true,"distance":3632,"i_lat":-6.155215,"line":1,"station_name":"Duri","i_long":106.800832},{"station_name":"Grogol","time":3,"line":5,"transit":false,"is_transit":false,"i_long":106.788277,"i_lat":-6.162021,"distance":1700,"station_id":"GGL"},{"is_transit":false,"distance":2036,"transit":false,"station_id":"PSG","i_long":106.771379,"station_name":"Pesing","i_lat":-6.161433,"time":2,"line":5},{"i_long":106.756522,"i_lat":-6.1587309999999995,"station_name":"Taman Kota","station_id":"TKO","distance":1614,"line":5,"is_transit":false,"time":2,"transit":false}],[{"time":0,"i_long":106.832183,"station_name":"Gondangdia","distance":0,"station_id":"GDD","line":2,"transit":false,"is_transit":false,"i_lat":-6.186295},{"station_name":"Juanda","time":4,"i_long":106.828284,"transit":false,"line":2,"station_id":"JUA","i_lat":-6.166716,"is_transit":false,"distance":2015},{"transit":false,"station_name":"Sawah Besar","i_lat":-6.160725,"time":2,"station_id":"SW","distance":1149,"line":2,"is_transit":false,"i_long":106.827103},{"is_transit":false,"time":2,"i_long":106.82482,"line":2,"station_name":"Manggabesar","distance":906,"i_lat":-6.149769,"transit":false,"station_id":"MGB"},{"transit":false,"distance":1080,"station_id":"JAY","i_lat":-6.141205,"station_name":"Jayakarta","line":2,"is_transit":false,"time":2,"i_long":106.820901},{"i_long":106.812439,"i_lat":-6.137569,"time":4,"station_id":"JAKK","transit":true,"station_name":"Jakarta Kota","is_transit":true,"line":2,"distance":1264},{"line":4,"distance":1364,"i_long":106.826365,"i_lat":-6.132549,"station_name":"Kampung Bandan","station_id":"KPB","transit":true,"is_transit":true,"time":3},{"line":1,"i_lat":-6.144674,"transit":false,"i_long":106.79867,"station_id":"AK","is_transit":false,"station_name":"Angke","time":9,"distance":4102},{"i_long":106.800832,"transit":true,"distance":1230,"line":1,"station_name":"Duri","i_lat":-6.155215,"is_transit":true,"time":4,"station_id":"DU"},{"station_id":"GGL","line":5,"station_name":"Grogol","i_lat":-6.162021,"i_long":106.788277,"distance":1700,"is_transit":false,"time":3,"transit":false},{"line":5,"station_name":"Pesing","is_transit":false,"i_long":106.771379,"distance":2036,"i_lat":-6.161433,"transit":false,"station_id":"PSG","time":2},{"station_id":"TKO","distance":1614,"line":5,"is_transit":false,"station_name":"Taman Kota","time":2,"i_long":106.756522,"i_lat":-6.1587309999999995,"transit":false}],[{"i_lat":-6.186295,"line":2,"time":0,"i_long":106.832183,"is_transit":false,"transit":false,"station_name":"Gondangdia","distance":0,"station_id":"GDD"},{"station_name":"Cikini","station_id":"CKI","transit":false,"is_transit":false,"distance":1750,"i_lat":-6.198556,"i_long":106.840169,"line":2,"time":3},{"i_lat":-6.209883,"distance":1590,"transit":true,"is_transit":true,"time":4,"station_name":"Manggarai","station_id":"MRI","line":2,"i_long":106.84912},{"station_name":"Matraman","distance":1275,"transit":false,"station_id":"MTR","is_transit":false,"time":2,"i_lat":-6.212485,"i_long":106.858896,"line":1},{"time":8,"distance":1377,"line":1,"station_name":"Jatinegara","station_id":"JNG","is_transit":true,"i_lat":-6.215091,"i_long":106.86807400000001,"transit":true},{"station_name":"Pondok Jati","transit":false,"is_transit":false,"time":2,"distance":1236,"i_lat":-6.209188,"station_id":"POK","line":11,"i_long":106.861737},{"is_transit":false,"distance":1829,"station_id":"KMT","line":11,"i_lat":-6.193792,"station_name":"Kramat","time":2,"i_long":106.855437,"transit":false},{"station_name":"Gang Sentiong","distance":973,"transit":false,"station_id":"GST","i_lat":-6.185975,"is_transit":false,"line":11,"time":1,"i_long":106.850107},{"station_name":"Pasar Senen","time":8,"distance":1567,"is_transit":false,"i_lat":-6.174784,"line":11,"transit":false,"station_id":"PSE","i_long":106.84368},{"transit":false,"station_id":"KMO","i_long":106.839204,"distance":1436,"i_lat":-6.161728,"station_name":"Kemayoran","is_transit":false,"line":11,"time":4},{"transit":false,"station_id":"RJW","i_long":106.836569,"is_transit":false,"station_name":"Rajawali","i_lat":-6.14505,"line":11,"time":5,"distance":1901},{"line":4,"transit":true,"distance":1444,"station_name":"Kampung Bandan","i_long":106.826365,"is_transit":true,"i_lat":-6.132549,"station_id":"KPB","time":3},{"is_transit":false,"distance":4102,"station_name":"Angke","station_id":"AK","time":9,"i_lat":-6.144674,"i_long":106.79867,"transit":false,"line":1},{"i_lat":-6.155215,"line":1,"station_id":"DU","distance":1230,"i_long":106.800832,"time":4,"station_name":"Duri","is_transit":true,"transit":true},{"station_name":"Grogol","is_transit":false,"time":3,"i_long":106.788277,"line":5,"transit":false,"station_id":"GGL","distance":1700,"i_lat":-6.162021},{"line":5,"i_lat":-6.161433,"transit":false,"station_id":"PSG","time":2,"is_transit":false,"i_long":106.771379,"station_name":"Pesing","distance":2036},{"transit":false,"distance":1614,"i_long":106.756522,"line":5,"station_name":"Taman Kota","time":2,"station_id":"TKO","is_transit":false,"i_lat":-6.1587309999999995}],[{"station_name":"Gondangdia","i_lat":-6.186295,"i_long":106.832183,"time":0,"station_id":"GDD","is_transit":false,"line":2,"transit":false,"distance":0},{"distance":2015,"i_long":106.828284,"station_id":"JUA","is_transit":false,"time":4,"line":2,"station_name":"Juanda","i_lat":-6.166716,"transit":false},{"station_id":"SW","i_long":106.827103,"line":2,"i_lat":-6.160725,"distance":1149,"transit":false,"is_transit":false,"station_name":"Sawah Besar","time":2},{"time":2,"i_long":106.82482,"is_transit":false,"i_lat":-6.149769,"line":2,"station_name":"Manggabesar","station_id":"MGB","distance":906,"transit":false},{"distance":1080,"i_long":106.820901,"station_name":"Jayakarta","line":2,"i_lat":-6.141205,"transit":false,"station_id":"JAY","is_transit":false,"time":2},{"transit":true,"i_lat":-6.137569,"i_long":106.812439,"line":2,"is_transit":true,"station_id":"JAKK","station_name":"Jakarta Kota","time":4,"distance":1264},{"distance":1364,"is_transit":true,"transit":true,"line":4,"i_long":106.826365,"station_name":"Kampung Bandan","station_id":"KPB","i_lat":-6.132549,"time":3},{"time":3,"is_transit":false,"line":11,"station_name":"Rajawali","i_long":106.836569,"transit":false,"i_lat":-6.14505,"distance":1444,"station_id":"RJW"},{"is_transit":false,"i_long":106.839204,"station_id":"KMO","transit":false,"distance":1901,"time":5,"line":11,"i_lat":-6.161728,"station_name":"Kemayoran"},{"station_name":"Pasar Senen","line":11,"station_id":"PSE","i_long":106.84368,"distance":1436,"is_transit":false,"i_lat":-6.174784,"time":4,"transit":false},{"is_transit":false,"station_id":"GST","station_name":"Gang Sentiong","i_lat":-6.185975,"distance":1567,"transit":false,"time":8,"i_long":106.850107,"line":11},{"i_long":106.855437,"line":11,"i_lat":-6.193792,"transit":false,"time":1,"distance":973,"station_name":"Kramat","station_id":"KMT","is_transit":false},{"station_name":"Pondok Jati","line":11,"i_long":106.861737,"is_transit":false,"time":2,"distance":1829,"station_id":"POK","i_lat":-6.209188,"transit":false},{"time":9,"station_name":"Jatinegara","i_long":106.86807400000001,"i_lat":-6.215091,"line":1,"station_id":"JNG","is_transit":true,"transit":true,"distance":1236},{"time":2,"transit":false,"station_name":"Matraman","station_id":"MTR","distance":1377,"i_lat":-6.212485,"i_long":106.858896,"is_transit":false,"line":1},{"distance":1275,"station_id":"MRI","line":2,"station_name":"Manggarai","time":2,"transit":false,"i_lat":-6.209883,"is_transit":false,"i_long":106.84912},{"transit":false,"i_long":106.822649,"distance":3186,"station_id":"SUD","time":4,"i_lat":-6.202263,"line":1,"station_name":"Sudirman","is_transit":false},{"i_long":106.819881,"transit":false,"i_lat":-6.201433,"distance":280,"line":1,"station_id":"SUDB","is_transit":false,"time":1,"station_name":"Sudirman Baru"},{"i_long":106.816351,"time":1,"distance":471,"station_id":"KAT","station_name":"Karet","line":1,"transit":false,"is_transit":false,"i_lat":-6.20132},{"i_lat":-6.185545,"transit":false,"station_id":"THB","i_long":106.811091,"is_transit":false,"time":5,"distance":2029,"line":1,"station_name":"Tanah Abang"},{"station_name":"Duri","i_lat":-6.155215,"is_transit":true,"time":8,"i_long":106.800832,"line":1,"transit":true,"distance":3632,"station_id":"DU"},{"time":3,"i_lat":-6.162021,"line":5,"distance":1700,"transit":false,"station_id":"GGL","i_long":106.788277,"is_transit":false,"station_name":"Grogol"},{"i_lat":-6.161433,"transit":false,"is_transit":false,"line":5,"station_id":"PSG","time":2,"i_long":106.771379,"distance":2036,"station_name":"Pesing"},{"time":2,"is_transit":false,"line":5,"i_lat":-6.1587309999999995,"station_name":"Taman Kota","transit":false,"i_long":106.756522,"distance":1614,"station_id":"TKO"}]]}