{"data":[[{"line":2,"transit":false,"time":0,"station_name":"Gondangdia","distance":0,"is_transit":false,"station_id":"GDD","i_lat":-6.186295,"i_long":106.832183},{"station_id":"CKI","transit":false,"i_long":106.840169,"station_name":"Cikini","is_transit":false,"time":3,"i_lat":-6.198556,"distance":1750,"line":2},{"i_long":106.84912,"line":2,"transit":false,"station_name":"Manggarai","is_transit":false,"time":4,"station_id":"MRI","distance":1590,"i_lat":-6.209883},{"transit":false,"time":4,"distance":2610,"is_transit":false,"i_long":106.857948,"station_name":"Tebet","station_id":"TEB","i_lat":-6.226659,"line":2},{"line":2,"i_long":106.856607,"station_id":"CW","transit":false,"distance":1230,"is_transit":false,"time":2,"i_lat":-6.242512,"station_name":"Cawang"},{"station_name":"Duren Kalibata","distance":1546,"i_long":106.85449,"station_id":"DRN","transit":false,"is_transit":false,"time":3,"i_lat":-6.255332,"line":2},{"distance":824,"time":2,"is_transit":false,"i_long":106.851577,"line":2,"i_lat":-6.263214,"station_id":"PSMB","station_name":"Pasar Minggu Baru","transit":false},{"distance":2380,"transit":false,"station_name":"Pasar Minggu","line":2,"time":2,"i_lat":-6.2842400000000005,"station_id":"PSM","is_transit":false,"i_long":106.843999},{"station_id":"TNT","time":4,"i_lat":-6.3080680000000005,"line":2,"station_name":"Tanjung Barat","i_long":106.838896,"is_transit":false,"transit":false,"distance":2820},{"i_long":106.832616,"station_name":"Lenteng Agung","is_transit":false,"station_id":"LNA","time":3,"distance":2671,"i_lat":-6.330363,"line":2,"transit":false},{"i_lat":-6.339291,"i_long":106.834175,"transit":false,"distance":1029,"is_transit":false,"line":2,"time":2,"station_name":"Univ. Pancasila","station_id":"UP"},{"transit":false,"is_transit":false,"distance":2264,"i_lat":-6.360749,"time":3,"station_name":"Univ. Indonesia","i_long":106.831474,"station_id":"UI","line":2},{"i_lat":-6.369073,"is_transit":false,"distance":1109,"transit":false,"station_name":"Pondok Cina","station_id":"POC","line":2,"i_long":106.831114,"time":2}],[{"i_lat":-6.186295,"time":0,"i_long":106.832183,"station_id":"GDD","line":2,"transit":false,"station_name":"Gondangdia","distance":0,"is_transit":false},{"line":2,"is_transit":false,"time":4,"station_id":"JUA","i_long":106.828284,"i_lat":-6.166716,"transit":false,"station_name":"Juanda","distance":2015},{"line":2,"time":2,"station_id":"SW","i_lat":-6.160725,"transit":false,"is_transit":false,"station_name":"Sawah Besar","i_long":106.827103,"distance":1149},{"i_lat":-6.149769,"line":2,"transit":false,"is_transit":false,"station_name":"Manggabesar","time":2,"i_long":106.82482,"distance":906,"station_id":"MGB"},{"transit":false,"is_transit":false,"distance":1080,"station_name":"Jayakarta","time":2,"i_lat":-6.141205,"i_long":106.820901,"station_id":"JAY","line":2},{"is_transit":true,"time":4,"i_lat":-6.137569,"line":2,"station_name":"Jakarta Kota","transit":true,"i_long":106.812439,"distance":1264,"station_id":"JAKK"},{"station_name":"Kampung Bandan","i_lat":-6.132549,"station_id":"KPB","is_transit":true,"i_long":106.826365,"time":3,"line":4,"transit":true,"distance":1364},{"i_long":106.79867,"distance":4102,"transit":false,"line":1,"is_transit":false,"i_lat":-6.144674,"station_name":"Angke","time":9,"station_id":"AK"},{"station_id":"DU","distance":1230,"i_lat":-6.155215,"station_name":"Duri","is_transit":false,"transit":false,"line":1,"time":4,"i_long":106.800832},{"distance":3632,"line":1,"station_id":"THB","is_transit":false,"i_long":106.811091,"station_name":"Tanah Abang","time":8,"i_lat":-6.185545,"transit":false},{"transit":false,"distance":2029,"time":5,"station_id":"KAT","i_lat":-6.20132,"line":1,"is_transit":false,"i_long":106.816351,"station_name":"Karet"},{"distance":471,"i_long":106.819881,"is_transit":false,"station_id":"SUDB","time":1,"station_name":"Sudirman Baru","i_lat":-6.201433,"line":1,"transit":false},{"distance":280,"transit":false,"station_name":"Sudirman","time":1,"i_long":106.822649,"line":1,"station_id":"SUD","i_lat":-6.202263,"is_transit":false},{"i_long":106.84912,"transit":true,"time":4,"station_name":"Manggarai","distance":3186,"is_transit":true,"i_lat":-6.209883,"line":2,"station_id":"MRI"},{"distance":2610,"transit":false,"i_long":106.857948,"time":4,"station_name":"Tebet","line":2,"is_transit":false,"station_id":"TEB","i_lat":-6.226659},{"transit":false,"time":2,"distance":1230,"is_transit":false,"station_id":"CW","line":2,"i_long":106.856607,"station_name":"Cawang","i_lat":-6.242512},{"is_transit":false,"i_long":106.85449,"transit":false,"line":2,"time":3,"station_name":"Duren Kalibata","station_id":"DRN","distance":1546,"i_lat":-6.255332},{"station_id":"PSMB","i_lat":-6.263214,"i_long":106.851577,"station_name":"Pasar Minggu Baru","line":2,"distance":824,"is_transit":false,"transit":false,"time":2},{"station_name":"Pasar Minggu","time":2,"i_long":106.843999,"is_transit":false,"station_id":"PSM","i_lat":-6.2842400000000005,"distance":2380,"line":2,"transit":false},{"station_name":"Tanjung Barat","i_lat":-6.3080680000000005,"line":2,"i_long":106.838896,"station_id":"TNT","transit":false,"distance":2820,"is_transit":false,"time":4},{"distance":2671,"station_name":"Lenteng Agung","time":3,"transit":false,"i_lat":-6.330363,"station_id":"LNA","line":2,"is_transit":false,"i_long":106.832616},{"time":2,"i_long":106.834175,"is_transit":false,"line":2,"station_id":"UP","station_name":"Univ. Pancasila","distance":1029,"i_lat":-6.339291,"transit":false},{"station_id":"UI","transit":false,"station_name":"Univ. Indonesia","is_transit":false,"i_lat":-6.360749,"distance":2264,"line":2,"i_long":106.831474,"time":3},{"transit":false,"station_name":"Pondok Cina","time":2,"station_id":"POC","distance":1109,"is_transit":false,"i_lat":-6.369073,"i_long":106.831114,"line":2}],[{"transit":false,"station_name":"Gondangdia","station_id":"GDD","i_lat":-6.186295,"i_long":106.832183,"is_transit":false,"line":2,"time":0,"distance":0},{"is_transit":false,"station_id":"JUA","time":4,"i_long":106.828284,"line":2,"i_lat":-6.166716,"station_name":"Juanda","distance":2015,"transit":false},{"station_name":"Sawah Besar","time":2,"station_id":"SW","i_long":106.827103,"line":2,"transit":false,"i_lat":-6.160725,"is_transit":false,"distance":1149},{"is_transit":false,"time":2,"i_long":106.82482,"line":2,"station_id":"MGB","station_name":"Manggabesar","transit":false,"distance":906,"i_lat":-6.149769},{"i_lat":-6.141205,"is_transit":false,"station_name":"Jayakarta","transit":false,"line":2,"station_id":"JAY","time":2,"i_long":106.820901,"distance":1080},{"transit":true,"station_name":"Jakarta Kota","distance":1264,"time":4,"i_lat":-6.137569,"is_transit":true,"station_id":"JAKK","line":2,"i_long":106.812439},{"line":4,"time":3,"station_name":"Kampung Bandan","station_id":"KPB","i_lat":-6.132549,"distance":1364,"transit":true,"is_transit":true,"i_long":106.826365},{"time":3,"is_transit":false,"i_lat":-6.14505,"distance":1444,"station_name":"Rajawali","station_id":"RJW","transit":false,"line":11,"i_long":106.836569},{"i_long":106.839204,"transit":false,"distance":1901,"i_lat":-6.161728,"line":11,"is_transit":false,"station_id":"KMO","station_name":"Kemayoran","time":5},{"is_transit":false,"transit":false,"station_id":"PSE","distance":1436,"time":4,"i_lat":-6.174784,"i_long":106.84368,"station_name":"Pasar Senen","line":11},{"line":11,"is_transit":false,"station_id":"GST","station_name":"Gang Sentiong","i_long":106.850107,"time":8,"transit":false,"i_lat":-6.185975,"distance":1567},{"i_lat":-6.193792,"time":1,"is_transit":false,"transit":false,"line":11,"station_id":"KMT","distance":973,"i_long":106.855437,"station_name":"Kramat"},{"line":11,"time":2,"i_lat":-6.209188,"station_name":"Pondok Jati","distance":1829,"is_transit":false,"i_long":106.861737,"transit":false,"station_id":"POK"},{"is_transit":true,"i_lat":-6.215091,"distance":1236,"station_id":"JNG","transit":true,"time":9,"i_long":106.86807400000001,"line":1,"station_name":"Jatinegara"},{"distance":1377,"station_name":"Matraman","is_transit":false,"time":2,"i_lat":-6.212485,"i_long":106.858896,"line":1,"station_id":"MTR","transit":false},{"is_transit":true,"time":2,"line":2,"i_long":106.84912,"station_name":"Manggarai","transit":true,"i_lat":-6.209883,"station_id":"MRI","distance":1275},{"transit":false,"is_transit":false,"i_lat":-6.226659,"distance":2610,"station_name":"Tebet","i_long":106.857948,"line":2,"time":4,"station_id":"TEB"},{"i_lat":-6.242512,"i_long":106.856607,"station_id":"CW","station_name":"Cawang","transit":false,"is_transit":false,"time":2,"line":2,"distance":1230},{"distance":1546,"time":3,"line":2,"station_id":"DRN","i_lat":-6.255332,"station_name":"Duren Kalibata","is_transit":false,"transit":false,"i_long":106.85449},{"time":2,"station_id":"PSMB","station_name":"Pasar Minggu Baru","transit":false,"is_transit":false,"distance":824,"i_lat":-6.263214,"i_long":106.851577,"line":2},{"distance":2380,"station_name":"Pasar Minggu","station_id":"PSM","i_long":106.843999,"i_lat":-6.2842400000000005,"transit":false,"time":2,"line":2,"is_transit":false},{"time":4,"transit":false,"station_name":"Tanjung Barat","is_transit":false,"i_lat":-6.3080680000000005,"i_long":106.838896,"line":2,"station_id":"TNT","distance":2820},{"line":2,"i_long":106.832616,"is_transit":false,"transit":false,"station_id":"LNA","station_name":"Lenteng Agung","distance":2671,"time":3,"i_lat":-6.330363},{"is_transit":false,"line":2,"i_lat":-6.339291,"transit":false,"i_long":106.834175,"station_name":"Univ. Pancasila","time":2,"station_id":"UP","distance":1029},{"station_id":"UI","time":3,"distance":2264,"transit":false,"is_transit":false,"line":2,"station_name":"Univ. Indonesia","i_lat":-6.360749,"i_long":106.831474},{"i_long":106.831114,"station_name":"Pondok Cina","station_id":"POC","transit":false,"is_transit":false,"i_lat":-6.369073,"distance":1109,"time":2,"line":2}]]}