{"data":[[{"station_id":"GDD","station_name":"Gondangdia","transit":false,"i_lat":-6.186295,"is_transit":false,"line":2,"i_long":106.832183,"time":0,"distance":0},{"transit":false,"distance":2015,"line":2,"i_lat":-6.166716,"station_name":"Juanda","station_id":"JUA","is_transit":false,"time":4,"i_long":106.828284},{"station_name":"Sawah Besar","is_transit":false,"station_id":"SW","distance":1149,"i_long":106.827103,"transit":false,"i_lat":-6.160725,"time":2,"line":2},{"station_name":"Manggabesar","is_transit":false,"i_lat":-6.149769,"distance":906,"time":2,"transit":false,"station_id":"MGB","line":2,"i_long":106.82482},{"distance":1080,"transit":false,"is_transit":false,"time":2,"station_id":"JAY","station_name":"Jayakarta","line":7,"i_lat":-6.141205,"i_long":106.820901},{"time":4,"transit":true,"i_long":106.812439,"distance":1264,"station_name":"Jakarta Kota","is_transit":true,"i_lat":-6.137569,"station_id":"JAKK","line":0},{"i_lat":-6.132549,"line":0,"i_long":106.826365,"station_id":"KPB","distance":1364,"transit":false,"is_transit":true,"time":3,"station_name":"Kampung Bandan"},{"time":9,"i_long":106.79867,"station_id":"AK","line":0,"station_name":"Angke","is_transit":false,"distance":4102,"transit":false,"i_lat":-6.144674}],[{"i_lat":-6.186295,"line":2,"transit":false,"station_id":"GDD","time":0,"distance":0,"i_long":106.832183,"station_name":"Gondangdia","is_transit":false},{"i_lat":-6.198556,"station_name":"Cikini","transit":false,"station_id":"CKI","time":3,"line":0,"is_transit":false,"distance":1750,"i_long":106.840169},{"distance":1590,"is_transit":true,"line":0,"i_lat":-6.209883,"i_long":106.84912,"station_name":"Manggarai","transit":true,"time":4,"station_id":"MRI"},{"time":4,"i_long":106.822649,"station_id":"SUD","is_transit":false,"distance":3186,"line":1,"transit":false,"station_name":"Sudirman","i_lat":-6.202263},{"transit":false,"i_long":106.819881,"station_id":"SUDB","is_transit":false,"distance":280,"station_name":"Sudirman Baru","i_lat":-6.201433,"time":1,"line":1},{"i_lat":-6.20132,"line":1,"station_id":"KAT","station_name":"Karet","is_transit":false,"time":1,"distance":471,"transit":false,"i_long":106.816351},{"distance":2029,"time":5,"i_lat":-6.185545,"is_transit":true,"station_name":"Tanah Abang","station_id":"THB","transit":false,"line":1,"i_long":106.811091},{"station_name":"Duri","line":1,"distance":3632,"station_id":"DU","i_lat":-6.155215,"time":8,"transit":true,"i_long":106.800832,"is_transit":true},{"distance":1230,"i_lat":-6.144674,"i_long":106.79867,"line":0,"is_transit":false,"transit":false,"station_id":"AK","station_name":"Angke","time":4}],[{"i_long":106.832183,"is_transit":false,"line":2,"distance":0,"transit":false,"station_id":"GDD","i_lat":-6.186295,"station_name":"Gondangdia","time":0},{"station_name":"Cikini","i_lat":-6.198556,"transit":false,"is_transit":false,"station_id":"CKI","time":3,"i_long":106.840169,"line":0,"distance":1750},{"line":0,"time":4,"station_name":"Manggarai","distance":1590,"i_long":106.84912,"i_lat":-6.209883,"is_transit":true,"station_id":"MRI","transit":true},{"transit":false,"time":2,"line":1,"station_id":"MTR","i_long":106.858896,"station_name":"Matraman","i_lat":-6.212485,"distance":1275,"is_transit":false},{"i_long":106.86807400000001,"is_transit":true,"station_id":"JNG","line":0,"i_lat":-6.215091,"transit":true,"time":8,"distance":1377,"station_name":"Jatinegara"},{"i_lat":-6.209188,"station_id":"POK","time":2,"line":11,"i_long":106.861737,"station_name":"Pondok Jati","is_transit":false,"distance":1236,"transit":false},{"distance":1829,"is_transit":false,"station_id":"KMT","line":11,"transit":false,"i_long":106.855437,"time":2,"i_lat":-6.193792,"station_name":"Kramat"},{"line":11,"is_transit":false,"i_lat":-6.185975,"station_name":"Gang Sentiong","time":1,"transit":false,"station_id":"GST","distance":973,"i_long":106.850107},{"station_name":"Pasar Senen","i_long":106.84368,"is_transit":false,"time":8,"i_lat":-6.174784,"station_id":"PSE","line":11,"transit":false,"distance":1567},{"is_transit":false,"line":11,"transit":false,"distance":1436,"station_name":"Kemayoran","station_id":"KMO","time":4,"i_lat":-6.161728,"i_long":106.839204},{"station_name":"Rajawali","time":5,"i_lat":-6.14505,"is_transit":false,"line":11,"station_id":"RJW","distance":1901,"transit":false,"i_long":106.836569},{"line":0,"i_lat":-6.132549,"station_name":"Kampung Bandan","distance":1444,"is_transit":true,"time":3,"transit":true,"station_id":"KPB","i_long":106.826365},{"line":0,"i_lat":-6.144674,"station_name":"Angke","transit":false,"is_transit":false,"i_long":106.79867,"station_id":"AK","distance":4102,"time":9}],[{"station_id":"GDD","i_lat":-6.186295,"i_long":106.832183,"is_transit":false,"transit":false,"line":2,"time":0,"distance":0,"station_name":"Gondangdia"},{"i_long":106.828284,"transit":false,"station_id":"JUA","line":2,"time":4,"distance":2015,"is_transit":false,"station_name":"Juanda","i_lat":-6.166716},{"station_id":"SW","is_transit":false,"distance":1149,"transit":false,"i_long":106.827103,"station_name":"Sawah Besar","line":2,"i_lat":-6.160725,"time":2},{"i_lat":-6.149769,"station_id":"MGB","distance":906,"i_long":106.82482,"time":2,"is_transit":false,"transit":false,"station_name":"Manggabesar","line":2},{"is_transit":false,"line":7,"station_id":"JAY","distance":1080,"time":2,"i_lat":-6.141205,"transit":false,"station_name":"Jayakarta","i_long":106.820901},{"station_name":"Jakarta Kota","i_long":106.812439,"line":0,"is_transit":true,"time":4,"distance":1264,"transit":true,"station_id":"JAKK","i_lat":-6.137569},{"time":3,"i_lat":-6.132549,"distance":1364,"line":0,"transit":true,"station_id":"KPB","i_long":106.826365,"station_name":"Kampung Bandan","is_transit":true},{"distance":1444,"time":3,"i_long":106.836569,"line":11,"i_lat":-6.14505,"station_id":"RJW","station_name":"Rajawali","transit":false,"is_transit":false},{"transit":false,"is_transit":false,"station_name":"Kemayoran","i_long":106.839204,"line":11,"time":5,"i_lat":-6.161728,"station_id":"KMO","distance":1901},{"i_long":106.84368,"i_lat":-6.174784,"transit":false,"station_id":"PSE","station_name":"Pasar Senen","distance":1436,"is_transit":false,"line":11,"time":4},{"is_transit":false,"i_lat":-6.185975,"i_long":106.850107,"station_name":"Gang Sentiong","transit":false,"time":8,"station_id":"GST","line":11,"distance":1567},{"transit":false,"station_id":"KMT","i_long":106.855437,"is_transit":false,"line":11,"time":1,"distance":973,"station_name":"Kramat","i_lat":-6.193792},{"line":11,"station_id":"POK","is_transit":false,"time":2,"transit":false,"i_lat":-6.209188,"distance":1829,"station_name":"Pondok Jati","i_long":106.861737},{"is_transit":true,"i_long":106.86807400000001,"station_name":"Jatinegara","time":9,"i_lat":-6.215091,"station_id":"JNG","distance":1236,"transit":true,"line":0},{"station_id":"MTR","i_long":106.858896,"time":2,"distance":1377,"station_name":"Matraman","line":1,"transit":false,"is_transit":false,"i_lat":-6.212485},{"transit":false,"station_id":"MRI","i_lat":-6.209883,"time":2,"line":0,"station_name":"Manggarai","is_transit":true,"distance":1275,"i_long":106.84912},{"distance":3186,"transit":false,"i_lat":-6.202263,"time":4,"i_long":106.822649,"line":1,"station_id":"SUD","station_name":"Sudirman","is_transit":false},{"is_transit":false,"time":1,"i_lat":-6.201433,"distance":280,"transit":false,"station_id":"SUDB","line":1,"i_long":106.819881,"station_name":"Sudirman Baru"},{"transit":false,"is_transit":false,"station_name":"Karet","distance":471,"time":1,"i_lat":-6.20132,"line":1,"i_long":106.816351,"station_id":"KAT"},{"i_lat":-6.185545,"line":1,"is_transit":true,"time":5,"distance":2029,"i_long":106.811091,"transit":false,"station_id":"THB","station_name":"Tanah Abang"},{"time":8,"is_transit":true,"transit":true,"station_id":"DU","i_lat":-6.155215,"station_name":"Duri","distance":3632,"i_long":106.800832,"line":1},{"distance":1230,"station_id":"AK","transit":false,"i_lat":-6.144674,"line":0,"time":4,"i_long":106.79867,"is_transit":false,"station_name":"Angke"}]]}