{"data":[[{"station_name":"Gondangdia","station_id":"GDD","transit":false,"distance":0,"i_lat":-6.186295,"is_transit":false,"i_long":106.832183,"line":2,"time":0},{"station_id":"CKI","time":3,"i_long":106.840169,"i_lat":-6.198556,"is_transit":false,"distance":1750,"station_name":"Cikini","transit":false,"line":0},{"station_id":"MRI","is_transit":true,"time":4,"distance":1590,"transit":true,"i_lat":-6.209883,"line":0,"i_long":106.84912,"station_name":"Manggarai"},{"is_transit":false,"transit":false,"i_long":106.822649,"station_name":"Sudirman","line":1,"time":4,"i_lat":-6.202263,"station_id":"SUD","distance":3186},{"i_lat":-6.201433,"i_long":106.819881,"station_id":"SUDB","is_transit":false,"transit":false,"distance":280,"line":1,"station_name":"Sudirman Baru","time":1},{"is_transit":false,"transit":false,"i_lat":-6.20132,"line":1,"i_long":106.816351,"time":1,"station_name":"Karet","distance":471,"station_id":"KAT"},{"distance":2029,"time":5,"i_lat":-6.185545,"i_long":106.811091,"transit":false,"line":1,"station_id":"THB","is_transit":true,"station_name":"Tanah Abang"}],[{"i_lat":-6.186295,"i_long":106.832183,"station_name":"Gondangdia","station_id":"GDD","distance":0,"transit":false,"is_transit":false,"line":2,"time":0},{"i_long":106.828284,"station_id":"JUA","i_lat":-6.166716,"station_name":"Juanda","transit":false,"line":2,"is_transit":false,"distance":2015,"time":4},{"i_long":106.827103,"line":2,"station_name":"Sawah Besar","time":2,"distance":1149,"is_transit":false,"transit":false,"station_id":"SW","i_lat":-6.160725},{"station_id":"MGB","time":2,"is_transit":false,"distance":906,"transit":false,"line":2,"station_name":"Manggabesar","i_long":106.82482,"i_lat":-6.149769},{"station_name":"Jayakarta","transit":false,"i_lat":-6.141205,"line":7,"station_id":"JAY","is_transit":false,"i_long":106.820901,"distance":1080,"time":2},{"time":4,"station_name":"Jakarta Kota","i_lat":-6.137569,"station_id":"JAKK","is_transit":true,"transit":true,"i_long":106.812439,"distance":1264,"line":0},{"transit":false,"station_id":"KPB","station_name":"Kampung Bandan","time":3,"is_transit":true,"i_lat":-6.132549,"i_long":106.826365,"line":0,"distance":1364},{"transit":false,"i_long":106.79867,"station_name":"Angke","distance":4102,"line":0,"station_id":"AK","time":9,"is_transit":false,"i_lat":-6.144674},{"is_transit":true,"time":4,"station_name":"Duri","transit":true,"i_long":106.800832,"i_lat":-6.155215,"line":1,"station_id":"DU","distance":1230},{"i_long":106.811091,"transit":false,"distance":3632,"station_name":"Tanah Abang","is_transit":true,"time":8,"line":1,"i_lat":-6.185545,"station_id":"THB"}],[{"is_transit":false,"distance":0,"station_id":"GDD","station_name":"Gondangdia","i_long":106.832183,"line":2,"time":0,"transit":false,"i_lat":-6.186295},{"distance":1750,"station_id":"CKI","is_transit":false,"i_lat":-6.198556,"time":3,"i_long":106.840169,"transit":false,"line":0,"station_name":"Cikini"},{"line":0,"is_transit":true,"station_name":"Manggarai","transit":true,"i_long":106.84912,"i_lat":-6.209883,"time":4,"distance":1590,"station_id":"MRI"},{"station_id":"MTR","line":1,"transit":false,"i_long":106.858896,"time":2,"station_name":"Matraman","i_lat":-6.212485,"distance":1275,"is_transit":false},{"is_transit":true,"transit":true,"i_long":106.86807400000001,"station_id":"JNG","line":0,"distance":1377,"i_lat":-6.215091,"time":8,"station_name":"Jatinegara"},{"time":2,"is_transit":false,"transit":false,"station_name":"Pondok Jati","i_long":106.861737,"line":11,"station_id":"POK","i_lat":-6.209188,"distance":1236},{"transit":false,"line":11,"is_transit":false,"station_id":"KMT","time":2,"station_name":"Kramat","i_lat":-6.193792,"distance":1829,"i_long":106.855437},{"i_long":106.850107,"is_transit":false,"station_name":"Gang Sentiong","distance":973,"time":1,"line":11,"transit":false,"station_id":"GST","i_lat":-6.185975},{"station_id":"PSE","is_transit":false,"distance":1567,"i_long":106.84368,"station_name":"Pasar Senen","line":11,"transit":false,"i_lat":-6.174784,"time":8},{"time":4,"station_name":"Kemayoran","transit":false,"i_long":106.839204,"i_lat":-6.161728,"is_transit":false,"line":11,"station_id":"KMO","distance":1436},{"station_name":"Rajawali","i_lat":-6.14505,"time":5,"transit":false,"i_long":106.836569,"line":11,"distance":1901,"is_transit":false,"station_id":"RJW"},{"i_lat":-6.132549,"i_long":106.826365,"time":3,"line":0,"station_id":"KPB","is_transit":true,"distance":1444,"station_name":"Kampung Bandan","transit":true},{"line":0,"station_id":"AK","time":9,"station_name":"Angke","distance":4102,"transit":false,"i_long":106.79867,"is_transit":false,"i_lat":-6.144674},{"station_id":"DU","line":1,"time":4,"station_name":"Duri","distance":1230,"i_lat":-6.155215,"transit":true,"is_transit":true,"i_long":106.800832},{"i_long":106.811091,"time":8,"distance":3632,"station_name":"Tanah Abang","i_lat":-6.185545,"is_transit":true,"station_id":"THB","transit":false,"line":1}],[{"i_long":106.832183,"time":0,"distance":0,"i_lat":-6.186295,"station_id":"GDD","line":2,"station_name":"Gondangdia","transit":false,"is_transit":false},{"i_lat":-6.166716,"i_long":106.828284,"station_id":"JUA","station_name":"Juanda","transit":false,"line":2,"time":4,"is_transit":false,"distance":2015},{"time":2,"distance":1149,"i_lat":-6.160725,"transit":false,"is_transit":false,"i_long":106.827103,"station_name":"Sawah Besar","line":2,"station_id":"SW"},{"is_transit":false,"time":2,"i_lat":-6.149769,"station_name":"Manggabesar","distance":906,"line":2,"station_id":"MGB","i_long":106.82482,"transit":false},{"time":2,"transit":false,"station_id":"JAY","i_lat":-6.141205,"line":7,"i_long":106.820901,"station_name":"Jayakarta","distance":1080,"is_transit":false},{"is_transit":true,"station_name":"Jakarta Kota","station_id":"JAKK","time":4,"distance":1264,"i_long":106.812439,"i_lat":-6.137569,"line":0,"transit":true},{"distance":1364,"station_name":"Kampung Bandan","time":3,"transit":true,"line":0,"i_lat":-6.132549,"i_long":106.826365,"is_transit":true,"station_id":"KPB"},{"i_lat":-6.14505,"transit":false,"time":3,"is_transit":false,"i_long":106.836569,"station_id":"RJW","distance":1444,"line":11,"station_name":"Rajawali"},{"i_lat":-6.161728,"is_transit":false,"transit":false,"station_name":"Kemayoran","time":5,"distance":1901,"i_long":106.839204,"station_id":"KMO","line":11},{"i_long":106.84368,"line":11,"time":4,"distance":1436,"i_lat":-6.174784,"station_name":"Pasar Senen","transit":false,"station_id":"PSE","is_transit":false},{"is_transit":false,"station_id":"GST","transit":false,"i_lat":-6.185975,"i_long":106.850107,"time":8,"station_name":"Gang Sentiong","line":11,"distance":1567},{"station_id":"KMT","i_lat":-6.193792,"transit":false,"distance":973,"time":1,"is_transit":false,"i_long":106.855437,"station_name":"Kramat","line":11},{"i_lat":-6.209188,"station_id":"POK","time":2,"station_name":"Pondok Jati","is_transit":false,"distance":1829,"transit":false,"i_long":106.861737,"line":11},{"station_name":"Jatinegara","is_transit":true,"transit":true,"i_long":106.86807400000001,"station_id":"JNG","line":0,"distance":1236,"i_lat":-6.215091,"time":9},{"is_transit":false,"station_id":"MTR","time":2,"station_name":"Matraman","distance":1377,"line":1,"transit":false,"i_lat":-6.212485,"i_long":106.858896},{"line":0,"station_name":"Manggarai","i_lat":-6.209883,"time":2,"transit":false,"i_long":106.84912,"distance":1275,"is_transit":true,"station_id":"MRI"},{"station_name":"Sudirman","i_long":106.822649,"time":4,"station_id":"SUD","line":1,"transit":false,"is_transit":false,"distance":3186,"i_lat":-6.202263},{"station_id":"SUDB","is_transit":false,"time":1,"transit":false,"station_name":"Sudirman Baru","distance":280,"i_long":106.819881,"i_lat":-6.201433,"line":1},{"i_long":106.816351,"time":1,"station_name":"Karet","i_lat":-6.20132,"line":1,"distance":471,"transit":false,"is_transit":false,"station_id":"KAT"},{"transit":false,"station_name":"Tanah Abang","i_lat":-6.185545,"station_id":"THB","distance":2029,"i_long":106.811091,"line":1,"time":5,"is_transit":true}]]}