{"data":[[{"is_transit":false,"i_lat":-6.186295,"station_id":"GDD","line":2,"time":0,"station_name":"Gondangdia","i_long":106.832183,"transit":false,"distance":0},{"station_name":"Cikini","transit":false,"i_lat":-6.198556,"time":3,"distance":1750,"is_transit":false,"line":2,"i_long":106.840169,"station_id":"CKI"},{"i_lat":-6.209883,"distance":1590,"line":2,"transit":true,"i_long":106.84912,"is_transit":true,"station_name":"Manggarai","station_id":"MRI","time":4},{"time":2,"line":1,"station_id":"MTR","i_lat":-6.212485,"transit":false,"station_name":"Matraman","distance":1275,"is_transit":false,"i_long":106.858896},{"i_lat":-6.215091,"station_name":"Jatinegara","transit":true,"distance":1377,"i_long":106.86807400000001,"is_transit":true,"station_id":"JNG","time":8,"line":1},{"i_long":106.861737,"station_name":"Pondok Jati","line":11,"station_id":"POK","time":2,"distance":1236,"i_lat":-6.209188,"is_transit":false,"transit":false},{"time":2,"transit":false,"line":11,"station_id":"KMT","distance":1829,"is_transit":false,"i_lat":-6.193792,"i_long":106.855437,"station_name":"Kramat"}],[{"station_name":"Gondangdia","i_long":106.832183,"line":2,"time":0,"distance":0,"station_id":"GDD","is_transit":false,"i_lat":-6.186295,"transit":false},{"distance":2015,"is_transit":false,"line":2,"time":4,"station_name":"Juanda","transit":false,"i_long":106.828284,"i_lat":-6.166716,"station_id":"JUA"},{"station_name":"Sawah Besar","time":2,"distance":1149,"i_lat":-6.160725,"i_long":106.827103,"transit":false,"is_transit":false,"line":2,"station_id":"SW"},{"transit":false,"is_transit":false,"i_long":106.82482,"line":2,"station_name":"Manggabesar","distance":906,"time":2,"i_lat":-6.149769,"station_id":"MGB"},{"distance":1080,"time":2,"station_id":"JAY","i_lat":-6.141205,"line":2,"is_transit":false,"station_name":"Jayakarta","transit":false,"i_long":106.820901},{"i_lat":-6.137569,"station_id":"JAKK","station_name":"Jakarta Kota","distance":1264,"is_transit":true,"time":4,"i_long":106.812439,"transit":true,"line":2},{"time":3,"is_transit":true,"i_long":106.826365,"distance":1364,"station_name":"Kampung Bandan","transit":true,"i_lat":-6.132549,"line":4,"station_id":"KPB"},{"station_id":"RJW","distance":1444,"transit":false,"i_long":106.836569,"station_name":"Rajawali","is_transit":false,"time":3,"i_lat":-6.14505,"line":11},{"is_transit":false,"i_lat":-6.161728,"distance":1901,"station_id":"KMO","station_name":"Kemayoran","line":11,"transit":false,"time":5,"i_long":106.839204},{"station_name":"Pasar Senen","distance":1436,"i_long":106.84368,"i_lat":-6.174784,"transit":false,"station_id":"PSE","line":11,"time":4,"is_transit":false},{"is_transit":false,"line":11,"station_name":"Gang Sentiong","distance":1567,"i_long":106.850107,"time":8,"station_id":"GST","i_lat":-6.185975,"transit":false},{"is_transit":false,"time":1,"distance":973,"i_long":106.855437,"station_name":"Kramat","station_id":"KMT","transit":false,"line":11,"i_lat":-6.193792}],[{"is_transit":false,"transit":false,"distance":0,"time":0,"i_lat":-6.186295,"i_long":106.832183,"line":2,"station_name":"Gondangdia","station_id":"GDD"},{"time":3,"i_lat":-6.198556,"distance":1750,"station_id":"CKI","transit":false,"line":2,"station_name":"Cikini","is_transit":false,"i_long":106.840169},{"transit":true,"station_id":"MRI","i_lat":-6.209883,"line":2,"i_long":106.84912,"time":4,"station_name":"Manggarai","is_transit":true,"distance":1590},{"i_lat":-6.202263,"i_long":106.822649,"time":4,"station_id":"SUD","line":1,"distance":3186,"station_name":"Sudirman","is_transit":false,"transit":false},{"time":1,"i_lat":-6.201433,"line":1,"station_id":"SUDB","station_name":"Sudirman Baru","is_transit":false,"transit":false,"i_long":106.819881,"distance":280},{"i_long":106.816351,"station_id":"KAT","distance":471,"i_lat":-6.20132,"is_transit":false,"line":1,"station_name":"Karet","transit":false,"time":1},{"transit":false,"station_name":"Tanah Abang","is_transit":false,"line":1,"distance":2029,"i_lat":-6.185545,"time":5,"station_id":"THB","i_long":106.811091},{"station_name":"Duri","i_long":106.800832,"is_transit":false,"station_id":"DU","line":1,"i_lat":-6.155215,"distance":3632,"time":8,"transit":false},{"time":4,"transit":false,"is_transit":false,"i_lat":-6.144674,"distance":1230,"station_id":"AK","i_long":106.79867,"station_name":"Angke","line":1},{"time":9,"station_name":"Kampung Bandan","is_transit":true,"station_id":"KPB","i_long":106.826365,"line":4,"i_lat":-6.132549,"distance":4102,"transit":true},{"i_long":106.836569,"station_id":"RJW","is_transit":false,"station_name":"Rajawali","transit":false,"line":11,"i_lat":-6.14505,"time":3,"distance":1444},{"i_long":106.839204,"line":11,"time":5,"station_id":"KMO","station_name":"Kemayoran","transit":false,"distance":1901,"is_transit":false,"i_lat":-6.161728},{"i_long":106.84368,"line":11,"time":4,"distance":1436,"station_id":"PSE","station_name":"Pasar Senen","transit":false,"i_lat":-6.174784,"is_transit":false},{"station_name":"Gang Sentiong","i_lat":-6.185975,"distance":1567,"is_transit":false,"time":8,"line":11,"station_id":"GST","transit":false,"i_long":106.850107},{"time":1,"is_transit":false,"station_id":"KMT","distance":973,"transit":false,"i_long":106.855437,"station_name":"Kramat","i_lat":-6.193792,"line":11}],[{"transit":false,"i_lat":-6.186295,"line":2,"i_long":106.832183,"distance":0,"is_transit":false,"time":0,"station_name":"Gondangdia","station_id":"GDD"},{"time":4,"distance":2015,"station_id":"JUA","transit":false,"line":2,"station_name":"Juanda","i_lat":-6.166716,"i_long":106.828284,"is_transit":false},{"transit":false,"time":2,"station_name":"Sawah Besar","i_long":106.827103,"i_lat":-6.160725,"line":2,"distance":1149,"is_transit":false,"station_id":"SW"},{"line":2,"station_id":"MGB","station_name":"Manggabesar","i_lat":-6.149769,"time":2,"distance":906,"is_transit":false,"transit":false,"i_long":106.82482},{"line":2,"is_transit":false,"time":2,"station_name":"Jayakarta","i_long":106.820901,"distance":1080,"transit":false,"i_lat":-6.141205,"station_id":"JAY"},{"station_id":"JAKK","line":2,"i_long":106.812439,"time":4,"distance":1264,"transit":true,"is_transit":true,"station_name":"Jakarta Kota","i_lat":-6.137569},{"i_long":106.826365,"is_transit":true,"distance":1364,"time":3,"line":4,"station_name":"Kampung Bandan","station_id":"KPB","transit":true,"i_lat":-6.132549},{"time":9,"station_id":"AK","station_name":"Angke","is_transit":false,"distance":4102,"i_lat":-6.144674,"i_long":106.79867,"line":1,"transit":false},{"time":4,"distance":1230,"station_name":"Duri","i_lat":-6.155215,"station_id":"DU","is_transit":false,"i_long":106.800832,"transit":false,"line":1},{"is_transit":false,"station_name":"Tanah Abang","line":1,"time":8,"i_lat":-6.185545,"station_id":"THB","distance":3632,"transit":false,"i_long":106.811091},{"station_name":"Karet","station_id":"KAT","transit":false,"line":1,"time":5,"distance":2029,"is_transit":false,"i_lat":-6.20132,"i_long":106.816351},{"line":1,"i_lat":-6.201433,"transit":false,"station_id":"SUDB","station_name":"Sudirman Baru","time":1,"distance":471,"is_transit":false,"i_long":106.819881},{"is_transit":false,"i_lat":-6.202263,"i_long":106.822649,"distance":280,"station_id":"SUD","line":1,"time":1,"station_name":"Sudirman","transit":false},{"i_lat":-6.209883,"station_name":"Manggarai","time":4,"station_id":"MRI","i_long":106.84912,"line":2,"distance":3186,"transit":false,"is_transit":false},{"distance":1275,"time":2,"transit":false,"station_name":"Matraman","station_id":"MTR","is_transit":false,"i_lat":-6.212485,"i_long":106.858896,"line":1},{"i_lat":-6.215091,"transit":true,"time":8,"station_id":"JNG","distance":1377,"i_long":106.86807400000001,"line":1,"is_transit":true,"station_name":"Jatinegara"},{"is_transit":false,"station_name":"Pondok Jati","line":11,"distance":1236,"i_long":106.861737,"time":2,"i_lat":-6.209188,"station_id":"POK","transit":false},{"distance":1829,"i_lat":-6.193792,"i_long":106.855437,"line":11,"station_name":"Kramat","time":2,"is_transit":false,"transit":false,"station_id":"KMT"}]]}