{"data":[[{"distance":0,"i_long":106.832183,"is_transit":false,"line":2,"time":0,"transit":false,"station_name":"Gondangdia","i_lat":-6.186295,"station_id":"GDD"},{"station_id":"CKI","station_name":"Cikini","transit":false,"i_long":106.840169,"is_transit":false,"line":2,"i_lat":-6.198556,"distance":1750,"time":3},{"line":2,"is_transit":false,"station_name":"Manggarai","time":4,"distance":1590,"station_id":"MRI","i_lat":-6.209883,"transit":false,"i_long":106.84912},{"line":2,"time":4,"i_long":106.857948,"station_id":"TEB","transit":false,"i_lat":-6.226659,"station_name":"Tebet","distance":2610,"is_transit":false},{"distance":1230,"i_long":106.856607,"line":2,"is_transit":false,"time":2,"i_lat":-6.242512,"station_id":"CW","transit":false,"station_name":"Cawang"}],[{"i_long":106.832183,"transit":false,"is_transit":false,"distance":0,"station_id":"GDD","time":0,"station_name":"Gondangdia","line":2,"i_lat":-6.186295},{"station_id":"JUA","time":4,"i_lat":-6.166716,"transit":false,"is_transit":false,"station_name":"Juanda","i_long":106.828284,"distance":2015,"line":2},{"time":2,"station_id":"SW","distance":1149,"transit":false,"is_transit":false,"line":2,"station_name":"Sawah Besar","i_lat":-6.160725,"i_long":106.827103},{"time":2,"i_long":106.82482,"line":2,"is_transit":false,"station_id":"MGB","transit":false,"station_name":"Manggabesar","distance":906,"i_lat":-6.149769},{"i_long":106.820901,"is_transit":false,"station_name":"Jayakarta","i_lat":-6.141205,"line":2,"station_id":"JAY","transit":false,"distance":1080,"time":2},{"i_lat":-6.137569,"transit":true,"is_transit":true,"station_id":"JAKK","station_name":"Jakarta Kota","time":4,"line":2,"distance":1264,"i_long":106.812439},{"line":4,"station_name":"Kampung Bandan","time":3,"station_id":"KPB","transit":true,"i_lat":-6.132549,"is_transit":true,"distance":1364,"i_long":106.826365},{"station_name":"Angke","is_transit":false,"time":9,"distance":4102,"transit":false,"station_id":"AK","i_long":106.79867,"line":1,"i_lat":-6.144674},{"distance":1230,"line":1,"station_name":"Duri","transit":false,"is_transit":false,"time":4,"i_lat":-6.155215,"station_id":"DU","i_long":106.800832},{"station_id":"THB","i_long":106.811091,"line":1,"transit":false,"distance":3632,"i_lat":-6.185545,"time":8,"station_name":"Tanah Abang","is_transit":false},{"is_transit":false,"i_lat":-6.20132,"line":1,"transit":false,"time":5,"distance":2029,"station_id":"KAT","station_name":"Karet","i_long":106.816351},{"i_long":106.819881,"is_transit":false,"line":1,"transit":false,"station_name":"Sudirman Baru","time":1,"station_id":"SUDB","distance":471,"i_lat":-6.201433},{"station_name":"Sudirman","line":1,"station_id":"SUD","transit":false,"distance":280,"is_transit":false,"time":1,"i_long":106.822649,"i_lat":-6.202263},{"time":4,"is_transit":true,"distance":3186,"transit":true,"line":2,"i_long":106.84912,"station_id":"MRI","station_name":"Manggarai","i_lat":-6.209883},{"is_transit":false,"station_name":"Tebet","i_lat":-6.226659,"distance":2610,"station_id":"TEB","transit":false,"time":4,"i_long":106.857948,"line":2},{"i_long":106.856607,"i_lat":-6.242512,"line":2,"station_id":"CW","time":2,"is_transit":false,"distance":1230,"transit":false,"station_name":"Cawang"}],[{"station_name":"Gondangdia","distance":0,"line":2,"i_long":106.832183,"transit":false,"i_lat":-6.186295,"station_id":"GDD","is_transit":false,"time":0},{"station_id":"JUA","time":4,"is_transit":false,"distance":2015,"i_long":106.828284,"line":2,"i_lat":-6.166716,"transit":false,"station_name":"Juanda"},{"transit":false,"station_id":"SW","line":2,"time":2,"i_long":106.827103,"i_lat":-6.160725,"distance":1149,"is_transit":false,"station_name":"Sawah Besar"},{"i_long":106.82482,"line":2,"transit":false,"station_name":"Manggabesar","station_id":"MGB","is_transit":false,"time":2,"distance":906,"i_lat":-6.149769},{"time":2,"distance":1080,"is_transit":false,"transit":false,"station_id":"JAY","station_name":"Jayakarta","line":2,"i_long":106.820901,"i_lat":-6.141205},{"station_name":"Jakarta Kota","distance":1264,"line":2,"i_long":106.812439,"transit":true,"is_transit":true,"i_lat":-6.137569,"station_id":"JAKK","time":4},{"distance":1364,"transit":true,"i_long":106.826365,"station_id":"KPB","time":3,"station_name":"Kampung Bandan","line":4,"i_lat":-6.132549,"is_transit":true},{"i_lat":-6.14505,"i_long":106.836569,"is_transit":false,"transit":false,"station_id":"RJW","time":3,"distance":1444,"line":11,"station_name":"Rajawali"},{"station_id":"KMO","i_lat":-6.161728,"i_long":106.839204,"line":11,"station_name":"Kemayoran","transit":false,"is_transit":false,"time":5,"distance":1901},{"station_id":"PSE","is_transit":false,"time":4,"i_lat":-6.174784,"i_long":106.84368,"station_name":"Pasar Senen","distance":1436,"line":11,"transit":false},{"is_transit":false,"line":11,"distance":1567,"i_long":106.850107,"time":8,"transit":false,"station_id":"GST","i_lat":-6.185975,"station_name":"Gang Sentiong"},{"time":1,"station_id":"KMT","is_transit":false,"transit":false,"distance":973,"i_lat":-6.193792,"i_long":106.855437,"line":11,"station_name":"Kramat"},{"distance":1829,"station_id":"POK","is_transit":false,"time":2,"line":11,"i_lat":-6.209188,"transit":false,"station_name":"Pondok Jati","i_long":106.861737},{"i_long":106.86807400000001,"station_name":"Jatinegara","line":1,"station_id":"JNG","is_transit":true,"time":9,"transit":true,"distance":1236,"i_lat":-6.215091},{"is_transit":false,"i_lat":-6.212485,"time":2,"i_long":106.858896,"station_id":"MTR","station_name":"Matraman","line":1,"distance":1377,"transit":false},{"transit":true,"is_transit":true,"i_long":106.84912,"station_id":"MRI","time":2,"i_lat":-6.209883,"distance":1275,"station_name":"Manggarai","line":2},{"station_name":"Tebet","station_id":"TEB","line":2,"i_long":106.857948,"transit":false,"is_transit":false,"time":4,"distance":2610,"i_lat":-6.226659},{"is_transit":false,"station_id":"CW","station_name":"Cawang","i_long":106.856607,"line":2,"transit":false,"distance":1230,"time":2,"i_lat":-6.242512}]]}