{"data":[[{"station_name":"Gondangdia","i_long":106.832183,"transit":false,"i_lat":-6.186295,"distance":0,"station_id":"GDD","line":2,"time":0,"is_transit":false},{"distance":2015,"transit":false,"i_long":106.828284,"i_lat":-6.166716,"is_transit":false,"time":4,"station_name":"Juanda","station_id":"JUA","line":2},{"station_id":"SW","is_transit":false,"time":2,"distance":1149,"station_name":"Sawah Besar","line":2,"i_long":106.827103,"transit":false,"i_lat":-6.160725},{"station_name":"Manggabesar","i_lat":-6.149769,"line":2,"station_id":"MGB","time":2,"distance":906,"i_long":106.82482,"transit":false,"is_transit":false},{"i_lat":-6.141205,"is_transit":false,"distance":1080,"transit":false,"station_id":"JAY","line":2,"time":2,"i_long":106.820901,"station_name":"Jayakarta"},{"station_name":"Jakarta Kota","is_transit":true,"i_lat":-6.137569,"i_long":106.812439,"line":2,"transit":true,"time":4,"station_id":"JAKK","distance":1264},{"is_transit":true,"i_long":106.826365,"station_name":"Kampung Bandan","transit":true,"distance":1364,"station_id":"KPB","i_lat":-6.132549,"time":3,"line":4},{"transit":false,"time":4,"is_transit":false,"station_id":"AC","station_name":"Ancol","line":4,"i_lat":-6.128023,"distance":2185,"i_long":106.84464},{"line":4,"station_name":"Tanjung Priuk","station_id":"TPK","i_long":106.880089,"is_transit":false,"transit":false,"i_lat":-6.1109480000000005,"time":9,"distance":4566}],[{"i_long":106.832183,"is_transit":false,"station_id":"GDD","time":0,"line":2,"transit":false,"distance":0,"station_name":"Gondangdia","i_lat":-6.186295},{"transit":false,"time":3,"i_lat":-6.198556,"i_long":106.840169,"station_name":"Cikini","distance":1750,"line":2,"station_id":"CKI","is_transit":false},{"station_id":"MRI","is_transit":true,"i_long":106.84912,"line":2,"time":4,"i_lat":-6.209883,"distance":1590,"station_name":"Manggarai","transit":true},{"i_long":106.822649,"transit":false,"distance":3186,"time":4,"line":1,"station_name":"Sudirman","is_transit":false,"i_lat":-6.202263,"station_id":"SUD"},{"station_name":"Sudirman Baru","transit":false,"i_long":106.819881,"distance":280,"line":1,"station_id":"SUDB","is_transit":false,"time":1,"i_lat":-6.201433},{"i_lat":-6.20132,"time":1,"distance":471,"transit":false,"station_name":"Karet","is_transit":false,"station_id":"KAT","line":1,"i_long":106.816351},{"station_name":"Tanah Abang","transit":false,"distance":2029,"station_id":"THB","i_lat":-6.185545,"is_transit":false,"line":1,"time":5,"i_long":106.811091},{"i_long":106.800832,"line":1,"transit":false,"station_id":"DU","time":8,"station_name":"Duri","is_transit":false,"distance":3632,"i_lat":-6.155215},{"line":1,"transit":false,"time":4,"station_name":"Angke","i_long":106.79867,"is_transit":false,"station_id":"AK","distance":1230,"i_lat":-6.144674},{"i_lat":-6.132549,"distance":4102,"transit":true,"station_name":"Kampung Bandan","line":4,"time":9,"is_transit":true,"station_id":"KPB","i_long":106.826365},{"transit":false,"line":4,"is_transit":false,"i_long":106.84464,"time":4,"i_lat":-6.128023,"station_id":"AC","station_name":"Ancol","distance":2185},{"line":4,"transit":false,"is_transit":false,"station_id":"TPK","station_name":"Tanjung Priuk","time":9,"distance":4566,"i_lat":-6.1109480000000005,"i_long":106.880089}],[{"station_name":"Gondangdia","i_lat":-6.186295,"station_id":"GDD","transit":false,"i_long":106.832183,"line":2,"distance":0,"is_transit":false,"time":0},{"station_name":"Cikini","station_id":"CKI","i_long":106.840169,"line":2,"time":3,"i_lat":-6.198556,"is_transit":false,"transit":false,"distance":1750},{"station_name":"Manggarai","distance":1590,"station_id":"MRI","transit":true,"line":2,"time":4,"i_lat":-6.209883,"i_long":106.84912,"is_transit":true},{"i_lat":-6.212485,"distance":1275,"transit":false,"is_transit":false,"station_name":"Matraman","station_id":"MTR","i_long":106.858896,"line":1,"time":2},{"line":1,"distance":1377,"station_name":"Jatinegara","is_transit":true,"i_long":106.86807400000001,"time":8,"station_id":"JNG","i_lat":-6.215091,"transit":true},{"i_long":106.861737,"time":2,"distance":1236,"station_name":"Pondok Jati","line":11,"i_lat":-6.209188,"station_id":"POK","transit":false,"is_transit":false},{"i_lat":-6.193792,"i_long":106.855437,"station_id":"KMT","time":2,"transit":false,"station_name":"Kramat","is_transit":false,"line":11,"distance":1829},{"time":1,"distance":973,"line":11,"station_id":"GST","i_lat":-6.185975,"station_name":"Gang Sentiong","is_transit":false,"transit":false,"i_long":106.850107},{"time":8,"station_id":"PSE","station_name":"Pasar Senen","transit":false,"is_transit":false,"distance":1567,"i_lat":-6.174784,"i_long":106.84368,"line":11},{"distance":1436,"station_name":"Kemayoran","station_id":"KMO","i_long":106.839204,"i_lat":-6.161728,"transit":false,"time":4,"line":11,"is_transit":false},{"distance":1901,"transit":false,"station_name":"Rajawali","is_transit":false,"i_lat":-6.14505,"i_long":106.836569,"line":11,"station_id":"RJW","time":5},{"line":4,"i_long":106.826365,"is_transit":true,"transit":true,"station_id":"KPB","station_name":"Kampung Bandan","time":3,"distance":1444,"i_lat":-6.132549},{"is_transit":false,"line":4,"i_lat":-6.128023,"transit":false,"i_long":106.84464,"station_name":"Ancol","time":4,"station_id":"AC","distance":2185},{"time":9,"station_id":"TPK","transit":false,"distance":4566,"is_transit":false,"line":4,"station_name":"Tanjung Priuk","i_lat":-6.1109480000000005,"i_long":106.880089}]]}