{"data":[[{"distance":0,"station_id":"GDD","transit":false,"line":2,"is_transit":false,"i_lat":-6.186295,"time":0,"station_name":"Gondangdia","i_long":106.832183},{"station_id":"JUA","transit":false,"i_lat":-6.166716,"time":4,"is_transit":false,"station_name":"Juanda","i_long":106.828284,"distance":2015,"line":2},{"station_name":"Sawah Besar","station_id":"SW","line":2,"is_transit":false,"i_lat":-6.160725,"transit":false,"time":2,"i_long":106.827103,"distance":1149},{"station_id":"MGB","is_transit":false,"distance":906,"station_name":"Manggabesar","i_long":106.82482,"line":2,"transit":false,"i_lat":-6.149769,"time":2},{"i_lat":-6.141205,"is_transit":false,"time":2,"distance":1080,"transit":false,"i_long":106.820901,"station_name":"Jayakarta","line":2,"station_id":"JAY"},{"i_lat":-6.137569,"i_long":106.812439,"station_id":"JAKK","station_name":"Jakarta Kota","transit":true,"time":4,"is_transit":true,"distance":1264,"line":2},{"line":4,"station_id":"KPB","is_transit":true,"transit":true,"time":3,"i_long":106.826365,"i_lat":-6.132549,"station_name":"Kampung Bandan","distance":1364},{"i_long":106.84464,"station_name":"Ancol","station_id":"AC","time":4,"line":4,"distance":2185,"is_transit":false,"transit":false,"i_lat":-6.128023},{"i_lat":-6.1109480000000005,"distance":4566,"i_long":106.880089,"time":9,"station_id":"TPK","is_transit":false,"line":4,"transit":false,"station_name":"Tanjung Priuk"}],[{"distance":0,"line":2,"station_name":"Gondangdia","i_lat":-6.186295,"transit":false,"i_long":106.832183,"time":0,"station_id":"GDD","is_transit":false},{"transit":false,"station_id":"CKI","i_lat":-6.198556,"line":2,"distance":1750,"i_long":106.840169,"station_name":"Cikini","is_transit":false,"time":3},{"is_transit":true,"i_lat":-6.209883,"time":4,"distance":1590,"station_id":"MRI","station_name":"Manggarai","transit":true,"i_long":106.84912,"line":2},{"station_name":"Sudirman","is_transit":false,"transit":false,"time":4,"i_lat":-6.202263,"line":1,"station_id":"SUD","i_long":106.822649,"distance":3186},{"station_name":"Sudirman Baru","transit":false,"time":1,"distance":280,"is_transit":false,"i_lat":-6.201433,"station_id":"SUDB","i_long":106.819881,"line":1},{"station_id":"KAT","station_name":"Karet","transit":false,"i_long":106.816351,"time":1,"is_transit":false,"distance":471,"line":1,"i_lat":-6.20132},{"distance":2029,"transit":false,"station_id":"THB","station_name":"Tanah Abang","line":1,"time":5,"is_transit":false,"i_lat":-6.185545,"i_long":106.811091},{"distance":3632,"i_lat":-6.155215,"is_transit":false,"station_id":"DU","line":1,"station_name":"Duri","transit":false,"time":8,"i_long":106.800832},{"station_name":"Angke","distance":1230,"is_transit":false,"i_long":106.79867,"i_lat":-6.144674,"transit":false,"time":4,"station_id":"AK","line":1},{"distance":4102,"station_name":"Kampung Bandan","is_transit":true,"station_id":"KPB","time":9,"transit":true,"i_lat":-6.132549,"i_long":106.826365,"line":4},{"i_long":106.84464,"distance":2185,"station_name":"Ancol","is_transit":false,"station_id":"AC","transit":false,"i_lat":-6.128023,"time":4,"line":4},{"distance":4566,"station_name":"Tanjung Priuk","station_id":"TPK","transit":false,"i_long":106.880089,"line":4,"is_transit":false,"time":9,"i_lat":-6.1109480000000005}],[{"distance":0,"station_id":"GDD","transit":false,"station_name":"Gondangdia","line":2,"time":0,"is_transit":false,"i_long":106.832183,"i_lat":-6.186295},{"i_long":106.840169,"time":3,"i_lat":-6.198556,"transit":false,"line":2,"station_id":"CKI","station_name":"Cikini","distance":1750,"is_transit":false},{"time":4,"station_id":"MRI","station_name":"Manggarai","line":2,"transit":true,"i_lat":-6.209883,"i_long":106.84912,"distance":1590,"is_transit":true},{"station_id":"MTR","i_long":106.858896,"time":2,"is_transit":false,"transit":false,"i_lat":-6.212485,"distance":1275,"station_name":"Matraman","line":1},{"transit":true,"station_name":"Jatinegara","distance":1377,"i_lat":-6.215091,"is_transit":true,"line":1,"i_long":106.86807400000001,"time":8,"station_id":"JNG"},{"is_transit":false,"station_name":"Pondok Jati","i_long":106.861737,"i_lat":-6.209188,"line":11,"time":2,"distance":1236,"station_id":"POK","transit":false},{"i_lat":-6.193792,"time":2,"transit":false,"distance":1829,"i_long":106.855437,"line":11,"station_id":"KMT","station_name":"Kramat","is_transit":false},{"distance":973,"line":11,"i_long":106.850107,"transit":false,"is_transit":false,"time":1,"i_lat":-6.185975,"station_name":"Gang Sentiong","station_id":"GST"},{"station_id":"PSE","i_long":106.84368,"is_transit":false,"station_name":"Pasar Senen","transit":false,"line":11,"time":8,"distance":1567,"i_lat":-6.174784},{"station_id":"KMO","i_long":106.839204,"time":4,"i_lat":-6.161728,"station_name":"Kemayoran","distance":1436,"line":11,"transit":false,"is_transit":false},{"time":5,"is_transit":false,"station_name":"Rajawali","distance":1901,"transit":false,"i_long":106.836569,"line":11,"station_id":"RJW","i_lat":-6.14505},{"time":3,"i_long":106.826365,"station_name":"Kampung Bandan","distance":1444,"is_transit":true,"i_lat":-6.132549,"line":4,"station_id":"KPB","transit":true},{"station_id":"AC","station_name":"Ancol","distance":2185,"time":4,"is_transit":false,"i_lat":-6.128023,"transit":false,"i_long":106.84464,"line":4},{"is_transit":false,"i_lat":-6.1109480000000005,"transit":false,"line":4,"i_long":106.880089,"station_name":"Tanjung Priuk","distance":4566,"station_id":"TPK","time":9}]]}