{"data":[[{"transit":false,"i_lat":-6.186295,"i_long":106.832183,"line":2,"distance":0,"station_name":"Gondangdia","is_transit":false,"time":0,"station_id":"GDD"},{"station_id":"JUA","station_name":"Juanda","line":2,"is_transit":false,"distance":2015,"transit":false,"i_long":106.828284,"time":4,"i_lat":-6.166716},{"time":2,"i_lat":-6.160725,"line":2,"station_name":"Sawah Besar","station_id":"SW","is_transit":false,"i_long":106.827103,"transit":false,"distance":1149},{"transit":false,"time":2,"distance":906,"is_transit":false,"station_name":"Manggabesar","i_lat":-6.149769,"station_id":"MGB","i_long":106.82482,"line":2},{"is_transit":false,"distance":1080,"i_long":106.820901,"station_id":"JAY","station_name":"Jayakarta","time":2,"line":7,"i_lat":-6.141205,"transit":false},{"line":0,"transit":false,"distance":1264,"station_name":"Jakarta Kota","time":4,"i_lat":-6.137569,"is_transit":true,"station_id":"JAKK","i_long":106.812439}],[{"time":0,"is_transit":false,"station_name":"Gondangdia","i_lat":-6.186295,"transit":false,"line":2,"i_long":106.832183,"station_id":"GDD","distance":0},{"transit":false,"line":0,"station_name":"Cikini","station_id":"CKI","is_transit":false,"distance":1750,"i_lat":-6.198556,"time":3,"i_long":106.840169},{"distance":1590,"station_id":"MRI","is_transit":true,"time":4,"transit":true,"station_name":"Manggarai","i_lat":-6.209883,"i_long":106.84912,"line":0},{"station_id":"SUD","i_long":106.822649,"time":4,"station_name":"Sudirman","i_lat":-6.202263,"line":1,"distance":3186,"is_transit":false,"transit":false},{"distance":280,"time":1,"transit":false,"is_transit":false,"line":1,"i_lat":-6.201433,"i_long":106.819881,"station_name":"Sudirman Baru","station_id":"SUDB"},{"i_lat":-6.20132,"i_long":106.816351,"transit":false,"line":1,"is_transit":false,"station_name":"Karet","station_id":"KAT","distance":471,"time":1},{"i_lat":-6.185545,"i_long":106.811091,"line":1,"station_id":"THB","transit":false,"station_name":"Tanah Abang","is_transit":true,"time":5,"distance":2029},{"time":8,"line":1,"station_name":"Duri","i_lat":-6.155215,"station_id":"DU","i_long":106.800832,"distance":3632,"is_transit":true,"transit":true},{"station_id":"AK","i_lat":-6.144674,"transit":false,"station_name":"Angke","is_transit":false,"time":4,"i_long":106.79867,"line":0,"distance":1230},{"i_lat":-6.132549,"station_id":"KPB","transit":false,"time":9,"station_name":"Kampung Bandan","distance":4102,"is_transit":true,"i_long":106.826365,"line":0},{"line":0,"station_id":"JAKK","station_name":"Jakarta Kota","i_long":106.812439,"is_transit":true,"transit":false,"i_lat":-6.137569,"distance":1364,"time":3}],[{"station_id":"GDD","i_lat":-6.186295,"distance":0,"transit":false,"station_name":"Gondangdia","i_long":106.832183,"is_transit":false,"time":0,"line":2},{"i_long":106.840169,"distance":1750,"station_id":"CKI","time":3,"station_name":"Cikini","i_lat":-6.198556,"line":0,"transit":false,"is_transit":false},{"i_long":106.84912,"i_lat":-6.209883,"station_id":"MRI","line":0,"station_name":"Manggarai","is_transit":true,"time":4,"distance":1590,"transit":true},{"station_id":"MTR","station_name":"Matraman","i_long":106.858896,"time":2,"distance":1275,"transit":false,"is_transit":false,"line":1,"i_lat":-6.212485},{"transit":true,"i_lat":-6.215091,"station_id":"JNG","distance":1377,"is_transit":true,"time":8,"i_long":106.86807400000001,"station_name":"Jatinegara","line":0},{"is_transit":false,"time":2,"transit":false,"station_id":"POK","distance":1236,"i_long":106.861737,"station_name":"Pondok Jati","line":11,"i_lat":-6.209188},{"line":11,"station_id":"KMT","transit":false,"i_lat":-6.193792,"i_long":106.855437,"station_name":"Kramat","time":2,"distance":1829,"is_transit":false},{"station_id":"GST","transit":false,"time":1,"line":11,"is_transit":false,"station_name":"Gang Sentiong","distance":973,"i_lat":-6.185975,"i_long":106.850107},{"station_id":"PSE","line":11,"distance":1567,"i_lat":-6.174784,"i_long":106.84368,"transit":false,"station_name":"Pasar Senen","is_transit":false,"time":8},{"time":4,"transit":false,"is_transit":false,"distance":1436,"i_lat":-6.161728,"i_long":106.839204,"station_id":"KMO","line":11,"station_name":"Kemayoran"},{"transit":false,"station_name":"Rajawali","line":11,"station_id":"RJW","is_transit":false,"distance":1901,"i_long":106.836569,"time":5,"i_lat":-6.14505},{"station_id":"KPB","distance":1444,"i_long":106.826365,"time":3,"i_lat":-6.132549,"transit":true,"is_transit":true,"station_name":"Kampung Bandan","line":0},{"time":3,"station_name":"Jakarta Kota","line":0,"i_long":106.812439,"is_transit":true,"distance":1364,"i_lat":-6.137569,"station_id":"JAKK","transit":false}]]}