{"data":[[{"station_name":"Gondangdia","i_lat":-6.186295,"is_transit":false,"transit":false,"time":0,"line":2,"distance":0,"i_long":106.832183,"station_id":"GDD"},{"distance":1750,"i_lat":-6.198556,"line":2,"station_id":"CKI","station_name":"Cikini","i_long":106.840169,"transit":false,"time":3,"is_transit":false},{"distance":1590,"is_transit":false,"transit":false,"i_lat":-6.209883,"i_long":106.84912,"station_name":"Manggarai","station_id":"MRI","line":2,"time":4},{"is_transit":false,"distance":2610,"i_long":106.857948,"i_lat":-6.226659,"station_id":"TEB","time":4,"transit":false,"line":2,"station_name":"Tebet"},{"distance":1230,"i_long":106.856607,"station_name":"Cawang","station_id":"CW","is_transit":false,"time":2,"i_lat":-6.242512,"line":2,"transit":false},{"is_transit":false,"distance":1546,"station_name":"Duren Kalibata","transit":false,"i_long":106.85449,"line":2,"i_lat":-6.255332,"time":3,"station_id":"DRN"},{"is_transit":false,"line":2,"station_id":"PSMB","i_lat":-6.263214,"i_long":106.851577,"distance":824,"time":2,"transit":false,"station_name":"Pasar Minggu Baru"},{"station_name":"Pasar Minggu","time":2,"transit":false,"station_id":"PSM","i_long":106.843999,"distance":2380,"line":2,"is_transit":false,"i_lat":-6.2842400000000005},{"station_name":"Tanjung Barat","time":4,"transit":false,"line":2,"station_id":"TNT","distance":2820,"i_long":106.838896,"is_transit":false,"i_lat":-6.3080680000000005},{"time":3,"is_transit":false,"station_id":"LNA","station_name":"Lenteng Agung","i_lat":-6.330363,"i_long":106.832616,"distance":2671,"line":2,"transit":false},{"line":2,"station_name":"Univ. Pancasila","station_id":"UP","is_transit":false,"transit":false,"i_long":106.834175,"time":2,"distance":1029,"i_lat":-6.339291},{"distance":2264,"time":3,"station_id":"UI","transit":false,"line":2,"station_name":"Univ. Indonesia","is_transit":false,"i_long":106.831474,"i_lat":-6.360749},{"station_id":"POC","line":2,"station_name":"Pondok Cina","i_lat":-6.369073,"distance":1109,"is_transit":false,"time":2,"transit":false,"i_long":106.831114}],[{"line":2,"distance":0,"station_id":"GDD","station_name":"Gondangdia","i_lat":-6.186295,"is_transit":false,"transit":false,"time":0,"i_long":106.832183},{"transit":false,"i_long":106.828284,"is_transit":false,"station_name":"Juanda","i_lat":-6.166716,"time":4,"line":2,"distance":2015,"station_id":"JUA"},{"station_name":"Sawah Besar","i_lat":-6.160725,"line":2,"i_long":106.827103,"distance":1149,"transit":false,"is_transit":false,"station_id":"SW","time":2},{"time":2,"station_name":"Manggabesar","station_id":"MGB","line":2,"transit":false,"distance":906,"is_transit":false,"i_lat":-6.149769,"i_long":106.82482},{"distance":1080,"i_long":106.820901,"line":2,"is_transit":false,"i_lat":-6.141205,"station_id":"JAY","time":2,"station_name":"Jayakarta","transit":false},{"transit":true,"i_lat":-6.137569,"is_transit":true,"station_name":"Jakarta Kota","time":4,"i_long":106.812439,"distance":1264,"station_id":"JAKK","line":2},{"time":3,"transit":true,"is_transit":true,"line":4,"distance":1364,"station_id":"KPB","station_name":"Kampung Bandan","i_lat":-6.132549,"i_long":106.826365},{"time":9,"station_name":"Angke","is_transit":false,"i_lat":-6.144674,"station_id":"AK","i_long":106.79867,"transit":false,"distance":4102,"line":1},{"i_long":106.800832,"transit":false,"line":1,"distance":1230,"station_id":"DU","i_lat":-6.155215,"time":4,"is_transit":false,"station_name":"Duri"},{"is_transit":false,"i_lat":-6.185545,"time":8,"distance":3632,"station_name":"Tanah Abang","station_id":"THB","transit":false,"i_long":106.811091,"line":1},{"i_lat":-6.20132,"time":5,"station_name":"Karet","station_id":"KAT","i_long":106.816351,"line":1,"transit":false,"is_transit":false,"distance":2029},{"distance":471,"station_id":"SUDB","i_long":106.819881,"time":1,"i_lat":-6.201433,"line":1,"station_name":"Sudirman Baru","is_transit":false,"transit":false},{"i_long":106.822649,"is_transit":false,"station_id":"SUD","distance":280,"i_lat":-6.202263,"line":1,"station_name":"Sudirman","transit":false,"time":1},{"time":4,"is_transit":true,"distance":3186,"station_name":"Manggarai","line":2,"station_id":"MRI","i_lat":-6.209883,"transit":true,"i_long":106.84912},{"distance":2610,"is_transit":false,"time":4,"transit":false,"i_long":106.857948,"station_id":"TEB","i_lat":-6.226659,"station_name":"Tebet","line":2},{"distance":1230,"is_transit":false,"station_name":"Cawang","line":2,"i_lat":-6.242512,"transit":false,"i_long":106.856607,"time":2,"station_id":"CW"},{"time":3,"is_transit":false,"transit":false,"station_id":"DRN","station_name":"Duren Kalibata","distance":1546,"i_lat":-6.255332,"i_long":106.85449,"line":2},{"distance":824,"time":2,"i_long":106.851577,"station_id":"PSMB","is_transit":false,"station_name":"Pasar Minggu Baru","i_lat":-6.263214,"line":2,"transit":false},{"station_id":"PSM","is_transit":false,"time":2,"distance":2380,"i_long":106.843999,"station_name":"Pasar Minggu","i_lat":-6.2842400000000005,"transit":false,"line":2},{"distance":2820,"station_id":"TNT","transit":false,"line":2,"is_transit":false,"i_lat":-6.3080680000000005,"time":4,"station_name":"Tanjung Barat","i_long":106.838896},{"transit":false,"station_id":"LNA","i_lat":-6.330363,"time":3,"is_transit":false,"station_name":"Lenteng Agung","i_long":106.832616,"distance":2671,"line":2},{"station_name":"Univ. Pancasila","station_id":"UP","line":2,"is_transit":false,"i_lat":-6.339291,"transit":false,"time":2,"i_long":106.834175,"distance":1029},{"station_id":"UI","is_transit":false,"distance":2264,"station_name":"Univ. Indonesia","i_long":106.831474,"line":2,"transit":false,"i_lat":-6.360749,"time":3},{"i_lat":-6.369073,"is_transit":false,"time":2,"distance":1109,"transit":false,"i_long":106.831114,"station_name":"Pondok Cina","line":2,"station_id":"POC"}],[{"i_lat":-6.186295,"i_long":106.832183,"station_id":"GDD","station_name":"Gondangdia","transit":false,"time":0,"is_transit":false,"distance":0,"line":2},{"line":2,"station_id":"JUA","is_transit":false,"transit":false,"time":4,"i_long":106.828284,"i_lat":-6.166716,"station_name":"Juanda","distance":2015},{"i_long":106.827103,"station_name":"Sawah Besar","station_id":"SW","time":2,"line":2,"is_transit":false,"transit":false,"distance":1149,"i_lat":-6.160725},{"i_lat":-6.149769,"distance":906,"i_long":106.82482,"time":2,"station_id":"MGB","is_transit":false,"line":2,"transit":false,"station_name":"Manggabesar"},{"distance":1080,"line":2,"station_name":"Jayakarta","i_lat":-6.141205,"transit":false,"i_long":106.820901,"time":2,"is_transit":false,"station_id":"JAY"},{"transit":true,"station_id":"JAKK","i_lat":-6.137569,"line":2,"distance":1264,"i_long":106.812439,"station_name":"Jakarta Kota","is_transit":true,"time":4},{"is_transit":true,"i_lat":-6.132549,"time":3,"transit":true,"station_name":"Kampung Bandan","station_id":"KPB","distance":1364,"i_long":106.826365,"line":4},{"is_transit":false,"distance":1444,"transit":false,"time":3,"i_lat":-6.14505,"line":11,"station_id":"RJW","i_long":106.836569,"station_name":"Rajawali"},{"transit":false,"station_name":"Kemayoran","time":5,"distance":1901,"is_transit":false,"i_lat":-6.161728,"station_id":"KMO","i_long":106.839204,"line":11},{"station_id":"PSE","station_name":"Pasar Senen","transit":false,"i_long":106.84368,"time":4,"is_transit":false,"distance":1436,"line":11,"i_lat":-6.174784},{"distance":1567,"transit":false,"station_id":"GST","station_name":"Gang Sentiong","line":11,"time":8,"is_transit":false,"i_lat":-6.185975,"i_long":106.850107},{"distance":973,"i_lat":-6.193792,"is_transit":false,"station_id":"KMT","line":11,"station_name":"Kramat","transit":false,"time":1,"i_long":106.855437},{"station_name":"Pondok Jati","is_transit":false,"distance":1829,"i_long":106.861737,"i_lat":-6.209188,"transit":false,"time":2,"station_id":"POK","line":11},{"transit":true,"station_name":"Jatinegara","is_transit":true,"station_id":"JNG","time":9,"distance":1236,"i_lat":-6.215091,"i_long":106.86807400000001,"line":1},{"i_long":106.858896,"distance":1377,"station_name":"Matraman","is_transit":false,"station_id":"MTR","transit":false,"i_lat":-6.212485,"time":2,"line":1},{"station_name":"Manggarai","distance":1275,"station_id":"MRI","transit":true,"i_long":106.84912,"line":2,"is_transit":true,"time":2,"i_lat":-6.209883},{"distance":2610,"transit":false,"station_id":"TEB","station_name":"Tebet","line":2,"time":4,"is_transit":false,"i_long":106.857948,"i_lat":-6.226659},{"transit":false,"distance":1230,"i_lat":-6.242512,"line":2,"time":2,"station_id":"CW","is_transit":false,"station_name":"Cawang","i_long":106.856607},{"station_id":"DRN","line":2,"i_lat":-6.255332,"is_transit":false,"time":3,"i_long":106.85449,"station_name":"Duren Kalibata","transit":false,"distance":1546},{"transit":false,"station_name":"Pasar Minggu Baru","is_transit":false,"i_lat":-6.263214,"i_long":106.851577,"time":2,"station_id":"PSMB","line":2,"distance":824},{"is_transit":false,"transit":false,"station_id":"PSM","i_lat":-6.2842400000000005,"time":2,"distance":2380,"i_long":106.843999,"station_name":"Pasar Minggu","line":2},{"distance":2820,"transit":false,"station_id":"TNT","line":2,"time":4,"i_long":106.838896,"i_lat":-6.3080680000000005,"station_name":"Tanjung Barat","is_transit":false},{"station_name":"Lenteng Agung","station_id":"LNA","i_long":106.832616,"line":2,"distance":2671,"i_lat":-6.330363,"is_transit":false,"time":3,"transit":false},{"i_long":106.834175,"line":2,"station_id":"UP","time":2,"is_transit":false,"transit":false,"station_name":"Univ. Pancasila","distance":1029,"i_lat":-6.339291},{"line":2,"station_name":"Univ. Indonesia","is_transit":false,"station_id":"UI","distance":2264,"transit":false,"time":3,"i_long":106.831474,"i_lat":-6.360749},{"line":2,"time":2,"station_id":"POC","station_name":"Pondok Cina","distance":1109,"i_long":106.831114,"is_transit":false,"i_lat":-6.369073,"transit":false}]]}