{"data":[[{"is_transit":false,"i_lat":-6.186295,"time":0,"line":2,"transit":false,"station_name":"Gondangdia","distance":0,"i_long":106.832183,"station_id":"GDD"},{"distance":1750,"i_lat":-6.198556,"station_id":"CKI","transit":false,"i_long":106.840169,"is_transit":false,"line":2,"time":3,"station_name":"Cikini"},{"station_id":"MRI","time":4,"i_lat":-6.209883,"station_name":"Manggarai","i_long":106.84912,"line":2,"transit":false,"distance":1590,"is_transit":false}],[{"station_id":"GDD","i_long":106.832183,"station_name":"Gondangdia","is_transit":false,"distance":0,"line":2,"transit":false,"i_lat":-6.186295,"time":0},{"i_long":106.828284,"line":2,"time":4,"distance":2015,"is_transit":false,"station_name":"Juanda","transit":false,"station_id":"JUA","i_lat":-6.166716},{"i_lat":-6.160725,"i_long":106.827103,"transit":false,"distance":1149,"is_transit":false,"station_name":"Sawah Besar","time":2,"station_id":"SW","line":2},{"time":2,"distance":906,"is_transit":false,"station_name":"Manggabesar","i_long":106.82482,"station_id":"MGB","i_lat":-6.149769,"line":2,"transit":false},{"station_name":"Jayakarta","time":2,"transit":false,"i_lat":-6.141205,"station_id":"JAY","distance":1080,"line":2,"i_long":106.820901,"is_transit":false},{"transit":true,"station_id":"JAKK","line":2,"distance":1264,"i_long":106.812439,"time":4,"is_transit":true,"station_name":"Jakarta Kota","i_lat":-6.137569},{"time":3,"i_long":106.826365,"transit":true,"is_transit":true,"station_id":"KPB","i_lat":-6.132549,"station_name":"Kampung Bandan","distance":1364,"line":4},{"i_lat":-6.144674,"station_name":"Angke","is_transit":false,"i_long":106.79867,"transit":false,"time":9,"line":1,"station_id":"AK","distance":4102},{"i_long":106.800832,"is_transit":false,"distance":1230,"station_id":"DU","time":4,"line":1,"transit":false,"station_name":"Duri","i_lat":-6.155215},{"i_long":106.811091,"line":1,"distance":3632,"station_name":"Tanah Abang","is_transit":false,"station_id":"THB","transit":false,"time":8,"i_lat":-6.185545},{"distance":2029,"i_long":106.816351,"station_name":"Karet","line":1,"transit":false,"station_id":"KAT","is_transit":false,"i_lat":-6.20132,"time":5},{"station_id":"SUDB","i_lat":-6.201433,"i_long":106.819881,"time":1,"line":1,"is_transit":false,"distance":471,"station_name":"Sudirman Baru","transit":false},{"time":1,"station_id":"SUD","station_name":"Sudirman","transit":false,"is_transit":false,"distance":280,"i_long":106.822649,"line":1,"i_lat":-6.202263},{"time":4,"distance":3186,"transit":false,"station_id":"MRI","i_lat":-6.209883,"station_name":"Manggarai","i_long":106.84912,"line":2,"is_transit":false}],[{"transit":false,"is_transit":false,"time":0,"station_id":"GDD","i_long":106.832183,"line":2,"i_lat":-6.186295,"station_name":"Gondangdia","distance":0},{"transit":false,"distance":2015,"is_transit":false,"station_id":"JUA","i_lat":-6.166716,"i_long":106.828284,"line":2,"station_name":"Juanda","time":4},{"distance":1149,"station_name":"Sawah Besar","station_id":"SW","i_long":106.827103,"transit":false,"is_transit":false,"time":2,"line":2,"i_lat":-6.160725},{"transit":false,"station_id":"MGB","i_long":106.82482,"line":2,"station_name":"Manggabesar","distance":906,"time":2,"i_lat":-6.149769,"is_transit":false},{"is_transit":false,"time":2,"transit":false,"i_lat":-6.141205,"line":2,"station_id":"JAY","i_long":106.820901,"distance":1080,"station_name":"Jayakarta"},{"transit":true,"i_long":106.812439,"time":4,"station_name":"Jakarta Kota","is_transit":true,"line":2,"i_lat":-6.137569,"distance":1264,"station_id":"JAKK"},{"distance":1364,"i_lat":-6.132549,"transit":true,"is_transit":true,"station_name":"Kampung Bandan","i_long":106.826365,"line":4,"time":3,"station_id":"KPB"},{"transit":false,"i_long":106.836569,"line":11,"time":3,"i_lat":-6.14505,"is_transit":false,"station_id":"RJW","station_name":"Rajawali","distance":1444},{"station_name":"Kemayoran","transit":false,"i_long":106.839204,"station_id":"KMO","distance":1901,"time":5,"i_lat":-6.161728,"line":11,"is_transit":false},{"distance":1436,"station_id":"PSE","line":11,"transit":false,"time":4,"i_long":106.84368,"is_transit":false,"i_lat":-6.174784,"station_name":"Pasar Senen"},{"i_lat":-6.185975,"transit":false,"station_name":"Gang Sentiong","is_transit":false,"time":8,"i_long":106.850107,"line":11,"station_id":"GST","distance":1567},{"transit":false,"is_transit":false,"distance":973,"time":1,"station_id":"KMT","line":11,"i_long":106.855437,"station_name":"Kramat","i_lat":-6.193792},{"i_lat":-6.209188,"time":2,"transit":false,"i_long":106.861737,"station_name":"Pondok Jati","station_id":"POK","is_transit":false,"line":11,"distance":1829},{"station_id":"JNG","line":1,"time":9,"is_transit":true,"i_lat":-6.215091,"transit":true,"distance":1236,"station_name":"Jatinegara","i_long":106.86807400000001},{"transit":false,"time":2,"line":1,"distance":1377,"is_transit":false,"i_lat":-6.212485,"i_long":106.858896,"station_id":"MTR","station_name":"Matraman"},{"station_name":"Manggarai","transit":false,"i_lat":-6.209883,"i_long":106.84912,"distance":1275,"is_transit":false,"time":2,"station_id":"MRI","line":2}]]}