{"data":[[{"station_id":"GDD","line":2,"station_name":"Gondangdia","i_long":106.832183,"transit":false,"is_transit":false,"distance":0,"time":0,"i_lat":-6.186295},{"transit":false,"station_id":"CKI","i_lat":-6.198556,"time":3,"is_transit":false,"line":2,"i_long":106.840169,"station_name":"Cikini","distance":1750},{"i_long":106.84912,"station_name":"Manggarai","line":2,"transit":true,"station_id":"MRI","is_transit":true,"distance":1590,"time":4,"i_lat":-6.209883},{"station_id":"SUD","station_name":"Sudirman","i_lat":-6.202263,"transit":false,"i_long":106.822649,"time":4,"is_transit":false,"distance":3186,"line":1},{"i_lat":-6.201433,"distance":280,"is_transit":false,"station_name":"Sudirman Baru","time":1,"station_id":"SUDB","i_long":106.819881,"transit":false,"line":1},{"station_id":"KAT","distance":471,"time":1,"i_lat":-6.20132,"i_long":106.816351,"line":1,"station_name":"Karet","is_transit":false,"transit":false},{"station_name":"Tanah Abang","distance":2029,"station_id":"THB","i_lat":-6.185545,"time":5,"line":1,"i_long":106.811091,"transit":false,"is_transit":false},{"station_id":"DU","i_lat":-6.155215,"line":1,"transit":true,"is_transit":true,"time":8,"station_name":"Duri","distance":3632,"i_long":106.800832},{"distance":1700,"station_id":"GGL","is_transit":false,"time":3,"station_name":"Grogol","line":5,"transit":false,"i_long":106.788277,"i_lat":-6.162021},{"time":2,"station_id":"PSG","distance":2036,"station_name":"Pesing","i_lat":-6.161433,"transit":false,"is_transit":false,"i_long":106.771379,"line":5},{"transit":false,"station_name":"Taman Kota","distance":1614,"time":2,"is_transit":false,"line":5,"i_long":106.756522,"station_id":"TKO","i_lat":-6.1587309999999995}],[{"i_long":106.832183,"is_transit":false,"i_lat":-6.186295,"station_id":"GDD","line":2,"station_name":"Gondangdia","transit":false,"distance":0,"time":0},{"i_long":106.828284,"transit":false,"i_lat":-6.166716,"distance":2015,"line":2,"is_transit":false,"station_id":"JUA","time":4,"station_name":"Juanda"},{"is_transit":false,"station_name":"Sawah Besar","distance":1149,"i_lat":-6.160725,"line":2,"time":2,"station_id":"SW","transit":false,"i_long":106.827103},{"distance":906,"i_long":106.82482,"line":2,"transit":false,"i_lat":-6.149769,"time":2,"station_name":"Manggabesar","station_id":"MGB","is_transit":false},{"i_long":106.820901,"station_name":"Jayakarta","i_lat":-6.141205,"is_transit":false,"distance":1080,"time":2,"transit":false,"line":2,"station_id":"JAY"},{"time":4,"is_transit":true,"i_lat":-6.137569,"station_id":"JAKK","i_long":106.812439,"transit":true,"line":2,"station_name":"Jakarta Kota","distance":1264},{"time":3,"i_long":106.826365,"line":4,"is_transit":true,"station_name":"Kampung Bandan","distance":1364,"i_lat":-6.132549,"transit":true,"station_id":"KPB"},{"transit":false,"i_long":106.79867,"is_transit":false,"distance":4102,"station_name":"Angke","time":9,"station_id":"AK","i_lat":-6.144674,"line":1},{"i_long":106.800832,"station_id":"DU","time":4,"station_name":"Duri","line":1,"is_transit":true,"distance":1230,"transit":true,"i_lat":-6.155215},{"line":5,"station_name":"Grogol","i_long":106.788277,"i_lat":-6.162021,"time":3,"distance":1700,"station_id":"GGL","transit":false,"is_transit":false},{"station_name":"Pesing","line":5,"i_long":106.771379,"i_lat":-6.161433,"distance":2036,"time":2,"station_id":"PSG","transit":false,"is_transit":false},{"is_transit":false,"distance":1614,"i_lat":-6.1587309999999995,"line":5,"station_id":"TKO","time":2,"station_name":"Taman Kota","i_long":106.756522,"transit":false}],[{"is_transit":false,"i_lat":-6.186295,"transit":false,"station_id":"GDD","i_long":106.832183,"station_name":"Gondangdia","distance":0,"line":2,"time":0},{"i_long":106.840169,"transit":false,"is_transit":false,"line":2,"station_name":"Cikini","time":3,"distance":1750,"i_lat":-6.198556,"station_id":"CKI"},{"station_id":"MRI","is_transit":true,"station_name":"Manggarai","transit":true,"i_long":106.84912,"distance":1590,"line":2,"time":4,"i_lat":-6.209883},{"i_lat":-6.212485,"time":2,"i_long":106.858896,"distance":1275,"station_name":"Matraman","station_id":"MTR","line":1,"is_transit":false,"transit":false},{"station_name":"Jatinegara","i_lat":-6.215091,"time":8,"is_transit":true,"station_id":"JNG","distance":1377,"line":1,"i_long":106.86807400000001,"transit":true},{"time":2,"station_id":"POK","i_lat":-6.209188,"is_transit":false,"i_long":106.861737,"transit":false,"station_name":"Pondok Jati","distance":1236,"line":11},{"station_name":"Kramat","line":11,"station_id":"KMT","transit":false,"i_lat":-6.193792,"is_transit":false,"time":2,"distance":1829,"i_long":106.855437},{"is_transit":false,"i_long":106.850107,"station_name":"Gang Sentiong","distance":973,"i_lat":-6.185975,"time":1,"line":11,"transit":false,"station_id":"GST"},{"time":8,"i_lat":-6.174784,"distance":1567,"i_long":106.84368,"transit":false,"station_name":"Pasar Senen","is_transit":false,"station_id":"PSE","line":11},{"is_transit":false,"i_long":106.839204,"station_id":"KMO","station_name":"Kemayoran","distance":1436,"line":11,"transit":false,"i_lat":-6.161728,"time":4},{"station_name":"Rajawali","station_id":"RJW","transit":false,"i_long":106.836569,"line":11,"is_transit":false,"distance":1901,"time":5,"i_lat":-6.14505},{"i_long":106.826365,"time":3,"station_id":"KPB","distance":1444,"transit":true,"is_transit":true,"line":4,"station_name":"Kampung Bandan","i_lat":-6.132549},{"station_name":"Angke","distance":4102,"i_lat":-6.144674,"is_transit":false,"transit":false,"time":9,"station_id":"AK","line":1,"i_long":106.79867},{"is_transit":true,"station_name":"Duri","i_lat":-6.155215,"station_id":"DU","transit":true,"i_long":106.800832,"distance":1230,"line":1,"time":4},{"station_name":"Grogol","distance":1700,"transit":false,"i_long":106.788277,"i_lat":-6.162021,"line":5,"time":3,"station_id":"GGL","is_transit":false},{"distance":2036,"station_id":"PSG","transit":false,"i_long":106.771379,"is_transit":false,"i_lat":-6.161433,"line":5,"time":2,"station_name":"Pesing"},{"is_transit":false,"time":2,"station_id":"TKO","distance":1614,"i_lat":-6.1587309999999995,"line":5,"transit":false,"i_long":106.756522,"station_name":"Taman Kota"}],[{"station_name":"Gondangdia","i_lat":-6.186295,"station_id":"GDD","is_transit":false,"i_long":106.832183,"line":2,"transit":false,"time":0,"distance":0},{"i_lat":-6.166716,"transit":false,"is_transit":false,"station_id":"JUA","time":4,"distance":2015,"i_long":106.828284,"station_name":"Juanda","line":2},{"station_id":"SW","distance":1149,"line":2,"i_lat":-6.160725,"is_transit":false,"station_name":"Sawah Besar","i_long":106.827103,"time":2,"transit":false},{"i_long":106.82482,"distance":906,"i_lat":-6.149769,"line":2,"station_id":"MGB","transit":false,"is_transit":false,"time":2,"station_name":"Manggabesar"},{"time":2,"station_name":"Jayakarta","line":2,"is_transit":false,"station_id":"JAY","transit":false,"i_lat":-6.141205,"i_long":106.820901,"distance":1080},{"transit":true,"time":4,"station_name":"Jakarta Kota","i_lat":-6.137569,"station_id":"JAKK","i_long":106.812439,"line":2,"is_transit":true,"distance":1264},{"transit":true,"i_long":106.826365,"station_id":"KPB","station_name":"Kampung Bandan","line":4,"is_transit":true,"time":3,"distance":1364,"i_lat":-6.132549},{"distance":1444,"i_long":106.836569,"transit":false,"time":3,"is_transit":false,"station_name":"Rajawali","station_id":"RJW","i_lat":-6.14505,"line":11},{"transit":false,"i_long":106.839204,"station_id":"KMO","is_transit":false,"station_name":"Kemayoran","distance":1901,"time":5,"i_lat":-6.161728,"line":11},{"time":4,"station_id":"PSE","is_transit":false,"line":11,"i_long":106.84368,"station_name":"Pasar Senen","distance":1436,"i_lat":-6.174784,"transit":false},{"time":8,"transit":false,"station_name":"Gang Sentiong","is_transit":false,"i_lat":-6.185975,"distance":1567,"i_long":106.850107,"line":11,"station_id":"GST"},{"i_long":106.855437,"station_name":"Kramat","line":11,"i_lat":-6.193792,"station_id":"KMT","transit":false,"distance":973,"is_transit":false,"time":1},{"station_id":"POK","is_transit":false,"i_lat":-6.209188,"i_long":106.861737,"time":2,"distance":1829,"station_name":"Pondok Jati","line":11,"transit":false},{"station_id":"JNG","time":9,"i_long":106.86807400000001,"line":1,"station_name":"Jatinegara","distance":1236,"transit":true,"is_transit":true,"i_lat":-6.215091},{"is_transit":false,"time":2,"station_id":"MTR","station_name":"Matraman","i_long":106.858896,"line":1,"transit":false,"distance":1377,"i_lat":-6.212485},{"distance":1275,"station_id":"MRI","station_name":"Manggarai","time":2,"transit":false,"i_long":106.84912,"is_transit":false,"i_lat":-6.209883,"line":2},{"station_id":"SUD","is_transit":false,"station_name":"Sudirman","distance":3186,"time":4,"i_lat":-6.202263,"i_long":106.822649,"transit":false,"line":1},{"station_name":"Sudirman Baru","distance":280,"station_id":"SUDB","is_transit":false,"time":1,"line":1,"i_long":106.819881,"transit":false,"i_lat":-6.201433},{"transit":false,"line":1,"station_name":"Karet","i_long":106.816351,"time":1,"station_id":"KAT","is_transit":false,"i_lat":-6.20132,"distance":471},{"time":5,"line":1,"i_lat":-6.185545,"distance":2029,"station_id":"THB","is_transit":false,"i_long":106.811091,"transit":false,"station_name":"Tanah Abang"},{"station_name":"Duri","station_id":"DU","transit":true,"distance":3632,"i_long":106.800832,"time":8,"is_transit":true,"line":1,"i_lat":-6.155215},{"station_id":"GGL","time":3,"transit":false,"distance":1700,"i_lat":-6.162021,"line":5,"station_name":"Grogol","is_transit":false,"i_long":106.788277},{"station_name":"Pesing","distance":2036,"i_long":106.771379,"line":5,"time":2,"is_transit":false,"transit":false,"i_lat":-6.161433,"station_id":"PSG"},{"distance":1614,"station_id":"TKO","station_name":"Taman Kota","i_long":106.756522,"transit":false,"i_lat":-6.1587309999999995,"line":5,"time":2,"is_transit":false}]]}