{"data":[[{"i_long":106.832183,"i_lat":-6.186295,"line":2,"is_transit":false,"time":0,"transit":false,"distance":0,"station_name":"Gondangdia","station_id":"GDD"},{"transit":false,"station_id":"CKI","i_long":106.840169,"is_transit":false,"distance":1750,"i_lat":-6.198556,"station_name":"Cikini","line":2,"time":3},{"i_lat":-6.209883,"line":2,"station_id":"MRI","transit":true,"station_name":"Manggarai","is_transit":true,"time":4,"distance":1590,"i_long":106.84912},{"station_name":"Matraman","i_lat":-6.212485,"time":2,"line":1,"station_id":"MTR","is_transit":false,"distance":1275,"i_long":106.858896,"transit":false},{"is_transit":false,"i_long":106.86807400000001,"distance":1377,"transit":false,"i_lat":-6.215091,"time":8,"station_id":"JNG","station_name":"Jatinegara","line":1}],[{"transit":false,"station_name":"Gondangdia","is_transit":false,"time":0,"i_lat":-6.186295,"distance":0,"i_long":106.832183,"line":2,"station_id":"GDD"},{"distance":2015,"line":2,"station_name":"Juanda","station_id":"JUA","i_lat":-6.166716,"i_long":106.828284,"is_transit":false,"transit":false,"time":4},{"distance":1149,"line":2,"station_name":"Sawah Besar","time":2,"i_long":106.827103,"transit":false,"i_lat":-6.160725,"is_transit":false,"station_id":"SW"},{"time":2,"distance":906,"i_long":106.82482,"transit":false,"station_id":"MGB","station_name":"Manggabesar","is_transit":false,"i_lat":-6.149769,"line":2},{"station_id":"JAY","transit":false,"time":2,"line":2,"is_transit":false,"station_name":"Jayakarta","distance":1080,"i_long":106.820901,"i_lat":-6.141205},{"i_long":106.812439,"is_transit":true,"transit":true,"station_id":"JAKK","i_lat":-6.137569,"distance":1264,"time":4,"station_name":"Jakarta Kota","line":2},{"i_lat":-6.132549,"line":4,"station_id":"KPB","distance":1364,"transit":true,"is_transit":true,"station_name":"Kampung Bandan","i_long":106.826365,"time":3},{"i_long":106.836569,"distance":1444,"transit":false,"is_transit":false,"time":3,"line":11,"station_id":"RJW","station_name":"Rajawali","i_lat":-6.14505},{"time":5,"distance":1901,"transit":false,"station_id":"KMO","is_transit":false,"station_name":"Kemayoran","i_lat":-6.161728,"i_long":106.839204,"line":11},{"time":4,"i_lat":-6.174784,"i_long":106.84368,"line":11,"transit":false,"is_transit":false,"station_id":"PSE","distance":1436,"station_name":"Pasar Senen"},{"station_name":"Gang Sentiong","distance":1567,"i_long":106.850107,"station_id":"GST","is_transit":false,"time":8,"transit":false,"i_lat":-6.185975,"line":11},{"distance":973,"transit":false,"is_transit":false,"line":11,"station_name":"Kramat","station_id":"KMT","time":1,"i_lat":-6.193792,"i_long":106.855437},{"time":2,"is_transit":false,"distance":1829,"i_long":106.861737,"station_name":"Pondok Jati","station_id":"POK","i_lat":-6.209188,"line":11,"transit":false},{"distance":1236,"transit":false,"station_id":"JNG","is_transit":false,"i_lat":-6.215091,"time":9,"line":1,"station_name":"Jatinegara","i_long":106.86807400000001}],[{"distance":0,"time":0,"transit":false,"i_lat":-6.186295,"line":2,"is_transit":false,"station_name":"Gondangdia","station_id":"GDD","i_long":106.832183},{"station_name":"Juanda","distance":2015,"i_long":106.828284,"station_id":"JUA","i_lat":-6.166716,"transit":false,"is_transit":false,"time":4,"line":2},{"line":2,"time":2,"station_name":"Sawah Besar","distance":1149,"transit":false,"is_transit":false,"i_long":106.827103,"station_id":"SW","i_lat":-6.160725},{"transit":false,"station_name":"Manggabesar","i_long":106.82482,"distance":906,"station_id":"MGB","line":2,"is_transit":false,"time":2,"i_lat":-6.149769},{"distance":1080,"station_name":"Jayakarta","i_lat":-6.141205,"station_id":"JAY","is_transit":false,"i_long":106.820901,"time":2,"transit":false,"line":2},{"is_transit":true,"time":4,"line":2,"distance":1264,"station_id":"JAKK","transit":true,"i_lat":-6.137569,"i_long":106.812439,"station_name":"Jakarta Kota"},{"transit":true,"i_lat":-6.132549,"station_name":"Kampung Bandan","line":4,"time":3,"distance":1364,"station_id":"KPB","is_transit":true,"i_long":106.826365},{"line":1,"transit":false,"station_name":"Angke","i_lat":-6.144674,"is_transit":false,"time":9,"i_long":106.79867,"distance":4102,"station_id":"AK"},{"time":4,"distance":1230,"transit":false,"station_id":"DU","station_name":"Duri","i_lat":-6.155215,"i_long":106.800832,"line":1,"is_transit":false},{"transit":false,"station_name":"Tanah Abang","is_transit":false,"time":8,"line":1,"station_id":"THB","distance":3632,"i_lat":-6.185545,"i_long":106.811091},{"i_lat":-6.20132,"line":1,"transit":false,"station_name":"Karet","i_long":106.816351,"station_id":"KAT","is_transit":false,"time":5,"distance":2029},{"distance":471,"station_name":"Sudirman Baru","time":1,"line":1,"is_transit":false,"station_id":"SUDB","i_long":106.819881,"transit":false,"i_lat":-6.201433},{"line":1,"time":1,"transit":false,"i_long":106.822649,"distance":280,"is_transit":false,"i_lat":-6.202263,"station_name":"Sudirman","station_id":"SUD"},{"line":2,"distance":3186,"transit":false,"station_id":"MRI","is_transit":false,"i_lat":-6.209883,"station_name":"Manggarai","time":4,"i_long":106.84912},{"distance":1275,"i_lat":-6.212485,"line":1,"station_id":"MTR","i_long":106.858896,"transit":false,"is_transit":false,"time":2,"station_name":"Matraman"},{"distance":1377,"time":8,"station_name":"Jatinegara","transit":false,"i_long":106.86807400000001,"is_transit":false,"i_lat":-6.215091,"line":1,"station_id":"JNG"}],[{"i_long":106.832183,"line":2,"station_id":"GDD","i_lat":-6.186295,"station_name":"Gondangdia","is_transit":false,"transit":false,"time":0,"distance":0},{"time":3,"transit":false,"i_lat":-6.198556,"station_id":"CKI","line":2,"station_name":"Cikini","is_transit":false,"i_long":106.840169,"distance":1750},{"i_long":106.84912,"is_transit":true,"transit":true,"time":4,"i_lat":-6.209883,"line":2,"distance":1590,"station_id":"MRI","station_name":"Manggarai"},{"i_long":106.822649,"transit":false,"station_id":"SUD","i_lat":-6.202263,"line":1,"station_name":"Sudirman","time":4,"distance":3186,"is_transit":false},{"line":1,"station_id":"SUDB","transit":false,"is_transit":false,"distance":280,"i_lat":-6.201433,"i_long":106.819881,"station_name":"Sudirman Baru","time":1},{"i_long":106.816351,"station_name":"Karet","is_transit":false,"time":1,"station_id":"KAT","distance":471,"transit":false,"line":1,"i_lat":-6.20132},{"is_transit":false,"i_lat":-6.185545,"station_name":"Tanah Abang","i_long":106.811091,"station_id":"THB","time":5,"distance":2029,"transit":false,"line":1},{"transit":false,"i_long":106.800832,"distance":3632,"time":8,"line":1,"station_id":"DU","station_name":"Duri","i_lat":-6.155215,"is_transit":false},{"station_id":"AK","station_name":"Angke","transit":false,"distance":1230,"is_transit":false,"line":1,"i_lat":-6.144674,"i_long":106.79867,"time":4},{"transit":true,"i_lat":-6.132549,"time":9,"station_name":"Kampung Bandan","i_long":106.826365,"distance":4102,"station_id":"KPB","line":4,"is_transit":true},{"i_long":106.836569,"is_transit":false,"transit":false,"station_name":"Rajawali","time":3,"distance":1444,"line":11,"station_id":"RJW","i_lat":-6.14505},{"i_lat":-6.161728,"i_long":106.839204,"line":11,"time":5,"distance":1901,"is_transit":false,"station_name":"Kemayoran","transit":false,"station_id":"KMO"},{"station_name":"Pasar Senen","time":4,"is_transit":false,"i_lat":-6.174784,"i_long":106.84368,"distance":1436,"line":11,"transit":false,"station_id":"PSE"},{"distance":1567,"time":8,"i_long":106.850107,"line":11,"i_lat":-6.185975,"station_id":"GST","station_name":"Gang Sentiong","transit":false,"is_transit":false},{"transit":false,"distance":973,"time":1,"i_long":106.855437,"station_name":"Kramat","line":11,"i_lat":-6.193792,"is_transit":false,"station_id":"KMT"},{"is_transit":false,"distance":1829,"i_long":106.861737,"line":11,"station_name":"Pondok Jati","i_lat":-6.209188,"time":2,"transit":false,"station_id":"POK"},{"time":9,"transit":false,"station_id":"JNG","is_transit":false,"distance":1236,"i_lat":-6.215091,"i_long":106.86807400000001,"line":1,"station_name":"Jatinegara"}]]}