{"data":[[{"station_name":"Gondangdia","time":0,"i_long":106.832183,"line":2,"is_transit":false,"distance":0,"i_lat":-6.186295,"transit":false,"station_id":"GDD"},{"station_name":"Cikini","time":3,"distance":1750,"transit":false,"is_transit":false,"station_id":"CKI","i_lat":-6.198556,"line":2,"i_long":106.840169},{"station_id":"MRI","transit":false,"is_transit":false,"i_long":106.84912,"line":2,"distance":1590,"time":4,"station_name":"Manggarai","i_lat":-6.209883}],[{"station_id":"GDD","is_transit":false,"station_name":"Gondangdia","i_long":106.832183,"i_lat":-6.186295,"time":0,"transit":false,"line":2,"distance":0},{"time":4,"station_id":"JUA","is_transit":false,"station_name":"Juanda","i_lat":-6.166716,"i_long":106.828284,"distance":2015,"transit":false,"line":2},{"station_id":"SW","distance":1149,"is_transit":false,"i_lat":-6.160725,"i_long":106.827103,"time":2,"line":2,"station_name":"Sawah Besar","transit":false},{"transit":false,"i_long":106.82482,"station_id":"MGB","time":2,"station_name":"Manggabesar","line":2,"distance":906,"is_transit":false,"i_lat":-6.149769},{"i_lat":-6.141205,"transit":false,"line":2,"is_transit":false,"distance":1080,"station_id":"JAY","i_long":106.820901,"station_name":"Jayakarta","time":2},{"station_name":"Jakarta Kota","i_lat":-6.137569,"time":4,"distance":1264,"is_transit":true,"line":2,"station_id":"JAKK","transit":true,"i_long":106.812439},{"is_transit":true,"line":4,"station_name":"Kampung Bandan","distance":1364,"time":3,"i_lat":-6.132549,"station_id":"KPB","transit":true,"i_long":106.826365},{"distance":4102,"i_long":106.79867,"time":9,"line":1,"i_lat":-6.144674,"station_id":"AK","station_name":"Angke","transit":false,"is_transit":false},{"time":4,"distance":1230,"i_long":106.800832,"is_transit":false,"station_name":"Duri","line":1,"station_id":"DU","i_lat":-6.155215,"transit":false},{"i_long":106.811091,"time":8,"i_lat":-6.185545,"distance":3632,"is_transit":false,"transit":false,"station_id":"THB","station_name":"Tanah Abang","line":1},{"i_lat":-6.20132,"i_long":106.816351,"distance":2029,"is_transit":false,"time":5,"transit":false,"station_id":"KAT","line":1,"station_name":"Karet"},{"i_lat":-6.201433,"is_transit":false,"transit":false,"station_id":"SUDB","distance":471,"station_name":"Sudirman Baru","time":1,"line":1,"i_long":106.819881},{"is_transit":false,"transit":false,"station_id":"SUD","i_lat":-6.202263,"line":1,"station_name":"Sudirman","distance":280,"i_long":106.822649,"time":1},{"station_name":"Manggarai","line":2,"i_long":106.84912,"distance":3186,"time":4,"transit":false,"is_transit":false,"i_lat":-6.209883,"station_id":"MRI"}],[{"station_id":"GDD","i_long":106.832183,"is_transit":false,"i_lat":-6.186295,"time":0,"line":2,"station_name":"Gondangdia","transit":false,"distance":0},{"station_id":"JUA","i_long":106.828284,"time":4,"transit":false,"station_name":"Juanda","distance":2015,"is_transit":false,"line":2,"i_lat":-6.166716},{"distance":1149,"station_id":"SW","time":2,"i_lat":-6.160725,"is_transit":false,"i_long":106.827103,"transit":false,"station_name":"Sawah Besar","line":2},{"time":2,"station_id":"MGB","distance":906,"is_transit":false,"transit":false,"line":2,"station_name":"Manggabesar","i_long":106.82482,"i_lat":-6.149769},{"station_name":"Jayakarta","i_lat":-6.141205,"station_id":"JAY","time":2,"line":2,"distance":1080,"is_transit":false,"transit":false,"i_long":106.820901},{"i_lat":-6.137569,"line":2,"station_name":"Jakarta Kota","distance":1264,"time":4,"transit":true,"is_transit":true,"i_long":106.812439,"station_id":"JAKK"},{"is_transit":true,"time":3,"transit":true,"distance":1364,"line":4,"station_name":"Kampung Bandan","station_id":"KPB","i_lat":-6.132549,"i_long":106.826365},{"transit":false,"line":11,"station_id":"RJW","distance":1444,"station_name":"Rajawali","i_long":106.836569,"time":3,"is_transit":false,"i_lat":-6.14505},{"station_id":"KMO","line":11,"is_transit":false,"time":5,"distance":1901,"i_long":106.839204,"station_name":"Kemayoran","i_lat":-6.161728,"transit":false},{"is_transit":false,"time":4,"distance":1436,"i_lat":-6.174784,"station_id":"PSE","line":11,"i_long":106.84368,"station_name":"Pasar Senen","transit":false},{"line":11,"station_id":"GST","time":8,"transit":false,"is_transit":false,"i_lat":-6.185975,"distance":1567,"station_name":"Gang Sentiong","i_long":106.850107},{"distance":973,"is_transit":false,"time":1,"i_long":106.855437,"transit":false,"station_name":"Kramat","line":11,"i_lat":-6.193792,"station_id":"KMT"},{"distance":1829,"time":2,"transit":false,"line":11,"station_name":"Pondok Jati","is_transit":false,"i_lat":-6.209188,"station_id":"POK","i_long":106.861737},{"transit":true,"station_id":"JNG","is_transit":true,"time":9,"station_name":"Jatinegara","distance":1236,"i_long":106.86807400000001,"line":1,"i_lat":-6.215091},{"station_id":"MTR","line":1,"time":2,"transit":false,"is_transit":false,"i_long":106.858896,"distance":1377,"station_name":"Matraman","i_lat":-6.212485},{"is_transit":false,"transit":false,"station_name":"Manggarai","line":2,"distance":1275,"station_id":"MRI","time":2,"i_lat":-6.209883,"i_long":106.84912}]]}