{"data":[[{"is_transit":false,"time":0,"distance":0,"station_id":"GDD","i_lat":-6.186295,"i_long":106.832183,"transit":false,"line":2,"station_name":"Gondangdia"},{"i_lat":-6.166716,"transit":false,"time":4,"distance":2015,"i_long":106.828284,"line":2,"station_id":"JUA","station_name":"Juanda","is_transit":false},{"station_id":"SW","time":2,"station_name":"Sawah Besar","i_long":106.827103,"is_transit":false,"distance":1149,"transit":false,"line":2,"i_lat":-6.160725},{"time":2,"station_name":"Manggabesar","distance":906,"station_id":"MGB","i_lat":-6.149769,"line":2,"is_transit":false,"transit":false,"i_long":106.82482},{"i_lat":-6.141205,"station_id":"JAY","distance":1080,"transit":false,"time":2,"i_long":106.820901,"is_transit":false,"line":7,"station_name":"Jayakarta"},{"distance":1264,"station_id":"JAKK","station_name":"Jakarta Kota","transit":true,"is_transit":true,"i_lat":-6.137569,"time":4,"i_long":106.812439,"line":0},{"transit":false,"i_long":106.826365,"station_name":"Kampung Bandan","time":3,"distance":1364,"line":0,"is_transit":true,"station_id":"KPB","i_lat":-6.132549},{"distance":2185,"i_lat":-6.128023,"i_long":106.84464,"is_transit":false,"time":4,"line":0,"station_name":"Ancol","station_id":"AC","transit":false},{"station_name":"Tanjung Priuk","line":4,"is_transit":false,"station_id":"TPK","time":9,"distance":4566,"i_lat":-6.1109480000000005,"transit":false,"i_long":106.880089}],[{"distance":0,"transit":false,"is_transit":false,"station_name":"Gondangdia","i_long":106.832183,"i_lat":-6.186295,"line":2,"station_id":"GDD","time":0},{"station_name":"Cikini","line":0,"i_long":106.840169,"station_id":"CKI","is_transit":false,"distance":1750,"time":3,"i_lat":-6.198556,"transit":false},{"station_id":"MRI","i_long":106.84912,"time":4,"line":0,"is_transit":true,"station_name":"Manggarai","distance":1590,"i_lat":-6.209883,"transit":true},{"line":1,"distance":3186,"transit":false,"station_name":"Sudirman","i_lat":-6.202263,"is_transit":false,"station_id":"SUD","time":4,"i_long":106.822649},{"station_name":"Sudirman Baru","i_lat":-6.201433,"i_long":106.819881,"transit":false,"line":1,"is_transit":false,"time":1,"distance":280,"station_id":"SUDB"},{"line":1,"station_name":"Karet","i_long":106.816351,"time":1,"station_id":"KAT","distance":471,"i_lat":-6.20132,"transit":false,"is_transit":false},{"is_transit":true,"time":5,"station_name":"Tanah Abang","i_long":106.811091,"line":1,"station_id":"THB","distance":2029,"i_lat":-6.185545,"transit":false},{"station_id":"DU","line":1,"station_name":"Duri","is_transit":true,"transit":true,"i_long":106.800832,"time":8,"distance":3632,"i_lat":-6.155215},{"line":0,"transit":false,"i_lat":-6.144674,"station_id":"AK","distance":1230,"station_name":"Angke","i_long":106.79867,"time":4,"is_transit":false},{"distance":4102,"line":0,"station_id":"KPB","is_transit":true,"time":9,"transit":false,"station_name":"Kampung Bandan","i_long":106.826365,"i_lat":-6.132549},{"is_transit":false,"i_lat":-6.128023,"station_id":"AC","line":0,"transit":false,"distance":2185,"i_long":106.84464,"time":4,"station_name":"Ancol"},{"is_transit":false,"station_id":"TPK","i_long":106.880089,"time":9,"line":4,"transit":false,"distance":4566,"i_lat":-6.1109480000000005,"station_name":"Tanjung Priuk"}],[{"time":0,"station_name":"Gondangdia","station_id":"GDD","i_lat":-6.186295,"i_long":106.832183,"is_transit":false,"transit":false,"line":2,"distance":0},{"i_lat":-6.198556,"distance":1750,"transit":false,"time":3,"line":0,"station_id":"CKI","is_transit":false,"i_long":106.840169,"station_name":"Cikini"},{"station_name":"Manggarai","distance":1590,"transit":true,"station_id":"MRI","time":4,"i_lat":-6.209883,"i_long":106.84912,"is_transit":true,"line":0},{"i_long":106.858896,"station_id":"MTR","station_name":"Matraman","i_lat":-6.212485,"is_transit":false,"transit":false,"distance":1275,"time":2,"line":1},{"station_name":"Jatinegara","time":8,"is_transit":true,"line":0,"transit":true,"i_long":106.86807400000001,"distance":1377,"i_lat":-6.215091,"station_id":"JNG"},{"is_transit":false,"transit":false,"distance":1236,"station_id":"POK","station_name":"Pondok Jati","time":2,"i_lat":-6.209188,"i_long":106.861737,"line":11},{"transit":false,"time":2,"line":11,"is_transit":false,"station_id":"KMT","i_lat":-6.193792,"i_long":106.855437,"distance":1829,"station_name":"Kramat"},{"station_id":"GST","transit":false,"station_name":"Gang Sentiong","i_lat":-6.185975,"line":11,"i_long":106.850107,"time":1,"is_transit":false,"distance":973},{"station_id":"PSE","time":8,"transit":false,"distance":1567,"is_transit":false,"i_lat":-6.174784,"line":11,"station_name":"Pasar Senen","i_long":106.84368},{"time":4,"distance":1436,"transit":false,"i_long":106.839204,"station_name":"Kemayoran","line":11,"i_lat":-6.161728,"station_id":"KMO","is_transit":false},{"distance":1901,"transit":false,"i_lat":-6.14505,"time":5,"i_long":106.836569,"line":11,"station_name":"Rajawali","is_transit":false,"station_id":"RJW"},{"is_transit":true,"i_lat":-6.132549,"i_long":106.826365,"line":0,"distance":1444,"time":3,"station_name":"Kampung Bandan","transit":true,"station_id":"KPB"},{"is_transit":false,"station_id":"AC","i_lat":-6.128023,"transit":false,"i_long":106.84464,"station_name":"Ancol","time":4,"distance":2185,"line":0},{"line":4,"i_long":106.880089,"i_lat":-6.1109480000000005,"distance":4566,"time":9,"is_transit":false,"transit":false,"station_name":"Tanjung Priuk","station_id":"TPK"}]]}