{"data":[[{"distance":0,"i_lat":-6.186295,"i_long":106.832183,"time":0,"line":2,"transit":false,"station_name":"Gondangdia","is_transit":false,"station_id":"GDD"},{"station_name":"Cikini","i_long":106.840169,"distance":1750,"line":0,"station_id":"CKI","is_transit":false,"transit":false,"i_lat":-6.198556,"time":3},{"station_name":"Manggarai","is_transit":true,"time":4,"station_id":"MRI","line":0,"i_long":106.84912,"distance":1590,"transit":true,"i_lat":-6.209883},{"station_name":"Sudirman","is_transit":false,"time":4,"line":1,"transit":false,"i_long":106.822649,"i_lat":-6.202263,"distance":3186,"station_id":"SUD"},{"transit":false,"station_id":"SUDB","i_lat":-6.201433,"is_transit":false,"distance":280,"line":1,"time":1,"i_long":106.819881,"station_name":"Sudirman Baru"},{"station_id":"KAT","transit":false,"distance":471,"i_lat":-6.20132,"i_long":106.816351,"line":1,"time":1,"is_transit":false,"station_name":"Karet"},{"distance":2029,"station_name":"Tanah Abang","i_long":106.811091,"transit":false,"is_transit":true,"time":5,"i_lat":-6.185545,"line":1,"station_id":"THB"},{"station_id":"DU","line":1,"is_transit":true,"i_lat":-6.155215,"time":8,"station_name":"Duri","i_long":106.800832,"transit":true,"distance":3632},{"is_transit":false,"station_name":"Grogol","station_id":"GGL","distance":1700,"i_lat":-6.162021,"i_long":106.788277,"time":3,"transit":false,"line":5},{"line":5,"distance":2036,"i_long":106.771379,"station_name":"Pesing","time":2,"station_id":"PSG","i_lat":-6.161433,"is_transit":false,"transit":false},{"station_name":"Taman Kota","station_id":"TKO","line":5,"distance":1614,"transit":false,"is_transit":false,"i_lat":-6.1587309999999995,"time":2,"i_long":106.756522},{"i_long":106.737035,"i_lat":-6.159876,"is_transit":false,"line":0,"transit":false,"distance":2334,"time":2,"station_name":"Bojongindah","station_id":"BOI"},{"station_id":"RW","transit":false,"i_long":106.723064,"time":4,"distance":1152,"i_lat":-6.162758,"station_name":"Rawa Buaya","is_transit":false,"line":5},{"time":3,"is_transit":false,"i_lat":-6.166068,"distance":2504,"station_name":"Kalideres","line":5,"station_id":"KDS","transit":false,"i_long":106.701612}],[{"station_name":"Gondangdia","i_lat":-6.186295,"is_transit":false,"station_id":"GDD","distance":0,"transit":false,"line":2,"time":0,"i_long":106.832183},{"line":2,"transit":false,"time":4,"distance":2015,"i_lat":-6.166716,"is_transit":false,"station_name":"Juanda","station_id":"JUA","i_long":106.828284},{"line":2,"distance":1149,"i_long":106.827103,"station_id":"SW","time":2,"station_name":"Sawah Besar","transit":false,"i_lat":-6.160725,"is_transit":false},{"transit":false,"station_name":"Manggabesar","is_transit":false,"distance":906,"station_id":"MGB","i_lat":-6.149769,"line":2,"i_long":106.82482,"time":2},{"time":2,"line":7,"is_transit":false,"i_lat":-6.141205,"i_long":106.820901,"station_id":"JAY","transit":false,"distance":1080,"station_name":"Jayakarta"},{"distance":1264,"station_id":"JAKK","time":4,"transit":true,"i_lat":-6.137569,"i_long":106.812439,"station_name":"Jakarta Kota","line":0,"is_transit":true},{"station_name":"Kampung Bandan","is_transit":true,"time":3,"i_long":106.826365,"line":0,"transit":false,"station_id":"KPB","i_lat":-6.132549,"distance":1364},{"time":9,"distance":4102,"transit":false,"is_transit":false,"station_id":"AK","line":0,"station_name":"Angke","i_long":106.79867,"i_lat":-6.144674},{"is_transit":true,"line":1,"time":4,"station_name":"Duri","distance":1230,"i_long":106.800832,"i_lat":-6.155215,"transit":true,"station_id":"DU"},{"is_transit":false,"station_name":"Grogol","time":3,"i_lat":-6.162021,"i_long":106.788277,"station_id":"GGL","line":5,"transit":false,"distance":1700},{"transit":false,"i_long":106.771379,"station_id":"PSG","line":5,"is_transit":false,"distance":2036,"i_lat":-6.161433,"time":2,"station_name":"Pesing"},{"is_transit":false,"station_id":"TKO","distance":1614,"i_lat":-6.1587309999999995,"i_long":106.756522,"transit":false,"station_name":"Taman Kota","time":2,"line":5},{"i_lat":-6.159876,"distance":2334,"line":0,"transit":false,"station_id":"BOI","time":2,"i_long":106.737035,"station_name":"Bojongindah","is_transit":false},{"is_transit":false,"line":5,"station_id":"RW","transit":false,"i_long":106.723064,"distance":1152,"station_name":"Rawa Buaya","i_lat":-6.162758,"time":4},{"distance":2504,"time":3,"transit":false,"station_id":"KDS","i_lat":-6.166068,"line":5,"i_long":106.701612,"station_name":"Kalideres","is_transit":false}],[{"station_id":"GDD","station_name":"Gondangdia","distance":0,"is_transit":false,"i_lat":-6.186295,"i_long":106.832183,"line":2,"time":0,"transit":false},{"distance":1750,"line":0,"time":3,"is_transit":false,"transit":false,"station_id":"CKI","station_name":"Cikini","i_long":106.840169,"i_lat":-6.198556},{"transit":true,"time":4,"i_lat":-6.209883,"distance":1590,"station_name":"Manggarai","is_transit":true,"station_id":"MRI","i_long":106.84912,"line":0},{"distance":1275,"is_transit":false,"i_lat":-6.212485,"i_long":106.858896,"time":2,"transit":false,"station_id":"MTR","line":1,"station_name":"Matraman"},{"transit":true,"station_name":"Jatinegara","time":8,"station_id":"JNG","i_lat":-6.215091,"i_long":106.86807400000001,"distance":1377,"line":0,"is_transit":true},{"line":11,"time":2,"station_id":"POK","station_name":"Pondok Jati","is_transit":false,"distance":1236,"i_lat":-6.209188,"i_long":106.861737,"transit":false},{"is_transit":false,"transit":false,"distance":1829,"time":2,"i_lat":-6.193792,"station_name":"Kramat","station_id":"KMT","i_long":106.855437,"line":11},{"station_id":"GST","time":1,"i_lat":-6.185975,"i_long":106.850107,"distance":973,"is_transit":false,"line":11,"station_name":"Gang Sentiong","transit":false},{"i_long":106.84368,"time":8,"transit":false,"is_transit":false,"line":11,"distance":1567,"i_lat":-6.174784,"station_name":"Pasar Senen","station_id":"PSE"},{"station_name":"Kemayoran","i_long":106.839204,"i_lat":-6.161728,"distance":1436,"time":4,"transit":false,"station_id":"KMO","is_transit":false,"line":11},{"transit":false,"is_transit":false,"time":5,"i_long":106.836569,"station_name":"Rajawali","distance":1901,"station_id":"RJW","i_lat":-6.14505,"line":11},{"station_name":"Kampung Bandan","station_id":"KPB","i_lat":-6.132549,"distance":1444,"time":3,"transit":true,"i_long":106.826365,"is_transit":true,"line":0},{"i_lat":-6.144674,"i_long":106.79867,"station_name":"Angke","time":9,"station_id":"AK","distance":4102,"line":0,"transit":false,"is_transit":false},{"station_id":"DU","i_lat":-6.155215,"line":1,"is_transit":true,"distance":1230,"transit":true,"i_long":106.800832,"station_name":"Duri","time":4},{"is_transit":false,"i_long":106.788277,"line":5,"i_lat":-6.162021,"time":3,"station_id":"GGL","distance":1700,"station_name":"Grogol","transit":false},{"distance":2036,"i_lat":-6.161433,"is_transit":false,"line":5,"station_name":"Pesing","transit":false,"time":2,"i_long":106.771379,"station_id":"PSG"},{"station_name":"Taman Kota","station_id":"TKO","time":2,"i_lat":-6.1587309999999995,"distance":1614,"is_transit":false,"i_long":106.756522,"transit":false,"line":5},{"transit":false,"station_name":"Bojongindah","time":2,"i_long":106.737035,"i_lat":-6.159876,"station_id":"BOI","line":0,"is_transit":false,"distance":2334},{"station_id":"RW","is_transit":false,"i_lat":-6.162758,"i_long":106.723064,"time":4,"station_name":"Rawa Buaya","transit":false,"line":5,"distance":1152},{"time":3,"is_transit":false,"transit":false,"station_id":"KDS","distance":2504,"line":5,"station_name":"Kalideres","i_lat":-6.166068,"i_long":106.701612}],[{"time":0,"transit":false,"station_id":"GDD","line":2,"is_transit":false,"i_lat":-6.186295,"distance":0,"station_name":"Gondangdia","i_long":106.832183},{"i_lat":-6.166716,"station_id":"JUA","transit":false,"station_name":"Juanda","is_transit":false,"i_long":106.828284,"line":2,"time":4,"distance":2015},{"station_id":"SW","is_transit":false,"station_name":"Sawah Besar","i_long":106.827103,"i_lat":-6.160725,"line":2,"transit":false,"time":2,"distance":1149},{"is_transit":false,"station_id":"MGB","transit":false,"time":2,"i_lat":-6.149769,"i_long":106.82482,"station_name":"Manggabesar","distance":906,"line":2},{"is_transit":false,"i_lat":-6.141205,"station_name":"Jayakarta","transit":false,"i_long":106.820901,"line":7,"time":2,"distance":1080,"station_id":"JAY"},{"i_long":106.812439,"time":4,"station_id":"JAKK","station_name":"Jakarta Kota","transit":true,"is_transit":true,"i_lat":-6.137569,"line":0,"distance":1264},{"station_id":"KPB","i_long":106.826365,"transit":true,"line":0,"distance":1364,"is_transit":true,"i_lat":-6.132549,"station_name":"Kampung Bandan","time":3},{"station_id":"RJW","line":11,"time":3,"i_lat":-6.14505,"distance":1444,"is_transit":false,"station_name":"Rajawali","i_long":106.836569,"transit":false},{"station_id":"KMO","line":11,"station_name":"Kemayoran","transit":false,"i_long":106.839204,"is_transit":false,"distance":1901,"i_lat":-6.161728,"time":5},{"i_lat":-6.174784,"line":11,"time":4,"transit":false,"distance":1436,"station_name":"Pasar Senen","station_id":"PSE","is_transit":false,"i_long":106.84368},{"i_lat":-6.185975,"is_transit":false,"i_long":106.850107,"line":11,"time":8,"station_name":"Gang Sentiong","station_id":"GST","distance":1567,"transit":false},{"line":11,"distance":973,"time":1,"is_transit":false,"station_name":"Kramat","station_id":"KMT","i_lat":-6.193792,"i_long":106.855437,"transit":false},{"station_id":"POK","i_long":106.861737,"transit":false,"station_name":"Pondok Jati","time":2,"distance":1829,"line":11,"is_transit":false,"i_lat":-6.209188},{"i_lat":-6.215091,"time":9,"line":0,"i_long":106.86807400000001,"station_id":"JNG","station_name":"Jatinegara","distance":1236,"transit":true,"is_transit":true},{"is_transit":false,"station_name":"Matraman","station_id":"MTR","line":1,"distance":1377,"time":2,"transit":false,"i_lat":-6.212485,"i_long":106.858896},{"time":2,"line":0,"i_lat":-6.209883,"transit":false,"is_transit":true,"distance":1275,"station_id":"MRI","station_name":"Manggarai","i_long":106.84912},{"time":4,"is_transit":false,"line":1,"station_id":"SUD","i_long":106.822649,"i_lat":-6.202263,"transit":false,"distance":3186,"station_name":"Sudirman"},{"line":1,"distance":280,"time":1,"i_lat":-6.201433,"is_transit":false,"station_id":"SUDB","i_long":106.819881,"station_name":"Sudirman Baru","transit":false},{"transit":false,"time":1,"is_transit":false,"distance":471,"station_name":"Karet","station_id":"KAT","i_lat":-6.20132,"i_long":106.816351,"line":1},{"station_name":"Tanah Abang","i_long":106.811091,"station_id":"THB","distance":2029,"line":1,"transit":false,"time":5,"i_lat":-6.185545,"is_transit":true},{"time":8,"station_id":"DU","station_name":"Duri","line":1,"distance":3632,"transit":true,"is_transit":true,"i_lat":-6.155215,"i_long":106.800832},{"time":3,"station_id":"GGL","line":5,"station_name":"Grogol","transit":false,"i_lat":-6.162021,"i_long":106.788277,"distance":1700,"is_transit":false},{"transit":false,"station_id":"PSG","distance":2036,"time":2,"line":5,"i_lat":-6.161433,"station_name":"Pesing","is_transit":false,"i_long":106.771379},{"distance":1614,"i_lat":-6.1587309999999995,"is_transit":false,"i_long":106.756522,"station_name":"Taman Kota","time":2,"station_id":"TKO","line":5,"transit":false},{"line":0,"station_name":"Bojongindah","transit":false,"distance":2334,"i_lat":-6.159876,"time":2,"is_transit":false,"station_id":"BOI","i_long":106.737035},{"station_name":"Rawa Buaya","line":5,"is_transit":false,"transit":false,"distance":1152,"i_lat":-6.162758,"i_long":106.723064,"time":4,"station_id":"RW"},{"distance":2504,"station_id":"KDS","i_long":106.701612,"line":5,"station_name":"Kalideres","transit":false,"i_lat":-6.166068,"time":3,"is_transit":false}]]}