{"data":[[{"transit":false,"time":0,"line":2,"i_long":106.832183,"is_transit":false,"station_id":"GDD","station_name":"Gondangdia","distance":0,"i_lat":-6.186295},{"line":2,"distance":2015,"station_name":"Juanda","is_transit":false,"time":4,"station_id":"JUA","transit":false,"i_long":106.828284,"i_lat":-6.166716},{"line":2,"station_id":"SW","is_transit":false,"i_lat":-6.160725,"time":2,"distance":1149,"transit":false,"i_long":106.827103,"station_name":"Sawah Besar"},{"i_lat":-6.149769,"station_name":"Manggabesar","distance":906,"time":2,"is_transit":false,"line":2,"station_id":"MGB","i_long":106.82482,"transit":false},{"i_long":106.820901,"i_lat":-6.141205,"time":2,"station_name":"Jayakarta","transit":false,"distance":1080,"is_transit":false,"line":2,"station_id":"JAY"},{"i_lat":-6.137569,"is_transit":true,"line":2,"distance":1264,"time":4,"station_id":"JAKK","transit":true,"i_long":106.812439,"station_name":"Jakarta Kota"},{"transit":true,"i_lat":-6.132549,"station_name":"Kampung Bandan","line":4,"time":3,"distance":1364,"station_id":"KPB","i_long":106.826365,"is_transit":true},{"is_transit":false,"time":9,"i_long":106.79867,"station_id":"AK","distance":4102,"transit":false,"i_lat":-6.144674,"station_name":"Angke","line":1}],[{"i_lat":-6.186295,"line":2,"transit":false,"station_id":"GDD","station_name":"Gondangdia","time":0,"distance":0,"is_transit":false,"i_long":106.832183},{"i_lat":-6.198556,"is_transit":false,"distance":1750,"i_long":106.840169,"station_name":"Cikini","transit":false,"station_id":"CKI","line":2,"time":3},{"time":4,"distance":1590,"station_id":"MRI","station_name":"Manggarai","line":2,"i_lat":-6.209883,"i_long":106.84912,"is_transit":true,"transit":true},{"time":4,"station_name":"Sudirman","station_id":"SUD","distance":3186,"is_transit":false,"i_long":106.822649,"line":1,"i_lat":-6.202263,"transit":false},{"is_transit":false,"transit":false,"i_lat":-6.201433,"time":1,"station_id":"SUDB","station_name":"Sudirman Baru","i_long":106.819881,"distance":280,"line":1},{"is_transit":false,"i_long":106.816351,"distance":471,"transit":false,"station_id":"KAT","line":1,"i_lat":-6.20132,"station_name":"Karet","time":1},{"transit":false,"i_lat":-6.185545,"is_transit":false,"station_id":"THB","line":1,"distance":2029,"i_long":106.811091,"time":5,"station_name":"Tanah Abang"},{"i_lat":-6.155215,"line":1,"transit":false,"station_id":"DU","distance":3632,"station_name":"Duri","i_long":106.800832,"time":8,"is_transit":false},{"i_lat":-6.144674,"distance":1230,"is_transit":false,"time":4,"station_name":"Angke","transit":false,"i_long":106.79867,"station_id":"AK","line":1}],[{"i_long":106.832183,"time":0,"station_name":"Gondangdia","i_lat":-6.186295,"distance":0,"is_transit":false,"line":2,"station_id":"GDD","transit":false},{"station_id":"CKI","transit":false,"line":2,"i_lat":-6.198556,"i_long":106.840169,"is_transit":false,"time":3,"distance":1750,"station_name":"Cikini"},{"station_name":"Manggarai","i_lat":-6.209883,"transit":true,"time":4,"distance":1590,"station_id":"MRI","line":2,"i_long":106.84912,"is_transit":true},{"i_long":106.858896,"station_name":"Matraman","is_transit":false,"distance":1275,"transit":false,"i_lat":-6.212485,"line":1,"station_id":"MTR","time":2},{"time":8,"i_long":106.86807400000001,"line":1,"transit":true,"station_id":"JNG","station_name":"Jatinegara","i_lat":-6.215091,"is_transit":true,"distance":1377},{"i_long":106.861737,"distance":1236,"time":2,"is_transit":false,"transit":false,"station_id":"POK","i_lat":-6.209188,"station_name":"Pondok Jati","line":11},{"transit":false,"is_transit":false,"line":11,"distance":1829,"i_long":106.855437,"station_id":"KMT","i_lat":-6.193792,"time":2,"station_name":"Kramat"},{"distance":973,"is_transit":false,"i_lat":-6.185975,"line":11,"time":1,"station_id":"GST","station_name":"Gang Sentiong","transit":false,"i_long":106.850107},{"distance":1567,"station_name":"Pasar Senen","i_long":106.84368,"time":8,"station_id":"PSE","is_transit":false,"transit":false,"i_lat":-6.174784,"line":11},{"i_lat":-6.161728,"station_id":"KMO","time":4,"is_transit":false,"transit":false,"distance":1436,"line":11,"i_long":106.839204,"station_name":"Kemayoran"},{"distance":1901,"line":11,"station_name":"Rajawali","i_lat":-6.14505,"transit":false,"time":5,"station_id":"RJW","is_transit":false,"i_long":106.836569},{"transit":true,"i_long":106.826365,"i_lat":-6.132549,"is_transit":true,"station_id":"KPB","time":3,"line":4,"station_name":"Kampung Bandan","distance":1444},{"time":9,"station_id":"AK","is_transit":false,"i_lat":-6.144674,"distance":4102,"transit":false,"i_long":106.79867,"station_name":"Angke","line":1}],[{"station_name":"Gondangdia","i_long":106.832183,"station_id":"GDD","time":0,"transit":false,"distance":0,"i_lat":-6.186295,"is_transit":false,"line":2},{"is_transit":false,"line":2,"transit":false,"station_name":"Juanda","i_long":106.828284,"i_lat":-6.166716,"time":4,"distance":2015,"station_id":"JUA"},{"time":2,"line":2,"station_name":"Sawah Besar","transit":false,"distance":1149,"station_id":"SW","i_long":106.827103,"is_transit":false,"i_lat":-6.160725},{"line":2,"time":2,"station_id":"MGB","transit":false,"station_name":"Manggabesar","i_lat":-6.149769,"i_long":106.82482,"distance":906,"is_transit":false},{"station_name":"Jayakarta","i_lat":-6.141205,"i_long":106.820901,"transit":false,"line":2,"time":2,"station_id":"JAY","is_transit":false,"distance":1080},{"station_id":"JAKK","station_name":"Jakarta Kota","time":4,"transit":true,"i_lat":-6.137569,"distance":1264,"is_transit":true,"i_long":106.812439,"line":2},{"i_long":106.826365,"transit":true,"line":4,"station_name":"Kampung Bandan","i_lat":-6.132549,"time":3,"is_transit":true,"distance":1364,"station_id":"KPB"},{"transit":false,"station_name":"Rajawali","line":11,"i_long":106.836569,"time":3,"station_id":"RJW","is_transit":false,"distance":1444,"i_lat":-6.14505},{"i_lat":-6.161728,"station_id":"KMO","i_long":106.839204,"transit":false,"station_name":"Kemayoran","distance":1901,"is_transit":false,"line":11,"time":5},{"time":4,"distance":1436,"i_long":106.84368,"station_id":"PSE","i_lat":-6.174784,"line":11,"is_transit":false,"transit":false,"station_name":"Pasar Senen"},{"is_transit":false,"distance":1567,"station_name":"Gang Sentiong","station_id":"GST","i_lat":-6.185975,"time":8,"transit":false,"i_long":106.850107,"line":11},{"i_long":106.855437,"transit":false,"time":1,"distance":973,"station_id":"KMT","station_name":"Kramat","is_transit":false,"i_lat":-6.193792,"line":11},{"is_transit":false,"station_id":"POK","transit":false,"i_lat":-6.209188,"time":2,"station_name":"Pondok Jati","i_long":106.861737,"distance":1829,"line":11},{"is_transit":true,"transit":true,"distance":1236,"line":1,"station_id":"JNG","time":9,"i_lat":-6.215091,"station_name":"Jatinegara","i_long":106.86807400000001},{"station_id":"MTR","line":1,"distance":1377,"is_transit":false,"station_name":"Matraman","i_long":106.858896,"i_lat":-6.212485,"time":2,"transit":false},{"transit":false,"i_long":106.84912,"time":2,"distance":1275,"line":2,"station_name":"Manggarai","is_transit":false,"i_lat":-6.209883,"station_id":"MRI"},{"station_name":"Sudirman","line":1,"i_lat":-6.202263,"station_id":"SUD","distance":3186,"transit":false,"is_transit":false,"i_long":106.822649,"time":4},{"station_name":"Sudirman Baru","line":1,"i_long":106.819881,"is_transit":false,"i_lat":-6.201433,"time":1,"distance":280,"station_id":"SUDB","transit":false},{"is_transit":false,"transit":false,"station_id":"KAT","station_name":"Karet","i_lat":-6.20132,"line":1,"time":1,"i_long":106.816351,"distance":471},{"transit":false,"i_long":106.811091,"line":1,"distance":2029,"time":5,"is_transit":false,"i_lat":-6.185545,"station_id":"THB","station_name":"Tanah Abang"},{"distance":3632,"transit":false,"i_lat":-6.155215,"i_long":106.800832,"station_name":"Duri","time":8,"is_transit":false,"line":1,"station_id":"DU"},{"line":1,"distance":1230,"i_long":106.79867,"time":4,"station_name":"Angke","transit":false,"i_lat":-6.144674,"is_transit":false,"station_id":"AK"}]]}