{"data":[[{"i_long":106.832183,"line":2,"i_lat":-6.186295,"station_name":"Gondangdia","is_transit":false,"time":0,"transit":false,"distance":0,"station_id":"GDD"},{"is_transit":false,"i_lat":-6.198556,"transit":false,"time":3,"station_name":"Cikini","distance":1750,"i_long":106.840169,"line":2,"station_id":"CKI"},{"transit":true,"i_lat":-6.209883,"line":2,"time":4,"station_name":"Manggarai","distance":1590,"is_transit":true,"station_id":"MRI","i_long":106.84912},{"station_name":"Sudirman","i_long":106.822649,"i_lat":-6.202263,"transit":false,"distance":3186,"line":1,"station_id":"SUD","time":4,"is_transit":false},{"line":1,"i_long":106.819881,"is_transit":false,"time":1,"transit":false,"station_id":"SUDB","station_name":"Sudirman Baru","distance":280,"i_lat":-6.201433},{"station_name":"Karet","i_lat":-6.20132,"i_long":106.816351,"line":1,"time":1,"station_id":"KAT","distance":471,"is_transit":false,"transit":false},{"distance":2029,"i_long":106.811091,"is_transit":true,"transit":true,"i_lat":-6.185545,"station_id":"THB","line":1,"time":5,"station_name":"Tanah Abang"},{"time":6,"i_lat":-6.207404,"is_transit":false,"station_id":"PLM","line":6,"station_name":"Palmerah","i_long":106.79689,"distance":3191,"transit":false},{"line":6,"distance":3737,"time":7,"station_id":"KBY","station_name":"Kebayoran","is_transit":false,"transit":false,"i_lat":-6.237242,"i_long":106.780334},{"time":8,"is_transit":false,"station_name":"Pondokranji","station_id":"PDJ","i_long":106.74273,"transit":false,"i_lat":-6.276362,"line":6,"distance":6218},{"distance":2179,"station_id":"JMU","transit":false,"is_transit":false,"time":3,"station_name":"Jurangmangu","i_lat":-6.288927,"i_long":106.728916,"line":6},{"station_name":"Sudimara","distance":1994,"i_long":106.712277,"transit":false,"line":6,"time":4,"station_id":"SDM","is_transit":false,"i_lat":-6.296963},{"time":6,"station_name":"Rawa Buntu","distance":4566,"station_id":"RU","i_long":106.675475,"line":6,"transit":false,"is_transit":false,"i_lat":-6.314823},{"transit":false,"station_name":"Serpong","station_id":"SRP","distance":2413,"i_lat":-6.319871,"time":4,"i_long":106.66566,"is_transit":false,"line":6},{"is_transit":false,"i_lat":-6.32484,"line":3,"time":4,"station_name":"Cisauk","i_long":106.640411,"transit":false,"distance":1784,"station_id":"CSK"},{"station_name":"Cicayur","station_id":"CC","i_lat":-6.329547,"is_transit":false,"i_long":106.617853,"line":3,"time":4,"transit":false,"distance":2519},{"station_name":"Parung Panjang","distance":5968,"i_lat":-6.3441410000000005,"i_long":106.568863,"station_id":"PRP","time":8,"is_transit":false,"transit":false,"line":6}],[{"station_name":"Gondangdia","station_id":"GDD","i_long":106.832183,"time":0,"i_lat":-6.186295,"is_transit":false,"line":2,"distance":0,"transit":false},{"i_long":106.828284,"station_id":"JUA","i_lat":-6.166716,"station_name":"Juanda","transit":false,"time":4,"distance":2015,"is_transit":false,"line":2},{"distance":1149,"i_long":106.827103,"time":2,"station_name":"Sawah Besar","i_lat":-6.160725,"is_transit":false,"line":2,"transit":false,"station_id":"SW"},{"is_transit":false,"station_id":"MGB","time":2,"transit":false,"station_name":"Manggabesar","i_lat":-6.149769,"line":2,"i_long":106.82482,"distance":906},{"distance":1080,"i_lat":-6.141205,"station_name":"Jayakarta","transit":false,"time":2,"i_long":106.820901,"is_transit":false,"station_id":"JAY","line":2},{"is_transit":true,"station_name":"Jakarta Kota","transit":true,"line":2,"distance":1264,"i_lat":-6.137569,"time":4,"station_id":"JAKK","i_long":106.812439},{"time":3,"distance":1364,"station_id":"KPB","is_transit":true,"i_long":106.826365,"line":4,"i_lat":-6.132549,"transit":true,"station_name":"Kampung Bandan"},{"is_transit":false,"station_name":"Angke","distance":4102,"time":9,"transit":false,"i_long":106.79867,"line":1,"i_lat":-6.144674,"station_id":"AK"},{"is_transit":false,"line":1,"i_long":106.800832,"transit":false,"i_lat":-6.155215,"distance":1230,"time":4,"station_name":"Duri","station_id":"DU"},{"distance":3632,"is_transit":true,"time":8,"station_name":"Tanah Abang","i_lat":-6.185545,"station_id":"THB","transit":true,"i_long":106.811091,"line":1},{"distance":3191,"transit":false,"is_transit":false,"time":6,"i_long":106.79689,"station_name":"Palmerah","i_lat":-6.207404,"station_id":"PLM","line":6},{"transit":false,"i_long":106.780334,"line":6,"distance":3737,"station_id":"KBY","i_lat":-6.237242,"time":7,"is_transit":false,"station_name":"Kebayoran"},{"i_long":106.74273,"line":6,"distance":6218,"is_transit":false,"station_name":"Pondokranji","station_id":"PDJ","i_lat":-6.276362,"transit":false,"time":8},{"station_id":"JMU","line":6,"i_long":106.728916,"station_name":"Jurangmangu","i_lat":-6.288927,"time":3,"is_transit":false,"distance":2179,"transit":false},{"station_name":"Sudimara","is_transit":false,"transit":false,"time":4,"distance":1994,"line":6,"station_id":"SDM","i_long":106.712277,"i_lat":-6.296963},{"station_name":"Rawa Buntu","distance":4566,"station_id":"RU","i_lat":-6.314823,"i_long":106.675475,"transit":false,"is_transit":false,"time":6,"line":6},{"station_name":"Serpong","i_lat":-6.319871,"i_long":106.66566,"transit":false,"line":6,"time":4,"is_transit":false,"station_id":"SRP","distance":2413},{"i_long":106.640411,"station_name":"Cisauk","transit":false,"distance":1784,"i_lat":-6.32484,"is_transit":false,"time":4,"line":3,"station_id":"CSK"},{"line":3,"station_id":"CC","distance":2519,"i_lat":-6.329547,"i_long":106.617853,"station_name":"Cicayur","transit":false,"is_transit":false,"time":4},{"station_id":"PRP","transit":false,"station_name":"Parung Panjang","i_long":106.568863,"time":8,"line":6,"i_lat":-6.3441410000000005,"is_transit":false,"distance":5968}],[{"time":0,"transit":false,"station_name":"Gondangdia","distance":0,"i_lat":-6.186295,"line":2,"is_transit":false,"station_id":"GDD","i_long":106.832183},{"time":3,"station_name":"Cikini","is_transit":false,"distance":1750,"station_id":"CKI","i_long":106.840169,"i_lat":-6.198556,"line":2,"transit":false},{"time":4,"line":2,"distance":1590,"i_lat":-6.209883,"i_long":106.84912,"is_transit":true,"transit":true,"station_name":"Manggarai","station_id":"MRI"},{"time":2,"transit":false,"i_long":106.858896,"station_id":"MTR","line":1,"distance":1275,"station_name":"Matraman","i_lat":-6.212485,"is_transit":false},{"i_lat":-6.215091,"time":8,"station_id":"JNG","is_transit":true,"line":1,"distance":1377,"transit":true,"station_name":"Jatinegara","i_long":106.86807400000001},{"time":2,"station_name":"Pondok Jati","line":11,"transit":false,"distance":1236,"station_id":"POK","is_transit":false,"i_lat":-6.209188,"i_long":106.861737},{"station_name":"Kramat","station_id":"KMT","i_lat":-6.193792,"i_long":106.855437,"time":2,"line":11,"is_transit":false,"transit":false,"distance":1829},{"i_lat":-6.185975,"time":1,"i_long":106.850107,"distance":973,"is_transit":false,"station_id":"GST","line":11,"station_name":"Gang Sentiong","transit":false},{"time":8,"is_transit":false,"distance":1567,"transit":false,"i_lat":-6.174784,"i_long":106.84368,"station_name":"Pasar Senen","station_id":"PSE","line":11},{"line":11,"is_transit":false,"station_name":"Kemayoran","station_id":"KMO","i_long":106.839204,"transit":false,"distance":1436,"i_lat":-6.161728,"time":4},{"station_id":"RJW","time":5,"line":11,"transit":false,"distance":1901,"is_transit":false,"i_lat":-6.14505,"i_long":106.836569,"station_name":"Rajawali"},{"time":3,"i_long":106.826365,"distance":1444,"line":4,"transit":true,"station_name":"Kampung Bandan","is_transit":true,"station_id":"KPB","i_lat":-6.132549},{"station_id":"AK","i_lat":-6.144674,"i_long":106.79867,"line":1,"distance":4102,"station_name":"Angke","is_transit":false,"time":9,"transit":false},{"time":4,"station_name":"Duri","i_long":106.800832,"transit":false,"line":1,"station_id":"DU","distance":1230,"i_lat":-6.155215,"is_transit":false},{"is_transit":true,"line":1,"time":8,"station_name":"Tanah Abang","distance":3632,"station_id":"THB","transit":true,"i_lat":-6.185545,"i_long":106.811091},{"station_name":"Palmerah","line":6,"station_id":"PLM","transit":false,"time":6,"distance":3191,"i_lat":-6.207404,"is_transit":false,"i_long":106.79689},{"time":7,"is_transit":false,"transit":false,"distance":3737,"line":6,"station_name":"Kebayoran","i_long":106.780334,"station_id":"KBY","i_lat":-6.237242},{"line":6,"station_name":"Pondokranji","time":8,"transit":false,"is_transit":false,"distance":6218,"station_id":"PDJ","i_lat":-6.276362,"i_long":106.74273},{"line":6,"time":3,"transit":false,"station_id":"JMU","is_transit":false,"station_name":"Jurangmangu","distance":2179,"i_lat":-6.288927,"i_long":106.728916},{"is_transit":false,"line":6,"time":4,"station_name":"Sudimara","i_lat":-6.296963,"transit":false,"i_long":106.712277,"distance":1994,"station_id":"SDM"},{"i_lat":-6.314823,"station_name":"Rawa Buntu","distance":4566,"is_transit":false,"time":6,"i_long":106.675475,"transit":false,"line":6,"station_id":"RU"},{"i_lat":-6.319871,"line":6,"time":4,"station_name":"Serpong","station_id":"SRP","distance":2413,"transit":false,"i_long":106.66566,"is_transit":false},{"distance":1784,"transit":false,"station_id":"CSK","i_lat":-6.32484,"line":3,"is_transit":false,"time":4,"station_name":"Cisauk","i_long":106.640411},{"is_transit":false,"distance":2519,"time":4,"line":3,"station_id":"CC","i_long":106.617853,"station_name":"Cicayur","transit":false,"i_lat":-6.329547},{"transit":false,"i_lat":-6.3441410000000005,"distance":5968,"is_transit":false,"station_name":"Parung Panjang","station_id":"PRP","i_long":106.568863,"line":6,"time":8}],[{"station_name":"Gondangdia","station_id":"GDD","transit":false,"line":2,"i_long":106.832183,"is_transit":false,"distance":0,"i_lat":-6.186295,"time":0},{"i_lat":-6.166716,"is_transit":false,"distance":2015,"station_id":"JUA","i_long":106.828284,"transit":false,"time":4,"line":2,"station_name":"Juanda"},{"station_name":"Sawah Besar","distance":1149,"station_id":"SW","is_transit":false,"transit":false,"i_lat":-6.160725,"line":2,"i_long":106.827103,"time":2},{"transit":false,"station_name":"Manggabesar","i_long":106.82482,"i_lat":-6.149769,"time":2,"line":2,"is_transit":false,"station_id":"MGB","distance":906},{"station_name":"Jayakarta","is_transit":false,"time":2,"i_lat":-6.141205,"i_long":106.820901,"transit":false,"station_id":"JAY","distance":1080,"line":2},{"transit":true,"station_name":"Jakarta Kota","distance":1264,"time":4,"i_lat":-6.137569,"line":2,"is_transit":true,"i_long":106.812439,"station_id":"JAKK"},{"transit":true,"is_transit":true,"station_id":"KPB","i_long":106.826365,"distance":1364,"line":4,"time":3,"i_lat":-6.132549,"station_name":"Kampung Bandan"},{"i_long":106.836569,"time":3,"i_lat":-6.14505,"line":11,"is_transit":false,"distance":1444,"station_id":"RJW","transit":false,"station_name":"Rajawali"},{"i_lat":-6.161728,"i_long":106.839204,"station_name":"Kemayoran","distance":1901,"station_id":"KMO","transit":false,"line":11,"is_transit":false,"time":5},{"time":4,"transit":false,"station_id":"PSE","i_long":106.84368,"i_lat":-6.174784,"station_name":"Pasar Senen","is_transit":false,"line":11,"distance":1436},{"distance":1567,"station_id":"GST","i_lat":-6.185975,"line":11,"time":8,"is_transit":false,"transit":false,"i_long":106.850107,"station_name":"Gang Sentiong"},{"station_id":"KMT","time":1,"distance":973,"is_transit":false,"i_long":106.855437,"line":11,"transit":false,"i_lat":-6.193792,"station_name":"Kramat"},{"transit":false,"station_name":"Pondok Jati","time":2,"i_long":106.861737,"is_transit":false,"i_lat":-6.209188,"station_id":"POK","line":11,"distance":1829},{"is_transit":true,"station_name":"Jatinegara","transit":true,"i_lat":-6.215091,"i_long":106.86807400000001,"line":1,"distance":1236,"time":9,"station_id":"JNG"},{"line":1,"station_id":"MTR","station_name":"Matraman","transit":false,"distance":1377,"is_transit":false,"time":2,"i_long":106.858896,"i_lat":-6.212485},{"time":2,"transit":false,"line":2,"is_transit":false,"distance":1275,"station_id":"MRI","i_lat":-6.209883,"station_name":"Manggarai","i_long":106.84912},{"is_transit":false,"station_name":"Sudirman","station_id":"SUD","i_long":106.822649,"transit":false,"line":1,"distance":3186,"i_lat":-6.202263,"time":4},{"distance":280,"i_lat":-6.201433,"i_long":106.819881,"time":1,"line":1,"station_id":"SUDB","transit":false,"station_name":"Sudirman Baru","is_transit":false},{"line":1,"is_transit":false,"station_name":"Karet","distance":471,"station_id":"KAT","transit":false,"time":1,"i_long":106.816351,"i_lat":-6.20132},{"distance":2029,"i_lat":-6.185545,"i_long":106.811091,"station_id":"THB","station_name":"Tanah Abang","time":5,"line":1,"is_transit":true,"transit":true},{"line":6,"is_transit":false,"distance":3191,"station_id":"PLM","station_name":"Palmerah","i_long":106.79689,"i_lat":-6.207404,"time":6,"transit":false},{"distance":3737,"i_lat":-6.237242,"is_transit":false,"station_name":"Kebayoran","station_id":"KBY","i_long":106.780334,"transit":false,"line":6,"time":7},{"time":8,"distance":6218,"transit":false,"i_lat":-6.276362,"station_name":"Pondokranji","station_id":"PDJ","is_transit":false,"i_long":106.74273,"line":6},{"is_transit":false,"station_id":"JMU","line":6,"i_lat":-6.288927,"time":3,"station_name":"Jurangmangu","transit":false,"i_long":106.728916,"distance":2179},{"is_transit":false,"station_id":"SDM","station_name":"Sudimara","i_lat":-6.296963,"line":6,"transit":false,"time":4,"i_long":106.712277,"distance":1994},{"station_name":"Rawa Buntu","time":6,"is_transit":false,"transit":false,"station_id":"RU","i_lat":-6.314823,"line":6,"i_long":106.675475,"distance":4566},{"station_id":"SRP","line":6,"station_name":"Serpong","i_lat":-6.319871,"distance":2413,"is_transit":false,"transit":false,"time":4,"i_long":106.66566},{"station_name":"Cisauk","i_lat":-6.32484,"station_id":"CSK","is_transit":false,"time":4,"distance":1784,"transit":false,"i_long":106.640411,"line":3},{"time":4,"station_name":"Cicayur","i_long":106.617853,"line":3,"transit":false,"distance":2519,"station_id":"CC","i_lat":-6.329547,"is_transit":false},{"station_id":"PRP","line":6,"distance":5968,"transit":false,"time":8,"i_long":106.568863,"station_name":"Parung Panjang","i_lat":-6.3441410000000005,"is_transit":false}]]}