{"data":[[{"time":0,"station_id":"GDD","station_name":"Gondangdia","i_lat":-6.186295,"i_long":106.832183,"is_transit":false,"transit":false,"line":2,"distance":0},{"line":0,"is_transit":false,"distance":1750,"i_lat":-6.198556,"station_id":"CKI","time":3,"transit":false,"i_long":106.840169,"station_name":"Cikini"},{"i_long":106.84912,"is_transit":true,"distance":1590,"station_name":"Manggarai","transit":true,"i_lat":-6.209883,"line":0,"station_id":"MRI","time":4},{"i_lat":-6.202263,"is_transit":false,"time":4,"station_name":"Sudirman","station_id":"SUD","transit":false,"distance":3186,"i_long":106.822649,"line":1},{"station_name":"Sudirman Baru","is_transit":false,"transit":false,"distance":280,"station_id":"SUDB","i_long":106.819881,"time":1,"line":1,"i_lat":-6.201433},{"station_name":"Karet","i_lat":-6.20132,"i_long":106.816351,"distance":471,"line":1,"time":1,"is_transit":false,"transit":false,"station_id":"KAT"},{"transit":false,"line":1,"time":5,"distance":2029,"station_id":"THB","is_transit":true,"station_name":"Tanah Abang","i_lat":-6.185545,"i_long":106.811091},{"time":8,"line":1,"distance":3632,"i_long":106.800832,"transit":true,"station_name":"Duri","is_transit":true,"i_lat":-6.155215,"station_id":"DU"},{"station_id":"GGL","distance":1700,"station_name":"Grogol","transit":false,"i_lat":-6.162021,"is_transit":false,"line":5,"time":3,"i_long":106.788277},{"transit":false,"distance":2036,"i_lat":-6.161433,"line":5,"i_long":106.771379,"station_id":"PSG","station_name":"Pesing","is_transit":false,"time":2},{"i_lat":-6.1587309999999995,"is_transit":false,"transit":false,"i_long":106.756522,"station_id":"TKO","station_name":"Taman Kota","distance":1614,"line":5,"time":2}],[{"i_lat":-6.186295,"is_transit":false,"distance":0,"i_long":106.832183,"station_id":"GDD","station_name":"Gondangdia","transit":false,"line":2,"time":0},{"transit":false,"station_name":"Juanda","i_lat":-6.166716,"i_long":106.828284,"is_transit":false,"time":4,"distance":2015,"station_id":"JUA","line":2},{"distance":1149,"i_lat":-6.160725,"station_name":"Sawah Besar","transit":false,"i_long":106.827103,"time":2,"line":2,"is_transit":false,"station_id":"SW"},{"station_id":"MGB","transit":false,"line":2,"distance":906,"time":2,"station_name":"Manggabesar","i_lat":-6.149769,"i_long":106.82482,"is_transit":false},{"distance":1080,"i_lat":-6.141205,"time":2,"transit":false,"is_transit":false,"i_long":106.820901,"station_name":"Jayakarta","station_id":"JAY","line":7},{"station_id":"JAKK","time":4,"i_lat":-6.137569,"line":0,"transit":true,"distance":1264,"i_long":106.812439,"is_transit":true,"station_name":"Jakarta Kota"},{"station_id":"KPB","distance":1364,"transit":false,"i_long":106.826365,"is_transit":true,"time":3,"i_lat":-6.132549,"station_name":"Kampung Bandan","line":0},{"station_id":"AK","i_long":106.79867,"distance":4102,"i_lat":-6.144674,"transit":false,"line":0,"is_transit":false,"time":9,"station_name":"Angke"},{"distance":1230,"station_id":"DU","station_name":"Duri","transit":true,"i_long":106.800832,"is_transit":true,"line":1,"i_lat":-6.155215,"time":4},{"is_transit":false,"time":3,"line":5,"distance":1700,"station_id":"GGL","station_name":"Grogol","transit":false,"i_long":106.788277,"i_lat":-6.162021},{"station_name":"Pesing","transit":false,"distance":2036,"time":2,"station_id":"PSG","i_lat":-6.161433,"i_long":106.771379,"line":5,"is_transit":false},{"station_name":"Taman Kota","transit":false,"line":5,"distance":1614,"time":2,"station_id":"TKO","i_lat":-6.1587309999999995,"is_transit":false,"i_long":106.756522}],[{"station_id":"GDD","i_lat":-6.186295,"line":2,"distance":0,"station_name":"Gondangdia","time":0,"transit":false,"is_transit":false,"i_long":106.832183},{"station_id":"CKI","time":3,"is_transit":false,"distance":1750,"transit":false,"i_long":106.840169,"line":0,"i_lat":-6.198556,"station_name":"Cikini"},{"i_long":106.84912,"transit":true,"is_transit":true,"i_lat":-6.209883,"station_name":"Manggarai","time":4,"distance":1590,"station_id":"MRI","line":0},{"is_transit":false,"distance":1275,"station_id":"MTR","transit":false,"time":2,"station_name":"Matraman","i_long":106.858896,"i_lat":-6.212485,"line":1},{"i_lat":-6.215091,"station_name":"Jatinegara","is_transit":true,"i_long":106.86807400000001,"station_id":"JNG","transit":true,"distance":1377,"line":0,"time":8},{"i_lat":-6.209188,"is_transit":false,"station_id":"POK","i_long":106.861737,"time":2,"station_name":"Pondok Jati","line":11,"transit":false,"distance":1236},{"distance":1829,"is_transit":false,"time":2,"station_name":"Kramat","i_lat":-6.193792,"i_long":106.855437,"station_id":"KMT","transit":false,"line":11},{"line":11,"distance":973,"station_id":"GST","is_transit":false,"station_name":"Gang Sentiong","time":1,"i_long":106.850107,"transit":false,"i_lat":-6.185975},{"transit":false,"i_long":106.84368,"station_id":"PSE","is_transit":false,"distance":1567,"i_lat":-6.174784,"line":11,"station_name":"Pasar Senen","time":8},{"station_name":"Kemayoran","station_id":"KMO","transit":false,"i_lat":-6.161728,"line":11,"i_long":106.839204,"is_transit":false,"time":4,"distance":1436},{"line":11,"time":5,"station_name":"Rajawali","station_id":"RJW","i_long":106.836569,"is_transit":false,"distance":1901,"transit":false,"i_lat":-6.14505},{"transit":true,"station_id":"KPB","time":3,"distance":1444,"station_name":"Kampung Bandan","i_long":106.826365,"line":0,"is_transit":true,"i_lat":-6.132549},{"i_lat":-6.144674,"time":9,"transit":false,"distance":4102,"station_name":"Angke","i_long":106.79867,"line":0,"station_id":"AK","is_transit":false},{"line":1,"station_name":"Duri","transit":true,"i_lat":-6.155215,"i_long":106.800832,"is_transit":true,"time":4,"station_id":"DU","distance":1230},{"i_long":106.788277,"distance":1700,"station_id":"GGL","is_transit":false,"transit":false,"station_name":"Grogol","line":5,"time":3,"i_lat":-6.162021},{"distance":2036,"station_name":"Pesing","line":5,"transit":false,"is_transit":false,"i_lat":-6.161433,"station_id":"PSG","i_long":106.771379,"time":2},{"is_transit":false,"line":5,"station_name":"Taman Kota","i_long":106.756522,"distance":1614,"i_lat":-6.1587309999999995,"time":2,"station_id":"TKO","transit":false}],[{"station_id":"GDD","i_lat":-6.186295,"line":2,"i_long":106.832183,"is_transit":false,"time":0,"distance":0,"station_name":"Gondangdia","transit":false},{"is_transit":false,"time":4,"station_name":"Juanda","distance":2015,"transit":false,"i_lat":-6.166716,"station_id":"JUA","line":2,"i_long":106.828284},{"distance":1149,"station_name":"Sawah Besar","station_id":"SW","is_transit":false,"transit":false,"i_long":106.827103,"time":2,"i_lat":-6.160725,"line":2},{"is_transit":false,"time":2,"distance":906,"transit":false,"station_id":"MGB","i_lat":-6.149769,"line":2,"station_name":"Manggabesar","i_long":106.82482},{"time":2,"station_id":"JAY","station_name":"Jayakarta","distance":1080,"line":7,"is_transit":false,"i_lat":-6.141205,"transit":false,"i_long":106.820901},{"time":4,"station_name":"Jakarta Kota","station_id":"JAKK","is_transit":true,"distance":1264,"transit":true,"i_lat":-6.137569,"i_long":106.812439,"line":0},{"is_transit":true,"station_id":"KPB","time":3,"i_lat":-6.132549,"line":0,"i_long":106.826365,"station_name":"Kampung Bandan","transit":true,"distance":1364},{"time":3,"i_long":106.836569,"station_name":"Rajawali","line":11,"station_id":"RJW","is_transit":false,"transit":false,"i_lat":-6.14505,"distance":1444},{"i_lat":-6.161728,"station_id":"KMO","distance":1901,"line":11,"time":5,"is_transit":false,"station_name":"Kemayoran","transit":false,"i_long":106.839204},{"is_transit":false,"line":11,"time":4,"station_name":"Pasar Senen","distance":1436,"station_id":"PSE","transit":false,"i_long":106.84368,"i_lat":-6.174784},{"distance":1567,"is_transit":false,"station_name":"Gang Sentiong","station_id":"GST","i_long":106.850107,"time":8,"line":11,"transit":false,"i_lat":-6.185975},{"i_long":106.855437,"distance":973,"transit":false,"station_id":"KMT","is_transit":false,"station_name":"Kramat","i_lat":-6.193792,"time":1,"line":11},{"i_lat":-6.209188,"line":11,"time":2,"station_name":"Pondok Jati","station_id":"POK","i_long":106.861737,"is_transit":false,"distance":1829,"transit":false},{"station_id":"JNG","transit":true,"i_lat":-6.215091,"time":9,"i_long":106.86807400000001,"line":0,"is_transit":true,"station_name":"Jatinegara","distance":1236},{"station_name":"Matraman","transit":false,"station_id":"MTR","is_transit":false,"i_long":106.858896,"i_lat":-6.212485,"line":1,"time":2,"distance":1377},{"is_transit":true,"station_name":"Manggarai","station_id":"MRI","line":0,"time":2,"i_long":106.84912,"i_lat":-6.209883,"distance":1275,"transit":false},{"station_id":"SUD","line":1,"i_long":106.822649,"is_transit":false,"station_name":"Sudirman","time":4,"transit":false,"distance":3186,"i_lat":-6.202263},{"time":1,"station_name":"Sudirman Baru","i_lat":-6.201433,"i_long":106.819881,"line":1,"is_transit":false,"distance":280,"station_id":"SUDB","transit":false},{"is_transit":false,"station_name":"Karet","time":1,"distance":471,"i_lat":-6.20132,"station_id":"KAT","i_long":106.816351,"transit":false,"line":1},{"i_lat":-6.185545,"distance":2029,"is_transit":true,"station_name":"Tanah Abang","transit":false,"line":1,"i_long":106.811091,"time":5,"station_id":"THB"},{"time":8,"line":1,"is_transit":true,"station_id":"DU","i_lat":-6.155215,"i_long":106.800832,"distance":3632,"transit":true,"station_name":"Duri"},{"distance":1700,"i_long":106.788277,"time":3,"is_transit":false,"station_id":"GGL","station_name":"Grogol","line":5,"transit":false,"i_lat":-6.162021},{"transit":false,"line":5,"i_lat":-6.161433,"station_id":"PSG","i_long":106.771379,"is_transit":false,"distance":2036,"time":2,"station_name":"Pesing"},{"is_transit":false,"i_lat":-6.1587309999999995,"i_long":106.756522,"distance":1614,"station_id":"TKO","station_name":"Taman Kota","line":5,"time":2,"transit":false}]]}