{"data":[[{"distance":0,"station_id":"GDD","transit":false,"time":0,"i_long":106.832183,"line":2,"station_name":"Gondangdia","i_lat":-6.186295,"is_transit":false},{"i_long":106.840169,"line":0,"transit":false,"i_lat":-6.198556,"station_name":"Cikini","is_transit":false,"time":3,"distance":1750,"station_id":"CKI"},{"transit":false,"is_transit":true,"distance":1590,"line":0,"station_name":"Manggarai","i_long":106.84912,"time":4,"i_lat":-6.209883,"station_id":"MRI"}],[{"distance":0,"station_id":"GDD","station_name":"Gondangdia","time":0,"line":2,"is_transit":false,"i_lat":-6.186295,"i_long":106.832183,"transit":false},{"station_id":"JUA","station_name":"Juanda","i_long":106.828284,"transit":false,"time":4,"distance":2015,"i_lat":-6.166716,"line":2,"is_transit":false},{"station_name":"Sawah Besar","distance":1149,"i_long":106.827103,"line":2,"is_transit":false,"time":2,"i_lat":-6.160725,"transit":false,"station_id":"SW"},{"transit":false,"i_long":106.82482,"time":2,"line":2,"is_transit":false,"station_id":"MGB","station_name":"Manggabesar","i_lat":-6.149769,"distance":906},{"is_transit":false,"station_name":"Jayakarta","time":2,"distance":1080,"i_long":106.820901,"transit":false,"line":7,"station_id":"JAY","i_lat":-6.141205},{"transit":true,"distance":1264,"station_name":"Jakarta Kota","time":4,"station_id":"JAKK","i_long":106.812439,"is_transit":true,"line":0,"i_lat":-6.137569},{"line":0,"i_lat":-6.132549,"i_long":106.826365,"is_transit":true,"station_id":"KPB","transit":false,"station_name":"Kampung Bandan","distance":1364,"time":3},{"time":9,"station_id":"AK","i_lat":-6.144674,"line":0,"distance":4102,"station_name":"Angke","is_transit":false,"i_long":106.79867,"transit":false},{"time":4,"station_id":"DU","station_name":"Duri","transit":true,"i_lat":-6.155215,"distance":1230,"i_long":106.800832,"line":1,"is_transit":true},{"transit":false,"i_long":106.811091,"time":8,"station_id":"THB","i_lat":-6.185545,"station_name":"Tanah Abang","is_transit":true,"distance":3632,"line":1},{"station_name":"Karet","transit":false,"is_transit":false,"line":1,"i_lat":-6.20132,"station_id":"KAT","distance":2029,"i_long":106.816351,"time":5},{"time":1,"station_id":"SUDB","is_transit":false,"i_lat":-6.201433,"line":1,"transit":false,"i_long":106.819881,"distance":471,"station_name":"Sudirman Baru"},{"station_name":"Sudirman","distance":280,"is_transit":false,"station_id":"SUD","line":1,"transit":false,"time":1,"i_lat":-6.202263,"i_long":106.822649},{"line":0,"transit":false,"is_transit":true,"i_lat":-6.209883,"station_name":"Manggarai","i_long":106.84912,"distance":3186,"time":4,"station_id":"MRI"}],[{"i_lat":-6.186295,"line":2,"station_name":"Gondangdia","time":0,"station_id":"GDD","transit":false,"is_transit":false,"distance":0,"i_long":106.832183},{"distance":2015,"station_id":"JUA","i_long":106.828284,"line":2,"transit":false,"station_name":"Juanda","is_transit":false,"time":4,"i_lat":-6.166716},{"line":2,"is_transit":false,"time":2,"distance":1149,"i_lat":-6.160725,"i_long":106.827103,"station_name":"Sawah Besar","station_id":"SW","transit":false},{"is_transit":false,"transit":false,"i_long":106.82482,"i_lat":-6.149769,"station_id":"MGB","station_name":"Manggabesar","time":2,"distance":906,"line":2},{"time":2,"transit":false,"i_lat":-6.141205,"station_name":"Jayakarta","station_id":"JAY","line":7,"distance":1080,"is_transit":false,"i_long":106.820901},{"time":4,"i_lat":-6.137569,"distance":1264,"is_transit":true,"line":0,"i_long":106.812439,"station_id":"JAKK","station_name":"Jakarta Kota","transit":true},{"is_transit":true,"distance":1364,"i_long":106.826365,"station_name":"Kampung Bandan","station_id":"KPB","i_lat":-6.132549,"transit":true,"time":3,"line":0},{"time":3,"transit":false,"line":11,"i_long":106.836569,"station_id":"RJW","i_lat":-6.14505,"is_transit":false,"distance":1444,"station_name":"Rajawali"},{"transit":false,"station_id":"KMO","station_name":"Kemayoran","is_transit":false,"line":11,"i_long":106.839204,"distance":1901,"time":5,"i_lat":-6.161728},{"transit":false,"station_name":"Pasar Senen","distance":1436,"station_id":"PSE","line":11,"is_transit":false,"time":4,"i_long":106.84368,"i_lat":-6.174784},{"i_long":106.850107,"station_id":"GST","transit":false,"station_name":"Gang Sentiong","time":8,"i_lat":-6.185975,"line":11,"is_transit":false,"distance":1567},{"transit":false,"is_transit":false,"line":11,"station_id":"KMT","i_long":106.855437,"i_lat":-6.193792,"time":1,"station_name":"Kramat","distance":973},{"line":11,"i_long":106.861737,"transit":false,"time":2,"station_id":"POK","distance":1829,"station_name":"Pondok Jati","is_transit":false,"i_lat":-6.209188},{"distance":1236,"station_id":"JNG","is_transit":true,"i_lat":-6.215091,"station_name":"Jatinegara","transit":true,"time":9,"i_long":106.86807400000001,"line":0},{"i_lat":-6.212485,"transit":false,"is_transit":false,"i_long":106.858896,"station_name":"Matraman","line":1,"distance":1377,"station_id":"MTR","time":2},{"transit":false,"is_transit":true,"station_id":"MRI","i_lat":-6.209883,"distance":1275,"i_long":106.84912,"time":2,"line":0,"station_name":"Manggarai"}]]}