{"data":[[{"station_id":"GDD","i_long":106.832183,"transit":false,"is_transit":false,"time":0,"i_lat":-6.186295,"station_name":"Gondangdia","distance":0,"line":2},{"station_name":"Cikini","i_long":106.840169,"distance":1750,"transit":false,"line":2,"station_id":"CKI","i_lat":-6.198556,"is_transit":false,"time":3},{"transit":false,"time":4,"i_long":106.84912,"station_name":"Manggarai","distance":1590,"station_id":"MRI","is_transit":false,"line":2,"i_lat":-6.209883},{"transit":false,"station_id":"TEB","station_name":"Tebet","distance":2610,"time":4,"line":2,"is_transit":false,"i_long":106.857948,"i_lat":-6.226659},{"time":2,"is_transit":false,"i_long":106.856607,"station_id":"CW","station_name":"Cawang","i_lat":-6.242512,"line":2,"transit":false,"distance":1230}],[{"station_id":"GDD","i_lat":-6.186295,"line":2,"transit":false,"i_long":106.832183,"is_transit":false,"distance":0,"time":0,"station_name":"Gondangdia"},{"i_lat":-6.166716,"is_transit":false,"time":4,"distance":2015,"station_name":"Juanda","station_id":"JUA","line":2,"transit":false,"i_long":106.828284},{"distance":1149,"time":2,"transit":false,"is_transit":false,"i_long":106.827103,"line":2,"i_lat":-6.160725,"station_name":"Sawah Besar","station_id":"SW"},{"i_long":106.82482,"distance":906,"time":2,"i_lat":-6.149769,"transit":false,"is_transit":false,"station_id":"MGB","line":2,"station_name":"Manggabesar"},{"line":2,"is_transit":false,"time":2,"i_lat":-6.141205,"i_long":106.820901,"transit":false,"station_name":"Jayakarta","station_id":"JAY","distance":1080},{"station_name":"Jakarta Kota","transit":true,"station_id":"JAKK","distance":1264,"is_transit":true,"time":4,"i_lat":-6.137569,"line":2,"i_long":106.812439},{"i_long":106.826365,"transit":true,"distance":1364,"is_transit":true,"time":3,"station_name":"Kampung Bandan","station_id":"KPB","i_lat":-6.132549,"line":4},{"line":1,"i_long":106.79867,"station_name":"Angke","i_lat":-6.144674,"transit":false,"time":9,"is_transit":false,"distance":4102,"station_id":"AK"},{"is_transit":false,"distance":1230,"station_name":"Duri","i_lat":-6.155215,"time":4,"station_id":"DU","i_long":106.800832,"transit":false,"line":1},{"transit":false,"i_lat":-6.185545,"station_id":"THB","i_long":106.811091,"station_name":"Tanah Abang","distance":3632,"time":8,"line":1,"is_transit":false},{"i_lat":-6.20132,"line":1,"station_name":"Karet","distance":2029,"station_id":"KAT","i_long":106.816351,"transit":false,"time":5,"is_transit":false},{"transit":false,"distance":471,"time":1,"is_transit":false,"i_long":106.819881,"i_lat":-6.201433,"station_id":"SUDB","line":1,"station_name":"Sudirman Baru"},{"i_long":106.822649,"i_lat":-6.202263,"distance":280,"line":1,"transit":false,"time":1,"is_transit":false,"station_name":"Sudirman","station_id":"SUD"},{"station_name":"Manggarai","time":4,"i_long":106.84912,"distance":3186,"is_transit":true,"i_lat":-6.209883,"station_id":"MRI","line":2,"transit":true},{"station_name":"Tebet","line":2,"time":4,"i_long":106.857948,"station_id":"TEB","i_lat":-6.226659,"is_transit":false,"transit":false,"distance":2610},{"i_long":106.856607,"distance":1230,"transit":false,"station_id":"CW","station_name":"Cawang","i_lat":-6.242512,"time":2,"line":2,"is_transit":false}],[{"station_name":"Gondangdia","distance":0,"transit":false,"i_lat":-6.186295,"line":2,"station_id":"GDD","is_transit":false,"i_long":106.832183,"time":0},{"distance":2015,"transit":false,"is_transit":false,"i_long":106.828284,"station_name":"Juanda","station_id":"JUA","line":2,"time":4,"i_lat":-6.166716},{"transit":false,"is_transit":false,"station_id":"SW","i_long":106.827103,"i_lat":-6.160725,"station_name":"Sawah Besar","time":2,"distance":1149,"line":2},{"transit":false,"station_id":"MGB","line":2,"time":2,"is_transit":false,"i_long":106.82482,"station_name":"Manggabesar","i_lat":-6.149769,"distance":906},{"station_name":"Jayakarta","time":2,"distance":1080,"i_lat":-6.141205,"is_transit":false,"station_id":"JAY","i_long":106.820901,"transit":false,"line":2},{"station_id":"JAKK","time":4,"line":2,"i_long":106.812439,"distance":1264,"transit":true,"i_lat":-6.137569,"is_transit":true,"station_name":"Jakarta Kota"},{"transit":true,"station_name":"Kampung Bandan","line":4,"is_transit":true,"station_id":"KPB","time":3,"i_lat":-6.132549,"i_long":106.826365,"distance":1364},{"station_id":"RJW","line":11,"distance":1444,"time":3,"i_long":106.836569,"i_lat":-6.14505,"station_name":"Rajawali","is_transit":false,"transit":false},{"station_name":"Kemayoran","transit":false,"station_id":"KMO","time":5,"i_lat":-6.161728,"i_long":106.839204,"distance":1901,"is_transit":false,"line":11},{"line":11,"distance":1436,"time":4,"station_name":"Pasar Senen","transit":false,"is_transit":false,"i_lat":-6.174784,"i_long":106.84368,"station_id":"PSE"},{"distance":1567,"station_id":"GST","i_lat":-6.185975,"time":8,"is_transit":false,"station_name":"Gang Sentiong","transit":false,"i_long":106.850107,"line":11},{"time":1,"i_lat":-6.193792,"transit":false,"i_long":106.855437,"line":11,"is_transit":false,"station_name":"Kramat","station_id":"KMT","distance":973},{"distance":1829,"is_transit":false,"station_name":"Pondok Jati","station_id":"POK","i_lat":-6.209188,"transit":false,"i_long":106.861737,"line":11,"time":2},{"transit":true,"distance":1236,"time":9,"i_lat":-6.215091,"is_transit":true,"line":1,"station_id":"JNG","i_long":106.86807400000001,"station_name":"Jatinegara"},{"line":1,"station_name":"Matraman","is_transit":false,"i_long":106.858896,"distance":1377,"i_lat":-6.212485,"transit":false,"time":2,"station_id":"MTR"},{"time":2,"transit":true,"station_id":"MRI","station_name":"Manggarai","i_long":106.84912,"is_transit":true,"i_lat":-6.209883,"line":2,"distance":1275},{"distance":2610,"station_name":"Tebet","station_id":"TEB","line":2,"i_lat":-6.226659,"is_transit":false,"transit":false,"i_long":106.857948,"time":4},{"station_id":"CW","i_long":106.856607,"time":2,"transit":false,"line":2,"is_transit":false,"i_lat":-6.242512,"distance":1230,"station_name":"Cawang"}]]}