{"data":[[{"i_lat":-6.186295,"line":2,"transit":false,"i_long":106.832183,"distance":0,"is_transit":false,"station_id":"GDD","station_name":"Gondangdia","time":0},{"i_long":106.840169,"time":3,"distance":1750,"station_id":"CKI","transit":false,"line":2,"station_name":"Cikini","is_transit":false,"i_lat":-6.198556},{"line":2,"station_id":"MRI","is_transit":true,"time":4,"station_name":"Manggarai","distance":1590,"i_lat":-6.209883,"i_long":106.84912,"transit":true},{"station_name":"Sudirman","i_lat":-6.202263,"line":1,"station_id":"SUD","is_transit":false,"time":4,"distance":3186,"transit":false,"i_long":106.822649},{"is_transit":false,"i_lat":-6.201433,"station_id":"SUDB","station_name":"Sudirman Baru","transit":false,"time":1,"line":1,"distance":280,"i_long":106.819881},{"distance":471,"station_id":"KAT","station_name":"Karet","is_transit":false,"i_lat":-6.20132,"i_long":106.816351,"line":1,"transit":false,"time":1},{"distance":2029,"station_name":"Tanah Abang","transit":false,"station_id":"THB","is_transit":false,"i_long":106.811091,"line":1,"time":5,"i_lat":-6.185545},{"distance":3632,"time":8,"i_lat":-6.155215,"line":1,"station_name":"Duri","transit":true,"i_long":106.800832,"station_id":"DU","is_transit":true},{"i_lat":-6.162021,"i_long":106.788277,"station_name":"Grogol","line":5,"transit":false,"station_id":"GRG","time":3,"distance":1700,"is_transit":false},{"i_long":106.771379,"is_transit":false,"i_lat":-6.161433,"line":5,"station_name":"Pesing","station_id":"PSG","distance":2036,"transit":false,"time":2},{"i_long":106.756522,"distance":1614,"station_id":"TKO","transit":false,"i_lat":-6.1587309999999995,"is_transit":false,"station_name":"Taman Kota","time":2,"line":5}],[{"transit":false,"time":0,"distance":0,"i_long":106.832183,"station_id":"GDD","station_name":"Gondangdia","line":2,"is_transit":false,"i_lat":-6.186295},{"line":2,"i_long":106.828284,"distance":2015,"i_lat":-6.166716,"station_id":"JUA","station_name":"Juanda","time":4,"is_transit":false,"transit":false},{"transit":false,"station_id":"SW","i_long":106.827103,"is_transit":false,"i_lat":-6.160725,"time":2,"line":2,"distance":1149,"station_name":"Sawah Besar"},{"station_id":"MGB","is_transit":false,"time":2,"distance":906,"line":2,"station_name":"Manggabesar","transit":false,"i_lat":-6.149769,"i_long":106.82482},{"line":2,"i_lat":-6.141205,"station_name":"Jayakarta","station_id":"JAY","is_transit":false,"i_long":106.820901,"distance":1080,"transit":false,"time":2},{"station_id":"JAKK","distance":1264,"transit":true,"i_lat":-6.137569,"time":4,"i_long":106.812439,"line":2,"is_transit":true,"station_name":"Jakarta Kota"},{"station_id":"KPB","is_transit":true,"transit":true,"line":4,"i_lat":-6.132549,"station_name":"Kampung Bandan","distance":1364,"i_long":106.826365,"time":3},{"time":9,"station_id":"AK","station_name":"Angke","transit":false,"distance":4102,"is_transit":false,"i_lat":-6.144674,"i_long":106.79867,"line":1},{"i_long":106.800832,"line":1,"is_transit":true,"distance":1230,"station_id":"DU","station_name":"Duri","time":4,"transit":true,"i_lat":-6.155215},{"transit":false,"line":5,"station_name":"Grogol","time":3,"i_lat":-6.162021,"is_transit":false,"i_long":106.788277,"station_id":"GRG","distance":1700},{"transit":false,"time":2,"station_name":"Pesing","is_transit":false,"station_id":"PSG","line":5,"i_long":106.771379,"i_lat":-6.161433,"distance":2036},{"station_id":"TKO","transit":false,"is_transit":false,"line":5,"i_lat":-6.1587309999999995,"i_long":106.756522,"station_name":"Taman Kota","time":2,"distance":1614}],[{"is_transit":false,"transit":false,"distance":0,"i_lat":-6.186295,"i_long":106.832183,"station_name":"Gondangdia","time":0,"line":2,"station_id":"GDD"},{"line":2,"distance":1750,"i_long":106.840169,"time":3,"transit":false,"station_name":"Cikini","i_lat":-6.198556,"station_id":"CKI","is_transit":false},{"station_id":"MRI","time":4,"is_transit":true,"station_name":"Manggarai","i_long":106.84912,"line":2,"transit":true,"i_lat":-6.209883,"distance":1590},{"station_name":"Matraman","station_id":"MTR","line":1,"i_lat":-6.212485,"i_long":106.858896,"distance":1275,"is_transit":false,"transit":false,"time":2},{"i_long":106.86807400000001,"distance":1377,"station_id":"JNG","line":1,"station_name":"Jatinegara","transit":true,"time":8,"is_transit":true,"i_lat":-6.215091},{"i_long":106.861737,"time":2,"station_id":"POK","transit":false,"i_lat":-6.209188,"station_name":"Pondok Jati","is_transit":false,"line":11,"distance":1236},{"is_transit":false,"transit":false,"station_name":"Kramat","time":2,"distance":1829,"station_id":"KMT","line":11,"i_lat":-6.193792,"i_long":106.855437},{"distance":973,"station_id":"GST","is_transit":false,"i_lat":-6.185975,"i_long":106.850107,"line":11,"time":1,"transit":false,"station_name":"Gang Sentiong"},{"distance":1567,"time":8,"station_name":"Pasar Senen","is_transit":false,"i_lat":-6.174784,"station_id":"PSE","transit":false,"line":11,"i_long":106.84368},{"transit":false,"line":11,"is_transit":false,"i_lat":-6.161728,"i_long":106.839204,"distance":1436,"time":4,"station_name":"Kemayoran","station_id":"KMO"},{"i_lat":-6.14505,"station_id":"RJW","i_long":106.836569,"transit":false,"time":5,"is_transit":false,"distance":1901,"station_name":"Rajawali","line":11},{"is_transit":true,"station_name":"Kampung Bandan","i_lat":-6.132549,"transit":true,"i_long":106.826365,"station_id":"KPB","line":4,"distance":1444,"time":3},{"station_name":"Angke","is_transit":false,"station_id":"AK","i_lat":-6.144674,"line":1,"transit":false,"i_long":106.79867,"time":9,"distance":4102},{"station_id":"DU","line":1,"time":4,"distance":1230,"station_name":"Duri","is_transit":true,"transit":true,"i_lat":-6.155215,"i_long":106.800832},{"time":3,"is_transit":false,"distance":1700,"station_name":"Grogol","transit":false,"i_lat":-6.162021,"station_id":"GRG","i_long":106.788277,"line":5},{"transit":false,"i_lat":-6.161433,"station_name":"Pesing","is_transit":false,"line":5,"time":2,"distance":2036,"station_id":"PSG","i_long":106.771379},{"i_long":106.756522,"distance":1614,"i_lat":-6.1587309999999995,"is_transit":false,"transit":false,"time":2,"station_id":"TKO","station_name":"Taman Kota","line":5}],[{"is_transit":false,"transit":false,"station_id":"GDD","station_name":"Gondangdia","distance":0,"i_long":106.832183,"line":2,"time":0,"i_lat":-6.186295},{"time":4,"distance":2015,"transit":false,"station_id":"JUA","i_lat":-6.166716,"station_name":"Juanda","is_transit":false,"i_long":106.828284,"line":2},{"time":2,"i_lat":-6.160725,"distance":1149,"station_id":"SW","is_transit":false,"line":2,"transit":false,"station_name":"Sawah Besar","i_long":106.827103},{"time":2,"transit":false,"i_lat":-6.149769,"distance":906,"is_transit":false,"station_name":"Manggabesar","station_id":"MGB","i_long":106.82482,"line":2},{"i_long":106.820901,"station_id":"JAY","time":2,"is_transit":false,"station_name":"Jayakarta","distance":1080,"i_lat":-6.141205,"transit":false,"line":2},{"station_name":"Jakarta Kota","transit":true,"is_transit":true,"i_long":106.812439,"i_lat":-6.137569,"line":2,"time":4,"station_id":"JAKK","distance":1264},{"line":4,"is_transit":true,"i_long":106.826365,"station_id":"KPB","station_name":"Kampung Bandan","distance":1364,"time":3,"transit":true,"i_lat":-6.132549},{"time":3,"i_lat":-6.14505,"i_long":106.836569,"is_transit":false,"transit":false,"station_name":"Rajawali","distance":1444,"station_id":"RJW","line":11},{"station_name":"Kemayoran","is_transit":false,"i_lat":-6.161728,"distance":1901,"time":5,"station_id":"KMO","transit":false,"i_long":106.839204,"line":11},{"transit":false,"station_name":"Pasar Senen","station_id":"PSE","is_transit":false,"line":11,"distance":1436,"time":4,"i_lat":-6.174784,"i_long":106.84368},{"transit":false,"distance":1567,"i_long":106.850107,"line":11,"station_id":"GST","station_name":"Gang Sentiong","i_lat":-6.185975,"is_transit":false,"time":8},{"station_name":"Kramat","transit":false,"i_long":106.855437,"station_id":"KMT","i_lat":-6.193792,"distance":973,"is_transit":false,"line":11,"time":1},{"line":11,"is_transit":false,"i_lat":-6.209188,"time":2,"station_name":"Pondok Jati","station_id":"POK","distance":1829,"transit":false,"i_long":106.861737},{"line":1,"station_id":"JNG","transit":true,"i_lat":-6.215091,"time":9,"i_long":106.86807400000001,"distance":1236,"station_name":"Jatinegara","is_transit":true},{"station_name":"Matraman","line":1,"time":2,"i_long":106.858896,"is_transit":false,"distance":1377,"i_lat":-6.212485,"transit":false,"station_id":"MTR"},{"is_transit":false,"i_long":106.84912,"station_id":"MRI","station_name":"Manggarai","transit":false,"time":2,"distance":1275,"line":2,"i_lat":-6.209883},{"distance":3186,"line":1,"time":4,"transit":false,"i_lat":-6.202263,"is_transit":false,"i_long":106.822649,"station_name":"Sudirman","station_id":"SUD"},{"is_transit":false,"i_long":106.819881,"i_lat":-6.201433,"distance":280,"station_name":"Sudirman Baru","time":1,"line":1,"station_id":"SUDB","transit":false},{"distance":471,"station_name":"Karet","station_id":"KAT","is_transit":false,"i_lat":-6.20132,"time":1,"transit":false,"line":1,"i_long":106.816351},{"time":5,"transit":false,"station_name":"Tanah Abang","is_transit":false,"distance":2029,"i_long":106.811091,"line":1,"station_id":"THB","i_lat":-6.185545},{"line":1,"time":8,"station_id":"DU","station_name":"Duri","transit":true,"i_long":106.800832,"i_lat":-6.155215,"distance":3632,"is_transit":true},{"time":3,"line":5,"station_name":"Grogol","transit":false,"i_lat":-6.162021,"i_long":106.788277,"station_id":"GRG","is_transit":false,"distance":1700},{"is_transit":false,"line":5,"i_lat":-6.161433,"i_long":106.771379,"time":2,"station_name":"Pesing","transit":false,"station_id":"PSG","distance":2036},{"distance":1614,"time":2,"is_transit":false,"station_name":"Taman Kota","i_long":106.756522,"i_lat":-6.1587309999999995,"transit":false,"line":5,"station_id":"TKO"}]]}