{"data":[[{"i_lat":-6.162021,"time":0,"i_long":106.788277,"line":5,"station_name":"Grogol","station_id":"GGL","is_transit":false,"distance":0,"transit":false},{"time":3,"i_long":106.800832,"distance":1700,"station_id":"DU","station_name":"Duri","is_transit":true,"line":1,"transit":true,"i_lat":-6.155215},{"is_transit":false,"time":8,"station_id":"THB","station_name":"Tanah Abang","i_long":106.811091,"line":1,"i_lat":-6.185545,"transit":false,"distance":3632},{"distance":2029,"i_lat":-6.20132,"station_id":"KAT","time":5,"is_transit":false,"line":1,"station_name":"Karet","i_long":106.816351,"transit":false},{"i_long":106.819881,"station_id":"SUDB","time":1,"is_transit":false,"transit":false,"station_name":"Sudirman Baru","line":1,"i_lat":-6.201433,"distance":471},{"station_name":"Sudirman","distance":280,"transit":false,"station_id":"SUD","time":1,"i_long":106.822649,"i_lat":-6.202263,"line":1,"is_transit":false},{"i_long":106.84912,"line":2,"transit":false,"distance":3186,"station_name":"Manggarai","i_lat":-6.209883,"time":4,"station_id":"MRI","is_transit":false},{"transit":false,"is_transit":false,"time":2,"i_long":106.858896,"line":1,"i_lat":-6.212485,"station_name":"Matraman","station_id":"MTR","distance":1275},{"is_transit":false,"transit":false,"station_name":"Jatinegara","i_lat":-6.215091,"i_long":106.86807400000001,"time":8,"distance":1377,"station_id":"JNG","line":1},{"time":3,"i_long":106.899548,"station_id":"KLD","is_transit":false,"transit":false,"station_name":"Klender","line":1,"distance":3395,"i_lat":-6.2135},{"transit":false,"distance":3100,"time":2,"i_lat":-6.215568,"station_name":"Buaran","i_long":106.922662,"is_transit":false,"line":1,"station_id":"BUA"},{"i_long":106.939679,"transit":false,"line":1,"station_name":"Klenderbaru","distance":1305,"station_id":"KLDB","is_transit":false,"time":1,"i_lat":-6.217455}],[{"station_id":"GGL","is_transit":false,"station_name":"Grogol","distance":0,"i_lat":-6.162021,"time":0,"transit":false,"line":5,"i_long":106.788277},{"station_id":"DU","i_lat":-6.155215,"distance":1700,"time":3,"transit":true,"station_name":"Duri","line":1,"is_transit":true,"i_long":106.800832},{"i_long":106.79867,"station_id":"AK","i_lat":-6.144674,"station_name":"Angke","is_transit":false,"line":1,"transit":false,"time":4,"distance":1230},{"transit":true,"station_id":"KPB","is_transit":true,"station_name":"Kampung Bandan","distance":4102,"i_lat":-6.132549,"time":9,"line":4,"i_long":106.826365},{"is_transit":false,"transit":false,"station_id":"RJW","time":3,"i_lat":-6.14505,"i_long":106.836569,"station_name":"Rajawali","line":11,"distance":1444},{"is_transit":false,"line":11,"transit":false,"station_id":"KMO","i_long":106.839204,"distance":1901,"time":5,"i_lat":-6.161728,"station_name":"Kemayoran"},{"is_transit":false,"i_long":106.84368,"transit":false,"station_name":"Pasar Senen","station_id":"PSE","i_lat":-6.174784,"time":4,"line":11,"distance":1436},{"transit":false,"station_name":"Gang Sentiong","station_id":"GST","time":8,"i_long":106.850107,"i_lat":-6.185975,"distance":1567,"is_transit":false,"line":11},{"transit":false,"station_name":"Kramat","is_transit":false,"time":1,"i_lat":-6.193792,"i_long":106.855437,"station_id":"KMT","distance":973,"line":11},{"i_long":106.861737,"distance":1829,"is_transit":false,"transit":false,"station_name":"Pondok Jati","station_id":"POK","time":2,"line":11,"i_lat":-6.209188},{"is_transit":true,"distance":1236,"station_id":"JNG","station_name":"Jatinegara","transit":true,"time":9,"i_lat":-6.215091,"i_long":106.86807400000001,"line":1},{"i_long":106.899548,"station_id":"KLD","is_transit":false,"line":1,"station_name":"Klender","time":3,"transit":false,"i_lat":-6.2135,"distance":3395},{"transit":false,"i_long":106.922662,"distance":3100,"line":1,"time":2,"is_transit":false,"station_name":"Buaran","i_lat":-6.215568,"station_id":"BUA"},{"station_name":"Klenderbaru","distance":1305,"i_lat":-6.217455,"i_long":106.939679,"time":1,"station_id":"KLDB","line":1,"is_transit":false,"transit":false}],[{"station_id":"GGL","line":5,"station_name":"Grogol","distance":0,"is_transit":false,"transit":false,"time":0,"i_long":106.788277,"i_lat":-6.162021},{"time":3,"distance":1700,"i_lat":-6.155215,"station_name":"Duri","station_id":"DU","i_long":106.800832,"line":1,"is_transit":true,"transit":true},{"transit":false,"line":1,"is_transit":false,"station_id":"AK","i_lat":-6.144674,"station_name":"Angke","time":4,"distance":1230,"i_long":106.79867},{"i_lat":-6.132549,"transit":true,"distance":4102,"time":9,"station_id":"KPB","line":4,"is_transit":true,"station_name":"Kampung Bandan","i_long":106.826365},{"distance":1364,"i_lat":-6.137569,"line":2,"station_name":"Jakarta Kota","is_transit":true,"time":3,"i_long":106.812439,"transit":true,"station_id":"JAKK"},{"station_id":"JAY","i_long":106.820901,"is_transit":false,"transit":false,"distance":1264,"time":4,"i_lat":-6.141205,"line":2,"station_name":"Jayakarta"},{"station_id":"MGB","is_transit":false,"time":2,"i_lat":-6.149769,"i_long":106.82482,"line":2,"distance":1080,"transit":false,"station_name":"Manggabesar"},{"station_name":"Sawah Besar","is_transit":false,"i_lat":-6.160725,"i_long":106.827103,"line":2,"transit":false,"distance":906,"station_id":"SW","time":2},{"line":2,"station_name":"Juanda","is_transit":false,"time":2,"transit":false,"i_lat":-6.166716,"distance":1149,"station_id":"JUA","i_long":106.828284},{"i_long":106.832183,"is_transit":false,"line":2,"station_id":"GDD","transit":false,"station_name":"Gondangdia","distance":2015,"time":4,"i_lat":-6.186295},{"station_id":"CKI","i_long":106.840169,"transit":false,"line":2,"time":3,"is_transit":false,"distance":1750,"station_name":"Cikini","i_lat":-6.198556},{"is_transit":true,"i_lat":-6.209883,"transit":true,"i_long":106.84912,"distance":1590,"station_name":"Manggarai","line":2,"station_id":"MRI","time":4},{"i_long":106.858896,"station_name":"Matraman","station_id":"MTR","is_transit":false,"time":2,"i_lat":-6.212485,"line":1,"transit":false,"distance":1275},{"station_id":"JNG","distance":1377,"line":1,"i_long":106.86807400000001,"is_transit":false,"transit":false,"time":8,"i_lat":-6.215091,"station_name":"Jatinegara"},{"i_lat":-6.2135,"i_long":106.899548,"station_name":"Klender","station_id":"KLD","line":1,"transit":false,"is_transit":false,"distance":3395,"time":3},{"station_id":"BUA","transit":false,"is_transit":false,"distance":3100,"i_lat":-6.215568,"i_long":106.922662,"time":2,"line":1,"station_name":"Buaran"},{"station_name":"Klenderbaru","station_id":"KLDB","time":1,"distance":1305,"i_lat":-6.217455,"transit":false,"i_long":106.939679,"line":1,"is_transit":false}],[{"distance":0,"i_long":106.788277,"is_transit":false,"station_name":"Grogol","line":5,"station_id":"GGL","i_lat":-6.162021,"time":0,"transit":false},{"transit":true,"station_id":"DU","time":3,"is_transit":true,"i_lat":-6.155215,"station_name":"Duri","i_long":106.800832,"line":1,"distance":1700},{"station_id":"THB","is_transit":false,"time":8,"station_name":"Tanah Abang","distance":3632,"transit":false,"i_lat":-6.185545,"i_long":106.811091,"line":1},{"line":1,"i_long":106.816351,"distance":2029,"transit":false,"i_lat":-6.20132,"station_name":"Karet","station_id":"KAT","time":5,"is_transit":false},{"i_lat":-6.201433,"station_name":"Sudirman Baru","station_id":"SUDB","time":1,"transit":false,"line":1,"i_long":106.819881,"distance":471,"is_transit":false},{"distance":280,"is_transit":false,"transit":false,"line":1,"i_long":106.822649,"station_name":"Sudirman","station_id":"SUD","time":1,"i_lat":-6.202263},{"station_name":"Manggarai","distance":3186,"i_lat":-6.209883,"station_id":"MRI","time":4,"is_transit":true,"i_long":106.84912,"line":2,"transit":true},{"time":4,"i_lat":-6.198556,"transit":false,"distance":1590,"station_name":"Cikini","i_long":106.840169,"line":2,"is_transit":false,"station_id":"CKI"},{"station_id":"GDD","i_long":106.832183,"line":2,"time":3,"station_name":"Gondangdia","distance":1750,"is_transit":false,"i_lat":-6.186295,"transit":false},{"station_id":"JUA","distance":2015,"i_lat":-6.166716,"i_long":106.828284,"station_name":"Juanda","is_transit":false,"transit":false,"time":4,"line":2},{"time":2,"transit":false,"i_lat":-6.160725,"line":2,"distance":1149,"is_transit":false,"i_long":106.827103,"station_name":"Sawah Besar","station_id":"SW"},{"transit":false,"i_lat":-6.149769,"distance":906,"line":2,"is_transit":false,"station_name":"Manggabesar","station_id":"MGB","i_long":106.82482,"time":2},{"is_transit":false,"station_name":"Jayakarta","i_lat":-6.141205,"transit":false,"station_id":"JAY","distance":1080,"time":2,"i_long":106.820901,"line":2},{"i_long":106.812439,"line":2,"station_id":"JAKK","station_name":"Jakarta Kota","time":4,"distance":1264,"i_lat":-6.137569,"transit":true,"is_transit":true},{"station_name":"Kampung Bandan","station_id":"KPB","distance":1364,"is_transit":true,"i_lat":-6.132549,"time":3,"transit":true,"i_long":106.826365,"line":4},{"transit":false,"station_id":"RJW","line":11,"distance":1444,"is_transit":false,"time":3,"i_long":106.836569,"station_name":"Rajawali","i_lat":-6.14505},{"station_id":"KMO","i_lat":-6.161728,"i_long":106.839204,"time":5,"distance":1901,"line":11,"is_transit":false,"station_name":"Kemayoran","transit":false},{"transit":false,"i_long":106.84368,"station_name":"Pasar Senen","station_id":"PSE","i_lat":-6.174784,"distance":1436,"line":11,"time":4,"is_transit":false},{"time":8,"i_lat":-6.185975,"is_transit":false,"transit":false,"i_long":106.850107,"line":11,"station_name":"Gang Sentiong","distance":1567,"station_id":"GST"},{"is_transit":false,"station_name":"Kramat","station_id":"KMT","i_lat":-6.193792,"transit":false,"time":1,"line":11,"distance":973,"i_long":106.855437},{"time":2,"station_name":"Pondok Jati","is_transit":false,"i_lat":-6.209188,"transit":false,"distance":1829,"station_id":"POK","i_long":106.861737,"line":11},{"time":9,"distance":1236,"station_id":"JNG","station_name":"Jatinegara","is_transit":true,"line":1,"transit":true,"i_long":106.86807400000001,"i_lat":-6.215091},{"distance":3395,"is_transit":false,"transit":false,"i_lat":-6.2135,"station_name":"Klender","time":3,"i_long":106.899548,"line":1,"station_id":"KLD"},{"time":2,"is_transit":false,"i_long":106.922662,"line":1,"station_id":"BUA","i_lat":-6.215568,"distance":3100,"transit":false,"station_name":"Buaran"},{"station_name":"Klenderbaru","line":1,"transit":false,"station_id":"KLDB","i_long":106.939679,"distance":1305,"time":1,"is_transit":false,"i_lat":-6.217455}]]}