{"data":[[{"station_name":"Grogol","distance":0,"line":5,"is_transit":false,"transit":false,"i_lat":-6.162021,"station_id":"GGL","i_long":106.788277,"time":0},{"line":1,"is_transit":true,"i_lat":-6.155215,"time":3,"i_long":106.800832,"station_id":"DU","transit":true,"distance":1700,"station_name":"Duri"},{"distance":3632,"transit":false,"station_id":"THB","line":1,"i_lat":-6.185545,"is_transit":false,"i_long":106.811091,"time":8,"station_name":"Tanah Abang"},{"transit":false,"is_transit":false,"station_name":"Karet","distance":2029,"i_long":106.816351,"i_lat":-6.20132,"time":5,"line":1,"station_id":"KAT"},{"time":1,"is_transit":false,"station_name":"Sudirman Baru","station_id":"SUDB","distance":471,"transit":false,"i_lat":-6.201433,"i_long":106.819881,"line":1},{"line":1,"i_long":106.822649,"station_id":"SUD","station_name":"Sudirman","time":1,"distance":280,"is_transit":false,"transit":false,"i_lat":-6.202263},{"time":4,"i_lat":-6.209883,"station_id":"MRI","distance":3186,"station_name":"Manggarai","transit":true,"i_long":106.84912,"is_transit":true,"line":2},{"i_long":106.857948,"time":4,"distance":2610,"transit":false,"line":2,"station_name":"Tebet","i_lat":-6.226659,"station_id":"TEB","is_transit":false},{"distance":1230,"line":2,"time":2,"i_lat":-6.242512,"transit":false,"i_long":106.856607,"station_name":"Cawang","station_id":"CW","is_transit":false},{"station_id":"DRN","distance":1546,"transit":false,"line":2,"station_name":"Duren Kalibata","is_transit":false,"i_long":106.85449,"time":3,"i_lat":-6.255332},{"station_name":"Pasar Minggu Baru","i_long":106.851577,"station_id":"PSMB","time":2,"is_transit":false,"transit":false,"line":2,"distance":824,"i_lat":-6.263214},{"station_id":"PSM","is_transit":false,"distance":2380,"time":2,"line":2,"i_long":106.843999,"transit":false,"i_lat":-6.2842400000000005,"station_name":"Pasar Minggu"},{"distance":2820,"is_transit":false,"time":4,"i_lat":-6.3080680000000005,"transit":false,"line":2,"station_id":"TNT","station_name":"Tanjung Barat","i_long":106.838896},{"is_transit":false,"transit":false,"i_long":106.832616,"time":3,"station_id":"LNA","i_lat":-6.330363,"station_name":"Lenteng Agung","line":2,"distance":2671},{"line":2,"station_name":"Univ. Pancasila","transit":false,"time":2,"i_lat":-6.339291,"i_long":106.834175,"station_id":"UP","distance":1029,"is_transit":false},{"distance":2264,"i_long":106.831474,"i_lat":-6.360749,"is_transit":false,"station_name":"Univ. Indonesia","line":2,"time":3,"transit":false,"station_id":"UI"},{"distance":1109,"station_id":"POC","i_long":106.831114,"line":2,"transit":false,"time":2,"station_name":"Pondok Cina","is_transit":false,"i_lat":-6.369073},{"time":4,"is_transit":false,"station_name":"Depokbaru","station_id":"DPB","i_long":106.819451,"transit":false,"distance":2727,"i_lat":-6.391065,"line":2},{"station_id":"DP","i_long":106.816926,"line":2,"is_transit":false,"time":3,"distance":1584,"station_name":"Depok","transit":false,"i_lat":-6.405256},{"station_name":"Citayam","transit":false,"is_transit":false,"distance":5084,"i_lat":-6.448811,"line":2,"time":6,"i_long":106.800298,"station_id":"CTA"},{"i_long":106.792719,"station_id":"BJD","station_name":"Bojonggede","distance":5197,"is_transit":false,"transit":false,"line":2,"time":5,"i_lat":-6.493243}],[{"transit":false,"i_long":106.788277,"line":5,"is_transit":false,"time":0,"distance":0,"station_name":"Grogol","i_lat":-6.162021,"station_id":"GGL"},{"time":3,"line":1,"i_long":106.800832,"i_lat":-6.155215,"station_id":"DU","is_transit":true,"distance":1700,"transit":true,"station_name":"Duri"},{"station_name":"Angke","distance":1230,"i_lat":-6.144674,"transit":false,"i_long":106.79867,"is_transit":false,"time":4,"line":1,"station_id":"AK"},{"time":9,"station_id":"KPB","distance":4102,"i_long":106.826365,"station_name":"Kampung Bandan","line":4,"transit":true,"i_lat":-6.132549,"is_transit":true},{"distance":1364,"station_name":"Jakarta Kota","i_long":106.812439,"is_transit":true,"i_lat":-6.137569,"line":2,"time":3,"transit":true,"station_id":"JAKK"},{"station_id":"JAY","line":2,"transit":false,"i_lat":-6.141205,"distance":1264,"station_name":"Jayakarta","time":4,"i_long":106.820901,"is_transit":false},{"transit":false,"station_name":"Manggabesar","time":2,"station_id":"MGB","is_transit":false,"i_long":106.82482,"line":2,"i_lat":-6.149769,"distance":1080},{"i_lat":-6.160725,"line":2,"station_name":"Sawah Besar","station_id":"SW","i_long":106.827103,"time":2,"is_transit":false,"transit":false,"distance":906},{"station_id":"JUA","station_name":"Juanda","i_lat":-6.166716,"time":2,"line":2,"distance":1149,"is_transit":false,"i_long":106.828284,"transit":false},{"i_long":106.832183,"is_transit":false,"line":2,"transit":false,"station_name":"Gondangdia","distance":2015,"i_lat":-6.186295,"station_id":"GDD","time":4},{"line":2,"is_transit":false,"station_id":"CKI","i_long":106.840169,"time":3,"i_lat":-6.198556,"transit":false,"distance":1750,"station_name":"Cikini"},{"transit":false,"i_lat":-6.209883,"line":2,"station_id":"MRI","distance":1590,"time":4,"station_name":"Manggarai","is_transit":false,"i_long":106.84912},{"i_long":106.857948,"station_id":"TEB","transit":false,"line":2,"time":4,"i_lat":-6.226659,"station_name":"Tebet","distance":2610,"is_transit":false},{"transit":false,"i_lat":-6.242512,"is_transit":false,"i_long":106.856607,"line":2,"station_id":"CW","distance":1230,"station_name":"Cawang","time":2},{"distance":1546,"i_lat":-6.255332,"line":2,"time":3,"i_long":106.85449,"station_name":"Duren Kalibata","is_transit":false,"transit":false,"station_id":"DRN"},{"transit":false,"station_id":"PSMB","is_transit":false,"distance":824,"station_name":"Pasar Minggu Baru","i_lat":-6.263214,"i_long":106.851577,"line":2,"time":2},{"distance":2380,"i_long":106.843999,"i_lat":-6.2842400000000005,"is_transit":false,"transit":false,"station_id":"PSM","line":2,"time":2,"station_name":"Pasar Minggu"},{"i_lat":-6.3080680000000005,"station_name":"Tanjung Barat","line":2,"is_transit":false,"station_id":"TNT","i_long":106.838896,"distance":2820,"time":4,"transit":false},{"station_name":"Lenteng Agung","station_id":"LNA","i_long":106.832616,"transit":false,"distance":2671,"line":2,"i_lat":-6.330363,"time":3,"is_transit":false},{"i_long":106.834175,"is_transit":false,"station_name":"Univ. Pancasila","time":2,"line":2,"distance":1029,"i_lat":-6.339291,"station_id":"UP","transit":false},{"distance":2264,"station_id":"UI","is_transit":false,"line":2,"i_long":106.831474,"transit":false,"station_name":"Univ. Indonesia","time":3,"i_lat":-6.360749},{"time":2,"i_lat":-6.369073,"line":2,"is_transit":false,"transit":false,"distance":1109,"station_id":"POC","station_name":"Pondok Cina","i_long":106.831114},{"is_transit":false,"distance":2727,"transit":false,"station_id":"DPB","i_lat":-6.391065,"time":4,"i_long":106.819451,"station_name":"Depokbaru","line":2},{"distance":1584,"is_transit":false,"station_name":"Depok","i_lat":-6.405256,"line":2,"time":3,"i_long":106.816926,"station_id":"DP","transit":false},{"i_long":106.800298,"time":6,"station_id":"CTA","is_transit":false,"distance":5084,"station_name":"Citayam","transit":false,"line":2,"i_lat":-6.448811},{"line":2,"station_id":"BJD","i_lat":-6.493243,"station_name":"Bojonggede","transit":false,"i_long":106.792719,"is_transit":false,"distance":5197,"time":5}],[{"station_name":"Grogol","i_lat":-6.162021,"time":0,"distance":0,"is_transit":false,"i_long":106.788277,"transit":false,"line":5,"station_id":"GGL"},{"i_long":106.800832,"station_id":"DU","station_name":"Duri","time":3,"is_transit":true,"transit":true,"distance":1700,"i_lat":-6.155215,"line":1},{"i_long":106.79867,"is_transit":false,"line":1,"time":4,"station_name":"Angke","distance":1230,"i_lat":-6.144674,"station_id":"AK","transit":false},{"time":9,"station_name":"Kampung Bandan","line":4,"transit":true,"distance":4102,"i_long":106.826365,"i_lat":-6.132549,"station_id":"KPB","is_transit":true},{"distance":1444,"i_long":106.836569,"is_transit":false,"time":3,"station_name":"Rajawali","transit":false,"line":11,"station_id":"RJW","i_lat":-6.14505},{"line":11,"time":5,"transit":false,"station_id":"KMO","i_long":106.839204,"distance":1901,"i_lat":-6.161728,"is_transit":false,"station_name":"Kemayoran"},{"station_name":"Pasar Senen","line":11,"station_id":"PSE","time":4,"transit":false,"distance":1436,"is_transit":false,"i_lat":-6.174784,"i_long":106.84368},{"i_long":106.850107,"transit":false,"is_transit":false,"station_name":"Gang Sentiong","line":11,"i_lat":-6.185975,"time":8,"distance":1567,"station_id":"GST"},{"transit":false,"i_lat":-6.193792,"time":1,"is_transit":false,"line":11,"i_long":106.855437,"station_id":"KMT","station_name":"Kramat","distance":973},{"i_lat":-6.209188,"time":2,"distance":1829,"station_id":"POK","is_transit":false,"i_long":106.861737,"transit":false,"station_name":"Pondok Jati","line":11},{"i_long":106.86807400000001,"line":1,"is_transit":true,"i_lat":-6.215091,"time":9,"transit":true,"station_id":"JNG","distance":1236,"station_name":"Jatinegara"},{"distance":1377,"station_id":"MTR","transit":false,"i_long":106.858896,"station_name":"Matraman","line":1,"i_lat":-6.212485,"time":2,"is_transit":false},{"transit":true,"i_long":106.84912,"i_lat":-6.209883,"line":2,"time":2,"distance":1275,"is_transit":true,"station_id":"MRI","station_name":"Manggarai"},{"i_long":106.857948,"transit":false,"is_transit":false,"station_name":"Tebet","line":2,"distance":2610,"station_id":"TEB","i_lat":-6.226659,"time":4},{"i_long":106.856607,"station_id":"CW","time":2,"line":2,"transit":false,"is_transit":false,"distance":1230,"station_name":"Cawang","i_lat":-6.242512},{"distance":1546,"line":2,"station_id":"DRN","i_long":106.85449,"is_transit":false,"time":3,"i_lat":-6.255332,"transit":false,"station_name":"Duren Kalibata"},{"transit":false,"is_transit":false,"i_long":106.851577,"time":2,"distance":824,"i_lat":-6.263214,"line":2,"station_name":"Pasar Minggu Baru","station_id":"PSMB"},{"i_long":106.843999,"line":2,"station_name":"Pasar Minggu","time":2,"transit":false,"is_transit":false,"distance":2380,"station_id":"PSM","i_lat":-6.2842400000000005},{"station_name":"Tanjung Barat","line":2,"time":4,"i_lat":-6.3080680000000005,"distance":2820,"i_long":106.838896,"transit":false,"station_id":"TNT","is_transit":false},{"distance":2671,"i_lat":-6.330363,"i_long":106.832616,"station_id":"LNA","station_name":"Lenteng Agung","line":2,"transit":false,"is_transit":false,"time":3},{"distance":1029,"station_id":"UP","station_name":"Univ. Pancasila","line":2,"is_transit":false,"i_lat":-6.339291,"i_long":106.834175,"transit":false,"time":2},{"i_lat":-6.360749,"time":3,"i_long":106.831474,"line":2,"station_id":"UI","transit":false,"distance":2264,"station_name":"Univ. Indonesia","is_transit":false},{"is_transit":false,"time":2,"station_id":"POC","i_long":106.831114,"i_lat":-6.369073,"transit":false,"station_name":"Pondok Cina","line":2,"distance":1109},{"time":4,"i_lat":-6.391065,"i_long":106.819451,"station_id":"DPB","transit":false,"distance":2727,"is_transit":false,"station_name":"Depokbaru","line":2},{"transit":false,"station_name":"Depok","i_long":106.816926,"distance":1584,"line":2,"station_id":"DP","time":3,"i_lat":-6.405256,"is_transit":false},{"time":6,"transit":false,"station_id":"CTA","distance":5084,"i_lat":-6.448811,"line":2,"station_name":"Citayam","i_long":106.800298,"is_transit":false},{"time":5,"station_id":"BJD","station_name":"Bojonggede","is_transit":false,"transit":false,"i_lat":-6.493243,"i_long":106.792719,"distance":5197,"line":2}]]}