{"data":[[{"line":5,"station_name":"Grogol","station_id":"GGL","distance":0,"transit":false,"i_lat":-6.162021,"is_transit":false,"time":0,"i_long":106.788277},{"station_id":"DU","transit":true,"i_lat":-6.155215,"time":3,"is_transit":true,"distance":1700,"line":1,"station_name":"Duri","i_long":106.800832},{"station_id":"THB","distance":3632,"line":1,"station_name":"Tanah Abang","is_transit":false,"i_lat":-6.185545,"transit":false,"i_long":106.811091,"time":8},{"i_long":106.816351,"line":1,"station_name":"Karet","time":5,"station_id":"KAT","is_transit":false,"i_lat":-6.20132,"transit":false,"distance":2029},{"station_name":"Sudirman Baru","distance":471,"i_long":106.819881,"station_id":"SUDB","transit":false,"line":1,"i_lat":-6.201433,"is_transit":false,"time":1},{"time":1,"transit":false,"i_long":106.822649,"line":1,"is_transit":false,"station_id":"SUD","i_lat":-6.202263,"station_name":"Sudirman","distance":280},{"station_name":"Manggarai","station_id":"MRI","distance":3186,"is_transit":true,"transit":true,"line":2,"i_long":106.84912,"time":4,"i_lat":-6.209883},{"is_transit":false,"transit":false,"station_id":"TEB","station_name":"Tebet","time":4,"i_lat":-6.226659,"distance":2610,"i_long":106.857948,"line":2}],[{"time":0,"line":5,"distance":0,"is_transit":false,"station_name":"Grogol","station_id":"GGL","transit":false,"i_lat":-6.162021,"i_long":106.788277},{"is_transit":true,"distance":1700,"line":1,"i_long":106.800832,"station_name":"Duri","station_id":"DU","i_lat":-6.155215,"transit":true,"time":3},{"i_lat":-6.144674,"station_name":"Angke","is_transit":false,"transit":false,"distance":1230,"time":4,"line":1,"i_long":106.79867,"station_id":"AK"},{"station_id":"KPB","distance":4102,"transit":true,"line":4,"is_transit":true,"time":9,"i_long":106.826365,"station_name":"Kampung Bandan","i_lat":-6.132549},{"i_long":106.812439,"distance":1364,"is_transit":true,"station_name":"Jakarta Kota","i_lat":-6.137569,"line":2,"station_id":"JAKK","transit":true,"time":3},{"distance":1264,"is_transit":false,"i_long":106.820901,"station_name":"Jayakarta","time":4,"line":2,"transit":false,"i_lat":-6.141205,"station_id":"JAY"},{"distance":1080,"is_transit":false,"i_long":106.82482,"time":2,"station_name":"Manggabesar","station_id":"MGB","transit":false,"i_lat":-6.149769,"line":2},{"is_transit":false,"transit":false,"i_lat":-6.160725,"distance":906,"time":2,"i_long":106.827103,"station_name":"Sawah Besar","line":2,"station_id":"SW"},{"line":2,"station_id":"JUA","is_transit":false,"station_name":"Juanda","i_lat":-6.166716,"transit":false,"distance":1149,"time":2,"i_long":106.828284},{"station_name":"Gondangdia","i_long":106.832183,"time":4,"is_transit":false,"station_id":"GDD","transit":false,"distance":2015,"i_lat":-6.186295,"line":2},{"distance":1750,"i_lat":-6.198556,"i_long":106.840169,"station_name":"Cikini","is_transit":false,"station_id":"CKI","time":3,"transit":false,"line":2},{"line":2,"transit":false,"i_lat":-6.209883,"station_id":"MRI","time":4,"distance":1590,"i_long":106.84912,"is_transit":false,"station_name":"Manggarai"},{"station_name":"Tebet","transit":false,"station_id":"TEB","time":4,"is_transit":false,"line":2,"i_long":106.857948,"distance":2610,"i_lat":-6.226659}],[{"station_name":"Grogol","station_id":"GGL","is_transit":false,"i_long":106.788277,"i_lat":-6.162021,"distance":0,"time":0,"line":5,"transit":false},{"i_long":106.800832,"station_name":"Duri","line":1,"station_id":"DU","i_lat":-6.155215,"distance":1700,"is_transit":true,"time":3,"transit":true},{"station_id":"AK","is_transit":false,"distance":1230,"i_lat":-6.144674,"line":1,"transit":false,"i_long":106.79867,"station_name":"Angke","time":4},{"line":4,"time":9,"station_id":"KPB","is_transit":true,"i_lat":-6.132549,"i_long":106.826365,"transit":true,"distance":4102,"station_name":"Kampung Bandan"},{"i_long":106.836569,"line":11,"transit":false,"station_id":"RJW","time":3,"is_transit":false,"distance":1444,"station_name":"Rajawali","i_lat":-6.14505},{"line":11,"transit":false,"time":5,"i_lat":-6.161728,"distance":1901,"station_name":"Kemayoran","station_id":"KMO","is_transit":false,"i_long":106.839204},{"transit":false,"station_name":"Pasar Senen","station_id":"PSE","time":4,"is_transit":false,"line":11,"distance":1436,"i_lat":-6.174784,"i_long":106.84368},{"i_lat":-6.185975,"line":11,"transit":false,"is_transit":false,"time":8,"station_name":"Gang Sentiong","i_long":106.850107,"distance":1567,"station_id":"GST"},{"time":1,"i_lat":-6.193792,"i_long":106.855437,"distance":973,"station_name":"Kramat","is_transit":false,"station_id":"KMT","transit":false,"line":11},{"line":11,"is_transit":false,"i_long":106.861737,"time":2,"station_name":"Pondok Jati","station_id":"POK","distance":1829,"transit":false,"i_lat":-6.209188},{"distance":1236,"station_id":"JNG","is_transit":true,"transit":true,"station_name":"Jatinegara","time":9,"i_long":106.86807400000001,"i_lat":-6.215091,"line":1},{"time":2,"i_lat":-6.212485,"i_long":106.858896,"station_id":"MTR","is_transit":false,"station_name":"Matraman","distance":1377,"transit":false,"line":1},{"i_long":106.84912,"transit":true,"i_lat":-6.209883,"station_name":"Manggarai","station_id":"MRI","distance":1275,"is_transit":true,"line":2,"time":2},{"line":2,"i_lat":-6.226659,"station_id":"TEB","is_transit":false,"transit":false,"station_name":"Tebet","distance":2610,"time":4,"i_long":106.857948}]]}