{"data":[[{"distance":0,"is_transit":false,"station_name":"Grogol","i_lat":-6.162021,"time":0,"i_long":106.788277,"transit":false,"station_id":"GGL","line":5},{"transit":true,"time":3,"distance":1700,"i_long":106.800832,"line":1,"station_id":"DU","station_name":"Duri","is_transit":true,"i_lat":-6.155215},{"station_name":"Tanah Abang","station_id":"THB","time":8,"transit":true,"i_long":106.811091,"is_transit":true,"distance":3632,"i_lat":-6.185545,"line":1},{"is_transit":false,"transit":false,"i_lat":-6.207404,"station_id":"PLM","time":6,"distance":3191,"station_name":"Palmerah","i_long":106.79689,"line":6},{"distance":3737,"transit":false,"i_long":106.780334,"station_name":"Kebayoran","time":7,"i_lat":-6.237242,"is_transit":false,"station_id":"KBY","line":6},{"transit":false,"i_lat":-6.276362,"i_long":106.74273,"is_transit":false,"time":8,"distance":6218,"line":6,"station_name":"Pondokranji","station_id":"PDJ"},{"line":6,"station_name":"Jurangmangu","time":3,"i_long":106.728916,"distance":2179,"i_lat":-6.288927,"is_transit":false,"transit":false,"station_id":"JMU"}],[{"is_transit":false,"station_id":"GGL","station_name":"Grogol","i_long":106.788277,"distance":0,"i_lat":-6.162021,"time":0,"transit":false,"line":5},{"station_name":"Duri","distance":1700,"line":1,"i_long":106.800832,"station_id":"DU","is_transit":true,"transit":true,"i_lat":-6.155215,"time":3},{"transit":false,"i_lat":-6.144674,"is_transit":false,"time":4,"station_name":"Angke","i_long":106.79867,"line":1,"distance":1230,"station_id":"AK"},{"is_transit":true,"station_id":"KPB","transit":true,"i_long":106.826365,"distance":4102,"i_lat":-6.132549,"station_name":"Kampung Bandan","time":9,"line":4},{"transit":true,"i_lat":-6.137569,"distance":1364,"station_id":"JAKK","station_name":"Jakarta Kota","line":2,"i_long":106.812439,"is_transit":true,"time":3},{"is_transit":false,"i_lat":-6.141205,"station_name":"Jayakarta","i_long":106.820901,"line":2,"station_id":"JAY","time":4,"transit":false,"distance":1264},{"time":2,"transit":false,"is_transit":false,"station_id":"MGB","i_long":106.82482,"station_name":"Manggabesar","distance":1080,"i_lat":-6.149769,"line":2},{"distance":906,"time":2,"line":2,"i_long":106.827103,"i_lat":-6.160725,"transit":false,"is_transit":false,"station_id":"SW","station_name":"Sawah Besar"},{"is_transit":false,"time":2,"station_id":"JUA","transit":false,"station_name":"Juanda","i_lat":-6.166716,"distance":1149,"line":2,"i_long":106.828284},{"station_name":"Gondangdia","time":4,"station_id":"GDD","transit":false,"distance":2015,"is_transit":false,"i_long":106.832183,"line":2,"i_lat":-6.186295},{"time":3,"station_id":"CKI","distance":1750,"i_lat":-6.198556,"is_transit":false,"station_name":"Cikini","transit":false,"i_long":106.840169,"line":2},{"transit":true,"station_name":"Manggarai","line":2,"i_lat":-6.209883,"time":4,"i_long":106.84912,"station_id":"MRI","distance":1590,"is_transit":true},{"distance":3186,"is_transit":false,"line":1,"time":4,"station_id":"SUD","transit":false,"station_name":"Sudirman","i_long":106.822649,"i_lat":-6.202263},{"is_transit":false,"station_id":"SUDB","i_long":106.819881,"station_name":"Sudirman Baru","time":1,"distance":280,"line":1,"transit":false,"i_lat":-6.201433},{"i_lat":-6.20132,"time":1,"i_long":106.816351,"line":1,"distance":471,"station_id":"KAT","transit":false,"is_transit":false,"station_name":"Karet"},{"i_long":106.811091,"line":1,"time":5,"i_lat":-6.185545,"is_transit":true,"station_id":"THB","transit":true,"station_name":"Tanah Abang","distance":2029},{"line":6,"i_lat":-6.207404,"time":6,"i_long":106.79689,"station_name":"Palmerah","distance":3191,"station_id":"PLM","is_transit":false,"transit":false},{"i_lat":-6.237242,"i_long":106.780334,"line":6,"is_transit":false,"station_name":"Kebayoran","transit":false,"station_id":"KBY","time":7,"distance":3737},{"time":8,"station_id":"PDJ","station_name":"Pondokranji","transit":false,"i_long":106.74273,"line":6,"distance":6218,"is_transit":false,"i_lat":-6.276362},{"station_name":"Jurangmangu","distance":2179,"station_id":"JMU","time":3,"i_long":106.728916,"i_lat":-6.288927,"line":6,"transit":false,"is_transit":false}],[{"time":0,"is_transit":false,"station_name":"Grogol","line":5,"transit":false,"station_id":"GGL","i_lat":-6.162021,"distance":0,"i_long":106.788277},{"station_id":"DU","time":3,"distance":1700,"transit":true,"line":1,"station_name":"Duri","i_long":106.800832,"i_lat":-6.155215,"is_transit":true},{"distance":1230,"station_id":"AK","station_name":"Angke","is_transit":false,"transit":false,"i_long":106.79867,"i_lat":-6.144674,"line":1,"time":4},{"transit":true,"station_id":"KPB","is_transit":true,"i_lat":-6.132549,"time":9,"station_name":"Kampung Bandan","i_long":106.826365,"distance":4102,"line":4},{"i_lat":-6.14505,"is_transit":false,"station_id":"RJW","distance":1444,"line":11,"transit":false,"i_long":106.836569,"station_name":"Rajawali","time":3},{"station_id":"KMO","i_lat":-6.161728,"line":11,"distance":1901,"transit":false,"i_long":106.839204,"is_transit":false,"time":5,"station_name":"Kemayoran"},{"is_transit":false,"station_id":"PSE","line":11,"time":4,"station_name":"Pasar Senen","i_lat":-6.174784,"distance":1436,"i_long":106.84368,"transit":false},{"distance":1567,"station_name":"Gang Sentiong","transit":false,"line":11,"station_id":"GST","is_transit":false,"i_long":106.850107,"i_lat":-6.185975,"time":8},{"time":1,"is_transit":false,"i_lat":-6.193792,"line":11,"station_name":"Kramat","station_id":"KMT","distance":973,"i_long":106.855437,"transit":false},{"line":11,"station_name":"Pondok Jati","time":2,"is_transit":false,"station_id":"POK","transit":false,"distance":1829,"i_lat":-6.209188,"i_long":106.861737},{"transit":true,"is_transit":true,"line":1,"station_id":"JNG","distance":1236,"station_name":"Jatinegara","i_lat":-6.215091,"i_long":106.86807400000001,"time":9},{"station_name":"Matraman","i_lat":-6.212485,"transit":false,"station_id":"MTR","is_transit":false,"time":2,"distance":1377,"i_long":106.858896,"line":1},{"is_transit":false,"distance":1275,"transit":false,"time":2,"station_name":"Manggarai","line":2,"station_id":"MRI","i_lat":-6.209883,"i_long":106.84912},{"station_id":"SUD","is_transit":false,"station_name":"Sudirman","transit":false,"i_lat":-6.202263,"i_long":106.822649,"line":1,"time":4,"distance":3186},{"i_long":106.819881,"i_lat":-6.201433,"station_name":"Sudirman Baru","is_transit":false,"station_id":"SUDB","transit":false,"time":1,"distance":280,"line":1},{"distance":471,"is_transit":false,"transit":false,"time":1,"station_name":"Karet","i_long":106.816351,"line":1,"station_id":"KAT","i_lat":-6.20132},{"transit":true,"distance":2029,"station_id":"THB","station_name":"Tanah Abang","time":5,"line":1,"is_transit":true,"i_lat":-6.185545,"i_long":106.811091},{"station_name":"Palmerah","transit":false,"i_lat":-6.207404,"is_transit":false,"station_id":"PLM","time":6,"distance":3191,"line":6,"i_long":106.79689},{"station_name":"Kebayoran","is_transit":false,"i_lat":-6.237242,"transit":false,"i_long":106.780334,"time":7,"line":6,"distance":3737,"station_id":"KBY"},{"distance":6218,"transit":false,"station_id":"PDJ","is_transit":false,"time":8,"station_name":"Pondokranji","i_lat":-6.276362,"line":6,"i_long":106.74273},{"transit":false,"line":6,"distance":2179,"station_name":"Jurangmangu","i_lat":-6.288927,"time":3,"i_long":106.728916,"is_transit":false,"station_id":"JMU"}]]}