{"data":[[{"time":0,"station_name":"Grogol","transit":false,"i_long":106.788277,"distance":0,"line":5,"i_lat":-6.162021,"station_id":"GGL","is_transit":false},{"line":1,"distance":1700,"time":3,"station_id":"DU","i_long":106.800832,"transit":true,"station_name":"Duri","is_transit":true,"i_lat":-6.155215},{"line":1,"station_id":"THB","station_name":"Tanah Abang","distance":3632,"i_lat":-6.185545,"i_long":106.811091,"is_transit":false,"transit":false,"time":8},{"is_transit":false,"i_lat":-6.20132,"transit":false,"station_id":"KAT","line":1,"station_name":"Karet","i_long":106.816351,"time":5,"distance":2029},{"i_long":106.819881,"is_transit":false,"station_name":"Sudirman Baru","time":1,"transit":false,"station_id":"SUDB","distance":471,"i_lat":-6.201433,"line":1},{"station_name":"Sudirman","distance":280,"i_lat":-6.202263,"i_long":106.822649,"line":1,"station_id":"SUD","time":1,"transit":false,"is_transit":false},{"transit":true,"distance":3186,"time":4,"i_long":106.84912,"line":2,"is_transit":true,"i_lat":-6.209883,"station_id":"MRI","station_name":"Manggarai"},{"is_transit":false,"station_name":"Tebet","station_id":"TEB","i_long":106.857948,"transit":false,"distance":2610,"time":4,"i_lat":-6.226659,"line":2},{"distance":1230,"station_id":"CW","transit":false,"is_transit":false,"station_name":"Cawang","time":2,"line":2,"i_lat":-6.242512,"i_long":106.856607}],[{"station_name":"Grogol","i_long":106.788277,"line":5,"is_transit":false,"distance":0,"transit":false,"station_id":"GGL","time":0,"i_lat":-6.162021},{"transit":true,"time":3,"station_name":"Duri","station_id":"DU","is_transit":true,"distance":1700,"i_long":106.800832,"i_lat":-6.155215,"line":1},{"i_lat":-6.144674,"time":4,"transit":false,"station_name":"Angke","is_transit":false,"distance":1230,"station_id":"AK","i_long":106.79867,"line":1},{"transit":true,"time":9,"distance":4102,"line":4,"i_lat":-6.132549,"station_name":"Kampung Bandan","is_transit":true,"i_long":106.826365,"station_id":"KPB"},{"station_id":"JAKK","is_transit":true,"distance":1364,"transit":true,"time":3,"i_lat":-6.137569,"i_long":106.812439,"line":2,"station_name":"Jakarta Kota"},{"is_transit":false,"station_id":"JAY","i_long":106.820901,"line":2,"time":4,"transit":false,"distance":1264,"i_lat":-6.141205,"station_name":"Jayakarta"},{"station_name":"Manggabesar","station_id":"MGB","is_transit":false,"i_long":106.82482,"transit":false,"time":2,"i_lat":-6.149769,"line":2,"distance":1080},{"is_transit":false,"time":2,"i_lat":-6.160725,"transit":false,"station_id":"SW","i_long":106.827103,"distance":906,"line":2,"station_name":"Sawah Besar"},{"time":2,"is_transit":false,"i_lat":-6.166716,"line":2,"distance":1149,"station_id":"JUA","i_long":106.828284,"station_name":"Juanda","transit":false},{"time":4,"i_lat":-6.186295,"transit":false,"station_id":"GDD","i_long":106.832183,"distance":2015,"is_transit":false,"line":2,"station_name":"Gondangdia"},{"time":3,"i_lat":-6.198556,"i_long":106.840169,"station_name":"Cikini","is_transit":false,"line":2,"station_id":"CKI","distance":1750,"transit":false},{"station_name":"Manggarai","station_id":"MRI","distance":1590,"i_lat":-6.209883,"line":2,"is_transit":false,"time":4,"i_long":106.84912,"transit":false},{"line":2,"station_name":"Tebet","station_id":"TEB","is_transit":false,"time":4,"i_long":106.857948,"transit":false,"distance":2610,"i_lat":-6.226659},{"transit":false,"i_lat":-6.242512,"line":2,"i_long":106.856607,"is_transit":false,"station_name":"Cawang","station_id":"CW","time":2,"distance":1230}],[{"station_id":"GGL","distance":0,"is_transit":false,"i_long":106.788277,"transit":false,"station_name":"Grogol","time":0,"i_lat":-6.162021,"line":5},{"line":1,"station_id":"DU","distance":1700,"i_lat":-6.155215,"i_long":106.800832,"station_name":"Duri","time":3,"transit":true,"is_transit":true},{"i_lat":-6.144674,"transit":false,"station_name":"Angke","i_long":106.79867,"time":4,"station_id":"AK","is_transit":false,"line":1,"distance":1230},{"i_long":106.826365,"is_transit":true,"time":9,"line":4,"station_id":"KPB","distance":4102,"transit":true,"station_name":"Kampung Bandan","i_lat":-6.132549},{"transit":false,"distance":1444,"station_name":"Rajawali","station_id":"RJW","i_lat":-6.14505,"is_transit":false,"line":11,"time":3,"i_long":106.836569},{"station_id":"KMO","i_lat":-6.161728,"i_long":106.839204,"line":11,"station_name":"Kemayoran","distance":1901,"transit":false,"is_transit":false,"time":5},{"station_name":"Pasar Senen","station_id":"PSE","is_transit":false,"time":4,"i_lat":-6.174784,"line":11,"i_long":106.84368,"distance":1436,"transit":false},{"is_transit":false,"transit":false,"i_long":106.850107,"distance":1567,"time":8,"station_name":"Gang Sentiong","i_lat":-6.185975,"station_id":"GST","line":11},{"i_lat":-6.193792,"distance":973,"is_transit":false,"line":11,"transit":false,"i_long":106.855437,"station_name":"Kramat","time":1,"station_id":"KMT"},{"i_lat":-6.209188,"station_name":"Pondok Jati","line":11,"distance":1829,"transit":false,"is_transit":false,"station_id":"POK","i_long":106.861737,"time":2},{"is_transit":true,"time":9,"station_id":"JNG","distance":1236,"transit":true,"i_long":106.86807400000001,"line":1,"i_lat":-6.215091,"station_name":"Jatinegara"},{"station_name":"Matraman","is_transit":false,"i_lat":-6.212485,"station_id":"MTR","i_long":106.858896,"time":2,"transit":false,"line":1,"distance":1377},{"i_lat":-6.209883,"transit":true,"station_id":"MRI","is_transit":true,"i_long":106.84912,"station_name":"Manggarai","time":2,"distance":1275,"line":2},{"distance":2610,"transit":false,"station_id":"TEB","station_name":"Tebet","is_transit":false,"i_long":106.857948,"time":4,"i_lat":-6.226659,"line":2},{"time":2,"station_name":"Cawang","i_long":106.856607,"distance":1230,"is_transit":false,"i_lat":-6.242512,"transit":false,"line":2,"station_id":"CW"}]]}