{"data":[[{"line":5,"station_id":"GGL","distance":0,"transit":false,"station_name":"Grogol","i_long":106.788277,"is_transit":false,"i_lat":-6.162021,"time":0},{"distance":1700,"station_name":"Duri","is_transit":true,"i_lat":-6.155215,"i_long":106.800832,"line":1,"transit":true,"station_id":"DU","time":3},{"transit":true,"line":1,"distance":3632,"station_id":"THB","is_transit":true,"i_lat":-6.185545,"i_long":106.811091,"time":8,"station_name":"Tanah Abang"},{"station_name":"Palmerah","line":6,"is_transit":false,"i_long":106.79689,"time":6,"station_id":"PLM","i_lat":-6.207404,"transit":false,"distance":3191},{"i_lat":-6.237242,"time":7,"distance":3737,"station_name":"Kebayoran","station_id":"KBY","transit":false,"line":6,"i_long":106.780334,"is_transit":false},{"transit":false,"i_lat":-6.276362,"i_long":106.74273,"distance":6218,"line":6,"station_id":"PDJ","time":8,"station_name":"Pondokranji","is_transit":false},{"station_id":"JMU","distance":2179,"is_transit":false,"station_name":"Jurangmangu","i_long":106.728916,"transit":false,"time":3,"i_lat":-6.288927,"line":6},{"distance":1994,"i_lat":-6.296963,"station_id":"SDM","transit":false,"time":4,"line":6,"i_long":106.712277,"station_name":"Sudimara","is_transit":false},{"transit":false,"distance":4566,"i_lat":-6.314823,"i_long":106.675475,"line":6,"station_name":"Rawa Buntu","station_id":"RU","time":6,"is_transit":false},{"station_name":"Serpong","is_transit":false,"station_id":"SRP","time":4,"distance":2413,"i_lat":-6.319871,"transit":false,"i_long":106.66566,"line":6},{"time":4,"i_lat":-6.32484,"is_transit":false,"station_id":"CSK","station_name":"Cisauk","line":3,"distance":1784,"transit":false,"i_long":106.640411},{"i_lat":-6.329547,"line":3,"time":4,"station_id":"CC","is_transit":false,"distance":2519,"station_name":"Cicayur","i_long":106.617853,"transit":false},{"station_id":"PRP","transit":false,"is_transit":false,"i_long":106.568863,"line":6,"distance":5968,"station_name":"Parung Panjang","i_lat":-6.3441410000000005,"time":8},{"i_lat":-6.354349,"station_id":"CJT","i_long":106.508482,"time":9,"station_name":"Cilejit","is_transit":false,"transit":false,"line":3,"distance":7025},{"i_lat":-6.338021,"i_long":106.491338,"line":0,"station_id":"DAR","time":6,"is_transit":false,"distance":2675,"transit":false,"station_name":"Daru"},{"distance":3902,"line":6,"time":5,"station_id":"TEJ","station_name":"Tenjo","transit":false,"is_transit":false,"i_lat":-6.327251,"i_long":106.460812},{"line":6,"is_transit":false,"station_id":"TGS","i_lat":-6.328533,"distance":2974,"transit":false,"i_long":106.425991,"time":5,"station_name":"Tigaraksa"},{"transit":false,"i_lat":-6.33561,"time":3,"i_long":106.411216,"is_transit":false,"distance":2651,"station_name":"Cikoya","line":3,"station_id":"CKY"},{"time":4,"transit":false,"line":6,"station_name":"Maja","distance":1853,"station_id":"MJ","is_transit":false,"i_lat":-6.332307,"i_long":106.394373},{"is_transit":false,"station_name":"Citeras","time":10,"station_id":"CTR","distance":7293,"i_long":106.332092,"line":3,"transit":false,"i_lat":-6.334892}],[{"distance":0,"i_long":106.788277,"station_name":"Grogol","station_id":"GGL","transit":false,"is_transit":false,"line":5,"i_lat":-6.162021,"time":0},{"is_transit":true,"station_name":"Duri","distance":1700,"time":3,"line":1,"i_lat":-6.155215,"transit":true,"i_long":106.800832,"station_id":"DU"},{"line":1,"time":4,"station_name":"Angke","station_id":"AK","transit":false,"is_transit":false,"i_lat":-6.144674,"i_long":106.79867,"distance":1230},{"is_transit":true,"distance":4102,"i_long":106.826365,"i_lat":-6.132549,"transit":true,"station_name":"Kampung Bandan","line":4,"station_id":"KPB","time":9},{"station_id":"JAKK","line":2,"is_transit":true,"distance":1364,"i_lat":-6.137569,"transit":true,"i_long":106.812439,"time":3,"station_name":"Jakarta Kota"},{"transit":false,"i_long":106.820901,"is_transit":false,"distance":1264,"time":4,"i_lat":-6.141205,"station_id":"JAY","line":2,"station_name":"Jayakarta"},{"station_name":"Manggabesar","time":2,"station_id":"MGB","i_long":106.82482,"distance":1080,"is_transit":false,"i_lat":-6.149769,"transit":false,"line":2},{"time":2,"line":2,"station_name":"Sawah Besar","i_lat":-6.160725,"distance":906,"transit":false,"i_long":106.827103,"station_id":"SW","is_transit":false},{"is_transit":false,"distance":1149,"transit":false,"station_name":"Juanda","station_id":"JUA","i_lat":-6.166716,"line":2,"time":2,"i_long":106.828284},{"distance":2015,"i_lat":-6.186295,"line":2,"station_name":"Gondangdia","station_id":"GDD","is_transit":false,"time":4,"transit":false,"i_long":106.832183},{"distance":1750,"i_long":106.840169,"i_lat":-6.198556,"station_id":"CKI","station_name":"Cikini","is_transit":false,"transit":false,"time":3,"line":2},{"line":2,"transit":true,"i_long":106.84912,"distance":1590,"station_id":"MRI","time":4,"i_lat":-6.209883,"is_transit":true,"station_name":"Manggarai"},{"time":4,"station_name":"Sudirman","distance":3186,"transit":false,"i_long":106.822649,"line":1,"station_id":"SUD","is_transit":false,"i_lat":-6.202263},{"i_long":106.819881,"is_transit":false,"transit":false,"distance":280,"station_name":"Sudirman Baru","time":1,"i_lat":-6.201433,"line":1,"station_id":"SUDB"},{"station_id":"KAT","i_long":106.816351,"distance":471,"station_name":"Karet","is_transit":false,"time":1,"i_lat":-6.20132,"line":1,"transit":false},{"distance":2029,"time":5,"is_transit":true,"line":1,"station_name":"Tanah Abang","station_id":"THB","i_long":106.811091,"i_lat":-6.185545,"transit":true},{"i_long":106.79689,"station_id":"PLM","is_transit":false,"distance":3191,"time":6,"i_lat":-6.207404,"station_name":"Palmerah","line":6,"transit":false},{"transit":false,"i_lat":-6.237242,"i_long":106.780334,"is_transit":false,"station_name":"Kebayoran","line":6,"station_id":"KBY","time":7,"distance":3737},{"i_lat":-6.276362,"i_long":106.74273,"distance":6218,"time":8,"station_name":"Pondokranji","transit":false,"line":6,"is_transit":false,"station_id":"PDJ"},{"is_transit":false,"i_lat":-6.288927,"i_long":106.728916,"station_name":"Jurangmangu","distance":2179,"time":3,"station_id":"JMU","transit":false,"line":6},{"distance":1994,"time":4,"is_transit":false,"transit":false,"i_long":106.712277,"line":6,"i_lat":-6.296963,"station_id":"SDM","station_name":"Sudimara"},{"time":6,"distance":4566,"station_id":"RU","station_name":"Rawa Buntu","is_transit":false,"transit":false,"i_long":106.675475,"line":6,"i_lat":-6.314823},{"station_name":"Serpong","time":4,"transit":false,"i_lat":-6.319871,"is_transit":false,"distance":2413,"line":6,"station_id":"SRP","i_long":106.66566},{"station_name":"Cisauk","transit":false,"i_lat":-6.32484,"line":3,"time":4,"is_transit":false,"station_id":"CSK","distance":1784,"i_long":106.640411},{"station_name":"Cicayur","line":3,"is_transit":false,"transit":false,"i_long":106.617853,"time":4,"station_id":"CC","distance":2519,"i_lat":-6.329547},{"transit":false,"time":8,"i_long":106.568863,"i_lat":-6.3441410000000005,"distance":5968,"station_name":"Parung Panjang","line":6,"station_id":"PRP","is_transit":false},{"station_id":"CJT","line":3,"is_transit":false,"transit":false,"distance":7025,"i_lat":-6.354349,"i_long":106.508482,"station_name":"Cilejit","time":9},{"station_id":"DAR","transit":false,"station_name":"Daru","is_transit":false,"distance":2675,"i_lat":-6.338021,"time":6,"i_long":106.491338,"line":0},{"line":6,"time":5,"i_long":106.460812,"is_transit":false,"i_lat":-6.327251,"station_name":"Tenjo","transit":false,"station_id":"TEJ","distance":3902},{"distance":2974,"i_long":106.425991,"station_name":"Tigaraksa","line":6,"transit":false,"time":5,"is_transit":false,"station_id":"TGS","i_lat":-6.328533},{"distance":2651,"time":3,"line":3,"is_transit":false,"i_lat":-6.33561,"station_name":"Cikoya","transit":false,"i_long":106.411216,"station_id":"CKY"},{"station_name":"Maja","time":4,"is_transit":false,"line":6,"i_long":106.394373,"distance":1853,"i_lat":-6.332307,"transit":false,"station_id":"MJ"},{"station_id":"CTR","transit":false,"distance":7293,"station_name":"Citeras","i_lat":-6.334892,"i_long":106.332092,"is_transit":false,"line":3,"time":10}],[{"station_id":"GGL","line":5,"transit":false,"distance":0,"i_long":106.788277,"station_name":"Grogol","i_lat":-6.162021,"time":0,"is_transit":false},{"i_lat":-6.155215,"line":1,"station_name":"Duri","is_transit":true,"i_long":106.800832,"time":3,"station_id":"DU","distance":1700,"transit":true},{"time":4,"is_transit":false,"distance":1230,"transit":false,"i_lat":-6.144674,"i_long":106.79867,"line":1,"station_name":"Angke","station_id":"AK"},{"time":9,"i_long":106.826365,"i_lat":-6.132549,"station_name":"Kampung Bandan","line":4,"distance":4102,"station_id":"KPB","transit":true,"is_transit":true},{"i_lat":-6.14505,"i_long":106.836569,"time":3,"line":11,"is_transit":false,"station_id":"RJW","station_name":"Rajawali","distance":1444,"transit":false},{"transit":false,"is_transit":false,"station_id":"KMO","time":5,"i_lat":-6.161728,"station_name":"Kemayoran","distance":1901,"i_long":106.839204,"line":11},{"line":11,"station_id":"PSE","is_transit":false,"i_long":106.84368,"transit":false,"time":4,"station_name":"Pasar Senen","i_lat":-6.174784,"distance":1436},{"distance":1567,"time":8,"station_name":"Gang Sentiong","station_id":"GST","i_lat":-6.185975,"transit":false,"line":11,"i_long":106.850107,"is_transit":false},{"i_long":106.855437,"station_id":"KMT","is_transit":false,"station_name":"Kramat","transit":false,"time":1,"i_lat":-6.193792,"line":11,"distance":973},{"i_lat":-6.209188,"distance":1829,"transit":false,"station_id":"POK","station_name":"Pondok Jati","i_long":106.861737,"is_transit":false,"line":11,"time":2},{"i_long":106.86807400000001,"line":1,"distance":1236,"is_transit":true,"time":9,"station_name":"Jatinegara","i_lat":-6.215091,"transit":true,"station_id":"JNG"},{"station_name":"Matraman","time":2,"i_long":106.858896,"station_id":"MTR","line":1,"transit":false,"i_lat":-6.212485,"is_transit":false,"distance":1377},{"i_lat":-6.209883,"distance":1275,"time":2,"transit":false,"line":2,"station_name":"Manggarai","i_long":106.84912,"is_transit":false,"station_id":"MRI"},{"distance":3186,"is_transit":false,"time":4,"i_lat":-6.202263,"transit":false,"station_name":"Sudirman","station_id":"SUD","i_long":106.822649,"line":1},{"line":1,"is_transit":false,"distance":280,"i_long":106.819881,"time":1,"station_id":"SUDB","transit":false,"i_lat":-6.201433,"station_name":"Sudirman Baru"},{"station_name":"Karet","time":1,"is_transit":false,"i_lat":-6.20132,"i_long":106.816351,"station_id":"KAT","transit":false,"distance":471,"line":1},{"i_long":106.811091,"line":1,"transit":true,"i_lat":-6.185545,"time":5,"station_name":"Tanah Abang","station_id":"THB","is_transit":true,"distance":2029},{"distance":3191,"i_long":106.79689,"line":6,"time":6,"is_transit":false,"i_lat":-6.207404,"station_name":"Palmerah","station_id":"PLM","transit":false},{"transit":false,"station_id":"KBY","i_long":106.780334,"station_name":"Kebayoran","is_transit":false,"distance":3737,"line":6,"time":7,"i_lat":-6.237242},{"is_transit":false,"line":6,"transit":false,"distance":6218,"i_lat":-6.276362,"time":8,"station_name":"Pondokranji","i_long":106.74273,"station_id":"PDJ"},{"station_id":"JMU","time":3,"is_transit":false,"distance":2179,"station_name":"Jurangmangu","transit":false,"i_long":106.728916,"line":6,"i_lat":-6.288927},{"distance":1994,"transit":false,"station_name":"Sudimara","time":4,"is_transit":false,"station_id":"SDM","i_lat":-6.296963,"i_long":106.712277,"line":6},{"i_lat":-6.314823,"transit":false,"time":6,"station_id":"RU","i_long":106.675475,"line":6,"distance":4566,"is_transit":false,"station_name":"Rawa Buntu"},{"distance":2413,"is_transit":false,"station_id":"SRP","station_name":"Serpong","transit":false,"i_long":106.66566,"i_lat":-6.319871,"line":6,"time":4},{"is_transit":false,"distance":1784,"station_id":"CSK","transit":false,"time":4,"station_name":"Cisauk","i_long":106.640411,"i_lat":-6.32484,"line":3},{"is_transit":false,"distance":2519,"i_long":106.617853,"station_name":"Cicayur","station_id":"CC","time":4,"i_lat":-6.329547,"transit":false,"line":3},{"line":6,"time":8,"is_transit":false,"station_name":"Parung Panjang","i_lat":-6.3441410000000005,"i_long":106.568863,"distance":5968,"station_id":"PRP","transit":false},{"transit":false,"time":9,"is_transit":false,"line":3,"distance":7025,"station_id":"CJT","i_long":106.508482,"station_name":"Cilejit","i_lat":-6.354349},{"time":6,"station_id":"DAR","is_transit":false,"transit":false,"i_lat":-6.338021,"distance":2675,"line":0,"station_name":"Daru","i_long":106.491338},{"distance":3902,"time":5,"station_id":"TEJ","is_transit":false,"transit":false,"i_lat":-6.327251,"station_name":"Tenjo","i_long":106.460812,"line":6},{"i_lat":-6.328533,"station_name":"Tigaraksa","is_transit":false,"i_long":106.425991,"line":6,"time":5,"station_id":"TGS","distance":2974,"transit":false},{"i_long":106.411216,"station_id":"CKY","is_transit":false,"i_lat":-6.33561,"distance":2651,"line":3,"transit":false,"time":3,"station_name":"Cikoya"},{"is_transit":false,"distance":1853,"station_id":"MJ","time":4,"transit":false,"i_long":106.394373,"i_lat":-6.332307,"line":6,"station_name":"Maja"},{"is_transit":false,"station_name":"Citeras","time":10,"transit":false,"i_long":106.332092,"i_lat":-6.334892,"station_id":"CTR","distance":7293,"line":3}]]}