{"data":[[{"distance":0,"line":5,"station_name":"Grogol","time":0,"is_transit":false,"transit":false,"i_lat":-6.162021,"i_long":106.788277,"station_id":"GGL"},{"line":1,"i_long":106.800832,"station_id":"DU","is_transit":true,"time":3,"i_lat":-6.155215,"station_name":"Duri","transit":true,"distance":1700},{"is_transit":false,"i_lat":-6.185545,"distance":3632,"time":8,"i_long":106.811091,"station_id":"THB","line":1,"transit":false,"station_name":"Tanah Abang"},{"line":1,"transit":false,"station_name":"Karet","is_transit":false,"time":5,"distance":2029,"i_lat":-6.20132,"station_id":"KAT","i_long":106.816351},{"station_id":"SUDB","is_transit":false,"i_lat":-6.201433,"line":1,"distance":471,"transit":false,"time":1,"i_long":106.819881,"station_name":"Sudirman Baru"},{"i_lat":-6.202263,"i_long":106.822649,"station_name":"Sudirman","transit":false,"time":1,"station_id":"SUD","distance":280,"line":1,"is_transit":false},{"distance":3186,"line":2,"station_name":"Manggarai","transit":true,"i_lat":-6.209883,"i_long":106.84912,"time":4,"station_id":"MRI","is_transit":true},{"line":2,"transit":false,"time":4,"is_transit":false,"station_name":"Tebet","station_id":"TEB","i_lat":-6.226659,"i_long":106.857948,"distance":2610},{"station_id":"CW","i_long":106.856607,"station_name":"Cawang","is_transit":false,"line":2,"distance":1230,"i_lat":-6.242512,"transit":false,"time":2},{"i_long":106.85449,"station_id":"DRN","is_transit":false,"station_name":"Duren Kalibata","i_lat":-6.255332,"distance":1546,"transit":false,"time":3,"line":2},{"transit":false,"line":2,"is_transit":false,"i_lat":-6.263214,"time":2,"i_long":106.851577,"station_name":"Pasar Minggu Baru","station_id":"PSMB","distance":824},{"station_id":"PSM","i_long":106.843999,"line":2,"transit":false,"station_name":"Pasar Minggu","time":2,"is_transit":false,"distance":2380,"i_lat":-6.2842400000000005},{"i_lat":-6.3080680000000005,"i_long":106.838896,"time":4,"transit":false,"is_transit":false,"line":2,"station_name":"Tanjung Barat","station_id":"TNT","distance":2820},{"transit":false,"station_id":"LNA","line":2,"i_long":106.832616,"time":3,"station_name":"Lenteng Agung","is_transit":false,"distance":2671,"i_lat":-6.330363},{"time":2,"station_name":"Univ. Pancasila","station_id":"UP","i_lat":-6.339291,"distance":1029,"transit":false,"line":2,"is_transit":false,"i_long":106.834175},{"i_lat":-6.360749,"transit":false,"station_name":"Univ. Indonesia","time":3,"i_long":106.831474,"line":2,"station_id":"UI","is_transit":false,"distance":2264},{"station_id":"POC","is_transit":false,"transit":false,"station_name":"Pondok Cina","time":2,"i_lat":-6.369073,"distance":1109,"i_long":106.831114,"line":2},{"is_transit":false,"distance":2727,"station_name":"Depokbaru","time":4,"transit":false,"i_lat":-6.391065,"i_long":106.819451,"line":2,"station_id":"DPB"},{"station_id":"DP","transit":false,"distance":1584,"i_lat":-6.405256,"i_long":106.816926,"station_name":"Depok","time":3,"is_transit":false,"line":2},{"is_transit":true,"distance":5084,"i_long":106.800298,"line":2,"time":6,"i_lat":-6.448811,"transit":true,"station_id":"CTA","station_name":"Citayam"},{"line":21,"transit":false,"distance":0,"time":0,"i_lat":-6.460735,"station_id":"PDRG","station_name":"Pondok Rajeg","is_transit":false,"i_long":106.824374},{"time":0,"station_id":"CBN","i_long":106.851978,"transit":false,"is_transit":false,"i_lat":-6.46424,"distance":0,"station_name":"Cibinong","line":21}],[{"station_id":"GGL","line":5,"is_transit":false,"station_name":"Grogol","i_long":106.788277,"time":0,"i_lat":-6.162021,"transit":false,"distance":0},{"distance":1700,"station_name":"Duri","station_id":"DU","i_lat":-6.155215,"time":3,"line":1,"transit":true,"is_transit":true,"i_long":106.800832},{"station_name":"Angke","is_transit":false,"distance":1230,"station_id":"AK","i_lat":-6.144674,"i_long":106.79867,"line":1,"time":4,"transit":false},{"is_transit":true,"i_lat":-6.132549,"distance":4102,"station_name":"Kampung Bandan","station_id":"KPB","line":4,"transit":true,"time":9,"i_long":106.826365},{"distance":1364,"station_name":"Jakarta Kota","station_id":"JAKK","transit":true,"i_lat":-6.137569,"line":2,"time":3,"i_long":106.812439,"is_transit":true},{"station_id":"JAY","i_lat":-6.141205,"i_long":106.820901,"is_transit":false,"distance":1264,"time":4,"station_name":"Jayakarta","line":2,"transit":false},{"is_transit":false,"time":2,"transit":false,"line":2,"i_long":106.82482,"i_lat":-6.149769,"station_name":"Manggabesar","station_id":"MGB","distance":1080},{"i_lat":-6.160725,"time":2,"line":2,"distance":906,"is_transit":false,"i_long":106.827103,"transit":false,"station_name":"Sawah Besar","station_id":"SW"},{"transit":false,"station_id":"JUA","time":2,"i_long":106.828284,"station_name":"Juanda","i_lat":-6.166716,"line":2,"is_transit":false,"distance":1149},{"distance":2015,"transit":false,"line":2,"station_id":"GDD","is_transit":false,"i_lat":-6.186295,"i_long":106.832183,"station_name":"Gondangdia","time":4},{"i_long":106.840169,"station_name":"Cikini","transit":false,"station_id":"CKI","distance":1750,"time":3,"line":2,"is_transit":false,"i_lat":-6.198556},{"is_transit":false,"distance":1590,"station_name":"Manggarai","time":4,"i_lat":-6.209883,"line":2,"transit":false,"station_id":"MRI","i_long":106.84912},{"is_transit":false,"time":4,"distance":2610,"i_long":106.857948,"i_lat":-6.226659,"station_name":"Tebet","line":2,"transit":false,"station_id":"TEB"},{"transit":false,"is_transit":false,"i_lat":-6.242512,"station_name":"Cawang","i_long":106.856607,"line":2,"station_id":"CW","time":2,"distance":1230},{"transit":false,"station_id":"DRN","i_lat":-6.255332,"line":2,"station_name":"Duren Kalibata","i_long":106.85449,"is_transit":false,"distance":1546,"time":3},{"station_name":"Pasar Minggu Baru","distance":824,"i_lat":-6.263214,"line":2,"i_long":106.851577,"is_transit":false,"station_id":"PSMB","transit":false,"time":2},{"is_transit":false,"time":2,"i_lat":-6.2842400000000005,"line":2,"station_id":"PSM","distance":2380,"transit":false,"station_name":"Pasar Minggu","i_long":106.843999},{"station_name":"Tanjung Barat","transit":false,"distance":2820,"line":2,"i_long":106.838896,"is_transit":false,"time":4,"station_id":"TNT","i_lat":-6.3080680000000005},{"station_id":"LNA","i_long":106.832616,"line":2,"time":3,"i_lat":-6.330363,"is_transit":false,"transit":false,"station_name":"Lenteng Agung","distance":2671},{"i_long":106.834175,"line":2,"transit":false,"time":2,"station_name":"Univ. Pancasila","station_id":"UP","is_transit":false,"i_lat":-6.339291,"distance":1029},{"station_id":"UI","line":2,"distance":2264,"i_long":106.831474,"transit":false,"i_lat":-6.360749,"is_transit":false,"time":3,"station_name":"Univ. Indonesia"},{"time":2,"is_transit":false,"station_id":"POC","i_long":106.831114,"distance":1109,"i_lat":-6.369073,"transit":false,"line":2,"station_name":"Pondok Cina"},{"line":2,"distance":2727,"i_lat":-6.391065,"transit":false,"is_transit":false,"station_id":"DPB","station_name":"Depokbaru","i_long":106.819451,"time":4},{"distance":1584,"is_transit":false,"transit":false,"i_long":106.816926,"station_name":"Depok","time":3,"line":2,"station_id":"DP","i_lat":-6.405256},{"i_long":106.800298,"distance":5084,"is_transit":true,"i_lat":-6.448811,"station_name":"Citayam","station_id":"CTA","time":6,"line":2,"transit":true},{"line":21,"time":0,"is_transit":false,"i_lat":-6.460735,"distance":0,"i_long":106.824374,"station_id":"PDRG","transit":false,"station_name":"Pondok Rajeg"},{"time":0,"station_name":"Cibinong","is_transit":false,"transit":false,"distance":0,"station_id":"CBN","i_lat":-6.46424,"i_long":106.851978,"line":21}],[{"line":5,"station_name":"Grogol","transit":false,"is_transit":false,"time":0,"i_lat":-6.162021,"i_long":106.788277,"station_id":"GGL","distance":0},{"distance":1700,"i_long":106.800832,"transit":true,"time":3,"line":1,"i_lat":-6.155215,"station_name":"Duri","is_transit":true,"station_id":"DU"},{"transit":false,"is_transit":false,"line":1,"station_name":"Angke","i_long":106.79867,"time":4,"station_id":"AK","distance":1230,"i_lat":-6.144674},{"station_name":"Kampung Bandan","transit":true,"distance":4102,"i_lat":-6.132549,"is_transit":true,"line":4,"station_id":"KPB","time":9,"i_long":106.826365},{"is_transit":false,"line":11,"i_lat":-6.14505,"time":3,"transit":false,"distance":1444,"station_id":"RJW","station_name":"Rajawali","i_long":106.836569},{"line":11,"transit":false,"station_id":"KMO","is_transit":false,"time":5,"i_long":106.839204,"station_name":"Kemayoran","distance":1901,"i_lat":-6.161728},{"line":11,"station_id":"PSE","transit":false,"i_long":106.84368,"i_lat":-6.174784,"time":4,"station_name":"Pasar Senen","distance":1436,"is_transit":false},{"station_name":"Gang Sentiong","is_transit":false,"time":8,"i_lat":-6.185975,"transit":false,"distance":1567,"i_long":106.850107,"station_id":"GST","line":11},{"transit":false,"time":1,"distance":973,"i_long":106.855437,"station_id":"KMT","is_transit":false,"line":11,"station_name":"Kramat","i_lat":-6.193792},{"distance":1829,"i_lat":-6.209188,"i_long":106.861737,"station_name":"Pondok Jati","is_transit":false,"station_id":"POK","time":2,"line":11,"transit":false},{"distance":1236,"line":1,"time":9,"station_id":"JNG","transit":true,"is_transit":true,"i_lat":-6.215091,"i_long":106.86807400000001,"station_name":"Jatinegara"},{"line":1,"station_id":"MTR","transit":false,"i_long":106.858896,"i_lat":-6.212485,"station_name":"Matraman","distance":1377,"time":2,"is_transit":false},{"i_long":106.84912,"line":2,"station_id":"MRI","station_name":"Manggarai","is_transit":true,"time":2,"transit":true,"distance":1275,"i_lat":-6.209883},{"transit":false,"time":4,"line":2,"i_lat":-6.226659,"station_id":"TEB","is_transit":false,"distance":2610,"i_long":106.857948,"station_name":"Tebet"},{"distance":1230,"line":2,"i_long":106.856607,"is_transit":false,"i_lat":-6.242512,"time":2,"station_id":"CW","station_name":"Cawang","transit":false},{"time":3,"station_name":"Duren Kalibata","transit":false,"station_id":"DRN","is_transit":false,"i_long":106.85449,"line":2,"i_lat":-6.255332,"distance":1546},{"i_lat":-6.263214,"time":2,"transit":false,"line":2,"i_long":106.851577,"is_transit":false,"station_id":"PSMB","station_name":"Pasar Minggu Baru","distance":824},{"is_transit":false,"distance":2380,"i_lat":-6.2842400000000005,"station_name":"Pasar Minggu","i_long":106.843999,"transit":false,"station_id":"PSM","time":2,"line":2},{"transit":false,"station_id":"TNT","i_long":106.838896,"distance":2820,"is_transit":false,"time":4,"line":2,"station_name":"Tanjung Barat","i_lat":-6.3080680000000005},{"time":3,"i_long":106.832616,"station_id":"LNA","i_lat":-6.330363,"line":2,"transit":false,"is_transit":false,"distance":2671,"station_name":"Lenteng Agung"},{"station_id":"UP","time":2,"is_transit":false,"transit":false,"i_lat":-6.339291,"i_long":106.834175,"distance":1029,"line":2,"station_name":"Univ. Pancasila"},{"is_transit":false,"transit":false,"station_name":"Univ. Indonesia","station_id":"UI","i_lat":-6.360749,"distance":2264,"time":3,"line":2,"i_long":106.831474},{"is_transit":false,"i_long":106.831114,"time":2,"distance":1109,"i_lat":-6.369073,"station_id":"POC","line":2,"station_name":"Pondok Cina","transit":false},{"is_transit":false,"time":4,"transit":false,"station_id":"DPB","line":2,"distance":2727,"i_lat":-6.391065,"station_name":"Depokbaru","i_long":106.819451},{"station_name":"Depok","i_long":106.816926,"transit":false,"station_id":"DP","is_transit":false,"distance":1584,"time":3,"i_lat":-6.405256,"line":2},{"i_long":106.800298,"distance":5084,"line":2,"station_id":"CTA","transit":true,"is_transit":true,"station_name":"Citayam","i_lat":-6.448811,"time":6},{"i_lat":-6.460735,"station_id":"PDRG","distance":0,"time":0,"line":21,"transit":false,"is_transit":false,"i_long":106.824374,"station_name":"Pondok Rajeg"},{"i_lat":-6.46424,"transit":false,"station_name":"Cibinong","is_transit":false,"station_id":"CBN","time":0,"line":21,"distance":0,"i_long":106.851978}]]}