{"data":[[{"line":5,"i_long":106.788277,"time":0,"transit":false,"distance":0,"is_transit":false,"station_id":"GGL","i_lat":-6.162021,"station_name":"Grogol"},{"station_id":"DU","transit":true,"i_long":106.800832,"i_lat":-6.155215,"distance":1700,"station_name":"Duri","time":3,"line":1,"is_transit":true},{"station_id":"THB","line":1,"is_transit":true,"transit":true,"i_long":106.811091,"station_name":"Tanah Abang","time":8,"distance":3632,"i_lat":-6.185545},{"station_name":"Palmerah","i_lat":-6.207404,"line":6,"i_long":106.79689,"distance":3191,"time":6,"transit":false,"station_id":"PLM","is_transit":false},{"distance":3737,"station_id":"KBY","i_long":106.780334,"is_transit":false,"station_name":"Kebayoran","i_lat":-6.237242,"line":6,"transit":false,"time":7},{"station_id":"PDJ","time":8,"line":6,"station_name":"Pondokranji","distance":6218,"i_lat":-6.276362,"i_long":106.74273,"is_transit":false,"transit":false},{"time":3,"is_transit":false,"station_name":"Jurangmangu","distance":2179,"i_long":106.728916,"station_id":"JMU","line":6,"i_lat":-6.288927,"transit":false}],[{"transit":false,"line":5,"i_long":106.788277,"time":0,"station_name":"Grogol","distance":0,"is_transit":false,"i_lat":-6.162021,"station_id":"GGL"},{"i_long":106.800832,"station_id":"DU","i_lat":-6.155215,"is_transit":true,"time":3,"station_name":"Duri","transit":true,"line":1,"distance":1700},{"distance":1230,"time":4,"station_name":"Angke","i_lat":-6.144674,"i_long":106.79867,"line":1,"is_transit":false,"station_id":"AK","transit":false},{"transit":true,"station_id":"KPB","is_transit":true,"i_long":106.826365,"line":4,"station_name":"Kampung Bandan","i_lat":-6.132549,"time":9,"distance":4102},{"station_id":"JAKK","i_long":106.812439,"is_transit":true,"transit":true,"station_name":"Jakarta Kota","i_lat":-6.137569,"distance":1364,"line":2,"time":3},{"time":4,"is_transit":false,"i_long":106.820901,"transit":false,"distance":1264,"station_id":"JAY","station_name":"Jayakarta","i_lat":-6.141205,"line":2},{"line":2,"station_name":"Manggabesar","station_id":"MGB","time":2,"is_transit":false,"i_lat":-6.149769,"i_long":106.82482,"distance":1080,"transit":false},{"station_name":"Sawah Besar","line":2,"time":2,"i_long":106.827103,"station_id":"SW","i_lat":-6.160725,"distance":906,"is_transit":false,"transit":false},{"transit":false,"i_long":106.828284,"is_transit":false,"station_id":"JUA","station_name":"Juanda","distance":1149,"line":2,"time":2,"i_lat":-6.166716},{"distance":2015,"i_lat":-6.186295,"line":2,"transit":false,"station_id":"GDD","is_transit":false,"time":4,"station_name":"Gondangdia","i_long":106.832183},{"distance":1750,"transit":false,"line":2,"station_id":"CKI","time":3,"i_lat":-6.198556,"is_transit":false,"i_long":106.840169,"station_name":"Cikini"},{"is_transit":true,"i_long":106.84912,"distance":1590,"i_lat":-6.209883,"station_name":"Manggarai","line":2,"station_id":"MRI","transit":true,"time":4},{"time":4,"distance":3186,"is_transit":false,"station_name":"Sudirman","line":1,"i_long":106.822649,"transit":false,"i_lat":-6.202263,"station_id":"SUD"},{"i_lat":-6.201433,"line":1,"transit":false,"distance":280,"is_transit":false,"time":1,"i_long":106.819881,"station_name":"Sudirman Baru","station_id":"SUDB"},{"i_lat":-6.20132,"transit":false,"station_name":"Karet","i_long":106.816351,"line":1,"distance":471,"station_id":"KAT","is_transit":false,"time":1},{"station_name":"Tanah Abang","i_long":106.811091,"time":5,"line":1,"distance":2029,"i_lat":-6.185545,"transit":true,"station_id":"THB","is_transit":true},{"station_name":"Palmerah","line":6,"time":6,"i_long":106.79689,"transit":false,"station_id":"PLM","is_transit":false,"distance":3191,"i_lat":-6.207404},{"time":7,"station_name":"Kebayoran","i_long":106.780334,"is_transit":false,"transit":false,"station_id":"KBY","line":6,"distance":3737,"i_lat":-6.237242},{"time":8,"station_id":"PDJ","distance":6218,"i_long":106.74273,"i_lat":-6.276362,"transit":false,"is_transit":false,"station_name":"Pondokranji","line":6},{"station_name":"Jurangmangu","i_long":106.728916,"i_lat":-6.288927,"line":6,"station_id":"JMU","is_transit":false,"transit":false,"distance":2179,"time":3}],[{"station_id":"GGL","i_lat":-6.162021,"station_name":"Grogol","distance":0,"time":0,"line":5,"is_transit":false,"transit":false,"i_long":106.788277},{"distance":1700,"transit":true,"is_transit":true,"line":1,"station_id":"DU","i_lat":-6.155215,"station_name":"Duri","i_long":106.800832,"time":3},{"transit":false,"i_long":106.79867,"station_id":"AK","time":4,"station_name":"Angke","line":1,"distance":1230,"is_transit":false,"i_lat":-6.144674},{"i_lat":-6.132549,"station_name":"Kampung Bandan","i_long":106.826365,"time":9,"transit":true,"station_id":"KPB","is_transit":true,"distance":4102,"line":4},{"is_transit":false,"station_name":"Rajawali","distance":1444,"i_long":106.836569,"time":3,"transit":false,"i_lat":-6.14505,"line":11,"station_id":"RJW"},{"station_name":"Kemayoran","line":11,"time":5,"i_lat":-6.161728,"is_transit":false,"distance":1901,"transit":false,"i_long":106.839204,"station_id":"KMO"},{"station_id":"PSE","i_lat":-6.174784,"station_name":"Pasar Senen","time":4,"distance":1436,"is_transit":false,"i_long":106.84368,"line":11,"transit":false},{"is_transit":false,"distance":1567,"i_lat":-6.185975,"line":11,"i_long":106.850107,"station_id":"GST","time":8,"transit":false,"station_name":"Gang Sentiong"},{"i_long":106.855437,"time":1,"line":11,"transit":false,"station_name":"Kramat","station_id":"KMT","distance":973,"is_transit":false,"i_lat":-6.193792},{"i_long":106.861737,"station_id":"POK","is_transit":false,"transit":false,"time":2,"i_lat":-6.209188,"station_name":"Pondok Jati","line":11,"distance":1829},{"station_name":"Jatinegara","i_long":106.86807400000001,"is_transit":true,"i_lat":-6.215091,"station_id":"JNG","transit":true,"distance":1236,"line":1,"time":9},{"transit":false,"distance":1377,"time":2,"i_long":106.858896,"station_id":"MTR","is_transit":false,"i_lat":-6.212485,"station_name":"Matraman","line":1},{"i_long":106.84912,"line":2,"station_name":"Manggarai","is_transit":false,"distance":1275,"transit":false,"station_id":"MRI","time":2,"i_lat":-6.209883},{"is_transit":false,"i_long":106.822649,"line":1,"time":4,"distance":3186,"station_name":"Sudirman","transit":false,"i_lat":-6.202263,"station_id":"SUD"},{"i_lat":-6.201433,"distance":280,"i_long":106.819881,"is_transit":false,"station_name":"Sudirman Baru","time":1,"line":1,"transit":false,"station_id":"SUDB"},{"i_lat":-6.20132,"is_transit":false,"distance":471,"station_name":"Karet","line":1,"i_long":106.816351,"station_id":"KAT","transit":false,"time":1},{"station_name":"Tanah Abang","transit":true,"is_transit":true,"distance":2029,"i_lat":-6.185545,"line":1,"i_long":106.811091,"time":5,"station_id":"THB"},{"distance":3191,"station_id":"PLM","transit":false,"time":6,"i_long":106.79689,"line":6,"is_transit":false,"i_lat":-6.207404,"station_name":"Palmerah"},{"transit":false,"time":7,"station_id":"KBY","station_name":"Kebayoran","is_transit":false,"i_lat":-6.237242,"i_long":106.780334,"line":6,"distance":3737},{"line":6,"time":8,"distance":6218,"transit":false,"station_id":"PDJ","station_name":"Pondokranji","is_transit":false,"i_long":106.74273,"i_lat":-6.276362},{"line":6,"i_lat":-6.288927,"transit":false,"distance":2179,"station_id":"JMU","is_transit":false,"station_name":"Jurangmangu","i_long":106.728916,"time":3}]]}