{"data":[[{"is_transit":false,"time":0,"station_id":"GGL","transit":false,"station_name":"Grogol","i_lat":-6.162021,"distance":0,"i_long":106.788277,"line":5},{"station_id":"DU","station_name":"Duri","i_long":106.800832,"line":1,"transit":true,"distance":1700,"time":3,"i_lat":-6.155215,"is_transit":true},{"distance":3632,"line":1,"is_transit":false,"time":8,"i_lat":-6.185545,"i_long":106.811091,"station_name":"Tanah Abang","station_id":"THB","transit":false},{"station_id":"KAT","transit":false,"time":5,"i_long":106.816351,"line":1,"is_transit":false,"station_name":"Karet","distance":2029,"i_lat":-6.20132},{"i_long":106.819881,"i_lat":-6.201433,"station_id":"SUDB","station_name":"Sudirman Baru","is_transit":false,"line":1,"time":1,"distance":471,"transit":false},{"time":1,"transit":false,"is_transit":false,"line":1,"distance":280,"i_lat":-6.202263,"station_id":"SUD","i_long":106.822649,"station_name":"Sudirman"},{"i_long":106.84912,"station_id":"MRI","line":2,"transit":true,"station_name":"Manggarai","distance":3186,"i_lat":-6.209883,"is_transit":true,"time":4},{"i_long":106.857948,"station_id":"TEB","station_name":"Tebet","distance":2610,"line":2,"time":4,"transit":false,"is_transit":false,"i_lat":-6.226659},{"i_lat":-6.242512,"time":2,"station_id":"CW","i_long":106.856607,"station_name":"Cawang","line":2,"is_transit":false,"distance":1230,"transit":false},{"line":2,"distance":1546,"i_lat":-6.255332,"is_transit":false,"i_long":106.85449,"transit":false,"time":3,"station_id":"DRN","station_name":"Duren Kalibata"},{"line":2,"station_id":"PSMB","distance":824,"time":2,"i_lat":-6.263214,"is_transit":false,"i_long":106.851577,"transit":false,"station_name":"Pasar Minggu Baru"},{"distance":2380,"transit":false,"i_lat":-6.2842400000000005,"is_transit":false,"time":2,"i_long":106.843999,"station_id":"PSM","station_name":"Pasar Minggu","line":2},{"i_long":106.838896,"is_transit":false,"transit":false,"i_lat":-6.3080680000000005,"time":4,"station_name":"Tanjung Barat","line":2,"distance":2820,"station_id":"TNT"},{"transit":false,"i_lat":-6.330363,"line":2,"distance":2671,"station_id":"LNA","station_name":"Lenteng Agung","i_long":106.832616,"time":3,"is_transit":false},{"time":2,"station_id":"UP","is_transit":false,"station_name":"Univ. Pancasila","transit":false,"i_lat":-6.339291,"i_long":106.834175,"line":2,"distance":1029},{"station_name":"Univ. Indonesia","line":2,"distance":2264,"i_long":106.831474,"time":3,"transit":false,"station_id":"UI","i_lat":-6.360749,"is_transit":false},{"station_name":"Pondok Cina","is_transit":false,"time":2,"distance":1109,"i_lat":-6.369073,"line":2,"station_id":"POC","transit":false,"i_long":106.831114},{"is_transit":false,"transit":false,"time":4,"line":2,"station_id":"DPB","distance":2727,"station_name":"Depokbaru","i_lat":-6.391065,"i_long":106.819451},{"station_id":"DP","i_long":106.816926,"time":3,"is_transit":false,"distance":1584,"transit":false,"i_lat":-6.405256,"line":2,"station_name":"Depok"}],[{"station_name":"Grogol","transit":false,"is_transit":false,"station_id":"GGL","i_lat":-6.162021,"i_long":106.788277,"time":0,"line":5,"distance":0},{"distance":1700,"i_lat":-6.155215,"line":1,"transit":true,"station_id":"DU","station_name":"Duri","time":3,"is_transit":true,"i_long":106.800832},{"i_lat":-6.144674,"i_long":106.79867,"distance":1230,"is_transit":false,"station_id":"AK","time":4,"line":1,"transit":false,"station_name":"Angke"},{"distance":4102,"transit":true,"station_id":"KPB","i_lat":-6.132549,"is_transit":true,"station_name":"Kampung Bandan","line":4,"i_long":106.826365,"time":9},{"time":3,"i_long":106.812439,"station_id":"JAKK","distance":1364,"transit":true,"i_lat":-6.137569,"station_name":"Jakarta Kota","is_transit":true,"line":2},{"transit":false,"line":2,"i_lat":-6.141205,"distance":1264,"i_long":106.820901,"time":4,"station_name":"Jayakarta","is_transit":false,"station_id":"JAY"},{"station_name":"Manggabesar","station_id":"MGB","i_lat":-6.149769,"line":2,"i_long":106.82482,"is_transit":false,"time":2,"transit":false,"distance":1080},{"distance":906,"station_name":"Sawah Besar","is_transit":false,"time":2,"station_id":"SW","transit":false,"i_lat":-6.160725,"i_long":106.827103,"line":2},{"line":2,"time":2,"is_transit":false,"station_name":"Juanda","i_lat":-6.166716,"i_long":106.828284,"station_id":"JUA","distance":1149,"transit":false},{"station_id":"GDD","distance":2015,"i_long":106.832183,"i_lat":-6.186295,"station_name":"Gondangdia","transit":false,"is_transit":false,"line":2,"time":4},{"transit":false,"station_name":"Cikini","i_lat":-6.198556,"distance":1750,"time":3,"is_transit":false,"station_id":"CKI","line":2,"i_long":106.840169},{"distance":1590,"transit":false,"station_name":"Manggarai","line":2,"is_transit":false,"station_id":"MRI","i_long":106.84912,"i_lat":-6.209883,"time":4},{"time":4,"is_transit":false,"station_id":"TEB","distance":2610,"i_long":106.857948,"transit":false,"line":2,"station_name":"Tebet","i_lat":-6.226659},{"time":2,"distance":1230,"is_transit":false,"i_lat":-6.242512,"i_long":106.856607,"line":2,"station_name":"Cawang","transit":false,"station_id":"CW"},{"station_name":"Duren Kalibata","distance":1546,"i_lat":-6.255332,"line":2,"i_long":106.85449,"station_id":"DRN","transit":false,"is_transit":false,"time":3},{"distance":824,"i_lat":-6.263214,"station_name":"Pasar Minggu Baru","transit":false,"station_id":"PSMB","time":2,"i_long":106.851577,"line":2,"is_transit":false},{"distance":2380,"station_name":"Pasar Minggu","line":2,"transit":false,"is_transit":false,"station_id":"PSM","i_lat":-6.2842400000000005,"time":2,"i_long":106.843999},{"time":4,"transit":false,"i_long":106.838896,"distance":2820,"is_transit":false,"line":2,"i_lat":-6.3080680000000005,"station_id":"TNT","station_name":"Tanjung Barat"},{"time":3,"station_name":"Lenteng Agung","station_id":"LNA","line":2,"distance":2671,"i_lat":-6.330363,"is_transit":false,"transit":false,"i_long":106.832616},{"is_transit":false,"station_name":"Univ. Pancasila","i_lat":-6.339291,"time":2,"line":2,"station_id":"UP","transit":false,"distance":1029,"i_long":106.834175},{"station_name":"Univ. Indonesia","time":3,"is_transit":false,"station_id":"UI","transit":false,"i_lat":-6.360749,"i_long":106.831474,"distance":2264,"line":2},{"transit":false,"distance":1109,"i_lat":-6.369073,"time":2,"station_name":"Pondok Cina","i_long":106.831114,"station_id":"POC","is_transit":false,"line":2},{"transit":false,"i_long":106.819451,"line":2,"time":4,"i_lat":-6.391065,"distance":2727,"station_id":"DPB","is_transit":false,"station_name":"Depokbaru"},{"distance":1584,"time":3,"line":2,"station_name":"Depok","station_id":"DP","transit":false,"i_lat":-6.405256,"i_long":106.816926,"is_transit":false}],[{"is_transit":false,"i_long":106.788277,"transit":false,"station_name":"Grogol","line":5,"time":0,"distance":0,"station_id":"GGL","i_lat":-6.162021},{"time":3,"station_id":"DU","transit":true,"line":1,"i_lat":-6.155215,"is_transit":true,"distance":1700,"station_name":"Duri","i_long":106.800832},{"distance":1230,"station_id":"AK","i_lat":-6.144674,"transit":false,"line":1,"i_long":106.79867,"is_transit":false,"station_name":"Angke","time":4},{"i_long":106.826365,"transit":true,"i_lat":-6.132549,"station_id":"KPB","time":9,"station_name":"Kampung Bandan","distance":4102,"line":4,"is_transit":true},{"i_long":106.836569,"line":11,"station_id":"RJW","distance":1444,"is_transit":false,"i_lat":-6.14505,"transit":false,"station_name":"Rajawali","time":3},{"i_lat":-6.161728,"is_transit":false,"line":11,"station_id":"KMO","station_name":"Kemayoran","distance":1901,"time":5,"transit":false,"i_long":106.839204},{"station_name":"Pasar Senen","distance":1436,"i_lat":-6.174784,"time":4,"station_id":"PSE","i_long":106.84368,"line":11,"is_transit":false,"transit":false},{"i_lat":-6.185975,"line":11,"station_id":"GST","time":8,"distance":1567,"transit":false,"station_name":"Gang Sentiong","i_long":106.850107,"is_transit":false},{"station_name":"Kramat","transit":false,"is_transit":false,"i_long":106.855437,"line":11,"time":1,"i_lat":-6.193792,"distance":973,"station_id":"KMT"},{"station_id":"POK","line":11,"distance":1829,"is_transit":false,"station_name":"Pondok Jati","transit":false,"i_long":106.861737,"i_lat":-6.209188,"time":2},{"transit":true,"distance":1236,"i_long":106.86807400000001,"station_id":"JNG","i_lat":-6.215091,"time":9,"station_name":"Jatinegara","line":1,"is_transit":true},{"distance":1377,"is_transit":false,"time":2,"i_long":106.858896,"i_lat":-6.212485,"station_id":"MTR","transit":false,"station_name":"Matraman","line":1},{"distance":1275,"time":2,"is_transit":true,"station_id":"MRI","transit":true,"station_name":"Manggarai","i_long":106.84912,"i_lat":-6.209883,"line":2},{"station_id":"TEB","i_long":106.857948,"distance":2610,"time":4,"is_transit":false,"station_name":"Tebet","i_lat":-6.226659,"line":2,"transit":false},{"is_transit":false,"transit":false,"i_long":106.856607,"station_name":"Cawang","line":2,"i_lat":-6.242512,"time":2,"station_id":"CW","distance":1230},{"time":3,"transit":false,"station_name":"Duren Kalibata","i_lat":-6.255332,"station_id":"DRN","i_long":106.85449,"is_transit":false,"line":2,"distance":1546},{"line":2,"transit":false,"i_long":106.851577,"is_transit":false,"station_name":"Pasar Minggu Baru","i_lat":-6.263214,"distance":824,"station_id":"PSMB","time":2},{"line":2,"transit":false,"station_name":"Pasar Minggu","distance":2380,"time":2,"is_transit":false,"station_id":"PSM","i_lat":-6.2842400000000005,"i_long":106.843999},{"station_name":"Tanjung Barat","line":2,"distance":2820,"time":4,"station_id":"TNT","transit":false,"i_long":106.838896,"is_transit":false,"i_lat":-6.3080680000000005},{"line":2,"time":3,"is_transit":false,"distance":2671,"transit":false,"i_lat":-6.330363,"station_name":"Lenteng Agung","station_id":"LNA","i_long":106.832616},{"station_name":"Univ. Pancasila","line":2,"station_id":"UP","i_long":106.834175,"transit":false,"is_transit":false,"time":2,"distance":1029,"i_lat":-6.339291},{"transit":false,"is_transit":false,"station_id":"UI","i_lat":-6.360749,"distance":2264,"line":2,"i_long":106.831474,"time":3,"station_name":"Univ. Indonesia"},{"distance":1109,"line":2,"i_long":106.831114,"transit":false,"i_lat":-6.369073,"station_name":"Pondok Cina","time":2,"is_transit":false,"station_id":"POC"},{"i_lat":-6.391065,"distance":2727,"time":4,"is_transit":false,"station_id":"DPB","line":2,"i_long":106.819451,"station_name":"Depokbaru","transit":false},{"i_lat":-6.405256,"i_long":106.816926,"line":2,"station_id":"DP","transit":false,"station_name":"Depok","time":3,"distance":1584,"is_transit":false}]]}