{"data":[[{"line":5,"i_lat":-6.162021,"i_long":106.788277,"is_transit":false,"transit":false,"distance":0,"station_id":"GGL","station_name":"Grogol","time":0},{"transit":true,"station_name":"Duri","is_transit":true,"station_id":"DU","i_long":106.800832,"i_lat":-6.155215,"line":1,"distance":1700,"time":3},{"line":0,"i_lat":-6.144674,"station_name":"Angke","transit":false,"is_transit":false,"i_long":106.79867,"distance":1230,"time":4,"station_id":"AK"}],[{"transit":false,"distance":0,"is_transit":false,"i_long":106.788277,"time":0,"line":5,"station_name":"Grogol","station_id":"GGL","i_lat":-6.162021},{"i_long":106.800832,"i_lat":-6.155215,"station_id":"DU","is_transit":true,"line":1,"time":3,"transit":true,"station_name":"Duri","distance":1700},{"transit":false,"time":8,"is_transit":true,"i_lat":-6.185545,"station_name":"Tanah Abang","station_id":"THB","distance":3632,"line":1,"i_long":106.811091},{"station_id":"KAT","i_long":106.816351,"is_transit":false,"i_lat":-6.20132,"time":5,"line":1,"station_name":"Karet","distance":2029,"transit":false},{"time":1,"transit":false,"i_lat":-6.201433,"station_name":"Sudirman Baru","i_long":106.819881,"is_transit":false,"distance":471,"line":1,"station_id":"SUDB"},{"station_id":"SUD","i_lat":-6.202263,"station_name":"Sudirman","distance":280,"transit":false,"i_long":106.822649,"line":1,"is_transit":false,"time":1},{"distance":3186,"line":0,"transit":true,"i_lat":-6.209883,"i_long":106.84912,"station_name":"Manggarai","time":4,"station_id":"MRI","is_transit":true},{"station_id":"CKI","is_transit":false,"station_name":"Cikini","time":4,"transit":false,"distance":1590,"i_long":106.840169,"i_lat":-6.198556,"line":0},{"is_transit":false,"station_name":"Gondangdia","time":3,"station_id":"GDD","i_long":106.832183,"transit":false,"line":2,"distance":1750,"i_lat":-6.186295},{"line":2,"station_id":"JUA","i_long":106.828284,"distance":2015,"time":4,"transit":false,"station_name":"Juanda","is_transit":false,"i_lat":-6.166716},{"i_long":106.827103,"i_lat":-6.160725,"line":2,"station_id":"SW","time":2,"transit":false,"is_transit":false,"station_name":"Sawah Besar","distance":1149},{"time":2,"i_long":106.82482,"i_lat":-6.149769,"distance":906,"is_transit":false,"line":2,"station_id":"MGB","station_name":"Manggabesar","transit":false},{"distance":1080,"is_transit":false,"transit":false,"i_lat":-6.141205,"station_id":"JAY","line":7,"i_long":106.820901,"station_name":"Jayakarta","time":2},{"is_transit":true,"station_name":"Jakarta Kota","station_id":"JAKK","transit":true,"time":4,"distance":1264,"i_lat":-6.137569,"i_long":106.812439,"line":0},{"i_long":106.826365,"station_id":"KPB","station_name":"Kampung Bandan","distance":1364,"transit":false,"i_lat":-6.132549,"line":0,"is_transit":true,"time":3},{"is_transit":false,"transit":false,"station_name":"Angke","i_lat":-6.144674,"i_long":106.79867,"line":0,"distance":4102,"time":9,"station_id":"AK"}],[{"time":0,"station_id":"GGL","is_transit":false,"transit":false,"line":5,"station_name":"Grogol","distance":0,"i_lat":-6.162021,"i_long":106.788277},{"transit":true,"i_long":106.800832,"station_id":"DU","station_name":"Duri","i_lat":-6.155215,"line":1,"time":3,"is_transit":true,"distance":1700},{"time":8,"transit":false,"i_lat":-6.185545,"i_long":106.811091,"line":1,"station_id":"THB","distance":3632,"is_transit":true,"station_name":"Tanah Abang"},{"line":1,"is_transit":false,"station_name":"Karet","transit":false,"distance":2029,"station_id":"KAT","i_lat":-6.20132,"time":5,"i_long":106.816351},{"i_long":106.819881,"time":1,"station_id":"SUDB","distance":471,"i_lat":-6.201433,"station_name":"Sudirman Baru","is_transit":false,"transit":false,"line":1},{"i_lat":-6.202263,"time":1,"station_id":"SUD","station_name":"Sudirman","is_transit":false,"i_long":106.822649,"line":1,"distance":280,"transit":false},{"line":0,"distance":3186,"station_id":"MRI","transit":false,"time":4,"station_name":"Manggarai","i_long":106.84912,"i_lat":-6.209883,"is_transit":true},{"i_lat":-6.212485,"distance":1275,"time":2,"transit":false,"is_transit":false,"i_long":106.858896,"line":1,"station_name":"Matraman","station_id":"MTR"},{"line":0,"station_id":"JNG","time":8,"distance":1377,"i_lat":-6.215091,"i_long":106.86807400000001,"station_name":"Jatinegara","is_transit":true,"transit":true},{"time":2,"distance":1236,"station_id":"POK","transit":false,"i_lat":-6.209188,"i_long":106.861737,"line":11,"is_transit":false,"station_name":"Pondok Jati"},{"i_lat":-6.193792,"time":2,"i_long":106.855437,"is_transit":false,"station_id":"KMT","transit":false,"distance":1829,"line":11,"station_name":"Kramat"},{"time":1,"i_long":106.850107,"line":11,"station_id":"GST","is_transit":false,"station_name":"Gang Sentiong","distance":973,"i_lat":-6.185975,"transit":false},{"distance":1567,"line":11,"transit":false,"time":8,"i_long":106.84368,"i_lat":-6.174784,"station_id":"PSE","station_name":"Pasar Senen","is_transit":false},{"station_name":"Kemayoran","line":11,"is_transit":false,"i_long":106.839204,"distance":1436,"time":4,"station_id":"KMO","transit":false,"i_lat":-6.161728},{"time":5,"station_id":"RJW","is_transit":false,"station_name":"Rajawali","i_long":106.836569,"distance":1901,"i_lat":-6.14505,"line":11,"transit":false},{"line":0,"i_long":106.826365,"station_id":"KPB","i_lat":-6.132549,"is_transit":true,"time":3,"distance":1444,"transit":true,"station_name":"Kampung Bandan"},{"is_transit":false,"station_id":"AK","transit":false,"time":9,"distance":4102,"i_long":106.79867,"i_lat":-6.144674,"line":0,"station_name":"Angke"}]]}