{"data":[[{"transit":false,"station_name":"Grogol","i_long":106.788277,"distance":0,"i_lat":-6.162021,"is_transit":false,"time":0,"station_id":"GGL","line":5},{"i_long":106.800832,"is_transit":true,"transit":true,"station_name":"Duri","i_lat":-6.155215,"line":1,"station_id":"DU","distance":1700,"time":3},{"line":1,"is_transit":true,"station_name":"Tanah Abang","station_id":"THB","transit":false,"distance":3632,"i_lat":-6.185545,"i_long":106.811091,"time":8},{"distance":2029,"i_long":106.816351,"station_id":"KAT","station_name":"Karet","i_lat":-6.20132,"is_transit":false,"transit":false,"line":1,"time":5},{"i_lat":-6.201433,"is_transit":false,"station_id":"SUDB","transit":false,"i_long":106.819881,"station_name":"Sudirman Baru","line":1,"distance":471,"time":1},{"i_long":106.822649,"i_lat":-6.202263,"line":1,"time":1,"is_transit":false,"station_id":"SUD","distance":280,"transit":false,"station_name":"Sudirman"},{"line":0,"time":4,"distance":3186,"station_name":"Manggarai","i_long":106.84912,"transit":true,"station_id":"MRI","is_transit":true,"i_lat":-6.209883},{"time":4,"i_lat":-6.226659,"station_name":"Tebet","transit":false,"i_long":106.857948,"is_transit":false,"line":2,"distance":2610,"station_id":"TEB"},{"distance":1230,"is_transit":false,"line":0,"i_lat":-6.242512,"station_name":"Cawang","station_id":"CW","i_long":106.856607,"time":2,"transit":false},{"i_long":106.85449,"transit":false,"i_lat":-6.255332,"time":3,"distance":1546,"line":0,"station_id":"DRN","is_transit":false,"station_name":"Duren Kalibata"},{"i_lat":-6.263214,"i_long":106.851577,"line":2,"is_transit":false,"station_id":"PSMB","distance":824,"station_name":"Pasar Minggu Baru","transit":false,"time":2}],[{"distance":0,"i_long":106.788277,"transit":false,"is_transit":false,"station_id":"GGL","station_name":"Grogol","line":5,"i_lat":-6.162021,"time":0},{"station_id":"DU","is_transit":true,"i_long":106.800832,"distance":1700,"i_lat":-6.155215,"line":1,"station_name":"Duri","time":3,"transit":true},{"station_name":"Angke","station_id":"AK","transit":false,"is_transit":false,"i_long":106.79867,"time":4,"line":0,"distance":1230,"i_lat":-6.144674},{"is_transit":true,"station_name":"Kampung Bandan","distance":4102,"i_lat":-6.132549,"station_id":"KPB","time":9,"transit":false,"i_long":106.826365,"line":0},{"i_lat":-6.137569,"line":0,"station_id":"JAKK","station_name":"Jakarta Kota","transit":true,"time":3,"is_transit":true,"distance":1364,"i_long":106.812439},{"distance":1264,"i_lat":-6.141205,"line":7,"station_name":"Jayakarta","i_long":106.820901,"time":4,"transit":false,"station_id":"JAY","is_transit":false},{"distance":1080,"station_name":"Manggabesar","time":2,"is_transit":false,"transit":false,"station_id":"MGB","i_lat":-6.149769,"i_long":106.82482,"line":2},{"is_transit":false,"station_name":"Sawah Besar","i_long":106.827103,"i_lat":-6.160725,"line":2,"time":2,"transit":false,"station_id":"SW","distance":906},{"i_long":106.828284,"time":2,"station_id":"JUA","distance":1149,"is_transit":false,"station_name":"Juanda","transit":false,"line":2,"i_lat":-6.166716},{"line":2,"transit":false,"distance":2015,"station_name":"Gondangdia","is_transit":false,"time":4,"station_id":"GDD","i_lat":-6.186295,"i_long":106.832183},{"i_lat":-6.198556,"transit":false,"is_transit":false,"i_long":106.840169,"station_id":"CKI","time":3,"station_name":"Cikini","line":0,"distance":1750},{"station_name":"Manggarai","station_id":"MRI","transit":true,"distance":1590,"i_long":106.84912,"is_transit":true,"line":0,"time":4,"i_lat":-6.209883},{"transit":false,"i_lat":-6.226659,"station_id":"TEB","i_long":106.857948,"distance":2610,"line":2,"time":4,"station_name":"Tebet","is_transit":false},{"i_lat":-6.242512,"i_long":106.856607,"time":2,"is_transit":false,"station_name":"Cawang","line":0,"station_id":"CW","transit":false,"distance":1230},{"i_lat":-6.255332,"i_long":106.85449,"station_name":"Duren Kalibata","line":0,"time":3,"station_id":"DRN","distance":1546,"is_transit":false,"transit":false},{"station_id":"PSMB","is_transit":false,"time":2,"distance":824,"transit":false,"i_long":106.851577,"line":2,"station_name":"Pasar Minggu Baru","i_lat":-6.263214}],[{"line":5,"transit":false,"station_id":"GGL","distance":0,"is_transit":false,"i_lat":-6.162021,"i_long":106.788277,"time":0,"station_name":"Grogol"},{"distance":1700,"line":1,"i_lat":-6.155215,"station_id":"DU","i_long":106.800832,"is_transit":true,"time":3,"transit":true,"station_name":"Duri"},{"i_long":106.79867,"line":0,"transit":false,"station_name":"Angke","i_lat":-6.144674,"time":4,"distance":1230,"is_transit":false,"station_id":"AK"},{"time":9,"i_long":106.826365,"station_id":"KPB","i_lat":-6.132549,"is_transit":true,"line":0,"distance":4102,"transit":true,"station_name":"Kampung Bandan"},{"is_transit":false,"station_name":"Rajawali","line":11,"transit":false,"i_long":106.836569,"distance":1444,"time":3,"station_id":"RJW","i_lat":-6.14505},{"distance":1901,"time":5,"station_name":"Kemayoran","i_lat":-6.161728,"transit":false,"i_long":106.839204,"station_id":"KMO","is_transit":false,"line":11},{"i_long":106.84368,"station_id":"PSE","is_transit":false,"transit":false,"time":4,"distance":1436,"i_lat":-6.174784,"line":11,"station_name":"Pasar Senen"},{"transit":false,"station_id":"GST","time":8,"distance":1567,"is_transit":false,"station_name":"Gang Sentiong","i_long":106.850107,"i_lat":-6.185975,"line":11},{"line":11,"i_lat":-6.193792,"transit":false,"is_transit":false,"time":1,"distance":973,"i_long":106.855437,"station_id":"KMT","station_name":"Kramat"},{"is_transit":false,"distance":1829,"time":2,"line":11,"station_id":"POK","transit":false,"i_lat":-6.209188,"i_long":106.861737,"station_name":"Pondok Jati"},{"i_long":106.86807400000001,"line":0,"is_transit":true,"distance":1236,"transit":true,"station_name":"Jatinegara","station_id":"JNG","time":9,"i_lat":-6.215091},{"station_id":"MTR","station_name":"Matraman","time":2,"is_transit":false,"distance":1377,"i_long":106.858896,"transit":false,"i_lat":-6.212485,"line":1},{"i_long":106.84912,"station_id":"MRI","line":0,"i_lat":-6.209883,"station_name":"Manggarai","transit":true,"time":2,"distance":1275,"is_transit":true},{"transit":false,"distance":2610,"station_id":"TEB","time":4,"i_long":106.857948,"station_name":"Tebet","is_transit":false,"i_lat":-6.226659,"line":2},{"is_transit":false,"station_name":"Cawang","station_id":"CW","time":2,"distance":1230,"line":0,"i_lat":-6.242512,"i_long":106.856607,"transit":false},{"line":0,"time":3,"i_lat":-6.255332,"station_name":"Duren Kalibata","is_transit":false,"station_id":"DRN","transit":false,"i_long":106.85449,"distance":1546},{"time":2,"transit":false,"line":2,"station_name":"Pasar Minggu Baru","station_id":"PSMB","i_long":106.851577,"i_lat":-6.263214,"is_transit":false,"distance":824}]]}