{"data":[[{"i_lat":-6.162021,"station_name":"Grogol","line":5,"transit":false,"is_transit":false,"time":0,"distance":0,"i_long":106.788277,"station_id":"GGL"},{"transit":true,"station_name":"Duri","i_long":106.800832,"station_id":"DU","line":1,"time":3,"i_lat":-6.155215,"distance":1700,"is_transit":true},{"distance":3632,"station_name":"Tanah Abang","station_id":"THB","i_lat":-6.185545,"transit":false,"i_long":106.811091,"is_transit":false,"time":8,"line":1},{"time":5,"station_id":"KAT","station_name":"Karet","i_lat":-6.20132,"line":1,"i_long":106.816351,"distance":2029,"transit":false,"is_transit":false},{"distance":471,"time":1,"i_long":106.819881,"i_lat":-6.201433,"is_transit":false,"station_name":"Sudirman Baru","station_id":"SUDB","line":1,"transit":false},{"is_transit":false,"transit":false,"station_id":"SUD","distance":280,"station_name":"Sudirman","time":1,"i_lat":-6.202263,"i_long":106.822649,"line":1},{"time":4,"distance":3186,"i_lat":-6.209883,"i_long":106.84912,"station_id":"MRI","transit":false,"is_transit":false,"station_name":"Manggarai","line":2},{"distance":1275,"time":2,"station_name":"Matraman","transit":false,"line":1,"station_id":"MTR","i_lat":-6.212485,"is_transit":false,"i_long":106.858896},{"is_transit":false,"transit":false,"i_long":106.86807400000001,"line":1,"station_name":"Jatinegara","i_lat":-6.215091,"time":8,"station_id":"JNG","distance":1377},{"transit":false,"time":3,"i_long":106.899548,"distance":3395,"station_id":"KLD","is_transit":false,"i_lat":-6.2135,"line":1,"station_name":"Klender"},{"i_long":106.922662,"station_name":"Buaran","i_lat":-6.215568,"line":1,"station_id":"BUA","is_transit":false,"time":2,"transit":false,"distance":3100},{"is_transit":false,"station_id":"KLDB","distance":1305,"station_name":"Klenderbaru","line":1,"transit":false,"i_lat":-6.217455,"time":1,"i_long":106.939679},{"station_name":"Cakung","distance":1385,"is_transit":false,"station_id":"CUK","time":8,"i_lat":-6.219053,"i_long":106.951283,"line":1,"transit":false},{"i_long":106.977657,"station_id":"KRI","distance":3097,"time":3,"station_name":"Kranji","is_transit":false,"transit":false,"line":1,"i_lat":-6.224515},{"station_name":"Bekasi","transit":false,"line":1,"station_id":"BKS","distance":2520,"time":4,"is_transit":false,"i_lat":-6.236616,"i_long":106.997013},{"i_long":107.016735,"line":1,"i_lat":-6.248029,"time":2,"transit":false,"station_name":"Bekasi Timur","distance":2368,"station_id":"BKST","is_transit":false},{"transit":false,"time":7,"distance":4460,"i_lat":-6.258864,"is_transit":false,"station_name":"Tambun","i_long":107.055722,"line":1,"station_id":"TB"},{"line":1,"time":3,"is_transit":false,"station_id":"CIT","distance":3420,"station_name":"Cibitung","i_lat":-6.261877,"i_long":107.083084,"transit":false},{"station_id":"TLM","transit":false,"time":2,"is_transit":false,"i_long":107.093313,"i_lat":-6.262938,"line":1,"distance":2800,"station_name":"Metland Telaga Murni"}],[{"transit":false,"i_long":106.788277,"station_id":"GGL","i_lat":-6.162021,"is_transit":false,"line":5,"time":0,"distance":0,"station_name":"Grogol"},{"distance":1700,"i_lat":-6.155215,"is_transit":true,"station_id":"DU","i_long":106.800832,"station_name":"Duri","transit":true,"line":1,"time":3},{"transit":false,"distance":1230,"i_long":106.79867,"station_name":"Angke","is_transit":false,"time":4,"line":1,"station_id":"AK","i_lat":-6.144674},{"is_transit":true,"i_lat":-6.132549,"time":9,"station_id":"KPB","transit":true,"station_name":"Kampung Bandan","distance":4102,"i_long":106.826365,"line":4},{"station_name":"Rajawali","transit":false,"distance":1444,"line":11,"is_transit":false,"time":3,"i_long":106.836569,"station_id":"RJW","i_lat":-6.14505},{"station_id":"KMO","i_long":106.839204,"line":11,"is_transit":false,"transit":false,"station_name":"Kemayoran","i_lat":-6.161728,"time":5,"distance":1901},{"i_long":106.84368,"is_transit":false,"i_lat":-6.174784,"station_id":"PSE","time":4,"line":11,"transit":false,"distance":1436,"station_name":"Pasar Senen"},{"transit":false,"i_lat":-6.185975,"is_transit":false,"i_long":106.850107,"distance":1567,"station_id":"GST","line":11,"time":8,"station_name":"Gang Sentiong"},{"i_long":106.855437,"line":11,"station_name":"Kramat","time":1,"i_lat":-6.193792,"station_id":"KMT","distance":973,"transit":false,"is_transit":false},{"is_transit":false,"line":11,"i_long":106.861737,"distance":1829,"i_lat":-6.209188,"transit":false,"time":2,"station_name":"Pondok Jati","station_id":"POK"},{"time":9,"transit":true,"is_transit":true,"i_long":106.86807400000001,"line":1,"station_id":"JNG","distance":1236,"station_name":"Jatinegara","i_lat":-6.215091},{"line":1,"i_long":106.899548,"station_name":"Klender","is_transit":false,"distance":3395,"i_lat":-6.2135,"station_id":"KLD","transit":false,"time":3},{"distance":3100,"time":2,"is_transit":false,"transit":false,"i_lat":-6.215568,"line":1,"station_name":"Buaran","station_id":"BUA","i_long":106.922662},{"distance":1305,"transit":false,"time":1,"line":1,"station_id":"KLDB","i_lat":-6.217455,"i_long":106.939679,"is_transit":false,"station_name":"Klenderbaru"},{"is_transit":false,"time":8,"distance":1385,"line":1,"station_id":"CUK","transit":false,"i_lat":-6.219053,"station_name":"Cakung","i_long":106.951283},{"i_long":106.977657,"is_transit":false,"distance":3097,"time":3,"line":1,"station_id":"KRI","i_lat":-6.224515,"station_name":"Kranji","transit":false},{"is_transit":false,"transit":false,"station_name":"Bekasi","station_id":"BKS","i_long":106.997013,"time":4,"i_lat":-6.236616,"line":1,"distance":2520},{"transit":false,"i_long":107.016735,"station_name":"Bekasi Timur","line":1,"distance":2368,"is_transit":false,"station_id":"BKST","i_lat":-6.248029,"time":2},{"transit":false,"station_id":"TB","i_long":107.055722,"i_lat":-6.258864,"line":1,"distance":4460,"station_name":"Tambun","is_transit":false,"time":7},{"transit":false,"station_id":"CIT","line":1,"time":3,"station_name":"Cibitung","is_transit":false,"i_lat":-6.261877,"i_long":107.083084,"distance":3420},{"i_lat":-6.262938,"station_id":"TLM","time":2,"distance":2800,"transit":false,"station_name":"Metland Telaga Murni","i_long":107.093313,"line":1,"is_transit":false}],[{"line":5,"time":0,"station_name":"Grogol","i_long":106.788277,"i_lat":-6.162021,"distance":0,"is_transit":false,"transit":false,"station_id":"GGL"},{"distance":1700,"is_transit":true,"transit":true,"station_name":"Duri","line":1,"i_long":106.800832,"time":3,"station_id":"DU","i_lat":-6.155215},{"time":4,"distance":1230,"is_transit":false,"station_id":"AK","station_name":"Angke","i_lat":-6.144674,"i_long":106.79867,"line":1,"transit":false},{"station_id":"KPB","i_lat":-6.132549,"distance":4102,"station_name":"Kampung Bandan","is_transit":true,"transit":true,"time":9,"i_long":106.826365,"line":4},{"is_transit":true,"time":3,"i_lat":-6.137569,"i_long":106.812439,"station_id":"JAKK","station_name":"Jakarta Kota","transit":true,"line":2,"distance":1364},{"line":2,"i_long":106.820901,"transit":false,"distance":1264,"i_lat":-6.141205,"time":4,"station_name":"Jayakarta","station_id":"JAY","is_transit":false},{"is_transit":false,"line":2,"time":2,"distance":1080,"station_name":"Manggabesar","station_id":"MGB","transit":false,"i_lat":-6.149769,"i_long":106.82482},{"time":2,"i_lat":-6.160725,"station_name":"Sawah Besar","i_long":106.827103,"distance":906,"line":2,"is_transit":false,"station_id":"SW","transit":false},{"distance":1149,"station_id":"JUA","i_lat":-6.166716,"is_transit":false,"transit":false,"i_long":106.828284,"line":2,"station_name":"Juanda","time":2},{"i_lat":-6.186295,"is_transit":false,"station_id":"GDD","time":4,"distance":2015,"station_name":"Gondangdia","transit":false,"i_long":106.832183,"line":2},{"i_lat":-6.198556,"i_long":106.840169,"is_transit":false,"station_name":"Cikini","distance":1750,"station_id":"CKI","line":2,"transit":false,"time":3},{"transit":true,"is_transit":true,"distance":1590,"station_id":"MRI","time":4,"i_long":106.84912,"station_name":"Manggarai","line":2,"i_lat":-6.209883},{"i_long":106.858896,"is_transit":false,"line":1,"station_id":"MTR","station_name":"Matraman","transit":false,"i_lat":-6.212485,"time":2,"distance":1275},{"i_lat":-6.215091,"station_name":"Jatinegara","i_long":106.86807400000001,"line":1,"transit":false,"distance":1377,"station_id":"JNG","is_transit":false,"time":8},{"distance":3395,"is_transit":false,"transit":false,"station_id":"KLD","i_long":106.899548,"line":1,"station_name":"Klender","time":3,"i_lat":-6.2135},{"station_id":"BUA","i_lat":-6.215568,"distance":3100,"time":2,"transit":false,"station_name":"Buaran","i_long":106.922662,"is_transit":false,"line":1},{"station_id":"KLDB","transit":false,"time":1,"station_name":"Klenderbaru","i_lat":-6.217455,"is_transit":false,"i_long":106.939679,"line":1,"distance":1305},{"i_lat":-6.219053,"distance":1385,"i_long":106.951283,"station_name":"Cakung","is_transit":false,"transit":false,"time":8,"line":1,"station_id":"CUK"},{"station_id":"KRI","station_name":"Kranji","line":1,"i_lat":-6.224515,"i_long":106.977657,"time":3,"is_transit":false,"transit":false,"distance":3097},{"i_long":106.997013,"station_name":"Bekasi","time":4,"is_transit":false,"distance":2520,"station_id":"BKS","line":1,"transit":false,"i_lat":-6.236616},{"is_transit":false,"i_long":107.016735,"time":2,"i_lat":-6.248029,"transit":false,"station_id":"BKST","station_name":"Bekasi Timur","line":1,"distance":2368},{"time":7,"station_id":"TB","is_transit":false,"transit":false,"i_lat":-6.258864,"i_long":107.055722,"line":1,"station_name":"Tambun","distance":4460},{"station_name":"Cibitung","transit":false,"station_id":"CIT","i_lat":-6.261877,"is_transit":false,"line":1,"i_long":107.083084,"time":3,"distance":3420},{"distance":2800,"i_lat":-6.262938,"time":2,"i_long":107.093313,"transit":false,"line":1,"station_name":"Metland Telaga Murni","station_id":"TLM","is_transit":false}],[{"distance":0,"i_long":106.788277,"time":0,"station_id":"GGL","transit":false,"station_name":"Grogol","line":5,"is_transit":false,"i_lat":-6.162021},{"time":3,"i_lat":-6.155215,"is_transit":true,"transit":true,"i_long":106.800832,"station_id":"DU","station_name":"Duri","line":1,"distance":1700},{"line":1,"time":8,"i_lat":-6.185545,"i_long":106.811091,"is_transit":false,"transit":false,"distance":3632,"station_name":"Tanah Abang","station_id":"THB"},{"i_long":106.816351,"transit":false,"station_name":"Karet","time":5,"i_lat":-6.20132,"line":1,"station_id":"KAT","is_transit":false,"distance":2029},{"i_lat":-6.201433,"station_id":"SUDB","distance":471,"line":1,"i_long":106.819881,"station_name":"Sudirman Baru","is_transit":false,"transit":false,"time":1},{"i_long":106.822649,"station_name":"Sudirman","station_id":"SUD","time":1,"distance":280,"is_transit":false,"i_lat":-6.202263,"transit":false,"line":1},{"distance":3186,"i_lat":-6.209883,"station_name":"Manggarai","transit":true,"i_long":106.84912,"is_transit":true,"line":2,"time":4,"station_id":"MRI"},{"transit":false,"line":2,"time":4,"i_lat":-6.198556,"distance":1590,"station_id":"CKI","i_long":106.840169,"station_name":"Cikini","is_transit":false},{"transit":false,"i_lat":-6.186295,"line":2,"station_id":"GDD","distance":1750,"is_transit":false,"time":3,"station_name":"Gondangdia","i_long":106.832183},{"station_id":"JUA","distance":2015,"station_name":"Juanda","is_transit":false,"i_lat":-6.166716,"time":4,"i_long":106.828284,"line":2,"transit":false},{"station_name":"Sawah Besar","is_transit":false,"i_lat":-6.160725,"line":2,"transit":false,"station_id":"SW","distance":1149,"i_long":106.827103,"time":2},{"i_lat":-6.149769,"is_transit":false,"transit":false,"line":2,"time":2,"i_long":106.82482,"station_id":"MGB","station_name":"Manggabesar","distance":906},{"i_lat":-6.141205,"station_id":"JAY","is_transit":false,"transit":false,"station_name":"Jayakarta","i_long":106.820901,"time":2,"distance":1080,"line":2},{"station_id":"JAKK","station_name":"Jakarta Kota","i_long":106.812439,"transit":true,"time":4,"distance":1264,"is_transit":true,"i_lat":-6.137569,"line":2},{"distance":1364,"is_transit":true,"station_id":"KPB","transit":true,"i_lat":-6.132549,"station_name":"Kampung Bandan","time":3,"i_long":106.826365,"line":4},{"transit":false,"i_long":106.836569,"distance":1444,"station_name":"Rajawali","is_transit":false,"line":11,"i_lat":-6.14505,"station_id":"RJW","time":3},{"transit":false,"line":11,"station_id":"KMO","is_transit":false,"i_lat":-6.161728,"time":5,"i_long":106.839204,"station_name":"Kemayoran","distance":1901},{"is_transit":false,"transit":false,"line":11,"station_id":"PSE","time":4,"station_name":"Pasar Senen","i_lat":-6.174784,"distance":1436,"i_long":106.84368},{"distance":1567,"line":11,"is_transit":false,"transit":false,"station_name":"Gang Sentiong","i_lat":-6.185975,"station_id":"GST","i_long":106.850107,"time":8},{"transit":false,"station_id":"KMT","i_lat":-6.193792,"i_long":106.855437,"line":11,"time":1,"distance":973,"station_name":"Kramat","is_transit":false},{"time":2,"line":11,"station_id":"POK","distance":1829,"transit":false,"is_transit":false,"station_name":"Pondok Jati","i_lat":-6.209188,"i_long":106.861737},{"is_transit":true,"i_long":106.86807400000001,"station_id":"JNG","i_lat":-6.215091,"time":9,"transit":true,"station_name":"Jatinegara","distance":1236,"line":1},{"station_id":"KLD","line":1,"transit":false,"station_name":"Klender","is_transit":false,"distance":3395,"time":3,"i_lat":-6.2135,"i_long":106.899548},{"distance":3100,"station_id":"BUA","station_name":"Buaran","line":1,"i_long":106.922662,"time":2,"transit":false,"i_lat":-6.215568,"is_transit":false},{"transit":false,"station_id":"KLDB","time":1,"line":1,"distance":1305,"i_long":106.939679,"i_lat":-6.217455,"station_name":"Klenderbaru","is_transit":false},{"i_long":106.951283,"line":1,"distance":1385,"station_name":"Cakung","station_id":"CUK","time":8,"is_transit":false,"transit":false,"i_lat":-6.219053},{"distance":3097,"station_id":"KRI","time":3,"i_long":106.977657,"is_transit":false,"transit":false,"i_lat":-6.224515,"line":1,"station_name":"Kranji"},{"line":1,"distance":2520,"is_transit":false,"transit":false,"i_long":106.997013,"time":4,"i_lat":-6.236616,"station_id":"BKS","station_name":"Bekasi"},{"station_name":"Bekasi Timur","i_long":107.016735,"is_transit":false,"transit":false,"line":1,"time":2,"station_id":"BKST","i_lat":-6.248029,"distance":2368},{"i_lat":-6.258864,"is_transit":false,"transit":false,"line":1,"station_id":"TB","time":7,"distance":4460,"i_long":107.055722,"station_name":"Tambun"},{"i_long":107.083084,"distance":3420,"transit":false,"station_name":"Cibitung","i_lat":-6.261877,"line":1,"is_transit":false,"time":3,"station_id":"CIT"},{"station_name":"Metland Telaga Murni","is_transit":false,"time":2,"i_lat":-6.262938,"i_long":107.093313,"transit":false,"line":1,"station_id":"TLM","distance":2800}]]}