{"data":[[{"distance":0,"is_transit":false,"transit":false,"i_long":106.788277,"line":5,"i_lat":-6.162021,"station_name":"Grogol","station_id":"GGL","time":0},{"line":1,"i_lat":-6.155215,"station_name":"Duri","transit":true,"time":3,"distance":1700,"station_id":"DU","i_long":106.800832,"is_transit":true},{"transit":true,"line":1,"distance":3632,"station_id":"THB","time":8,"i_long":106.811091,"i_lat":-6.185545,"is_transit":true,"station_name":"Tanah Abang"},{"transit":false,"i_lat":-6.207404,"is_transit":false,"i_long":106.79689,"station_name":"Palmerah","station_id":"PLM","distance":3191,"line":6,"time":6},{"distance":3737,"i_long":106.780334,"is_transit":false,"transit":false,"line":6,"time":7,"station_name":"Kebayoran","station_id":"KBY","i_lat":-6.237242},{"distance":6218,"time":8,"transit":false,"station_name":"Pondokranji","i_lat":-6.276362,"i_long":106.74273,"line":6,"is_transit":false,"station_id":"PDJ"},{"transit":false,"i_lat":-6.288927,"line":6,"time":3,"i_long":106.728916,"station_id":"JMU","station_name":"Jurangmangu","is_transit":false,"distance":2179},{"i_lat":-6.296963,"is_transit":false,"station_name":"Sudimara","distance":1994,"transit":false,"time":4,"station_id":"SDM","i_long":106.712277,"line":6},{"is_transit":false,"station_id":"RU","distance":4566,"transit":false,"i_long":106.675475,"station_name":"Rawa Buntu","time":6,"i_lat":-6.314823,"line":6},{"distance":2413,"i_lat":-6.319871,"station_name":"Serpong","is_transit":false,"station_id":"SRP","line":6,"time":4,"i_long":106.66566,"transit":false},{"station_name":"Cisauk","distance":1784,"i_lat":-6.32484,"i_long":106.640411,"transit":false,"station_id":"CSK","is_transit":false,"line":0,"time":4},{"distance":2519,"transit":false,"station_name":"Cicayur","i_long":106.617853,"i_lat":-6.329547,"is_transit":false,"time":4,"station_id":"CC","line":0},{"station_name":"Parung Panjang","station_id":"PRP","i_long":106.568863,"i_lat":-6.3441410000000005,"time":8,"transit":false,"is_transit":false,"line":6,"distance":5968},{"i_lat":-6.354349,"line":0,"is_transit":false,"station_id":"CJT","distance":7025,"transit":false,"station_name":"Cilejit","i_long":106.508482,"time":9},{"station_name":"Daru","transit":false,"station_id":"DAR","distance":2675,"is_transit":false,"i_lat":-6.338021,"i_long":106.491338,"time":6,"line":0},{"i_lat":-6.327251,"transit":false,"station_name":"Tenjo","distance":3902,"line":6,"is_transit":false,"station_id":"TEJ","time":5,"i_long":106.460812},{"line":6,"is_transit":false,"station_name":"Tigaraksa","i_long":106.425991,"distance":2974,"transit":false,"i_lat":-6.328533,"station_id":"TGS","time":5},{"station_name":"Cikoya","line":0,"station_id":"CKY","is_transit":false,"time":3,"distance":2651,"transit":false,"i_long":106.411216,"i_lat":-6.33561},{"is_transit":false,"time":4,"distance":1853,"i_long":106.394373,"station_name":"Maja","station_id":"MJ","line":6,"transit":false,"i_lat":-6.332307},{"i_lat":-6.334892,"distance":7293,"station_id":"CTR","i_long":106.332092,"station_name":"Citeras","time":10,"line":0,"transit":false,"is_transit":false}],[{"time":0,"line":5,"station_id":"GGL","distance":0,"transit":false,"i_long":106.788277,"station_name":"Grogol","i_lat":-6.162021,"is_transit":false},{"station_name":"Duri","is_transit":true,"time":3,"distance":1700,"transit":true,"line":1,"i_lat":-6.155215,"station_id":"DU","i_long":106.800832},{"i_long":106.79867,"is_transit":false,"station_id":"AK","station_name":"Angke","time":4,"i_lat":-6.144674,"distance":1230,"line":0,"transit":false},{"time":9,"i_long":106.826365,"i_lat":-6.132549,"is_transit":true,"transit":false,"station_name":"Kampung Bandan","line":0,"station_id":"KPB","distance":4102},{"time":3,"is_transit":true,"distance":1364,"station_id":"JAKK","station_name":"Jakarta Kota","transit":true,"i_lat":-6.137569,"i_long":106.812439,"line":0},{"distance":1264,"line":7,"station_id":"JAY","time":4,"station_name":"Jayakarta","transit":false,"i_lat":-6.141205,"i_long":106.820901,"is_transit":false},{"i_long":106.82482,"line":2,"time":2,"i_lat":-6.149769,"station_name":"Manggabesar","is_transit":false,"transit":false,"station_id":"MGB","distance":1080},{"i_lat":-6.160725,"station_id":"SW","line":2,"i_long":106.827103,"is_transit":false,"time":2,"station_name":"Sawah Besar","distance":906,"transit":false},{"is_transit":false,"time":2,"distance":1149,"transit":false,"i_lat":-6.166716,"line":2,"station_id":"JUA","station_name":"Juanda","i_long":106.828284},{"i_lat":-6.186295,"station_id":"GDD","distance":2015,"is_transit":false,"time":4,"line":2,"station_name":"Gondangdia","transit":false,"i_long":106.832183},{"station_name":"Cikini","time":3,"is_transit":false,"line":0,"distance":1750,"i_lat":-6.198556,"station_id":"CKI","i_long":106.840169,"transit":false},{"station_name":"Manggarai","i_lat":-6.209883,"distance":1590,"line":0,"transit":true,"i_long":106.84912,"time":4,"station_id":"MRI","is_transit":true},{"transit":false,"line":1,"time":4,"station_id":"SUD","distance":3186,"i_lat":-6.202263,"i_long":106.822649,"station_name":"Sudirman","is_transit":false},{"i_lat":-6.201433,"line":1,"time":1,"i_long":106.819881,"transit":false,"is_transit":false,"station_name":"Sudirman Baru","distance":280,"station_id":"SUDB"},{"distance":471,"i_lat":-6.20132,"i_long":106.816351,"line":1,"station_name":"Karet","station_id":"KAT","is_transit":false,"transit":false,"time":1},{"i_lat":-6.185545,"station_name":"Tanah Abang","distance":2029,"i_long":106.811091,"is_transit":true,"transit":true,"station_id":"THB","line":1,"time":5},{"transit":false,"is_transit":false,"distance":3191,"time":6,"i_long":106.79689,"station_id":"PLM","station_name":"Palmerah","i_lat":-6.207404,"line":6},{"station_id":"KBY","i_long":106.780334,"is_transit":false,"i_lat":-6.237242,"distance":3737,"station_name":"Kebayoran","time":7,"transit":false,"line":6},{"station_name":"Pondokranji","distance":6218,"is_transit":false,"station_id":"PDJ","i_long":106.74273,"transit":false,"line":6,"i_lat":-6.276362,"time":8},{"station_id":"JMU","is_transit":false,"line":6,"transit":false,"time":3,"i_long":106.728916,"station_name":"Jurangmangu","distance":2179,"i_lat":-6.288927},{"i_long":106.712277,"is_transit":false,"i_lat":-6.296963,"distance":1994,"station_id":"SDM","time":4,"station_name":"Sudimara","line":6,"transit":false},{"line":6,"i_long":106.675475,"is_transit":false,"station_id":"RU","station_name":"Rawa Buntu","distance":4566,"time":6,"i_lat":-6.314823,"transit":false},{"i_lat":-6.319871,"transit":false,"i_long":106.66566,"distance":2413,"station_id":"SRP","station_name":"Serpong","is_transit":false,"time":4,"line":6},{"is_transit":false,"i_lat":-6.32484,"transit":false,"i_long":106.640411,"line":0,"station_name":"Cisauk","time":4,"station_id":"CSK","distance":1784},{"i_lat":-6.329547,"i_long":106.617853,"line":0,"station_id":"CC","transit":false,"distance":2519,"is_transit":false,"time":4,"station_name":"Cicayur"},{"transit":false,"is_transit":false,"i_lat":-6.3441410000000005,"station_id":"PRP","station_name":"Parung Panjang","time":8,"line":6,"distance":5968,"i_long":106.568863},{"line":0,"transit":false,"is_transit":false,"station_id":"CJT","time":9,"i_lat":-6.354349,"distance":7025,"i_long":106.508482,"station_name":"Cilejit"},{"line":0,"i_lat":-6.338021,"is_transit":false,"station_id":"DAR","i_long":106.491338,"station_name":"Daru","distance":2675,"transit":false,"time":6},{"is_transit":false,"distance":3902,"time":5,"transit":false,"i_lat":-6.327251,"station_name":"Tenjo","i_long":106.460812,"line":6,"station_id":"TEJ"},{"i_lat":-6.328533,"i_long":106.425991,"transit":false,"station_id":"TGS","time":5,"station_name":"Tigaraksa","distance":2974,"line":6,"is_transit":false},{"line":0,"station_name":"Cikoya","time":3,"i_lat":-6.33561,"i_long":106.411216,"is_transit":false,"station_id":"CKY","distance":2651,"transit":false},{"station_name":"Maja","transit":false,"line":6,"is_transit":false,"i_lat":-6.332307,"station_id":"MJ","distance":1853,"time":4,"i_long":106.394373},{"station_id":"CTR","transit":false,"is_transit":false,"time":10,"station_name":"Citeras","line":0,"i_long":106.332092,"distance":7293,"i_lat":-6.334892}],[{"i_lat":-6.162021,"station_name":"Grogol","distance":0,"transit":false,"station_id":"GGL","i_long":106.788277,"line":5,"is_transit":false,"time":0},{"station_id":"DU","is_transit":true,"time":3,"station_name":"Duri","transit":true,"line":1,"distance":1700,"i_long":106.800832,"i_lat":-6.155215},{"time":4,"distance":1230,"transit":false,"i_long":106.79867,"line":0,"station_id":"AK","is_transit":false,"i_lat":-6.144674,"station_name":"Angke"},{"distance":4102,"i_long":106.826365,"station_id":"KPB","is_transit":true,"line":0,"time":9,"station_name":"Kampung Bandan","transit":true,"i_lat":-6.132549},{"line":11,"station_id":"RJW","distance":1444,"time":3,"i_long":106.836569,"transit":false,"station_name":"Rajawali","i_lat":-6.14505,"is_transit":false},{"transit":false,"distance":1901,"time":5,"station_id":"KMO","i_long":106.839204,"station_name":"Kemayoran","i_lat":-6.161728,"line":11,"is_transit":false},{"station_name":"Pasar Senen","i_long":106.84368,"i_lat":-6.174784,"is_transit":false,"distance":1436,"line":11,"transit":false,"station_id":"PSE","time":4},{"station_id":"GST","line":11,"distance":1567,"is_transit":false,"transit":false,"i_lat":-6.185975,"station_name":"Gang Sentiong","time":8,"i_long":106.850107},{"transit":false,"i_lat":-6.193792,"station_id":"KMT","distance":973,"line":11,"station_name":"Kramat","is_transit":false,"time":1,"i_long":106.855437},{"distance":1829,"transit":false,"is_transit":false,"i_long":106.861737,"station_id":"POK","station_name":"Pondok Jati","time":2,"i_lat":-6.209188,"line":11},{"is_transit":true,"i_long":106.86807400000001,"distance":1236,"station_name":"Jatinegara","time":9,"line":0,"i_lat":-6.215091,"transit":true,"station_id":"JNG"},{"i_long":106.858896,"line":1,"station_id":"MTR","transit":false,"time":2,"is_transit":false,"distance":1377,"i_lat":-6.212485,"station_name":"Matraman"},{"distance":1275,"station_name":"Manggarai","transit":false,"i_long":106.84912,"line":0,"station_id":"MRI","is_transit":true,"time":2,"i_lat":-6.209883},{"is_transit":false,"station_name":"Sudirman","time":4,"distance":3186,"station_id":"SUD","i_long":106.822649,"i_lat":-6.202263,"line":1,"transit":false},{"time":1,"i_lat":-6.201433,"i_long":106.819881,"transit":false,"station_name":"Sudirman Baru","line":1,"is_transit":false,"distance":280,"station_id":"SUDB"},{"time":1,"transit":false,"i_lat":-6.20132,"station_id":"KAT","is_transit":false,"station_name":"Karet","line":1,"i_long":106.816351,"distance":471},{"i_lat":-6.185545,"time":5,"line":1,"station_id":"THB","i_long":106.811091,"distance":2029,"is_transit":true,"transit":true,"station_name":"Tanah Abang"},{"line":6,"station_id":"PLM","time":6,"distance":3191,"transit":false,"station_name":"Palmerah","i_lat":-6.207404,"is_transit":false,"i_long":106.79689},{"station_id":"KBY","is_transit":false,"distance":3737,"i_lat":-6.237242,"transit":false,"i_long":106.780334,"line":6,"time":7,"station_name":"Kebayoran"},{"i_lat":-6.276362,"i_long":106.74273,"station_id":"PDJ","station_name":"Pondokranji","distance":6218,"line":6,"is_transit":false,"time":8,"transit":false},{"is_transit":false,"transit":false,"i_lat":-6.288927,"line":6,"station_id":"JMU","station_name":"Jurangmangu","i_long":106.728916,"time":3,"distance":2179},{"station_id":"SDM","station_name":"Sudimara","is_transit":false,"transit":false,"time":4,"distance":1994,"i_lat":-6.296963,"i_long":106.712277,"line":6},{"station_name":"Rawa Buntu","time":6,"is_transit":false,"station_id":"RU","line":6,"transit":false,"distance":4566,"i_lat":-6.314823,"i_long":106.675475},{"transit":false,"station_id":"SRP","time":4,"station_name":"Serpong","distance":2413,"line":6,"i_lat":-6.319871,"i_long":106.66566,"is_transit":false},{"line":0,"station_id":"CSK","is_transit":false,"transit":false,"i_lat":-6.32484,"time":4,"station_name":"Cisauk","distance":1784,"i_long":106.640411},{"i_long":106.617853,"time":4,"station_id":"CC","line":0,"i_lat":-6.329547,"station_name":"Cicayur","is_transit":false,"distance":2519,"transit":false},{"line":6,"time":8,"i_long":106.568863,"station_id":"PRP","station_name":"Parung Panjang","is_transit":false,"i_lat":-6.3441410000000005,"distance":5968,"transit":false},{"station_id":"CJT","station_name":"Cilejit","time":9,"distance":7025,"i_long":106.508482,"is_transit":false,"i_lat":-6.354349,"line":0,"transit":false},{"station_name":"Daru","station_id":"DAR","transit":false,"i_long":106.491338,"distance":2675,"time":6,"line":0,"is_transit":false,"i_lat":-6.338021},{"station_id":"TEJ","line":6,"i_lat":-6.327251,"station_name":"Tenjo","i_long":106.460812,"distance":3902,"transit":false,"time":5,"is_transit":false},{"is_transit":false,"line":6,"i_lat":-6.328533,"distance":2974,"station_id":"TGS","time":5,"station_name":"Tigaraksa","i_long":106.425991,"transit":false},{"is_transit":false,"time":3,"station_name":"Cikoya","i_lat":-6.33561,"line":0,"i_long":106.411216,"station_id":"CKY","distance":2651,"transit":false},{"time":4,"transit":false,"station_name":"Maja","i_lat":-6.332307,"i_long":106.394373,"line":6,"distance":1853,"is_transit":false,"station_id":"MJ"},{"time":10,"line":0,"i_long":106.332092,"station_id":"CTR","distance":7293,"transit":false,"is_transit":false,"station_name":"Citeras","i_lat":-6.334892}]]}