{"data":[[{"distance":0,"time":0,"i_lat":-6.162021,"is_transit":false,"transit":false,"i_long":106.788277,"line":5,"station_name":"Grogol","station_id":"GGL"},{"station_id":"DU","time":3,"distance":1700,"station_name":"Duri","transit":true,"i_lat":-6.155215,"i_long":106.800832,"is_transit":true,"line":1},{"transit":false,"station_name":"Tanah Abang","line":1,"i_lat":-6.185545,"station_id":"THB","distance":3632,"i_long":106.811091,"is_transit":true,"time":8},{"transit":false,"distance":2029,"is_transit":false,"i_long":106.816351,"station_id":"KAT","time":5,"station_name":"Karet","i_lat":-6.20132,"line":1},{"is_transit":false,"station_id":"SUDB","transit":false,"time":1,"distance":471,"i_lat":-6.201433,"line":1,"i_long":106.819881,"station_name":"Sudirman Baru"},{"line":1,"i_lat":-6.202263,"is_transit":false,"transit":false,"i_long":106.822649,"time":1,"station_id":"SUD","station_name":"Sudirman","distance":280},{"i_lat":-6.209883,"distance":3186,"line":0,"station_name":"Manggarai","station_id":"MRI","is_transit":true,"transit":true,"i_long":106.84912,"time":4},{"is_transit":false,"time":4,"i_long":106.857948,"distance":2610,"station_name":"Tebet","i_lat":-6.226659,"line":2,"transit":false,"station_id":"TEB"},{"distance":1230,"is_transit":false,"station_name":"Cawang","i_long":106.856607,"i_lat":-6.242512,"transit":false,"time":2,"station_id":"CW","line":0},{"transit":false,"line":0,"time":3,"distance":1546,"station_name":"Duren Kalibata","i_lat":-6.255332,"is_transit":false,"station_id":"DRN","i_long":106.85449},{"line":2,"time":2,"is_transit":false,"transit":false,"station_id":"PSMB","distance":824,"i_long":106.851577,"i_lat":-6.263214,"station_name":"Pasar Minggu Baru"},{"i_lat":-6.2842400000000005,"is_transit":false,"i_long":106.843999,"station_name":"Pasar Minggu","transit":false,"station_id":"PSM","time":2,"distance":2380,"line":2},{"transit":false,"line":2,"i_long":106.838896,"is_transit":false,"station_name":"Tanjung Barat","distance":2820,"station_id":"TNT","time":4,"i_lat":-6.3080680000000005},{"is_transit":false,"time":3,"station_id":"LNA","i_long":106.832616,"station_name":"Lenteng Agung","line":2,"distance":2671,"transit":false,"i_lat":-6.330363},{"i_long":106.834175,"line":2,"is_transit":false,"time":2,"transit":false,"i_lat":-6.339291,"station_name":"Univ. Pancasila","distance":1029,"station_id":"UP"},{"station_name":"Univ. Indonesia","i_long":106.831474,"is_transit":false,"distance":2264,"line":2,"transit":false,"time":3,"station_id":"UI","i_lat":-6.360749},{"is_transit":false,"time":2,"station_id":"POC","transit":false,"i_lat":-6.369073,"station_name":"Pondok Cina","i_long":106.831114,"distance":1109,"line":2},{"is_transit":false,"time":4,"i_long":106.819451,"station_id":"DPB","station_name":"Depokbaru","i_lat":-6.391065,"distance":2727,"transit":false,"line":0},{"time":3,"station_name":"Depok","station_id":"DP","distance":1584,"transit":false,"i_lat":-6.405256,"line":0,"i_long":106.816926,"is_transit":false},{"is_transit":true,"time":6,"line":1,"station_id":"CTA","distance":5084,"i_long":106.800298,"i_lat":-6.448811,"station_name":"Citayam","transit":false},{"transit":false,"station_id":"BJD","time":5,"station_name":"Bojonggede","distance":5197,"i_lat":-6.493243,"i_long":106.792719,"line":0,"is_transit":false}],[{"i_long":106.788277,"line":5,"station_name":"Grogol","distance":0,"time":0,"station_id":"GGL","is_transit":false,"transit":false,"i_lat":-6.162021},{"line":1,"transit":true,"station_name":"Duri","distance":1700,"station_id":"DU","i_lat":-6.155215,"time":3,"i_long":106.800832,"is_transit":true},{"i_long":106.79867,"line":0,"transit":false,"i_lat":-6.144674,"is_transit":false,"station_id":"AK","time":4,"distance":1230,"station_name":"Angke"},{"distance":4102,"is_transit":true,"transit":false,"i_lat":-6.132549,"line":0,"time":9,"i_long":106.826365,"station_id":"KPB","station_name":"Kampung Bandan"},{"station_id":"JAKK","is_transit":true,"distance":1364,"line":0,"i_long":106.812439,"station_name":"Jakarta Kota","i_lat":-6.137569,"time":3,"transit":true},{"transit":false,"i_long":106.820901,"is_transit":false,"line":7,"distance":1264,"station_name":"Jayakarta","time":4,"i_lat":-6.141205,"station_id":"JAY"},{"time":2,"distance":1080,"i_long":106.82482,"line":2,"station_id":"MGB","is_transit":false,"station_name":"Manggabesar","i_lat":-6.149769,"transit":false},{"distance":906,"station_id":"SW","is_transit":false,"time":2,"line":2,"station_name":"Sawah Besar","transit":false,"i_long":106.827103,"i_lat":-6.160725},{"time":2,"distance":1149,"station_id":"JUA","i_lat":-6.166716,"station_name":"Juanda","transit":false,"i_long":106.828284,"is_transit":false,"line":2},{"station_id":"GDD","line":2,"i_lat":-6.186295,"i_long":106.832183,"is_transit":false,"time":4,"distance":2015,"station_name":"Gondangdia","transit":false},{"is_transit":false,"time":3,"transit":false,"station_id":"CKI","distance":1750,"i_lat":-6.198556,"station_name":"Cikini","i_long":106.840169,"line":0},{"i_lat":-6.209883,"line":0,"station_id":"MRI","time":4,"distance":1590,"station_name":"Manggarai","transit":true,"is_transit":true,"i_long":106.84912},{"is_transit":false,"i_lat":-6.226659,"station_name":"Tebet","time":4,"transit":false,"station_id":"TEB","line":2,"distance":2610,"i_long":106.857948},{"i_long":106.856607,"station_id":"CW","distance":1230,"line":0,"i_lat":-6.242512,"transit":false,"is_transit":false,"time":2,"station_name":"Cawang"},{"station_id":"DRN","station_name":"Duren Kalibata","transit":false,"i_lat":-6.255332,"distance":1546,"is_transit":false,"i_long":106.85449,"time":3,"line":0},{"is_transit":false,"transit":false,"distance":824,"i_long":106.851577,"line":2,"station_id":"PSMB","i_lat":-6.263214,"station_name":"Pasar Minggu Baru","time":2},{"distance":2380,"station_name":"Pasar Minggu","transit":false,"i_long":106.843999,"is_transit":false,"time":2,"line":2,"i_lat":-6.2842400000000005,"station_id":"PSM"},{"is_transit":false,"transit":false,"station_id":"TNT","line":2,"i_long":106.838896,"i_lat":-6.3080680000000005,"station_name":"Tanjung Barat","distance":2820,"time":4},{"time":3,"station_name":"Lenteng Agung","i_lat":-6.330363,"line":2,"transit":false,"station_id":"LNA","i_long":106.832616,"is_transit":false,"distance":2671},{"time":2,"station_id":"UP","i_lat":-6.339291,"is_transit":false,"i_long":106.834175,"transit":false,"distance":1029,"station_name":"Univ. Pancasila","line":2},{"time":3,"station_name":"Univ. Indonesia","distance":2264,"i_lat":-6.360749,"is_transit":false,"line":2,"transit":false,"i_long":106.831474,"station_id":"UI"},{"time":2,"is_transit":false,"transit":false,"line":2,"station_name":"Pondok Cina","i_lat":-6.369073,"i_long":106.831114,"distance":1109,"station_id":"POC"},{"distance":2727,"station_name":"Depokbaru","i_long":106.819451,"station_id":"DPB","time":4,"transit":false,"i_lat":-6.391065,"line":0,"is_transit":false},{"time":3,"transit":false,"i_lat":-6.405256,"i_long":106.816926,"distance":1584,"station_id":"DP","line":0,"is_transit":false,"station_name":"Depok"},{"distance":5084,"time":6,"station_name":"Citayam","i_lat":-6.448811,"i_long":106.800298,"line":1,"is_transit":true,"transit":false,"station_id":"CTA"},{"i_long":106.792719,"is_transit":false,"time":5,"station_name":"Bojonggede","transit":false,"i_lat":-6.493243,"line":0,"distance":5197,"station_id":"BJD"}],[{"distance":0,"station_id":"GGL","station_name":"Grogol","is_transit":false,"transit":false,"i_lat":-6.162021,"line":5,"i_long":106.788277,"time":0},{"i_long":106.800832,"i_lat":-6.155215,"time":3,"line":1,"station_name":"Duri","is_transit":true,"distance":1700,"transit":true,"station_id":"DU"},{"distance":1230,"line":0,"is_transit":false,"time":4,"station_name":"Angke","station_id":"AK","transit":false,"i_long":106.79867,"i_lat":-6.144674},{"i_lat":-6.132549,"transit":true,"time":9,"line":0,"i_long":106.826365,"distance":4102,"station_name":"Kampung Bandan","is_transit":true,"station_id":"KPB"},{"i_long":106.836569,"time":3,"station_id":"RJW","is_transit":false,"distance":1444,"transit":false,"station_name":"Rajawali","line":11,"i_lat":-6.14505},{"is_transit":false,"time":5,"i_long":106.839204,"line":11,"station_id":"KMO","station_name":"Kemayoran","distance":1901,"transit":false,"i_lat":-6.161728},{"station_id":"PSE","i_lat":-6.174784,"is_transit":false,"line":11,"i_long":106.84368,"distance":1436,"station_name":"Pasar Senen","transit":false,"time":4},{"time":8,"station_name":"Gang Sentiong","i_long":106.850107,"i_lat":-6.185975,"line":11,"is_transit":false,"station_id":"GST","distance":1567,"transit":false},{"time":1,"line":11,"station_id":"KMT","station_name":"Kramat","transit":false,"is_transit":false,"distance":973,"i_lat":-6.193792,"i_long":106.855437},{"line":11,"transit":false,"is_transit":false,"distance":1829,"station_name":"Pondok Jati","i_lat":-6.209188,"i_long":106.861737,"time":2,"station_id":"POK"},{"i_long":106.86807400000001,"distance":1236,"transit":true,"time":9,"is_transit":true,"station_name":"Jatinegara","i_lat":-6.215091,"line":0,"station_id":"JNG"},{"station_id":"MTR","i_long":106.858896,"time":2,"distance":1377,"station_name":"Matraman","is_transit":false,"line":1,"transit":false,"i_lat":-6.212485},{"i_long":106.84912,"station_name":"Manggarai","i_lat":-6.209883,"transit":true,"station_id":"MRI","line":0,"is_transit":true,"time":2,"distance":1275},{"station_id":"TEB","time":4,"is_transit":false,"transit":false,"distance":2610,"i_lat":-6.226659,"station_name":"Tebet","i_long":106.857948,"line":2},{"i_lat":-6.242512,"i_long":106.856607,"line":0,"station_id":"CW","distance":1230,"station_name":"Cawang","transit":false,"is_transit":false,"time":2},{"i_long":106.85449,"distance":1546,"is_transit":false,"time":3,"station_id":"DRN","station_name":"Duren Kalibata","line":0,"transit":false,"i_lat":-6.255332},{"station_name":"Pasar Minggu Baru","i_lat":-6.263214,"transit":false,"station_id":"PSMB","i_long":106.851577,"is_transit":false,"line":2,"distance":824,"time":2},{"i_lat":-6.2842400000000005,"line":2,"station_id":"PSM","is_transit":false,"distance":2380,"transit":false,"i_long":106.843999,"time":2,"station_name":"Pasar Minggu"},{"station_name":"Tanjung Barat","is_transit":false,"distance":2820,"i_lat":-6.3080680000000005,"station_id":"TNT","transit":false,"time":4,"i_long":106.838896,"line":2},{"time":3,"i_long":106.832616,"transit":false,"station_id":"LNA","line":2,"is_transit":false,"i_lat":-6.330363,"distance":2671,"station_name":"Lenteng Agung"},{"transit":false,"station_name":"Univ. Pancasila","i_lat":-6.339291,"line":2,"is_transit":false,"distance":1029,"i_long":106.834175,"station_id":"UP","time":2},{"i_long":106.831474,"station_id":"UI","time":3,"station_name":"Univ. Indonesia","transit":false,"distance":2264,"i_lat":-6.360749,"is_transit":false,"line":2},{"transit":false,"station_id":"POC","line":2,"is_transit":false,"i_lat":-6.369073,"i_long":106.831114,"time":2,"distance":1109,"station_name":"Pondok Cina"},{"station_id":"DPB","is_transit":false,"transit":false,"distance":2727,"i_lat":-6.391065,"line":0,"i_long":106.819451,"station_name":"Depokbaru","time":4},{"station_name":"Depok","time":3,"station_id":"DP","i_lat":-6.405256,"i_long":106.816926,"line":0,"is_transit":false,"transit":false,"distance":1584},{"time":6,"line":1,"station_name":"Citayam","is_transit":true,"distance":5084,"station_id":"CTA","i_lat":-6.448811,"transit":false,"i_long":106.800298},{"is_transit":false,"station_name":"Bojonggede","i_lat":-6.493243,"station_id":"BJD","transit":false,"i_long":106.792719,"time":5,"distance":5197,"line":0}]]}