{"data":[[{"i_long":106.788277,"station_id":"GGL","transit":false,"line":5,"i_lat":-6.162021,"is_transit":false,"station_name":"Grogol","distance":0,"time":0},{"is_transit":true,"line":1,"station_name":"Duri","i_lat":-6.155215,"i_long":106.800832,"time":3,"station_id":"DU","transit":true,"distance":1700},{"transit":false,"i_lat":-6.185545,"time":8,"distance":3632,"station_id":"THB","station_name":"Tanah Abang","i_long":106.811091,"is_transit":true,"line":1},{"line":1,"station_id":"KAT","is_transit":false,"transit":false,"i_lat":-6.20132,"station_name":"Karet","i_long":106.816351,"time":5,"distance":2029},{"station_name":"Sudirman Baru","time":1,"is_transit":false,"transit":false,"i_long":106.819881,"i_lat":-6.201433,"distance":471,"line":1,"station_id":"SUDB"},{"i_lat":-6.202263,"is_transit":false,"distance":280,"station_id":"SUD","i_long":106.822649,"line":1,"station_name":"Sudirman","transit":false,"time":1},{"station_name":"Manggarai","time":4,"i_long":106.84912,"line":0,"i_lat":-6.209883,"distance":3186,"is_transit":true,"transit":false,"station_id":"MRI"},{"line":1,"station_name":"Matraman","i_long":106.858896,"distance":1275,"time":2,"is_transit":false,"transit":false,"station_id":"MTR","i_lat":-6.212485},{"i_lat":-6.215091,"line":0,"time":8,"transit":false,"is_transit":true,"i_long":106.86807400000001,"station_id":"JNG","distance":1377,"station_name":"Jatinegara"},{"distance":3395,"line":1,"i_long":106.899548,"is_transit":false,"time":3,"i_lat":-6.2135,"station_name":"Klender","station_id":"KLD","transit":false},{"station_id":"BUA","is_transit":false,"distance":3100,"time":2,"transit":false,"i_long":106.922662,"line":0,"i_lat":-6.215568,"station_name":"Buaran"},{"is_transit":false,"time":1,"i_long":106.939679,"distance":1305,"line":1,"station_id":"KLDB","station_name":"Klenderbaru","transit":false,"i_lat":-6.217455},{"i_lat":-6.219053,"i_long":106.951283,"station_id":"CUK","station_name":"Cakung","time":8,"distance":1385,"line":0,"is_transit":false,"transit":false},{"station_name":"Kranji","time":3,"station_id":"KRI","i_lat":-6.224515,"transit":false,"is_transit":false,"i_long":106.977657,"distance":3097,"line":1},{"time":4,"is_transit":false,"distance":2520,"transit":false,"i_lat":-6.236616,"station_name":"Bekasi","station_id":"BKS","i_long":106.997013,"line":0},{"line":0,"time":2,"is_transit":false,"station_id":"BKST","station_name":"Bekasi Timur","i_lat":-6.248029,"distance":2368,"i_long":107.016735,"transit":false},{"time":7,"distance":4460,"station_name":"Tambun","is_transit":false,"i_long":107.055722,"i_lat":-6.258864,"line":1,"transit":false,"station_id":"TB"},{"station_id":"CIT","distance":3420,"station_name":"Cibitung","i_lat":-6.261877,"transit":false,"is_transit":false,"i_long":107.083084,"line":0,"time":3},{"i_lat":-6.262938,"station_name":"Metland Telaga Murni","is_transit":false,"station_id":"TLM","time":2,"line":1,"transit":false,"distance":2800,"i_long":107.093313}],[{"i_long":106.788277,"station_name":"Grogol","is_transit":false,"transit":false,"line":5,"station_id":"GGL","time":0,"i_lat":-6.162021,"distance":0},{"is_transit":true,"i_long":106.800832,"station_id":"DU","distance":1700,"time":3,"transit":true,"station_name":"Duri","i_lat":-6.155215,"line":1},{"station_id":"AK","distance":1230,"time":4,"i_lat":-6.144674,"i_long":106.79867,"station_name":"Angke","line":0,"transit":false,"is_transit":false},{"line":0,"station_name":"Kampung Bandan","distance":4102,"station_id":"KPB","transit":true,"time":9,"i_lat":-6.132549,"is_transit":true,"i_long":106.826365},{"station_id":"RJW","i_long":106.836569,"i_lat":-6.14505,"transit":false,"time":3,"distance":1444,"is_transit":false,"line":11,"station_name":"Rajawali"},{"line":11,"distance":1901,"is_transit":false,"i_long":106.839204,"station_name":"Kemayoran","station_id":"KMO","time":5,"i_lat":-6.161728,"transit":false},{"is_transit":false,"line":11,"station_name":"Pasar Senen","station_id":"PSE","time":4,"i_lat":-6.174784,"i_long":106.84368,"transit":false,"distance":1436},{"station_name":"Gang Sentiong","time":8,"is_transit":false,"distance":1567,"i_lat":-6.185975,"i_long":106.850107,"line":11,"station_id":"GST","transit":false},{"line":11,"station_id":"KMT","i_long":106.855437,"is_transit":false,"i_lat":-6.193792,"transit":false,"station_name":"Kramat","time":1,"distance":973},{"station_id":"POK","distance":1829,"time":2,"transit":false,"i_long":106.861737,"station_name":"Pondok Jati","line":11,"is_transit":false,"i_lat":-6.209188},{"time":9,"distance":1236,"station_id":"JNG","transit":true,"i_long":106.86807400000001,"i_lat":-6.215091,"is_transit":true,"station_name":"Jatinegara","line":0},{"distance":3395,"is_transit":false,"line":1,"i_long":106.899548,"i_lat":-6.2135,"transit":false,"station_name":"Klender","time":3,"station_id":"KLD"},{"i_long":106.922662,"i_lat":-6.215568,"transit":false,"station_id":"BUA","line":0,"time":2,"distance":3100,"station_name":"Buaran","is_transit":false},{"station_name":"Klenderbaru","time":1,"distance":1305,"i_lat":-6.217455,"line":1,"station_id":"KLDB","is_transit":false,"i_long":106.939679,"transit":false},{"station_name":"Cakung","distance":1385,"is_transit":false,"i_lat":-6.219053,"line":0,"time":8,"station_id":"CUK","transit":false,"i_long":106.951283},{"station_name":"Kranji","station_id":"KRI","transit":false,"is_transit":false,"time":3,"distance":3097,"i_lat":-6.224515,"i_long":106.977657,"line":1},{"station_id":"BKS","is_transit":false,"i_lat":-6.236616,"distance":2520,"i_long":106.997013,"transit":false,"time":4,"line":0,"station_name":"Bekasi"},{"transit":false,"is_transit":false,"station_id":"BKST","time":2,"distance":2368,"i_lat":-6.248029,"i_long":107.016735,"line":0,"station_name":"Bekasi Timur"},{"is_transit":false,"time":7,"station_id":"TB","station_name":"Tambun","distance":4460,"i_lat":-6.258864,"i_long":107.055722,"line":1,"transit":false},{"is_transit":false,"time":3,"station_name":"Cibitung","i_lat":-6.261877,"station_id":"CIT","distance":3420,"transit":false,"i_long":107.083084,"line":0},{"is_transit":false,"transit":false,"i_lat":-6.262938,"line":1,"i_long":107.093313,"station_id":"TLM","time":2,"distance":2800,"station_name":"Metland Telaga Murni"}],[{"station_name":"Grogol","i_long":106.788277,"time":0,"i_lat":-6.162021,"is_transit":false,"line":5,"distance":0,"station_id":"GGL","transit":false},{"station_name":"Duri","station_id":"DU","is_transit":true,"time":3,"transit":true,"i_long":106.800832,"distance":1700,"line":1,"i_lat":-6.155215},{"time":4,"distance":1230,"i_long":106.79867,"line":0,"is_transit":false,"i_lat":-6.144674,"station_name":"Angke","transit":false,"station_id":"AK"},{"time":9,"distance":4102,"i_lat":-6.132549,"station_name":"Kampung Bandan","is_transit":true,"transit":false,"line":0,"station_id":"KPB","i_long":106.826365},{"transit":true,"time":3,"line":0,"i_lat":-6.137569,"station_id":"JAKK","station_name":"Jakarta Kota","is_transit":true,"distance":1364,"i_long":106.812439},{"is_transit":false,"transit":false,"i_lat":-6.141205,"line":7,"station_id":"JAY","station_name":"Jayakarta","time":4,"distance":1264,"i_long":106.820901},{"distance":1080,"is_transit":false,"transit":false,"station_id":"MGB","station_name":"Manggabesar","time":2,"line":2,"i_lat":-6.149769,"i_long":106.82482},{"station_name":"Sawah Besar","is_transit":false,"transit":false,"time":2,"line":2,"station_id":"SW","i_long":106.827103,"distance":906,"i_lat":-6.160725},{"station_id":"JUA","distance":1149,"transit":false,"i_lat":-6.166716,"station_name":"Juanda","line":2,"is_transit":false,"time":2,"i_long":106.828284},{"station_name":"Gondangdia","station_id":"GDD","i_long":106.832183,"line":2,"is_transit":false,"distance":2015,"transit":false,"time":4,"i_lat":-6.186295},{"station_name":"Cikini","is_transit":false,"time":3,"distance":1750,"station_id":"CKI","transit":false,"line":0,"i_lat":-6.198556,"i_long":106.840169},{"distance":1590,"station_name":"Manggarai","line":0,"i_lat":-6.209883,"time":4,"is_transit":true,"station_id":"MRI","transit":true,"i_long":106.84912},{"line":1,"time":2,"station_name":"Matraman","distance":1275,"transit":false,"i_lat":-6.212485,"station_id":"MTR","is_transit":false,"i_long":106.858896},{"station_id":"JNG","time":8,"is_transit":true,"station_name":"Jatinegara","transit":false,"i_long":106.86807400000001,"distance":1377,"line":0,"i_lat":-6.215091},{"i_lat":-6.2135,"i_long":106.899548,"line":1,"station_name":"Klender","transit":false,"is_transit":false,"distance":3395,"time":3,"station_id":"KLD"},{"distance":3100,"transit":false,"i_long":106.922662,"station_name":"Buaran","i_lat":-6.215568,"line":0,"station_id":"BUA","is_transit":false,"time":2},{"transit":false,"i_long":106.939679,"is_transit":false,"time":1,"distance":1305,"station_name":"Klenderbaru","line":1,"i_lat":-6.217455,"station_id":"KLDB"},{"time":8,"i_lat":-6.219053,"i_long":106.951283,"line":0,"station_name":"Cakung","distance":1385,"is_transit":false,"station_id":"CUK","transit":false},{"i_lat":-6.224515,"line":1,"station_id":"KRI","station_name":"Kranji","time":3,"distance":3097,"i_long":106.977657,"transit":false,"is_transit":false},{"time":4,"i_lat":-6.236616,"distance":2520,"station_id":"BKS","line":0,"station_name":"Bekasi","is_transit":false,"i_long":106.997013,"transit":false},{"i_lat":-6.248029,"i_long":107.016735,"transit":false,"station_name":"Bekasi Timur","is_transit":false,"line":0,"distance":2368,"time":2,"station_id":"BKST"},{"is_transit":false,"transit":false,"i_long":107.055722,"distance":4460,"time":7,"i_lat":-6.258864,"station_name":"Tambun","line":1,"station_id":"TB"},{"station_id":"CIT","i_long":107.083084,"time":3,"transit":false,"is_transit":false,"distance":3420,"i_lat":-6.261877,"station_name":"Cibitung","line":0},{"station_id":"TLM","station_name":"Metland Telaga Murni","time":2,"is_transit":false,"i_long":107.093313,"line":1,"distance":2800,"i_lat":-6.262938,"transit":false}],[{"line":5,"i_long":106.788277,"station_id":"GGL","time":0,"is_transit":false,"i_lat":-6.162021,"distance":0,"station_name":"Grogol","transit":false},{"time":3,"transit":true,"line":1,"station_id":"DU","i_lat":-6.155215,"i_long":106.800832,"station_name":"Duri","is_transit":true,"distance":1700},{"station_name":"Tanah Abang","distance":3632,"time":8,"transit":false,"i_lat":-6.185545,"is_transit":true,"station_id":"THB","line":1,"i_long":106.811091},{"time":5,"line":1,"i_long":106.816351,"is_transit":false,"station_id":"KAT","station_name":"Karet","transit":false,"distance":2029,"i_lat":-6.20132},{"station_name":"Sudirman Baru","time":1,"transit":false,"distance":471,"i_lat":-6.201433,"line":1,"i_long":106.819881,"is_transit":false,"station_id":"SUDB"},{"line":1,"distance":280,"station_id":"SUD","i_lat":-6.202263,"station_name":"Sudirman","is_transit":false,"time":1,"transit":false,"i_long":106.822649},{"station_name":"Manggarai","i_lat":-6.209883,"i_long":106.84912,"transit":true,"station_id":"MRI","distance":3186,"is_transit":true,"time":4,"line":0},{"line":0,"distance":1590,"transit":false,"station_name":"Cikini","time":4,"is_transit":false,"i_lat":-6.198556,"i_long":106.840169,"station_id":"CKI"},{"i_long":106.832183,"line":2,"station_name":"Gondangdia","transit":false,"station_id":"GDD","is_transit":false,"time":3,"distance":1750,"i_lat":-6.186295},{"is_transit":false,"distance":2015,"transit":false,"station_name":"Juanda","i_long":106.828284,"line":2,"station_id":"JUA","time":4,"i_lat":-6.166716},{"is_transit":false,"time":2,"i_lat":-6.160725,"station_name":"Sawah Besar","station_id":"SW","transit":false,"i_long":106.827103,"distance":1149,"line":2},{"is_transit":false,"station_id":"MGB","i_lat":-6.149769,"distance":906,"transit":false,"line":2,"i_long":106.82482,"time":2,"station_name":"Manggabesar"},{"i_lat":-6.141205,"time":2,"line":7,"distance":1080,"transit":false,"i_long":106.820901,"is_transit":false,"station_name":"Jayakarta","station_id":"JAY"},{"line":0,"station_id":"JAKK","transit":true,"is_transit":true,"station_name":"Jakarta Kota","time":4,"i_long":106.812439,"i_lat":-6.137569,"distance":1264},{"i_lat":-6.132549,"is_transit":true,"transit":true,"station_id":"KPB","time":3,"station_name":"Kampung Bandan","line":0,"i_long":106.826365,"distance":1364},{"i_long":106.836569,"line":11,"station_id":"RJW","is_transit":false,"time":3,"transit":false,"station_name":"Rajawali","distance":1444,"i_lat":-6.14505},{"i_long":106.839204,"distance":1901,"time":5,"station_id":"KMO","transit":false,"is_transit":false,"line":11,"i_lat":-6.161728,"station_name":"Kemayoran"},{"line":11,"station_id":"PSE","station_name":"Pasar Senen","transit":false,"is_transit":false,"i_lat":-6.174784,"i_long":106.84368,"distance":1436,"time":4},{"i_long":106.850107,"time":8,"transit":false,"distance":1567,"station_name":"Gang Sentiong","line":11,"station_id":"GST","is_transit":false,"i_lat":-6.185975},{"i_long":106.855437,"is_transit":false,"transit":false,"station_name":"Kramat","time":1,"distance":973,"line":11,"i_lat":-6.193792,"station_id":"KMT"},{"line":11,"station_id":"POK","i_lat":-6.209188,"distance":1829,"i_long":106.861737,"time":2,"is_transit":false,"station_name":"Pondok Jati","transit":false},{"i_lat":-6.215091,"line":0,"station_name":"Jatinegara","is_transit":true,"time":9,"i_long":106.86807400000001,"station_id":"JNG","distance":1236,"transit":true},{"is_transit":false,"time":3,"transit":false,"distance":3395,"i_lat":-6.2135,"station_id":"KLD","station_name":"Klender","i_long":106.899548,"line":1},{"i_long":106.922662,"time":2,"i_lat":-6.215568,"is_transit":false,"line":0,"station_name":"Buaran","transit":false,"station_id":"BUA","distance":3100},{"transit":false,"station_id":"KLDB","is_transit":false,"i_lat":-6.217455,"station_name":"Klenderbaru","time":1,"i_long":106.939679,"line":1,"distance":1305},{"is_transit":false,"i_lat":-6.219053,"transit":false,"station_id":"CUK","distance":1385,"time":8,"i_long":106.951283,"station_name":"Cakung","line":0},{"transit":false,"i_long":106.977657,"time":3,"i_lat":-6.224515,"is_transit":false,"distance":3097,"station_name":"Kranji","station_id":"KRI","line":1},{"time":4,"i_lat":-6.236616,"distance":2520,"station_id":"BKS","station_name":"Bekasi","is_transit":false,"i_long":106.997013,"transit":false,"line":0},{"i_lat":-6.248029,"i_long":107.016735,"time":2,"station_id":"BKST","is_transit":false,"station_name":"Bekasi Timur","transit":false,"line":0,"distance":2368},{"time":7,"station_id":"TB","station_name":"Tambun","distance":4460,"line":1,"is_transit":false,"i_long":107.055722,"transit":false,"i_lat":-6.258864},{"station_name":"Cibitung","distance":3420,"i_lat":-6.261877,"line":0,"i_long":107.083084,"transit":false,"station_id":"CIT","is_transit":false,"time":3},{"station_id":"TLM","line":1,"station_name":"Metland Telaga Murni","time":2,"transit":false,"i_long":107.093313,"is_transit":false,"i_lat":-6.262938,"distance":2800}]]}