{"data":[[{"line":5,"transit":false,"distance":0,"i_lat":-6.162021,"time":0,"station_id":"GGL","station_name":"Grogol","is_transit":false,"i_long":106.788277},{"distance":1700,"is_transit":true,"time":3,"station_id":"DU","i_long":106.800832,"i_lat":-6.155215,"station_name":"Duri","line":1,"transit":true},{"line":1,"station_id":"AK","station_name":"Angke","transit":false,"distance":1230,"i_lat":-6.144674,"i_long":106.79867,"time":4,"is_transit":false},{"i_lat":-6.132549,"line":4,"station_id":"KPB","station_name":"Kampung Bandan","distance":4102,"is_transit":true,"transit":true,"i_long":106.826365,"time":9},{"i_long":106.836569,"i_lat":-6.14505,"time":3,"station_id":"RJW","station_name":"Rajawali","is_transit":false,"distance":1444,"line":11,"transit":false},{"is_transit":false,"transit":false,"i_lat":-6.161728,"distance":1901,"time":5,"line":11,"i_long":106.839204,"station_id":"KMO","station_name":"Kemayoran"},{"is_transit":false,"i_lat":-6.174784,"transit":false,"station_id":"PSE","i_long":106.84368,"station_name":"Pasar Senen","distance":1436,"line":11,"time":4}],[{"distance":0,"i_lat":-6.162021,"i_long":106.788277,"time":0,"line":5,"is_transit":false,"transit":false,"station_name":"Grogol","station_id":"GGL"},{"line":1,"i_long":106.800832,"i_lat":-6.155215,"transit":true,"station_name":"Duri","time":3,"is_transit":true,"station_id":"DU","distance":1700},{"i_lat":-6.185545,"station_id":"THB","distance":3632,"station_name":"Tanah Abang","i_long":106.811091,"transit":false,"line":1,"time":8,"is_transit":false},{"is_transit":false,"i_lat":-6.20132,"line":1,"time":5,"station_name":"Karet","distance":2029,"i_long":106.816351,"station_id":"KAT","transit":false},{"i_long":106.819881,"line":1,"time":1,"distance":471,"i_lat":-6.201433,"station_id":"SUDB","station_name":"Sudirman Baru","transit":false,"is_transit":false},{"station_name":"Sudirman","is_transit":false,"time":1,"i_long":106.822649,"distance":280,"station_id":"SUD","transit":false,"line":1,"i_lat":-6.202263},{"time":4,"line":2,"station_name":"Manggarai","i_long":106.84912,"is_transit":false,"i_lat":-6.209883,"distance":3186,"station_id":"MRI","transit":false},{"transit":false,"distance":1275,"is_transit":false,"i_lat":-6.212485,"i_long":106.858896,"line":1,"station_name":"Matraman","time":2,"station_id":"MTR"},{"time":8,"station_name":"Jatinegara","is_transit":true,"i_lat":-6.215091,"transit":true,"i_long":106.86807400000001,"distance":1377,"line":1,"station_id":"JNG"},{"i_long":106.861737,"station_id":"POK","transit":false,"i_lat":-6.209188,"line":11,"distance":1236,"is_transit":false,"station_name":"Pondok Jati","time":2},{"i_long":106.855437,"station_name":"Kramat","transit":false,"distance":1829,"station_id":"KMT","time":2,"is_transit":false,"line":11,"i_lat":-6.193792},{"station_name":"Gang Sentiong","i_long":106.850107,"time":1,"station_id":"GST","is_transit":false,"transit":false,"line":11,"i_lat":-6.185975,"distance":973},{"is_transit":false,"station_id":"PSE","time":8,"station_name":"Pasar Senen","i_lat":-6.174784,"line":11,"i_long":106.84368,"distance":1567,"transit":false}],[{"time":0,"i_lat":-6.162021,"station_id":"GGL","station_name":"Grogol","is_transit":false,"distance":0,"transit":false,"i_long":106.788277,"line":5},{"is_transit":true,"station_id":"DU","i_lat":-6.155215,"station_name":"Duri","i_long":106.800832,"transit":true,"line":1,"time":3,"distance":1700},{"line":1,"time":4,"is_transit":false,"transit":false,"distance":1230,"station_id":"AK","station_name":"Angke","i_lat":-6.144674,"i_long":106.79867},{"is_transit":true,"distance":4102,"station_name":"Kampung Bandan","time":9,"line":4,"station_id":"KPB","transit":true,"i_lat":-6.132549,"i_long":106.826365},{"i_long":106.812439,"line":2,"is_transit":true,"station_name":"Jakarta Kota","distance":1364,"i_lat":-6.137569,"transit":true,"station_id":"JAKK","time":3},{"station_id":"JAY","distance":1264,"is_transit":false,"station_name":"Jayakarta","i_lat":-6.141205,"i_long":106.820901,"line":2,"time":4,"transit":false},{"station_id":"MGB","is_transit":false,"i_lat":-6.149769,"i_long":106.82482,"line":2,"distance":1080,"transit":false,"station_name":"Manggabesar","time":2},{"distance":906,"station_name":"Sawah Besar","i_long":106.827103,"transit":false,"is_transit":false,"line":2,"station_id":"SW","i_lat":-6.160725,"time":2},{"i_long":106.828284,"station_id":"JUA","line":2,"i_lat":-6.166716,"transit":false,"is_transit":false,"station_name":"Juanda","time":2,"distance":1149},{"i_lat":-6.186295,"time":4,"distance":2015,"station_name":"Gondangdia","transit":false,"line":2,"i_long":106.832183,"is_transit":false,"station_id":"GDD"},{"i_long":106.840169,"station_name":"Cikini","is_transit":false,"transit":false,"i_lat":-6.198556,"time":3,"distance":1750,"line":2,"station_id":"CKI"},{"transit":true,"i_long":106.84912,"distance":1590,"station_id":"MRI","station_name":"Manggarai","i_lat":-6.209883,"is_transit":true,"line":2,"time":4},{"transit":false,"time":2,"is_transit":false,"station_name":"Matraman","i_lat":-6.212485,"i_long":106.858896,"distance":1275,"line":1,"station_id":"MTR"},{"distance":1377,"transit":true,"i_long":106.86807400000001,"station_id":"JNG","is_transit":true,"station_name":"Jatinegara","line":1,"time":8,"i_lat":-6.215091},{"time":2,"is_transit":false,"station_name":"Pondok Jati","station_id":"POK","line":11,"transit":false,"distance":1236,"i_long":106.861737,"i_lat":-6.209188},{"transit":false,"distance":1829,"i_long":106.855437,"station_id":"KMT","station_name":"Kramat","i_lat":-6.193792,"is_transit":false,"time":2,"line":11},{"station_id":"GST","i_long":106.850107,"transit":false,"i_lat":-6.185975,"is_transit":false,"line":11,"time":1,"station_name":"Gang Sentiong","distance":973},{"station_name":"Pasar Senen","time":8,"station_id":"PSE","i_lat":-6.174784,"i_long":106.84368,"line":11,"distance":1567,"is_transit":false,"transit":false}],[{"transit":false,"line":5,"station_id":"GGL","i_lat":-6.162021,"i_long":106.788277,"is_transit":false,"time":0,"distance":0,"station_name":"Grogol"},{"time":3,"i_long":106.800832,"i_lat":-6.155215,"line":1,"is_transit":true,"station_name":"Duri","transit":true,"station_id":"DU","distance":1700},{"distance":3632,"is_transit":false,"station_id":"THB","station_name":"Tanah Abang","i_long":106.811091,"time":8,"i_lat":-6.185545,"line":1,"transit":false},{"distance":2029,"i_lat":-6.20132,"i_long":106.816351,"transit":false,"is_transit":false,"time":5,"station_name":"Karet","station_id":"KAT","line":1},{"transit":false,"is_transit":false,"line":1,"time":1,"i_lat":-6.201433,"station_id":"SUDB","i_long":106.819881,"distance":471,"station_name":"Sudirman Baru"},{"is_transit":false,"transit":false,"time":1,"distance":280,"i_lat":-6.202263,"station_name":"Sudirman","i_long":106.822649,"station_id":"SUD","line":1},{"station_name":"Manggarai","transit":true,"time":4,"station_id":"MRI","i_lat":-6.209883,"line":2,"i_long":106.84912,"is_transit":true,"distance":3186},{"i_lat":-6.198556,"i_long":106.840169,"line":2,"transit":false,"distance":1590,"station_id":"CKI","station_name":"Cikini","time":4,"is_transit":false},{"distance":1750,"i_lat":-6.186295,"time":3,"station_name":"Gondangdia","i_long":106.832183,"line":2,"station_id":"GDD","is_transit":false,"transit":false},{"distance":2015,"station_name":"Juanda","is_transit":false,"station_id":"JUA","time":4,"i_lat":-6.166716,"i_long":106.828284,"line":2,"transit":false},{"i_long":106.827103,"transit":false,"time":2,"station_id":"SW","is_transit":false,"line":2,"station_name":"Sawah Besar","distance":1149,"i_lat":-6.160725},{"i_lat":-6.149769,"i_long":106.82482,"distance":906,"time":2,"station_name":"Manggabesar","is_transit":false,"station_id":"MGB","line":2,"transit":false},{"is_transit":false,"distance":1080,"transit":false,"i_lat":-6.141205,"station_id":"JAY","station_name":"Jayakarta","time":2,"i_long":106.820901,"line":2},{"station_name":"Jakarta Kota","distance":1264,"line":2,"transit":true,"is_transit":true,"time":4,"i_lat":-6.137569,"station_id":"JAKK","i_long":106.812439},{"time":3,"distance":1364,"station_id":"KPB","i_lat":-6.132549,"transit":true,"i_long":106.826365,"is_transit":true,"station_name":"Kampung Bandan","line":4},{"is_transit":false,"transit":false,"station_id":"RJW","station_name":"Rajawali","line":11,"time":3,"i_long":106.836569,"distance":1444,"i_lat":-6.14505},{"station_id":"KMO","line":11,"transit":false,"time":5,"station_name":"Kemayoran","distance":1901,"is_transit":false,"i_lat":-6.161728,"i_long":106.839204},{"time":4,"i_lat":-6.174784,"transit":false,"i_long":106.84368,"station_name":"Pasar Senen","line":11,"station_id":"PSE","is_transit":false,"distance":1436}]]}