{"data":[[{"transit":false,"station_id":"GGL","line":5,"is_transit":false,"i_lat":-6.162021,"distance":0,"i_long":106.788277,"time":0,"station_name":"Grogol"},{"transit":true,"station_name":"Duri","station_id":"DU","is_transit":true,"time":3,"i_lat":-6.155215,"distance":1700,"i_long":106.800832,"line":1},{"time":8,"distance":3632,"transit":true,"is_transit":true,"i_lat":-6.185545,"station_id":"THB","station_name":"Tanah Abang","i_long":106.811091,"line":1},{"station_id":"PLM","distance":3191,"station_name":"Palmerah","time":6,"is_transit":false,"i_lat":-6.207404,"i_long":106.79689,"line":6,"transit":false},{"is_transit":false,"distance":3737,"line":6,"transit":false,"station_name":"Kebayoran","time":7,"station_id":"KBY","i_lat":-6.237242,"i_long":106.780334},{"station_id":"PDJ","i_long":106.74273,"distance":6218,"time":8,"is_transit":false,"transit":false,"i_lat":-6.276362,"line":6,"station_name":"Pondokranji"},{"station_id":"JMU","is_transit":false,"i_long":106.728916,"distance":2179,"time":3,"station_name":"Jurangmangu","transit":false,"i_lat":-6.288927,"line":6},{"is_transit":false,"time":4,"i_long":106.712277,"station_name":"Sudimara","i_lat":-6.296963,"station_id":"SDM","transit":false,"distance":1994,"line":6},{"i_long":106.675475,"i_lat":-6.314823,"line":6,"transit":false,"station_id":"RU","distance":4566,"time":6,"station_name":"Rawa Buntu","is_transit":false},{"distance":2413,"time":4,"transit":false,"i_lat":-6.319871,"i_long":106.66566,"station_id":"SRP","station_name":"Serpong","is_transit":false,"line":6}],[{"time":0,"is_transit":false,"transit":false,"station_id":"GGL","station_name":"Grogol","i_long":106.788277,"distance":0,"i_lat":-6.162021,"line":5},{"i_lat":-6.155215,"distance":1700,"time":3,"i_long":106.800832,"station_id":"DU","transit":true,"station_name":"Duri","is_transit":true,"line":1},{"station_name":"Angke","transit":false,"station_id":"AK","i_lat":-6.144674,"i_long":106.79867,"distance":1230,"time":4,"is_transit":false,"line":1},{"time":9,"is_transit":true,"transit":true,"distance":4102,"station_name":"Kampung Bandan","line":4,"station_id":"KPB","i_lat":-6.132549,"i_long":106.826365},{"time":3,"transit":true,"station_id":"JAKK","i_long":106.812439,"i_lat":-6.137569,"distance":1364,"station_name":"Jakarta Kota","is_transit":true,"line":2},{"line":2,"i_lat":-6.141205,"time":4,"station_name":"Jayakarta","station_id":"JAY","i_long":106.820901,"transit":false,"is_transit":false,"distance":1264},{"i_long":106.82482,"distance":1080,"time":2,"transit":false,"station_name":"Manggabesar","station_id":"MGB","is_transit":false,"i_lat":-6.149769,"line":2},{"distance":906,"i_lat":-6.160725,"line":2,"station_id":"SW","is_transit":false,"station_name":"Sawah Besar","time":2,"transit":false,"i_long":106.827103},{"i_long":106.828284,"line":2,"is_transit":false,"distance":1149,"station_name":"Juanda","transit":false,"time":2,"station_id":"JUA","i_lat":-6.166716},{"station_id":"GDD","line":2,"station_name":"Gondangdia","is_transit":false,"i_lat":-6.186295,"time":4,"transit":false,"distance":2015,"i_long":106.832183},{"is_transit":false,"i_long":106.840169,"time":3,"i_lat":-6.198556,"distance":1750,"station_id":"CKI","line":2,"station_name":"Cikini","transit":false},{"is_transit":true,"time":4,"transit":true,"distance":1590,"station_name":"Manggarai","i_lat":-6.209883,"station_id":"MRI","line":2,"i_long":106.84912},{"distance":3186,"time":4,"station_name":"Sudirman","i_long":106.822649,"line":1,"station_id":"SUD","is_transit":false,"transit":false,"i_lat":-6.202263},{"distance":280,"is_transit":false,"i_lat":-6.201433,"line":1,"transit":false,"i_long":106.819881,"station_name":"Sudirman Baru","time":1,"station_id":"SUDB"},{"station_name":"Karet","is_transit":false,"line":1,"i_long":106.816351,"i_lat":-6.20132,"time":1,"distance":471,"station_id":"KAT","transit":false},{"station_id":"THB","time":5,"transit":true,"i_lat":-6.185545,"line":1,"station_name":"Tanah Abang","i_long":106.811091,"distance":2029,"is_transit":true},{"station_id":"PLM","station_name":"Palmerah","i_lat":-6.207404,"time":6,"transit":false,"i_long":106.79689,"is_transit":false,"line":6,"distance":3191},{"line":6,"transit":false,"time":7,"is_transit":false,"station_name":"Kebayoran","i_lat":-6.237242,"i_long":106.780334,"station_id":"KBY","distance":3737},{"time":8,"i_lat":-6.276362,"line":6,"is_transit":false,"transit":false,"station_name":"Pondokranji","i_long":106.74273,"station_id":"PDJ","distance":6218},{"i_lat":-6.288927,"distance":2179,"station_id":"JMU","time":3,"i_long":106.728916,"transit":false,"line":6,"is_transit":false,"station_name":"Jurangmangu"},{"time":4,"is_transit":false,"line":6,"transit":false,"station_name":"Sudimara","distance":1994,"i_lat":-6.296963,"i_long":106.712277,"station_id":"SDM"},{"is_transit":false,"station_id":"RU","transit":false,"station_name":"Rawa Buntu","time":6,"i_lat":-6.314823,"i_long":106.675475,"distance":4566,"line":6},{"distance":2413,"i_long":106.66566,"transit":false,"line":6,"is_transit":false,"station_id":"SRP","station_name":"Serpong","time":4,"i_lat":-6.319871}],[{"transit":false,"station_id":"GGL","station_name":"Grogol","i_lat":-6.162021,"time":0,"distance":0,"i_long":106.788277,"line":5,"is_transit":false},{"line":1,"station_name":"Duri","time":3,"is_transit":true,"distance":1700,"transit":true,"station_id":"DU","i_lat":-6.155215,"i_long":106.800832},{"i_long":106.79867,"station_id":"AK","transit":false,"station_name":"Angke","time":4,"line":1,"is_transit":false,"i_lat":-6.144674,"distance":1230},{"is_transit":true,"transit":true,"station_name":"Kampung Bandan","i_lat":-6.132549,"i_long":106.826365,"time":9,"line":4,"distance":4102,"station_id":"KPB"},{"is_transit":false,"station_id":"RJW","transit":false,"station_name":"Rajawali","distance":1444,"i_lat":-6.14505,"i_long":106.836569,"line":11,"time":3},{"line":11,"distance":1901,"time":5,"i_long":106.839204,"station_id":"KMO","station_name":"Kemayoran","is_transit":false,"transit":false,"i_lat":-6.161728},{"transit":false,"line":11,"time":4,"distance":1436,"is_transit":false,"station_id":"PSE","station_name":"Pasar Senen","i_lat":-6.174784,"i_long":106.84368},{"transit":false,"time":8,"distance":1567,"station_name":"Gang Sentiong","station_id":"GST","is_transit":false,"i_lat":-6.185975,"i_long":106.850107,"line":11},{"time":1,"i_lat":-6.193792,"is_transit":false,"station_id":"KMT","distance":973,"station_name":"Kramat","i_long":106.855437,"line":11,"transit":false},{"i_lat":-6.209188,"line":11,"transit":false,"is_transit":false,"time":2,"i_long":106.861737,"station_id":"POK","station_name":"Pondok Jati","distance":1829},{"is_transit":true,"line":1,"time":9,"station_name":"Jatinegara","station_id":"JNG","i_lat":-6.215091,"transit":true,"distance":1236,"i_long":106.86807400000001},{"i_long":106.858896,"is_transit":false,"i_lat":-6.212485,"transit":false,"distance":1377,"station_id":"MTR","station_name":"Matraman","time":2,"line":1},{"i_lat":-6.209883,"transit":false,"distance":1275,"station_id":"MRI","time":2,"is_transit":false,"i_long":106.84912,"station_name":"Manggarai","line":2},{"i_lat":-6.202263,"is_transit":false,"i_long":106.822649,"station_name":"Sudirman","line":1,"distance":3186,"transit":false,"station_id":"SUD","time":4},{"station_name":"Sudirman Baru","i_long":106.819881,"line":1,"is_transit":false,"distance":280,"transit":false,"i_lat":-6.201433,"station_id":"SUDB","time":1},{"distance":471,"time":1,"transit":false,"i_long":106.816351,"is_transit":false,"station_id":"KAT","i_lat":-6.20132,"line":1,"station_name":"Karet"},{"transit":true,"is_transit":true,"i_long":106.811091,"time":5,"station_name":"Tanah Abang","i_lat":-6.185545,"line":1,"station_id":"THB","distance":2029},{"transit":false,"i_lat":-6.207404,"station_id":"PLM","time":6,"i_long":106.79689,"line":6,"station_name":"Palmerah","distance":3191,"is_transit":false},{"transit":false,"is_transit":false,"i_lat":-6.237242,"i_long":106.780334,"station_name":"Kebayoran","line":6,"station_id":"KBY","time":7,"distance":3737},{"i_lat":-6.276362,"is_transit":false,"station_name":"Pondokranji","transit":false,"distance":6218,"time":8,"station_id":"PDJ","i_long":106.74273,"line":6},{"is_transit":false,"station_id":"JMU","i_lat":-6.288927,"line":6,"distance":2179,"station_name":"Jurangmangu","i_long":106.728916,"time":3,"transit":false},{"transit":false,"station_name":"Sudimara","distance":1994,"time":4,"i_lat":-6.296963,"i_long":106.712277,"line":6,"station_id":"SDM","is_transit":false},{"station_name":"Rawa Buntu","station_id":"RU","i_lat":-6.314823,"i_long":106.675475,"line":6,"transit":false,"distance":4566,"is_transit":false,"time":6},{"i_long":106.66566,"line":6,"time":4,"i_lat":-6.319871,"station_name":"Serpong","transit":false,"station_id":"SRP","is_transit":false,"distance":2413}]]}