{"data":[[{"i_long":106.788277,"station_id":"GGL","transit":false,"time":0,"distance":0,"station_name":"Grogol","is_transit":false,"i_lat":-6.162021,"line":5},{"i_long":106.800832,"station_id":"DU","transit":true,"line":1,"time":3,"distance":1700,"station_name":"Duri","i_lat":-6.155215,"is_transit":true},{"station_name":"Tanah Abang","distance":3632,"line":1,"station_id":"THB","is_transit":true,"time":8,"i_long":106.811091,"transit":false,"i_lat":-6.185545},{"station_id":"KAT","line":1,"i_lat":-6.20132,"time":5,"i_long":106.816351,"station_name":"Karet","is_transit":false,"transit":false,"distance":2029},{"time":1,"station_name":"Sudirman Baru","transit":false,"i_lat":-6.201433,"station_id":"SUDB","i_long":106.819881,"line":1,"is_transit":false,"distance":471},{"station_id":"SUD","transit":false,"i_lat":-6.202263,"station_name":"Sudirman","distance":280,"i_long":106.822649,"is_transit":false,"time":1,"line":1},{"i_long":106.84912,"transit":false,"station_id":"MRI","is_transit":true,"time":4,"i_lat":-6.209883,"line":0,"station_name":"Manggarai","distance":3186},{"transit":false,"distance":1275,"time":2,"is_transit":false,"i_long":106.858896,"i_lat":-6.212485,"station_id":"MTR","station_name":"Matraman","line":1},{"station_name":"Jatinegara","transit":false,"i_long":106.86807400000001,"line":0,"i_lat":-6.215091,"station_id":"JNG","distance":1377,"time":8,"is_transit":true},{"station_name":"Klender","distance":3395,"time":3,"station_id":"KLD","is_transit":false,"i_lat":-6.2135,"transit":false,"i_long":106.899548,"line":1},{"station_id":"BUA","is_transit":false,"time":2,"transit":false,"line":0,"i_long":106.922662,"distance":3100,"i_lat":-6.215568,"station_name":"Buaran"},{"station_id":"KLDB","is_transit":false,"station_name":"Klenderbaru","distance":1305,"line":1,"time":1,"transit":false,"i_lat":-6.217455,"i_long":106.939679}],[{"distance":0,"is_transit":false,"i_lat":-6.162021,"station_name":"Grogol","time":0,"line":5,"i_long":106.788277,"transit":false,"station_id":"GGL"},{"is_transit":true,"i_long":106.800832,"transit":true,"distance":1700,"line":1,"station_name":"Duri","i_lat":-6.155215,"station_id":"DU","time":3},{"station_id":"AK","time":4,"station_name":"Angke","is_transit":false,"transit":false,"distance":1230,"i_lat":-6.144674,"i_long":106.79867,"line":0},{"time":9,"transit":true,"i_long":106.826365,"is_transit":true,"i_lat":-6.132549,"station_name":"Kampung Bandan","distance":4102,"station_id":"KPB","line":0},{"line":11,"station_id":"RJW","station_name":"Rajawali","transit":false,"i_lat":-6.14505,"i_long":106.836569,"is_transit":false,"time":3,"distance":1444},{"transit":false,"line":11,"station_id":"KMO","distance":1901,"i_lat":-6.161728,"i_long":106.839204,"station_name":"Kemayoran","is_transit":false,"time":5},{"station_name":"Pasar Senen","line":11,"station_id":"PSE","distance":1436,"time":4,"i_lat":-6.174784,"transit":false,"i_long":106.84368,"is_transit":false},{"i_lat":-6.185975,"transit":false,"is_transit":false,"station_name":"Gang Sentiong","i_long":106.850107,"line":11,"distance":1567,"station_id":"GST","time":8},{"distance":973,"station_id":"KMT","time":1,"i_lat":-6.193792,"station_name":"Kramat","line":11,"i_long":106.855437,"is_transit":false,"transit":false},{"station_name":"Pondok Jati","distance":1829,"station_id":"POK","time":2,"transit":false,"i_lat":-6.209188,"line":11,"i_long":106.861737,"is_transit":false},{"i_lat":-6.215091,"is_transit":true,"transit":true,"line":0,"station_id":"JNG","time":9,"station_name":"Jatinegara","i_long":106.86807400000001,"distance":1236},{"station_id":"KLD","i_long":106.899548,"distance":3395,"time":3,"transit":false,"i_lat":-6.2135,"station_name":"Klender","line":1,"is_transit":false},{"distance":3100,"station_id":"BUA","line":0,"i_long":106.922662,"i_lat":-6.215568,"is_transit":false,"time":2,"transit":false,"station_name":"Buaran"},{"i_lat":-6.217455,"station_id":"KLDB","line":1,"i_long":106.939679,"is_transit":false,"time":1,"distance":1305,"station_name":"Klenderbaru","transit":false}],[{"station_name":"Grogol","line":5,"i_lat":-6.162021,"distance":0,"i_long":106.788277,"time":0,"transit":false,"is_transit":false,"station_id":"GGL"},{"i_long":106.800832,"distance":1700,"line":1,"i_lat":-6.155215,"station_name":"Duri","is_transit":true,"station_id":"DU","time":3,"transit":true},{"distance":1230,"transit":false,"i_lat":-6.144674,"line":0,"station_name":"Angke","i_long":106.79867,"time":4,"station_id":"AK","is_transit":false},{"station_id":"KPB","distance":4102,"line":0,"station_name":"Kampung Bandan","transit":false,"i_lat":-6.132549,"i_long":106.826365,"is_transit":true,"time":9},{"is_transit":true,"i_lat":-6.137569,"station_id":"JAKK","i_long":106.812439,"line":0,"station_name":"Jakarta Kota","time":3,"transit":true,"distance":1364},{"distance":1264,"time":4,"i_lat":-6.141205,"is_transit":false,"station_id":"JAY","transit":false,"i_long":106.820901,"station_name":"Jayakarta","line":7},{"is_transit":false,"i_long":106.82482,"station_name":"Manggabesar","transit":false,"line":2,"station_id":"MGB","distance":1080,"time":2,"i_lat":-6.149769},{"i_lat":-6.160725,"line":2,"distance":906,"station_id":"SW","i_long":106.827103,"time":2,"station_name":"Sawah Besar","is_transit":false,"transit":false},{"station_id":"JUA","line":2,"i_lat":-6.166716,"transit":false,"i_long":106.828284,"station_name":"Juanda","is_transit":false,"time":2,"distance":1149},{"i_lat":-6.186295,"distance":2015,"is_transit":false,"i_long":106.832183,"station_name":"Gondangdia","time":4,"line":2,"station_id":"GDD","transit":false},{"distance":1750,"i_long":106.840169,"is_transit":false,"station_id":"CKI","i_lat":-6.198556,"station_name":"Cikini","time":3,"transit":false,"line":0},{"is_transit":true,"time":4,"transit":true,"i_lat":-6.209883,"station_name":"Manggarai","line":0,"distance":1590,"i_long":106.84912,"station_id":"MRI"},{"transit":false,"station_id":"MTR","time":2,"line":1,"i_lat":-6.212485,"is_transit":false,"i_long":106.858896,"distance":1275,"station_name":"Matraman"},{"transit":false,"distance":1377,"station_id":"JNG","i_long":106.86807400000001,"line":0,"time":8,"i_lat":-6.215091,"station_name":"Jatinegara","is_transit":true},{"time":3,"i_long":106.899548,"distance":3395,"i_lat":-6.2135,"station_id":"KLD","transit":false,"line":1,"is_transit":false,"station_name":"Klender"},{"station_id":"BUA","i_lat":-6.215568,"time":2,"is_transit":false,"station_name":"Buaran","distance":3100,"transit":false,"i_long":106.922662,"line":0},{"is_transit":false,"transit":false,"station_id":"KLDB","i_lat":-6.217455,"time":1,"i_long":106.939679,"distance":1305,"station_name":"Klenderbaru","line":1}],[{"transit":false,"time":0,"station_id":"GGL","is_transit":false,"distance":0,"line":5,"station_name":"Grogol","i_long":106.788277,"i_lat":-6.162021},{"transit":true,"i_lat":-6.155215,"distance":1700,"line":1,"is_transit":true,"station_name":"Duri","i_long":106.800832,"time":3,"station_id":"DU"},{"station_id":"THB","i_lat":-6.185545,"is_transit":true,"distance":3632,"line":1,"time":8,"transit":false,"i_long":106.811091,"station_name":"Tanah Abang"},{"time":5,"distance":2029,"i_long":106.816351,"is_transit":false,"station_name":"Karet","transit":false,"line":1,"i_lat":-6.20132,"station_id":"KAT"},{"i_long":106.819881,"distance":471,"i_lat":-6.201433,"transit":false,"station_id":"SUDB","station_name":"Sudirman Baru","is_transit":false,"time":1,"line":1},{"station_name":"Sudirman","line":1,"is_transit":false,"i_lat":-6.202263,"station_id":"SUD","distance":280,"i_long":106.822649,"transit":false,"time":1},{"distance":3186,"transit":true,"i_lat":-6.209883,"line":0,"station_name":"Manggarai","station_id":"MRI","i_long":106.84912,"is_transit":true,"time":4},{"station_id":"CKI","i_lat":-6.198556,"i_long":106.840169,"is_transit":false,"station_name":"Cikini","distance":1590,"line":0,"transit":false,"time":4},{"transit":false,"station_id":"GDD","is_transit":false,"distance":1750,"i_long":106.832183,"line":2,"station_name":"Gondangdia","time":3,"i_lat":-6.186295},{"i_lat":-6.166716,"distance":2015,"i_long":106.828284,"station_name":"Juanda","station_id":"JUA","is_transit":false,"time":4,"line":2,"transit":false},{"station_id":"SW","station_name":"Sawah Besar","time":2,"transit":false,"line":2,"distance":1149,"i_long":106.827103,"is_transit":false,"i_lat":-6.160725},{"station_id":"MGB","i_lat":-6.149769,"transit":false,"i_long":106.82482,"is_transit":false,"station_name":"Manggabesar","line":2,"distance":906,"time":2},{"distance":1080,"i_long":106.820901,"station_id":"JAY","station_name":"Jayakarta","is_transit":false,"time":2,"i_lat":-6.141205,"line":7,"transit":false},{"i_long":106.812439,"station_id":"JAKK","line":0,"is_transit":true,"time":4,"distance":1264,"transit":true,"i_lat":-6.137569,"station_name":"Jakarta Kota"},{"line":0,"is_transit":true,"time":3,"distance":1364,"i_lat":-6.132549,"station_name":"Kampung Bandan","i_long":106.826365,"station_id":"KPB","transit":true},{"station_id":"RJW","i_lat":-6.14505,"line":11,"i_long":106.836569,"station_name":"Rajawali","is_transit":false,"time":3,"distance":1444,"transit":false},{"i_lat":-6.161728,"time":5,"is_transit":false,"distance":1901,"line":11,"transit":false,"i_long":106.839204,"station_id":"KMO","station_name":"Kemayoran"},{"station_name":"Pasar Senen","transit":false,"station_id":"PSE","line":11,"is_transit":false,"i_long":106.84368,"distance":1436,"i_lat":-6.174784,"time":4},{"i_lat":-6.185975,"distance":1567,"line":11,"transit":false,"i_long":106.850107,"station_name":"Gang Sentiong","is_transit":false,"time":8,"station_id":"GST"},{"distance":973,"i_long":106.855437,"time":1,"i_lat":-6.193792,"station_name":"Kramat","station_id":"KMT","line":11,"is_transit":false,"transit":false},{"time":2,"i_long":106.861737,"station_id":"POK","station_name":"Pondok Jati","is_transit":false,"i_lat":-6.209188,"transit":false,"line":11,"distance":1829},{"line":0,"is_transit":true,"station_name":"Jatinegara","station_id":"JNG","time":9,"distance":1236,"i_lat":-6.215091,"transit":true,"i_long":106.86807400000001},{"transit":false,"station_id":"KLD","is_transit":false,"distance":3395,"i_lat":-6.2135,"station_name":"Klender","i_long":106.899548,"line":1,"time":3},{"i_long":106.922662,"station_id":"BUA","i_lat":-6.215568,"station_name":"Buaran","line":0,"time":2,"distance":3100,"is_transit":false,"transit":false},{"line":1,"station_id":"KLDB","station_name":"Klenderbaru","time":1,"i_lat":-6.217455,"distance":1305,"transit":false,"is_transit":false,"i_long":106.939679}]]}