{"data":[[{"is_transit":false,"time":0,"transit":false,"station_name":"Grogol","i_long":106.788277,"i_lat":-6.162021,"station_id":"GGL","distance":0,"line":5},{"time":3,"distance":1700,"is_transit":true,"station_name":"Duri","i_lat":-6.155215,"line":1,"transit":true,"station_id":"DU","i_long":106.800832},{"is_transit":true,"station_id":"THB","transit":true,"line":1,"time":8,"i_long":106.811091,"station_name":"Tanah Abang","i_lat":-6.185545,"distance":3632},{"time":6,"line":6,"i_long":106.79689,"station_name":"Palmerah","distance":3191,"is_transit":false,"i_lat":-6.207404,"transit":false,"station_id":"PLM"},{"line":6,"station_name":"Kebayoran","time":7,"transit":false,"station_id":"KBY","is_transit":false,"i_lat":-6.237242,"distance":3737,"i_long":106.780334},{"i_long":106.74273,"transit":false,"line":6,"i_lat":-6.276362,"distance":6218,"station_name":"Pondokranji","station_id":"PDJ","is_transit":false,"time":8},{"is_transit":false,"distance":2179,"i_long":106.728916,"station_id":"JMU","transit":false,"station_name":"Jurangmangu","line":6,"i_lat":-6.288927,"time":3},{"transit":false,"is_transit":false,"line":6,"station_name":"Sudimara","station_id":"SDM","i_long":106.712277,"time":4,"distance":1994,"i_lat":-6.296963},{"station_id":"RU","distance":4566,"time":6,"i_long":106.675475,"transit":false,"station_name":"Rawa Buntu","i_lat":-6.314823,"line":6,"is_transit":false},{"transit":false,"station_name":"Serpong","i_long":106.66566,"time":4,"distance":2413,"i_lat":-6.319871,"station_id":"SRP","line":6,"is_transit":false},{"is_transit":false,"line":0,"station_name":"Cisauk","i_long":106.640411,"transit":false,"station_id":"CSK","i_lat":-6.32484,"distance":1784,"time":4},{"line":0,"transit":false,"i_long":106.617853,"distance":2519,"station_name":"Cicayur","is_transit":false,"i_lat":-6.329547,"time":4,"station_id":"CC"},{"distance":5968,"transit":false,"is_transit":false,"time":8,"station_name":"Parung Panjang","i_lat":-6.3441410000000005,"line":6,"i_long":106.568863,"station_id":"PRP"},{"distance":7025,"is_transit":false,"transit":false,"station_name":"Cilejit","station_id":"CJT","line":0,"i_long":106.508482,"i_lat":-6.354349,"time":9},{"is_transit":false,"time":6,"distance":2675,"station_name":"Daru","station_id":"DAR","transit":false,"i_lat":-6.338021,"line":0,"i_long":106.491338},{"transit":false,"station_name":"Tenjo","time":5,"distance":3902,"line":6,"i_lat":-6.327251,"is_transit":false,"i_long":106.460812,"station_id":"TEJ"},{"transit":false,"distance":2974,"station_name":"Tigaraksa","is_transit":false,"i_long":106.425991,"station_id":"TGS","time":5,"i_lat":-6.328533,"line":6},{"distance":2651,"i_long":106.411216,"time":3,"i_lat":-6.33561,"transit":false,"is_transit":false,"station_name":"Cikoya","station_id":"CKY","line":0}],[{"i_long":106.788277,"transit":false,"station_name":"Grogol","is_transit":false,"i_lat":-6.162021,"distance":0,"time":0,"station_id":"GGL","line":5},{"i_long":106.800832,"line":1,"distance":1700,"station_name":"Duri","transit":true,"is_transit":true,"time":3,"i_lat":-6.155215,"station_id":"DU"},{"distance":1230,"time":4,"station_id":"AK","is_transit":false,"i_long":106.79867,"station_name":"Angke","transit":false,"i_lat":-6.144674,"line":0},{"station_id":"KPB","transit":false,"time":9,"is_transit":true,"i_long":106.826365,"station_name":"Kampung Bandan","i_lat":-6.132549,"distance":4102,"line":0},{"transit":true,"distance":1364,"station_id":"JAKK","is_transit":true,"i_lat":-6.137569,"i_long":106.812439,"time":3,"line":0,"station_name":"Jakarta Kota"},{"station_name":"Jayakarta","transit":false,"distance":1264,"is_transit":false,"station_id":"JAY","line":7,"i_long":106.820901,"i_lat":-6.141205,"time":4},{"transit":false,"station_id":"MGB","distance":1080,"station_name":"Manggabesar","is_transit":false,"i_lat":-6.149769,"i_long":106.82482,"line":2,"time":2},{"distance":906,"transit":false,"i_lat":-6.160725,"i_long":106.827103,"line":2,"is_transit":false,"station_name":"Sawah Besar","time":2,"station_id":"SW"},{"transit":false,"station_name":"Juanda","station_id":"JUA","distance":1149,"is_transit":false,"i_lat":-6.166716,"i_long":106.828284,"line":2,"time":2},{"distance":2015,"line":2,"station_id":"GDD","i_lat":-6.186295,"station_name":"Gondangdia","i_long":106.832183,"time":4,"transit":false,"is_transit":false},{"transit":false,"line":0,"i_long":106.840169,"station_id":"CKI","time":3,"i_lat":-6.198556,"station_name":"Cikini","distance":1750,"is_transit":false},{"time":4,"i_lat":-6.209883,"i_long":106.84912,"distance":1590,"station_id":"MRI","transit":true,"is_transit":true,"line":0,"station_name":"Manggarai"},{"distance":3186,"i_lat":-6.202263,"i_long":106.822649,"line":1,"transit":false,"is_transit":false,"time":4,"station_name":"Sudirman","station_id":"SUD"},{"station_name":"Sudirman Baru","i_long":106.819881,"station_id":"SUDB","time":1,"line":1,"distance":280,"transit":false,"is_transit":false,"i_lat":-6.201433},{"transit":false,"station_name":"Karet","i_lat":-6.20132,"line":1,"distance":471,"i_long":106.816351,"time":1,"station_id":"KAT","is_transit":false},{"time":5,"transit":true,"i_lat":-6.185545,"distance":2029,"station_name":"Tanah Abang","station_id":"THB","is_transit":true,"i_long":106.811091,"line":1},{"transit":false,"line":6,"station_name":"Palmerah","i_lat":-6.207404,"i_long":106.79689,"distance":3191,"time":6,"station_id":"PLM","is_transit":false},{"distance":3737,"transit":false,"is_transit":false,"i_long":106.780334,"time":7,"station_id":"KBY","station_name":"Kebayoran","i_lat":-6.237242,"line":6},{"transit":false,"distance":6218,"station_id":"PDJ","i_lat":-6.276362,"line":6,"station_name":"Pondokranji","i_long":106.74273,"time":8,"is_transit":false},{"station_name":"Jurangmangu","i_long":106.728916,"line":6,"station_id":"JMU","i_lat":-6.288927,"is_transit":false,"distance":2179,"time":3,"transit":false},{"i_long":106.712277,"is_transit":false,"time":4,"distance":1994,"transit":false,"station_name":"Sudimara","i_lat":-6.296963,"line":6,"station_id":"SDM"},{"transit":false,"i_long":106.675475,"time":6,"distance":4566,"station_name":"Rawa Buntu","line":6,"station_id":"RU","is_transit":false,"i_lat":-6.314823},{"transit":false,"distance":2413,"i_long":106.66566,"station_name":"Serpong","station_id":"SRP","line":6,"is_transit":false,"time":4,"i_lat":-6.319871},{"station_name":"Cisauk","distance":1784,"i_long":106.640411,"time":4,"i_lat":-6.32484,"station_id":"CSK","line":0,"transit":false,"is_transit":false},{"i_lat":-6.329547,"is_transit":false,"i_long":106.617853,"station_name":"Cicayur","time":4,"distance":2519,"transit":false,"station_id":"CC","line":0},{"i_lat":-6.3441410000000005,"station_id":"PRP","is_transit":false,"i_long":106.568863,"line":6,"time":8,"station_name":"Parung Panjang","transit":false,"distance":5968},{"distance":7025,"transit":false,"station_id":"CJT","is_transit":false,"time":9,"i_lat":-6.354349,"i_long":106.508482,"station_name":"Cilejit","line":0},{"i_long":106.491338,"station_name":"Daru","is_transit":false,"i_lat":-6.338021,"transit":false,"time":6,"line":0,"station_id":"DAR","distance":2675},{"i_lat":-6.327251,"line":6,"distance":3902,"is_transit":false,"transit":false,"i_long":106.460812,"time":5,"station_id":"TEJ","station_name":"Tenjo"},{"station_name":"Tigaraksa","time":5,"station_id":"TGS","i_long":106.425991,"line":6,"is_transit":false,"i_lat":-6.328533,"distance":2974,"transit":false},{"i_lat":-6.33561,"time":3,"transit":false,"station_id":"CKY","station_name":"Cikoya","i_long":106.411216,"line":0,"distance":2651,"is_transit":false}],[{"station_name":"Grogol","station_id":"GGL","distance":0,"i_lat":-6.162021,"time":0,"transit":false,"line":5,"i_long":106.788277,"is_transit":false},{"line":1,"is_transit":true,"station_name":"Duri","distance":1700,"i_lat":-6.155215,"station_id":"DU","time":3,"i_long":106.800832,"transit":true},{"is_transit":false,"station_name":"Angke","station_id":"AK","transit":false,"i_lat":-6.144674,"i_long":106.79867,"time":4,"distance":1230,"line":0},{"i_long":106.826365,"distance":4102,"station_id":"KPB","line":0,"station_name":"Kampung Bandan","time":9,"transit":true,"i_lat":-6.132549,"is_transit":true},{"time":3,"station_id":"RJW","is_transit":false,"i_long":106.836569,"line":11,"transit":false,"station_name":"Rajawali","distance":1444,"i_lat":-6.14505},{"i_lat":-6.161728,"station_name":"Kemayoran","line":11,"i_long":106.839204,"station_id":"KMO","time":5,"transit":false,"distance":1901,"is_transit":false},{"line":11,"distance":1436,"i_long":106.84368,"station_name":"Pasar Senen","transit":false,"time":4,"is_transit":false,"station_id":"PSE","i_lat":-6.174784},{"is_transit":false,"line":11,"time":8,"station_name":"Gang Sentiong","i_long":106.850107,"i_lat":-6.185975,"station_id":"GST","transit":false,"distance":1567},{"station_name":"Kramat","i_long":106.855437,"distance":973,"transit":false,"i_lat":-6.193792,"station_id":"KMT","time":1,"line":11,"is_transit":false},{"distance":1829,"station_name":"Pondok Jati","i_lat":-6.209188,"time":2,"station_id":"POK","transit":false,"line":11,"i_long":106.861737,"is_transit":false},{"distance":1236,"time":9,"i_long":106.86807400000001,"transit":true,"station_id":"JNG","i_lat":-6.215091,"station_name":"Jatinegara","line":0,"is_transit":true},{"is_transit":false,"transit":false,"i_lat":-6.212485,"distance":1377,"station_id":"MTR","line":1,"time":2,"station_name":"Matraman","i_long":106.858896},{"distance":1275,"is_transit":true,"line":0,"station_name":"Manggarai","station_id":"MRI","time":2,"i_long":106.84912,"i_lat":-6.209883,"transit":false},{"line":1,"station_id":"SUD","station_name":"Sudirman","transit":false,"is_transit":false,"i_lat":-6.202263,"i_long":106.822649,"time":4,"distance":3186},{"time":1,"is_transit":false,"station_id":"SUDB","line":1,"station_name":"Sudirman Baru","i_lat":-6.201433,"transit":false,"i_long":106.819881,"distance":280},{"station_name":"Karet","line":1,"transit":false,"station_id":"KAT","distance":471,"time":1,"is_transit":false,"i_long":106.816351,"i_lat":-6.20132},{"transit":true,"distance":2029,"is_transit":true,"i_lat":-6.185545,"i_long":106.811091,"station_name":"Tanah Abang","station_id":"THB","line":1,"time":5},{"time":6,"i_lat":-6.207404,"transit":false,"line":6,"is_transit":false,"station_name":"Palmerah","i_long":106.79689,"distance":3191,"station_id":"PLM"},{"time":7,"transit":false,"line":6,"distance":3737,"is_transit":false,"i_long":106.780334,"station_name":"Kebayoran","i_lat":-6.237242,"station_id":"KBY"},{"time":8,"line":6,"i_long":106.74273,"transit":false,"distance":6218,"station_name":"Pondokranji","is_transit":false,"i_lat":-6.276362,"station_id":"PDJ"},{"i_lat":-6.288927,"distance":2179,"is_transit":false,"line":6,"i_long":106.728916,"transit":false,"station_name":"Jurangmangu","time":3,"station_id":"JMU"},{"station_name":"Sudimara","distance":1994,"i_lat":-6.296963,"time":4,"station_id":"SDM","line":6,"transit":false,"is_transit":false,"i_long":106.712277},{"is_transit":false,"i_lat":-6.314823,"time":6,"line":6,"station_name":"Rawa Buntu","station_id":"RU","distance":4566,"transit":false,"i_long":106.675475},{"distance":2413,"is_transit":false,"transit":false,"time":4,"i_lat":-6.319871,"i_long":106.66566,"line":6,"station_id":"SRP","station_name":"Serpong"},{"time":4,"station_id":"CSK","distance":1784,"station_name":"Cisauk","i_lat":-6.32484,"transit":false,"i_long":106.640411,"line":0,"is_transit":false},{"distance":2519,"station_name":"Cicayur","i_lat":-6.329547,"i_long":106.617853,"transit":false,"is_transit":false,"time":4,"line":0,"station_id":"CC"},{"i_long":106.568863,"distance":5968,"i_lat":-6.3441410000000005,"is_transit":false,"station_id":"PRP","station_name":"Parung Panjang","line":6,"transit":false,"time":8},{"transit":false,"i_long":106.508482,"station_name":"Cilejit","line":0,"distance":7025,"time":9,"station_id":"CJT","is_transit":false,"i_lat":-6.354349},{"i_long":106.491338,"transit":false,"is_transit":false,"distance":2675,"line":0,"time":6,"station_id":"DAR","station_name":"Daru","i_lat":-6.338021},{"time":5,"station_name":"Tenjo","i_lat":-6.327251,"distance":3902,"transit":false,"i_long":106.460812,"station_id":"TEJ","line":6,"is_transit":false},{"transit":false,"is_transit":false,"station_name":"Tigaraksa","i_lat":-6.328533,"i_long":106.425991,"line":6,"time":5,"distance":2974,"station_id":"TGS"},{"i_lat":-6.33561,"line":0,"transit":false,"time":3,"i_long":106.411216,"distance":2651,"station_id":"CKY","station_name":"Cikoya","is_transit":false}]]}