{"data":[[{"i_long":106.788277,"station_id":"GGL","i_lat":-6.162021,"transit":false,"line":5,"time":0,"station_name":"Grogol","is_transit":false,"distance":0},{"i_long":106.800832,"station_name":"Duri","transit":true,"is_transit":true,"line":1,"time":3,"distance":1700,"station_id":"DU","i_lat":-6.155215},{"line":0,"station_name":"Angke","is_transit":false,"i_long":106.79867,"i_lat":-6.144674,"distance":1230,"station_id":"AK","time":4,"transit":false},{"distance":4102,"i_lat":-6.132549,"transit":true,"time":9,"is_transit":true,"i_long":106.826365,"line":0,"station_name":"Kampung Bandan","station_id":"KPB"},{"station_id":"RJW","is_transit":false,"i_lat":-6.14505,"transit":false,"time":3,"station_name":"Rajawali","i_long":106.836569,"distance":1444,"line":11},{"is_transit":false,"line":11,"station_id":"KMO","i_lat":-6.161728,"time":5,"transit":false,"i_long":106.839204,"distance":1901,"station_name":"Kemayoran"},{"time":4,"is_transit":false,"i_long":106.84368,"transit":false,"distance":1436,"station_name":"Pasar Senen","line":11,"station_id":"PSE","i_lat":-6.174784}],[{"station_id":"GGL","i_long":106.788277,"line":5,"time":0,"station_name":"Grogol","distance":0,"is_transit":false,"transit":false,"i_lat":-6.162021},{"station_name":"Duri","i_lat":-6.155215,"station_id":"DU","transit":true,"distance":1700,"i_long":106.800832,"time":3,"is_transit":true,"line":1},{"i_long":106.811091,"distance":3632,"i_lat":-6.185545,"line":1,"station_id":"THB","station_name":"Tanah Abang","time":8,"is_transit":true,"transit":false},{"station_id":"KAT","line":1,"distance":2029,"is_transit":false,"i_long":106.816351,"i_lat":-6.20132,"station_name":"Karet","transit":false,"time":5},{"i_lat":-6.201433,"transit":false,"time":1,"station_name":"Sudirman Baru","distance":471,"is_transit":false,"i_long":106.819881,"station_id":"SUDB","line":1},{"transit":false,"line":1,"station_id":"SUD","i_lat":-6.202263,"time":1,"distance":280,"i_long":106.822649,"station_name":"Sudirman","is_transit":false},{"transit":false,"station_id":"MRI","station_name":"Manggarai","is_transit":true,"i_long":106.84912,"time":4,"distance":3186,"line":0,"i_lat":-6.209883},{"line":1,"is_transit":false,"station_name":"Matraman","transit":false,"time":2,"station_id":"MTR","i_long":106.858896,"distance":1275,"i_lat":-6.212485},{"line":0,"transit":true,"distance":1377,"station_name":"Jatinegara","station_id":"JNG","i_lat":-6.215091,"is_transit":true,"time":8,"i_long":106.86807400000001},{"station_id":"POK","is_transit":false,"transit":false,"time":2,"distance":1236,"i_lat":-6.209188,"line":11,"station_name":"Pondok Jati","i_long":106.861737},{"station_id":"KMT","station_name":"Kramat","i_long":106.855437,"i_lat":-6.193792,"distance":1829,"is_transit":false,"time":2,"line":11,"transit":false},{"station_id":"GST","station_name":"Gang Sentiong","i_long":106.850107,"distance":973,"time":1,"i_lat":-6.185975,"is_transit":false,"line":11,"transit":false},{"station_name":"Pasar Senen","is_transit":false,"i_long":106.84368,"time":8,"i_lat":-6.174784,"station_id":"PSE","line":11,"transit":false,"distance":1567}],[{"station_id":"GGL","i_long":106.788277,"line":5,"station_name":"Grogol","transit":false,"i_lat":-6.162021,"distance":0,"time":0,"is_transit":false},{"i_lat":-6.155215,"time":3,"station_name":"Duri","distance":1700,"i_long":106.800832,"line":1,"station_id":"DU","is_transit":true,"transit":true},{"line":0,"station_id":"AK","is_transit":false,"i_lat":-6.144674,"i_long":106.79867,"transit":false,"station_name":"Angke","time":4,"distance":1230},{"station_name":"Kampung Bandan","line":0,"transit":false,"i_lat":-6.132549,"is_transit":true,"i_long":106.826365,"time":9,"distance":4102,"station_id":"KPB"},{"time":3,"station_name":"Jakarta Kota","distance":1364,"is_transit":true,"i_lat":-6.137569,"i_long":106.812439,"line":0,"transit":true,"station_id":"JAKK"},{"station_name":"Jayakarta","distance":1264,"i_long":106.820901,"line":7,"i_lat":-6.141205,"time":4,"station_id":"JAY","is_transit":false,"transit":false},{"station_name":"Manggabesar","distance":1080,"time":2,"station_id":"MGB","i_long":106.82482,"transit":false,"is_transit":false,"line":2,"i_lat":-6.149769},{"i_lat":-6.160725,"distance":906,"line":2,"station_name":"Sawah Besar","time":2,"is_transit":false,"transit":false,"station_id":"SW","i_long":106.827103},{"i_long":106.828284,"i_lat":-6.166716,"station_name":"Juanda","station_id":"JUA","is_transit":false,"line":2,"distance":1149,"time":2,"transit":false},{"station_name":"Gondangdia","line":2,"transit":false,"is_transit":false,"time":4,"i_lat":-6.186295,"i_long":106.832183,"station_id":"GDD","distance":2015},{"transit":false,"time":3,"i_lat":-6.198556,"is_transit":false,"station_id":"CKI","station_name":"Cikini","i_long":106.840169,"distance":1750,"line":0},{"is_transit":true,"transit":true,"station_id":"MRI","time":4,"line":0,"distance":1590,"i_lat":-6.209883,"i_long":106.84912,"station_name":"Manggarai"},{"time":2,"is_transit":false,"transit":false,"distance":1275,"i_lat":-6.212485,"line":1,"i_long":106.858896,"station_id":"MTR","station_name":"Matraman"},{"distance":1377,"time":8,"transit":true,"station_name":"Jatinegara","station_id":"JNG","i_long":106.86807400000001,"is_transit":true,"i_lat":-6.215091,"line":0},{"line":11,"distance":1236,"station_name":"Pondok Jati","i_long":106.861737,"i_lat":-6.209188,"transit":false,"time":2,"station_id":"POK","is_transit":false},{"is_transit":false,"i_long":106.855437,"transit":false,"i_lat":-6.193792,"station_name":"Kramat","line":11,"station_id":"KMT","time":2,"distance":1829},{"time":1,"is_transit":false,"station_name":"Gang Sentiong","distance":973,"line":11,"i_lat":-6.185975,"transit":false,"i_long":106.850107,"station_id":"GST"},{"distance":1567,"i_long":106.84368,"i_lat":-6.174784,"is_transit":false,"line":11,"station_id":"PSE","time":8,"station_name":"Pasar Senen","transit":false}],[{"i_long":106.788277,"i_lat":-6.162021,"time":0,"station_name":"Grogol","transit":false,"station_id":"GGL","line":5,"is_transit":false,"distance":0},{"i_lat":-6.155215,"is_transit":true,"transit":true,"line":1,"station_name":"Duri","i_long":106.800832,"station_id":"DU","distance":1700,"time":3},{"i_lat":-6.185545,"i_long":106.811091,"station_name":"Tanah Abang","station_id":"THB","transit":false,"time":8,"line":1,"is_transit":true,"distance":3632},{"i_long":106.816351,"transit":false,"distance":2029,"station_name":"Karet","time":5,"station_id":"KAT","i_lat":-6.20132,"line":1,"is_transit":false},{"station_id":"SUDB","is_transit":false,"time":1,"i_lat":-6.201433,"station_name":"Sudirman Baru","i_long":106.819881,"distance":471,"transit":false,"line":1},{"transit":false,"station_name":"Sudirman","station_id":"SUD","is_transit":false,"distance":280,"time":1,"i_long":106.822649,"line":1,"i_lat":-6.202263},{"line":0,"time":4,"distance":3186,"station_name":"Manggarai","transit":true,"is_transit":true,"i_lat":-6.209883,"i_long":106.84912,"station_id":"MRI"},{"i_lat":-6.198556,"transit":false,"line":0,"station_id":"CKI","time":4,"is_transit":false,"station_name":"Cikini","i_long":106.840169,"distance":1590},{"station_name":"Gondangdia","distance":1750,"time":3,"station_id":"GDD","transit":false,"i_lat":-6.186295,"line":2,"i_long":106.832183,"is_transit":false},{"time":4,"distance":2015,"i_lat":-6.166716,"station_name":"Juanda","is_transit":false,"line":2,"station_id":"JUA","transit":false,"i_long":106.828284},{"transit":false,"time":2,"distance":1149,"line":2,"station_name":"Sawah Besar","i_lat":-6.160725,"station_id":"SW","is_transit":false,"i_long":106.827103},{"station_id":"MGB","is_transit":false,"station_name":"Manggabesar","distance":906,"i_long":106.82482,"time":2,"transit":false,"i_lat":-6.149769,"line":2},{"time":2,"is_transit":false,"i_lat":-6.141205,"i_long":106.820901,"transit":false,"line":7,"station_id":"JAY","distance":1080,"station_name":"Jayakarta"},{"station_id":"JAKK","i_lat":-6.137569,"i_long":106.812439,"line":0,"station_name":"Jakarta Kota","transit":true,"distance":1264,"is_transit":true,"time":4},{"i_lat":-6.132549,"i_long":106.826365,"time":3,"transit":true,"line":0,"distance":1364,"station_id":"KPB","is_transit":true,"station_name":"Kampung Bandan"},{"distance":1444,"is_transit":false,"i_long":106.836569,"transit":false,"station_name":"Rajawali","line":11,"station_id":"RJW","i_lat":-6.14505,"time":3},{"i_long":106.839204,"i_lat":-6.161728,"distance":1901,"station_id":"KMO","station_name":"Kemayoran","line":11,"time":5,"is_transit":false,"transit":false},{"station_name":"Pasar Senen","transit":false,"time":4,"is_transit":false,"distance":1436,"station_id":"PSE","i_long":106.84368,"line":11,"i_lat":-6.174784}]]}