{"data":[[{"station_name":"Grogol","i_long":106.788277,"line":5,"distance":0,"is_transit":false,"time":0,"i_lat":-6.162021,"transit":false,"station_id":"GGL"},{"i_lat":-6.155215,"transit":true,"distance":1700,"time":3,"station_name":"Duri","i_long":106.800832,"station_id":"DU","line":1,"is_transit":true},{"transit":false,"station_id":"THB","line":1,"time":8,"is_transit":true,"i_lat":-6.185545,"i_long":106.811091,"distance":3632,"station_name":"Tanah Abang"},{"i_lat":-6.20132,"transit":false,"distance":2029,"is_transit":false,"station_id":"KAT","station_name":"Karet","time":5,"line":1,"i_long":106.816351},{"time":1,"line":1,"transit":false,"i_long":106.819881,"station_id":"SUDB","station_name":"Sudirman Baru","distance":471,"is_transit":false,"i_lat":-6.201433},{"distance":280,"station_id":"SUD","transit":false,"is_transit":false,"station_name":"Sudirman","line":1,"time":1,"i_lat":-6.202263,"i_long":106.822649},{"distance":3186,"time":4,"i_long":106.84912,"line":0,"station_name":"Manggarai","transit":true,"station_id":"MRI","is_transit":true,"i_lat":-6.209883},{"time":4,"is_transit":false,"station_id":"TEB","station_name":"Tebet","transit":false,"i_lat":-6.226659,"i_long":106.857948,"line":2,"distance":2610},{"distance":1230,"station_id":"CW","line":0,"i_long":106.856607,"transit":false,"time":2,"is_transit":false,"station_name":"Cawang","i_lat":-6.242512},{"is_transit":false,"i_long":106.85449,"distance":1546,"transit":false,"i_lat":-6.255332,"time":3,"station_id":"DRN","line":0,"station_name":"Duren Kalibata"},{"station_name":"Pasar Minggu Baru","distance":824,"time":2,"station_id":"PSMB","line":2,"is_transit":false,"i_lat":-6.263214,"transit":false,"i_long":106.851577},{"transit":false,"i_long":106.843999,"is_transit":false,"line":2,"station_name":"Pasar Minggu","i_lat":-6.2842400000000005,"distance":2380,"station_id":"PSM","time":2}],[{"time":0,"i_lat":-6.162021,"i_long":106.788277,"distance":0,"is_transit":false,"line":5,"transit":false,"station_name":"Grogol","station_id":"GGL"},{"station_name":"Duri","distance":1700,"i_long":106.800832,"line":1,"i_lat":-6.155215,"transit":true,"is_transit":true,"station_id":"DU","time":3},{"station_id":"AK","i_long":106.79867,"time":4,"i_lat":-6.144674,"is_transit":false,"transit":false,"line":0,"distance":1230,"station_name":"Angke"},{"distance":4102,"line":0,"transit":false,"is_transit":true,"time":9,"i_long":106.826365,"station_name":"Kampung Bandan","station_id":"KPB","i_lat":-6.132549},{"transit":true,"station_name":"Jakarta Kota","time":3,"station_id":"JAKK","line":0,"i_long":106.812439,"distance":1364,"is_transit":true,"i_lat":-6.137569},{"distance":1264,"transit":false,"i_lat":-6.141205,"station_name":"Jayakarta","time":4,"station_id":"JAY","is_transit":false,"i_long":106.820901,"line":7},{"i_long":106.82482,"is_transit":false,"station_id":"MGB","transit":false,"time":2,"line":2,"distance":1080,"i_lat":-6.149769,"station_name":"Manggabesar"},{"station_id":"SW","i_long":106.827103,"station_name":"Sawah Besar","distance":906,"i_lat":-6.160725,"time":2,"is_transit":false,"line":2,"transit":false},{"station_id":"JUA","i_long":106.828284,"is_transit":false,"line":2,"distance":1149,"station_name":"Juanda","i_lat":-6.166716,"transit":false,"time":2},{"distance":2015,"line":2,"time":4,"i_lat":-6.186295,"station_id":"GDD","station_name":"Gondangdia","is_transit":false,"i_long":106.832183,"transit":false},{"i_long":106.840169,"i_lat":-6.198556,"is_transit":false,"transit":false,"station_id":"CKI","distance":1750,"line":0,"time":3,"station_name":"Cikini"},{"i_long":106.84912,"time":4,"line":0,"distance":1590,"transit":true,"station_id":"MRI","i_lat":-6.209883,"station_name":"Manggarai","is_transit":true},{"line":2,"station_name":"Tebet","time":4,"transit":false,"i_lat":-6.226659,"is_transit":false,"station_id":"TEB","distance":2610,"i_long":106.857948},{"i_lat":-6.242512,"transit":false,"is_transit":false,"station_id":"CW","time":2,"distance":1230,"line":0,"station_name":"Cawang","i_long":106.856607},{"line":0,"transit":false,"distance":1546,"station_id":"DRN","i_long":106.85449,"station_name":"Duren Kalibata","time":3,"i_lat":-6.255332,"is_transit":false},{"distance":824,"transit":false,"i_long":106.851577,"station_id":"PSMB","i_lat":-6.263214,"line":2,"is_transit":false,"station_name":"Pasar Minggu Baru","time":2},{"line":2,"station_name":"Pasar Minggu","i_lat":-6.2842400000000005,"i_long":106.843999,"distance":2380,"transit":false,"is_transit":false,"time":2,"station_id":"PSM"}],[{"time":0,"transit":false,"is_transit":false,"i_long":106.788277,"station_name":"Grogol","line":5,"station_id":"GGL","distance":0,"i_lat":-6.162021},{"station_id":"DU","i_long":106.800832,"line":1,"distance":1700,"i_lat":-6.155215,"is_transit":true,"time":3,"transit":true,"station_name":"Duri"},{"time":4,"i_lat":-6.144674,"distance":1230,"transit":false,"line":0,"is_transit":false,"station_id":"AK","i_long":106.79867,"station_name":"Angke"},{"is_transit":true,"i_long":106.826365,"distance":4102,"station_id":"KPB","i_lat":-6.132549,"transit":true,"line":0,"station_name":"Kampung Bandan","time":9},{"station_name":"Rajawali","i_long":106.836569,"station_id":"RJW","transit":false,"time":3,"line":11,"distance":1444,"i_lat":-6.14505,"is_transit":false},{"is_transit":false,"station_name":"Kemayoran","i_lat":-6.161728,"line":11,"time":5,"transit":false,"distance":1901,"i_long":106.839204,"station_id":"KMO"},{"line":11,"transit":false,"station_name":"Pasar Senen","time":4,"is_transit":false,"distance":1436,"station_id":"PSE","i_long":106.84368,"i_lat":-6.174784},{"distance":1567,"i_lat":-6.185975,"i_long":106.850107,"is_transit":false,"station_id":"GST","line":11,"transit":false,"station_name":"Gang Sentiong","time":8},{"distance":973,"transit":false,"time":1,"i_long":106.855437,"station_name":"Kramat","line":11,"is_transit":false,"i_lat":-6.193792,"station_id":"KMT"},{"station_name":"Pondok Jati","line":11,"distance":1829,"transit":false,"i_lat":-6.209188,"time":2,"is_transit":false,"i_long":106.861737,"station_id":"POK"},{"time":9,"transit":true,"i_lat":-6.215091,"station_id":"JNG","i_long":106.86807400000001,"line":0,"distance":1236,"station_name":"Jatinegara","is_transit":true},{"time":2,"is_transit":false,"distance":1377,"line":1,"station_id":"MTR","i_long":106.858896,"transit":false,"station_name":"Matraman","i_lat":-6.212485},{"line":0,"distance":1275,"transit":true,"i_lat":-6.209883,"station_id":"MRI","i_long":106.84912,"station_name":"Manggarai","is_transit":true,"time":2},{"i_lat":-6.226659,"i_long":106.857948,"station_name":"Tebet","station_id":"TEB","line":2,"distance":2610,"is_transit":false,"transit":false,"time":4},{"i_long":106.856607,"is_transit":false,"time":2,"distance":1230,"station_id":"CW","line":0,"station_name":"Cawang","transit":false,"i_lat":-6.242512},{"i_long":106.85449,"distance":1546,"time":3,"i_lat":-6.255332,"is_transit":false,"line":0,"transit":false,"station_name":"Duren Kalibata","station_id":"DRN"},{"distance":824,"time":2,"station_name":"Pasar Minggu Baru","i_long":106.851577,"transit":false,"station_id":"PSMB","is_transit":false,"i_lat":-6.263214,"line":2},{"line":2,"i_lat":-6.2842400000000005,"station_name":"Pasar Minggu","distance":2380,"time":2,"is_transit":false,"station_id":"PSM","i_long":106.843999,"transit":false}]]}