{"data":[[{"time":0,"i_long":106.788277,"transit":false,"station_name":"Grogol","station_id":"GGL","distance":0,"i_lat":-6.162021,"is_transit":false,"line":5},{"distance":1700,"station_name":"Duri","i_lat":-6.155215,"line":1,"time":3,"i_long":106.800832,"station_id":"DU","is_transit":true,"transit":true},{"line":1,"i_lat":-6.185545,"distance":3632,"time":8,"transit":false,"station_id":"THB","i_long":106.811091,"station_name":"Tanah Abang","is_transit":false},{"station_name":"Karet","time":5,"distance":2029,"i_long":106.816351,"is_transit":false,"i_lat":-6.20132,"station_id":"KAT","transit":false,"line":1},{"i_long":106.819881,"station_name":"Sudirman Baru","i_lat":-6.201433,"distance":471,"is_transit":false,"line":1,"transit":false,"station_id":"SUDB","time":1},{"i_lat":-6.202263,"line":1,"transit":false,"i_long":106.822649,"time":1,"station_id":"SUD","station_name":"Sudirman","is_transit":false,"distance":280},{"i_long":106.84912,"station_name":"Manggarai","time":4,"station_id":"MRI","distance":3186,"transit":true,"i_lat":-6.209883,"line":2,"is_transit":true},{"i_long":106.857948,"i_lat":-6.226659,"station_name":"Tebet","is_transit":false,"transit":false,"distance":2610,"line":2,"station_id":"TEB","time":4},{"is_transit":false,"transit":false,"i_lat":-6.242512,"station_id":"CW","station_name":"Cawang","time":2,"distance":1230,"i_long":106.856607,"line":2},{"station_name":"Duren Kalibata","time":3,"is_transit":false,"i_long":106.85449,"transit":false,"station_id":"DRN","i_lat":-6.255332,"line":2,"distance":1546},{"distance":824,"i_lat":-6.263214,"i_long":106.851577,"is_transit":false,"station_name":"Pasar Minggu Baru","line":2,"station_id":"PSMB","transit":false,"time":2},{"i_lat":-6.2842400000000005,"i_long":106.843999,"transit":false,"station_name":"Pasar Minggu","time":2,"distance":2380,"line":2,"is_transit":false,"station_id":"PSM"},{"is_transit":false,"i_lat":-6.3080680000000005,"i_long":106.838896,"station_name":"Tanjung Barat","transit":false,"time":4,"station_id":"TNT","distance":2820,"line":2},{"station_name":"Lenteng Agung","time":3,"is_transit":false,"distance":2671,"i_long":106.832616,"line":2,"i_lat":-6.330363,"station_id":"LNA","transit":false}],[{"time":0,"distance":0,"transit":false,"station_id":"GGL","station_name":"Grogol","is_transit":false,"i_long":106.788277,"line":5,"i_lat":-6.162021},{"transit":true,"station_name":"Duri","time":3,"i_lat":-6.155215,"is_transit":true,"distance":1700,"line":1,"station_id":"DU","i_long":106.800832},{"transit":false,"station_name":"Angke","i_lat":-6.144674,"line":1,"time":4,"is_transit":false,"station_id":"AK","distance":1230,"i_long":106.79867},{"station_name":"Kampung Bandan","line":4,"transit":true,"is_transit":true,"i_long":106.826365,"station_id":"KPB","time":9,"distance":4102,"i_lat":-6.132549},{"transit":true,"time":3,"i_long":106.812439,"i_lat":-6.137569,"distance":1364,"station_name":"Jakarta Kota","line":2,"station_id":"JAKK","is_transit":true},{"station_id":"JAY","line":2,"is_transit":false,"transit":false,"distance":1264,"i_lat":-6.141205,"i_long":106.820901,"station_name":"Jayakarta","time":4},{"station_id":"MGB","transit":false,"station_name":"Manggabesar","is_transit":false,"distance":1080,"i_lat":-6.149769,"time":2,"i_long":106.82482,"line":2},{"line":2,"time":2,"i_long":106.827103,"is_transit":false,"i_lat":-6.160725,"station_name":"Sawah Besar","transit":false,"station_id":"SW","distance":906},{"distance":1149,"i_long":106.828284,"station_name":"Juanda","line":2,"transit":false,"time":2,"is_transit":false,"station_id":"JUA","i_lat":-6.166716},{"distance":2015,"time":4,"line":2,"is_transit":false,"i_lat":-6.186295,"station_name":"Gondangdia","transit":false,"i_long":106.832183,"station_id":"GDD"},{"station_name":"Cikini","time":3,"is_transit":false,"line":2,"i_long":106.840169,"distance":1750,"i_lat":-6.198556,"transit":false,"station_id":"CKI"},{"time":4,"transit":false,"distance":1590,"station_name":"Manggarai","i_lat":-6.209883,"i_long":106.84912,"is_transit":false,"line":2,"station_id":"MRI"},{"station_id":"TEB","station_name":"Tebet","i_lat":-6.226659,"distance":2610,"line":2,"transit":false,"time":4,"is_transit":false,"i_long":106.857948},{"line":2,"station_id":"CW","i_long":106.856607,"transit":false,"station_name":"Cawang","i_lat":-6.242512,"is_transit":false,"time":2,"distance":1230},{"distance":1546,"i_long":106.85449,"line":2,"station_id":"DRN","time":3,"is_transit":false,"station_name":"Duren Kalibata","i_lat":-6.255332,"transit":false},{"i_lat":-6.263214,"i_long":106.851577,"station_id":"PSMB","time":2,"transit":false,"distance":824,"is_transit":false,"station_name":"Pasar Minggu Baru","line":2},{"station_name":"Pasar Minggu","i_lat":-6.2842400000000005,"line":2,"station_id":"PSM","transit":false,"time":2,"is_transit":false,"distance":2380,"i_long":106.843999},{"is_transit":false,"i_long":106.838896,"i_lat":-6.3080680000000005,"transit":false,"station_name":"Tanjung Barat","time":4,"distance":2820,"station_id":"TNT","line":2},{"station_name":"Lenteng Agung","station_id":"LNA","is_transit":false,"distance":2671,"transit":false,"line":2,"i_long":106.832616,"i_lat":-6.330363,"time":3}],[{"is_transit":false,"i_long":106.788277,"line":5,"station_name":"Grogol","time":0,"distance":0,"i_lat":-6.162021,"transit":false,"station_id":"GGL"},{"transit":true,"i_lat":-6.155215,"station_id":"DU","time":3,"i_long":106.800832,"station_name":"Duri","distance":1700,"is_transit":true,"line":1},{"is_transit":false,"line":1,"time":4,"i_long":106.79867,"i_lat":-6.144674,"transit":false,"distance":1230,"station_id":"AK","station_name":"Angke"},{"is_transit":true,"station_name":"Kampung Bandan","line":4,"station_id":"KPB","transit":true,"i_lat":-6.132549,"time":9,"distance":4102,"i_long":106.826365},{"time":3,"station_name":"Rajawali","distance":1444,"transit":false,"station_id":"RJW","is_transit":false,"i_long":106.836569,"line":11,"i_lat":-6.14505},{"time":5,"i_lat":-6.161728,"station_id":"KMO","i_long":106.839204,"distance":1901,"station_name":"Kemayoran","is_transit":false,"line":11,"transit":false},{"distance":1436,"i_long":106.84368,"i_lat":-6.174784,"transit":false,"time":4,"station_name":"Pasar Senen","line":11,"is_transit":false,"station_id":"PSE"},{"station_name":"Gang Sentiong","line":11,"is_transit":false,"distance":1567,"i_lat":-6.185975,"time":8,"transit":false,"i_long":106.850107,"station_id":"GST"},{"time":1,"i_lat":-6.193792,"transit":false,"i_long":106.855437,"line":11,"station_name":"Kramat","station_id":"KMT","is_transit":false,"distance":973},{"distance":1829,"station_name":"Pondok Jati","is_transit":false,"i_lat":-6.209188,"i_long":106.861737,"station_id":"POK","transit":false,"time":2,"line":11},{"i_long":106.86807400000001,"transit":true,"i_lat":-6.215091,"station_name":"Jatinegara","station_id":"JNG","time":9,"is_transit":true,"line":1,"distance":1236},{"is_transit":false,"transit":false,"i_long":106.858896,"line":1,"distance":1377,"i_lat":-6.212485,"station_name":"Matraman","time":2,"station_id":"MTR"},{"i_lat":-6.209883,"i_long":106.84912,"time":2,"is_transit":true,"line":2,"station_id":"MRI","distance":1275,"transit":true,"station_name":"Manggarai"},{"i_long":106.857948,"line":2,"time":4,"transit":false,"i_lat":-6.226659,"distance":2610,"station_id":"TEB","is_transit":false,"station_name":"Tebet"},{"line":2,"time":2,"distance":1230,"station_name":"Cawang","i_long":106.856607,"is_transit":false,"transit":false,"station_id":"CW","i_lat":-6.242512},{"station_id":"DRN","station_name":"Duren Kalibata","distance":1546,"i_long":106.85449,"is_transit":false,"transit":false,"line":2,"time":3,"i_lat":-6.255332},{"transit":false,"time":2,"i_lat":-6.263214,"line":2,"distance":824,"is_transit":false,"i_long":106.851577,"station_name":"Pasar Minggu Baru","station_id":"PSMB"},{"i_lat":-6.2842400000000005,"time":2,"transit":false,"i_long":106.843999,"station_name":"Pasar Minggu","line":2,"is_transit":false,"station_id":"PSM","distance":2380},{"i_lat":-6.3080680000000005,"station_id":"TNT","transit":false,"distance":2820,"line":2,"i_long":106.838896,"is_transit":false,"station_name":"Tanjung Barat","time":4},{"station_name":"Lenteng Agung","i_long":106.832616,"transit":false,"i_lat":-6.330363,"line":2,"station_id":"LNA","is_transit":false,"distance":2671,"time":3}]]}