{"data":[[{"line":5,"station_id":"GGL","time":0,"distance":0,"transit":false,"is_transit":false,"station_name":"Grogol","i_lat":-6.162021,"i_long":106.788277},{"transit":true,"is_transit":true,"i_lat":-6.155215,"line":1,"time":3,"i_long":106.800832,"station_name":"Duri","distance":1700,"station_id":"DU"},{"i_lat":-6.185545,"line":1,"distance":3632,"is_transit":false,"station_id":"THB","time":8,"station_name":"Tanah Abang","i_long":106.811091,"transit":false},{"transit":false,"i_long":106.816351,"station_name":"Karet","line":1,"time":5,"station_id":"KAT","i_lat":-6.20132,"is_transit":false,"distance":2029},{"is_transit":false,"distance":471,"time":1,"station_id":"SUDB","i_long":106.819881,"station_name":"Sudirman Baru","transit":false,"line":1,"i_lat":-6.201433},{"station_id":"SUD","distance":280,"station_name":"Sudirman","is_transit":false,"i_lat":-6.202263,"time":1,"i_long":106.822649,"line":1,"transit":false},{"is_transit":false,"i_long":106.84912,"station_name":"Manggarai","i_lat":-6.209883,"transit":false,"line":2,"distance":3186,"station_id":"MRI","time":4},{"is_transit":false,"line":1,"time":2,"i_long":106.858896,"station_id":"MTR","i_lat":-6.212485,"distance":1275,"transit":false,"station_name":"Matraman"},{"time":8,"station_id":"JNG","transit":false,"is_transit":false,"i_lat":-6.215091,"i_long":106.86807400000001,"line":1,"station_name":"Jatinegara","distance":1377},{"time":3,"station_id":"KLD","i_lat":-6.2135,"transit":false,"distance":3395,"i_long":106.899548,"station_name":"Klender","is_transit":false,"line":1},{"distance":3100,"line":1,"station_id":"BUA","station_name":"Buaran","transit":false,"i_long":106.922662,"time":2,"is_transit":false,"i_lat":-6.215568},{"time":1,"station_name":"Klenderbaru","is_transit":false,"i_lat":-6.217455,"distance":1305,"transit":false,"station_id":"KLDB","i_long":106.939679,"line":1},{"is_transit":false,"time":8,"i_long":106.951283,"i_lat":-6.219053,"distance":1385,"station_id":"CUK","transit":false,"line":1,"station_name":"Cakung"},{"transit":false,"distance":3097,"station_name":"Kranji","time":3,"station_id":"KRI","is_transit":false,"i_long":106.977657,"line":1,"i_lat":-6.224515},{"i_lat":-6.236616,"time":4,"i_long":106.997013,"station_id":"BKS","is_transit":false,"station_name":"Bekasi","distance":2520,"line":1,"transit":false},{"transit":false,"time":2,"station_name":"Bekasi Timur","is_transit":false,"i_lat":-6.248029,"line":1,"i_long":107.016735,"station_id":"BKST","distance":2368},{"station_name":"Tambun","i_lat":-6.258864,"transit":false,"distance":4460,"i_long":107.055722,"is_transit":false,"line":1,"station_id":"TB","time":7},{"time":3,"station_id":"CIT","station_name":"Cibitung","distance":3420,"i_lat":-6.261877,"line":1,"transit":false,"is_transit":false,"i_long":107.083084}],[{"time":0,"transit":false,"station_name":"Grogol","is_transit":false,"i_lat":-6.162021,"i_long":106.788277,"line":5,"distance":0,"station_id":"GGL"},{"station_name":"Duri","is_transit":true,"i_long":106.800832,"distance":1700,"station_id":"DU","transit":true,"line":1,"i_lat":-6.155215,"time":3},{"i_lat":-6.144674,"station_id":"AK","distance":1230,"time":4,"i_long":106.79867,"line":1,"transit":false,"is_transit":false,"station_name":"Angke"},{"distance":4102,"time":9,"is_transit":true,"line":4,"transit":true,"station_name":"Kampung Bandan","i_long":106.826365,"station_id":"KPB","i_lat":-6.132549},{"i_long":106.836569,"i_lat":-6.14505,"distance":1444,"is_transit":false,"transit":false,"line":11,"station_name":"Rajawali","station_id":"RJW","time":3},{"transit":false,"time":5,"station_name":"Kemayoran","is_transit":false,"i_lat":-6.161728,"i_long":106.839204,"line":11,"distance":1901,"station_id":"KMO"},{"i_lat":-6.174784,"distance":1436,"is_transit":false,"station_id":"PSE","time":4,"i_long":106.84368,"station_name":"Pasar Senen","line":11,"transit":false},{"station_name":"Gang Sentiong","station_id":"GST","i_long":106.850107,"time":8,"i_lat":-6.185975,"distance":1567,"transit":false,"is_transit":false,"line":11},{"station_id":"KMT","transit":false,"station_name":"Kramat","distance":973,"i_lat":-6.193792,"i_long":106.855437,"line":11,"time":1,"is_transit":false},{"station_name":"Pondok Jati","distance":1829,"is_transit":false,"i_long":106.861737,"line":11,"i_lat":-6.209188,"time":2,"transit":false,"station_id":"POK"},{"distance":1236,"time":9,"line":1,"station_id":"JNG","i_long":106.86807400000001,"transit":true,"i_lat":-6.215091,"station_name":"Jatinegara","is_transit":true},{"station_name":"Klender","distance":3395,"station_id":"KLD","i_lat":-6.2135,"time":3,"transit":false,"i_long":106.899548,"line":1,"is_transit":false},{"transit":false,"station_id":"BUA","time":2,"i_lat":-6.215568,"line":1,"i_long":106.922662,"is_transit":false,"station_name":"Buaran","distance":3100},{"station_name":"Klenderbaru","time":1,"transit":false,"distance":1305,"is_transit":false,"station_id":"KLDB","i_long":106.939679,"i_lat":-6.217455,"line":1},{"is_transit":false,"i_lat":-6.219053,"i_long":106.951283,"station_name":"Cakung","distance":1385,"station_id":"CUK","line":1,"transit":false,"time":8},{"i_long":106.977657,"time":3,"station_name":"Kranji","i_lat":-6.224515,"transit":false,"distance":3097,"line":1,"station_id":"KRI","is_transit":false},{"i_lat":-6.236616,"is_transit":false,"transit":false,"line":1,"time":4,"distance":2520,"station_id":"BKS","i_long":106.997013,"station_name":"Bekasi"},{"i_lat":-6.248029,"is_transit":false,"time":2,"transit":false,"line":1,"distance":2368,"station_id":"BKST","station_name":"Bekasi Timur","i_long":107.016735},{"time":7,"station_id":"TB","transit":false,"i_long":107.055722,"line":1,"station_name":"Tambun","distance":4460,"i_lat":-6.258864,"is_transit":false},{"station_name":"Cibitung","station_id":"CIT","transit":false,"i_long":107.083084,"line":1,"distance":3420,"is_transit":false,"i_lat":-6.261877,"time":3}],[{"station_id":"GGL","station_name":"Grogol","is_transit":false,"distance":0,"transit":false,"time":0,"i_lat":-6.162021,"i_long":106.788277,"line":5},{"time":3,"station_name":"Duri","transit":true,"is_transit":true,"i_lat":-6.155215,"i_long":106.800832,"line":1,"distance":1700,"station_id":"DU"},{"is_transit":false,"station_id":"AK","time":4,"i_lat":-6.144674,"transit":false,"i_long":106.79867,"station_name":"Angke","line":1,"distance":1230},{"station_id":"KPB","i_lat":-6.132549,"transit":true,"line":4,"station_name":"Kampung Bandan","i_long":106.826365,"time":9,"is_transit":true,"distance":4102},{"station_id":"JAKK","line":2,"time":3,"i_lat":-6.137569,"transit":true,"is_transit":true,"station_name":"Jakarta Kota","i_long":106.812439,"distance":1364},{"transit":false,"line":2,"distance":1264,"time":4,"is_transit":false,"i_long":106.820901,"i_lat":-6.141205,"station_name":"Jayakarta","station_id":"JAY"},{"time":2,"is_transit":false,"transit":false,"distance":1080,"i_lat":-6.149769,"line":2,"i_long":106.82482,"station_name":"Manggabesar","station_id":"MGB"},{"station_id":"SW","transit":false,"is_transit":false,"distance":906,"i_long":106.827103,"i_lat":-6.160725,"time":2,"station_name":"Sawah Besar","line":2},{"i_long":106.828284,"distance":1149,"is_transit":false,"time":2,"transit":false,"station_name":"Juanda","station_id":"JUA","i_lat":-6.166716,"line":2},{"is_transit":false,"station_name":"Gondangdia","time":4,"line":2,"distance":2015,"transit":false,"i_long":106.832183,"i_lat":-6.186295,"station_id":"GDD"},{"line":2,"i_lat":-6.198556,"station_name":"Cikini","station_id":"CKI","transit":false,"time":3,"i_long":106.840169,"distance":1750,"is_transit":false},{"transit":true,"time":4,"i_lat":-6.209883,"i_long":106.84912,"is_transit":true,"line":2,"station_name":"Manggarai","distance":1590,"station_id":"MRI"},{"station_name":"Matraman","i_lat":-6.212485,"time":2,"transit":false,"is_transit":false,"i_long":106.858896,"distance":1275,"station_id":"MTR","line":1},{"transit":false,"distance":1377,"station_name":"Jatinegara","time":8,"i_lat":-6.215091,"is_transit":false,"i_long":106.86807400000001,"station_id":"JNG","line":1},{"station_name":"Klender","line":1,"i_long":106.899548,"station_id":"KLD","i_lat":-6.2135,"distance":3395,"is_transit":false,"transit":false,"time":3},{"i_lat":-6.215568,"line":1,"is_transit":false,"i_long":106.922662,"station_id":"BUA","station_name":"Buaran","time":2,"distance":3100,"transit":false},{"station_id":"KLDB","line":1,"is_transit":false,"i_long":106.939679,"distance":1305,"transit":false,"i_lat":-6.217455,"station_name":"Klenderbaru","time":1},{"transit":false,"station_name":"Cakung","distance":1385,"station_id":"CUK","i_lat":-6.219053,"time":8,"i_long":106.951283,"line":1,"is_transit":false},{"line":1,"station_name":"Kranji","is_transit":false,"distance":3097,"i_long":106.977657,"station_id":"KRI","transit":false,"i_lat":-6.224515,"time":3},{"is_transit":false,"i_lat":-6.236616,"station_id":"BKS","time":4,"transit":false,"i_long":106.997013,"distance":2520,"station_name":"Bekasi","line":1},{"i_long":107.016735,"line":1,"station_name":"Bekasi Timur","distance":2368,"transit":false,"time":2,"i_lat":-6.248029,"station_id":"BKST","is_transit":false},{"line":1,"station_name":"Tambun","time":7,"distance":4460,"transit":false,"is_transit":false,"station_id":"TB","i_lat":-6.258864,"i_long":107.055722},{"distance":3420,"i_long":107.083084,"station_name":"Cibitung","i_lat":-6.261877,"line":1,"time":3,"transit":false,"is_transit":false,"station_id":"CIT"}],[{"distance":0,"transit":false,"i_lat":-6.162021,"i_long":106.788277,"station_name":"Grogol","time":0,"line":5,"station_id":"GGL","is_transit":false},{"time":3,"i_lat":-6.155215,"i_long":106.800832,"station_id":"DU","line":1,"transit":true,"is_transit":true,"distance":1700,"station_name":"Duri"},{"time":8,"transit":false,"line":1,"distance":3632,"station_name":"Tanah Abang","station_id":"THB","is_transit":false,"i_lat":-6.185545,"i_long":106.811091},{"transit":false,"is_transit":false,"i_long":106.816351,"distance":2029,"line":1,"i_lat":-6.20132,"station_name":"Karet","time":5,"station_id":"KAT"},{"i_lat":-6.201433,"transit":false,"i_long":106.819881,"is_transit":false,"line":1,"time":1,"station_id":"SUDB","station_name":"Sudirman Baru","distance":471},{"time":1,"i_lat":-6.202263,"station_id":"SUD","is_transit":false,"station_name":"Sudirman","transit":false,"i_long":106.822649,"distance":280,"line":1},{"station_name":"Manggarai","time":4,"distance":3186,"is_transit":true,"transit":true,"line":2,"i_long":106.84912,"i_lat":-6.209883,"station_id":"MRI"},{"station_name":"Cikini","distance":1590,"station_id":"CKI","i_long":106.840169,"is_transit":false,"time":4,"i_lat":-6.198556,"transit":false,"line":2},{"i_lat":-6.186295,"i_long":106.832183,"line":2,"time":3,"is_transit":false,"station_id":"GDD","transit":false,"distance":1750,"station_name":"Gondangdia"},{"station_name":"Juanda","i_lat":-6.166716,"distance":2015,"time":4,"station_id":"JUA","transit":false,"line":2,"i_long":106.828284,"is_transit":false},{"i_long":106.827103,"time":2,"i_lat":-6.160725,"station_name":"Sawah Besar","distance":1149,"is_transit":false,"transit":false,"station_id":"SW","line":2},{"transit":false,"is_transit":false,"time":2,"station_name":"Manggabesar","line":2,"i_long":106.82482,"distance":906,"i_lat":-6.149769,"station_id":"MGB"},{"distance":1080,"line":2,"station_id":"JAY","time":2,"i_long":106.820901,"transit":false,"is_transit":false,"i_lat":-6.141205,"station_name":"Jayakarta"},{"time":4,"line":2,"distance":1264,"i_lat":-6.137569,"i_long":106.812439,"is_transit":true,"station_id":"JAKK","station_name":"Jakarta Kota","transit":true},{"distance":1364,"station_id":"KPB","is_transit":true,"i_lat":-6.132549,"i_long":106.826365,"line":4,"station_name":"Kampung Bandan","time":3,"transit":true},{"time":3,"transit":false,"i_long":106.836569,"distance":1444,"station_id":"RJW","is_transit":false,"i_lat":-6.14505,"station_name":"Rajawali","line":11},{"station_id":"KMO","distance":1901,"station_name":"Kemayoran","i_long":106.839204,"line":11,"i_lat":-6.161728,"time":5,"is_transit":false,"transit":false},{"time":4,"transit":false,"i_long":106.84368,"distance":1436,"is_transit":false,"station_id":"PSE","i_lat":-6.174784,"line":11,"station_name":"Pasar Senen"},{"is_transit":false,"station_name":"Gang Sentiong","transit":false,"i_long":106.850107,"distance":1567,"i_lat":-6.185975,"line":11,"time":8,"station_id":"GST"},{"transit":false,"i_long":106.855437,"time":1,"i_lat":-6.193792,"is_transit":false,"line":11,"station_name":"Kramat","station_id":"KMT","distance":973},{"is_transit":false,"line":11,"transit":false,"distance":1829,"i_lat":-6.209188,"time":2,"station_name":"Pondok Jati","i_long":106.861737,"station_id":"POK"},{"station_id":"JNG","time":9,"is_transit":true,"distance":1236,"station_name":"Jatinegara","transit":true,"i_long":106.86807400000001,"line":1,"i_lat":-6.215091},{"distance":3395,"transit":false,"station_name":"Klender","time":3,"is_transit":false,"station_id":"KLD","i_lat":-6.2135,"i_long":106.899548,"line":1},{"i_lat":-6.215568,"transit":false,"time":2,"station_id":"BUA","i_long":106.922662,"line":1,"distance":3100,"is_transit":false,"station_name":"Buaran"},{"distance":1305,"is_transit":false,"station_id":"KLDB","station_name":"Klenderbaru","transit":false,"i_long":106.939679,"i_lat":-6.217455,"line":1,"time":1},{"transit":false,"distance":1385,"station_id":"CUK","is_transit":false,"station_name":"Cakung","time":8,"i_long":106.951283,"i_lat":-6.219053,"line":1},{"distance":3097,"is_transit":false,"i_long":106.977657,"station_name":"Kranji","station_id":"KRI","time":3,"i_lat":-6.224515,"transit":false,"line":1},{"line":1,"time":4,"is_transit":false,"station_name":"Bekasi","i_lat":-6.236616,"i_long":106.997013,"distance":2520,"station_id":"BKS","transit":false},{"transit":false,"time":2,"is_transit":false,"line":1,"distance":2368,"station_id":"BKST","i_long":107.016735,"station_name":"Bekasi Timur","i_lat":-6.248029},{"time":7,"station_id":"TB","transit":false,"is_transit":false,"i_lat":-6.258864,"distance":4460,"line":1,"station_name":"Tambun","i_long":107.055722},{"distance":3420,"time":3,"station_id":"CIT","transit":false,"is_transit":false,"i_lat":-6.261877,"station_name":"Cibitung","i_long":107.083084,"line":1}]]}