{"data":[[{"i_long":106.788277,"line":5,"i_lat":-6.162021,"transit":false,"time":0,"is_transit":false,"station_id":"GGL","station_name":"Grogol","distance":0},{"station_id":"DU","distance":1700,"is_transit":true,"transit":true,"i_lat":-6.155215,"i_long":106.800832,"station_name":"Duri","line":1,"time":3},{"is_transit":true,"station_id":"THB","line":1,"transit":true,"distance":3632,"station_name":"Tanah Abang","i_lat":-6.185545,"i_long":106.811091,"time":8},{"line":6,"transit":false,"station_name":"Palmerah","station_id":"PLM","is_transit":false,"i_lat":-6.207404,"time":6,"distance":3191,"i_long":106.79689},{"i_lat":-6.237242,"station_id":"KBY","station_name":"Kebayoran","distance":3737,"is_transit":false,"line":6,"time":7,"transit":false,"i_long":106.780334},{"transit":false,"is_transit":false,"station_id":"PDJ","station_name":"Pondokranji","time":8,"i_lat":-6.276362,"i_long":106.74273,"line":6,"distance":6218},{"distance":2179,"i_long":106.728916,"line":6,"transit":false,"station_id":"JMU","station_name":"Jurangmangu","i_lat":-6.288927,"time":3,"is_transit":false}],[{"line":5,"i_long":106.788277,"distance":0,"time":0,"station_id":"GGL","is_transit":false,"station_name":"Grogol","transit":false,"i_lat":-6.162021},{"distance":1700,"station_name":"Duri","is_transit":true,"station_id":"DU","line":1,"time":3,"i_lat":-6.155215,"transit":true,"i_long":106.800832},{"station_name":"Angke","is_transit":false,"station_id":"AK","distance":1230,"line":1,"time":4,"i_long":106.79867,"transit":false,"i_lat":-6.144674},{"station_id":"KPB","i_lat":-6.132549,"time":9,"i_long":106.826365,"distance":4102,"station_name":"Kampung Bandan","line":4,"is_transit":true,"transit":true},{"i_long":106.812439,"transit":true,"is_transit":true,"distance":1364,"i_lat":-6.137569,"station_id":"JAKK","time":3,"line":2,"station_name":"Jakarta Kota"},{"i_lat":-6.141205,"i_long":106.820901,"line":2,"time":4,"station_id":"JAY","transit":false,"distance":1264,"station_name":"Jayakarta","is_transit":false},{"is_transit":false,"time":2,"station_id":"MGB","i_lat":-6.149769,"line":2,"station_name":"Manggabesar","distance":1080,"transit":false,"i_long":106.82482},{"i_long":106.827103,"distance":906,"station_id":"SW","is_transit":false,"line":2,"time":2,"transit":false,"station_name":"Sawah Besar","i_lat":-6.160725},{"i_long":106.828284,"transit":false,"i_lat":-6.166716,"station_id":"JUA","is_transit":false,"distance":1149,"line":2,"time":2,"station_name":"Juanda"},{"i_lat":-6.186295,"i_long":106.832183,"line":2,"station_id":"GDD","distance":2015,"station_name":"Gondangdia","is_transit":false,"transit":false,"time":4},{"i_long":106.840169,"station_id":"CKI","transit":false,"time":3,"distance":1750,"line":2,"is_transit":false,"i_lat":-6.198556,"station_name":"Cikini"},{"distance":1590,"station_name":"Manggarai","is_transit":true,"transit":true,"line":2,"time":4,"station_id":"MRI","i_lat":-6.209883,"i_long":106.84912},{"station_id":"SUD","i_lat":-6.202263,"i_long":106.822649,"distance":3186,"station_name":"Sudirman","is_transit":false,"transit":false,"time":4,"line":1},{"station_name":"Sudirman Baru","distance":280,"transit":false,"line":1,"station_id":"SUDB","i_long":106.819881,"is_transit":false,"time":1,"i_lat":-6.201433},{"time":1,"i_lat":-6.20132,"station_id":"KAT","distance":471,"station_name":"Karet","is_transit":false,"i_long":106.816351,"line":1,"transit":false},{"station_name":"Tanah Abang","time":5,"is_transit":true,"line":1,"distance":2029,"i_lat":-6.185545,"i_long":106.811091,"station_id":"THB","transit":true},{"line":6,"time":6,"station_name":"Palmerah","transit":false,"distance":3191,"station_id":"PLM","is_transit":false,"i_lat":-6.207404,"i_long":106.79689},{"time":7,"line":6,"i_long":106.780334,"is_transit":false,"transit":false,"station_name":"Kebayoran","distance":3737,"i_lat":-6.237242,"station_id":"KBY"},{"i_lat":-6.276362,"line":6,"station_id":"PDJ","i_long":106.74273,"distance":6218,"station_name":"Pondokranji","transit":false,"is_transit":false,"time":8},{"station_id":"JMU","is_transit":false,"transit":false,"i_long":106.728916,"time":3,"station_name":"Jurangmangu","distance":2179,"line":6,"i_lat":-6.288927}],[{"time":0,"station_name":"Grogol","i_lat":-6.162021,"transit":false,"is_transit":false,"i_long":106.788277,"line":5,"distance":0,"station_id":"GGL"},{"distance":1700,"transit":true,"time":3,"station_name":"Duri","i_lat":-6.155215,"is_transit":true,"station_id":"DU","line":1,"i_long":106.800832},{"i_long":106.79867,"station_name":"Angke","transit":false,"time":4,"distance":1230,"i_lat":-6.144674,"station_id":"AK","is_transit":false,"line":1},{"transit":true,"is_transit":true,"time":9,"i_long":106.826365,"station_name":"Kampung Bandan","line":4,"i_lat":-6.132549,"station_id":"KPB","distance":4102},{"station_name":"Rajawali","is_transit":false,"time":3,"distance":1444,"i_lat":-6.14505,"i_long":106.836569,"station_id":"RJW","line":11,"transit":false},{"transit":false,"station_id":"KMO","station_name":"Kemayoran","distance":1901,"time":5,"i_long":106.839204,"is_transit":false,"i_lat":-6.161728,"line":11},{"time":4,"station_name":"Pasar Senen","station_id":"PSE","is_transit":false,"transit":false,"i_long":106.84368,"distance":1436,"i_lat":-6.174784,"line":11},{"is_transit":false,"distance":1567,"line":11,"station_id":"GST","time":8,"i_lat":-6.185975,"transit":false,"station_name":"Gang Sentiong","i_long":106.850107},{"is_transit":false,"transit":false,"station_id":"KMT","distance":973,"i_lat":-6.193792,"line":11,"i_long":106.855437,"time":1,"station_name":"Kramat"},{"transit":false,"line":11,"is_transit":false,"station_name":"Pondok Jati","distance":1829,"i_long":106.861737,"time":2,"station_id":"POK","i_lat":-6.209188},{"station_id":"JNG","distance":1236,"is_transit":true,"i_lat":-6.215091,"transit":true,"station_name":"Jatinegara","i_long":106.86807400000001,"line":1,"time":9},{"station_id":"MTR","station_name":"Matraman","i_long":106.858896,"is_transit":false,"transit":false,"i_lat":-6.212485,"time":2,"distance":1377,"line":1},{"i_long":106.84912,"line":2,"is_transit":false,"transit":false,"station_name":"Manggarai","distance":1275,"station_id":"MRI","time":2,"i_lat":-6.209883},{"time":4,"distance":3186,"station_name":"Sudirman","transit":false,"station_id":"SUD","is_transit":false,"i_lat":-6.202263,"i_long":106.822649,"line":1},{"distance":280,"transit":false,"station_name":"Sudirman Baru","i_lat":-6.201433,"i_long":106.819881,"station_id":"SUDB","is_transit":false,"line":1,"time":1},{"i_lat":-6.20132,"i_long":106.816351,"line":1,"station_name":"Karet","is_transit":false,"distance":471,"station_id":"KAT","transit":false,"time":1},{"distance":2029,"i_lat":-6.185545,"time":5,"station_name":"Tanah Abang","line":1,"transit":true,"i_long":106.811091,"is_transit":true,"station_id":"THB"},{"transit":false,"i_long":106.79689,"distance":3191,"line":6,"is_transit":false,"time":6,"station_name":"Palmerah","i_lat":-6.207404,"station_id":"PLM"},{"station_id":"KBY","station_name":"Kebayoran","transit":false,"distance":3737,"i_lat":-6.237242,"i_long":106.780334,"line":6,"is_transit":false,"time":7},{"station_name":"Pondokranji","distance":6218,"is_transit":false,"time":8,"i_lat":-6.276362,"transit":false,"line":6,"station_id":"PDJ","i_long":106.74273},{"is_transit":false,"station_id":"JMU","time":3,"station_name":"Jurangmangu","line":6,"i_long":106.728916,"transit":false,"distance":2179,"i_lat":-6.288927}]]}