{"data":[[{"line":5,"distance":0,"is_transit":false,"time":0,"transit":false,"station_name":"Grogol","i_lat":-6.162021,"station_id":"GGL","i_long":106.788277},{"i_lat":-6.155215,"station_name":"Duri","time":3,"line":1,"i_long":106.800832,"is_transit":true,"distance":1700,"station_id":"DU","transit":true},{"is_transit":false,"time":4,"line":1,"station_id":"AK","distance":1230,"station_name":"Angke","i_lat":-6.144674,"i_long":106.79867,"transit":false}],[{"is_transit":false,"line":5,"i_long":106.788277,"transit":false,"station_id":"GGL","station_name":"Grogol","distance":0,"time":0,"i_lat":-6.162021},{"distance":1700,"station_name":"Duri","station_id":"DU","transit":true,"i_lat":-6.155215,"i_long":106.800832,"line":1,"time":3,"is_transit":true},{"transit":false,"station_name":"Tanah Abang","line":1,"time":8,"i_lat":-6.185545,"is_transit":false,"distance":3632,"station_id":"THB","i_long":106.811091},{"station_id":"KAT","time":5,"station_name":"Karet","transit":false,"i_lat":-6.20132,"line":1,"i_long":106.816351,"is_transit":false,"distance":2029},{"i_long":106.819881,"station_id":"SUDB","time":1,"station_name":"Sudirman Baru","distance":471,"is_transit":false,"line":1,"i_lat":-6.201433,"transit":false},{"line":1,"i_lat":-6.202263,"station_name":"Sudirman","time":1,"station_id":"SUD","i_long":106.822649,"transit":false,"is_transit":false,"distance":280},{"station_name":"Manggarai","station_id":"MRI","is_transit":true,"time":4,"i_long":106.84912,"i_lat":-6.209883,"distance":3186,"line":2,"transit":true},{"i_lat":-6.198556,"transit":false,"distance":1590,"station_id":"CKI","i_long":106.840169,"line":2,"station_name":"Cikini","time":4,"is_transit":false},{"is_transit":false,"station_name":"Gondangdia","time":3,"distance":1750,"station_id":"GDD","transit":false,"i_long":106.832183,"line":2,"i_lat":-6.186295},{"time":4,"distance":2015,"i_long":106.828284,"is_transit":false,"transit":false,"station_id":"JUA","station_name":"Juanda","line":2,"i_lat":-6.166716},{"distance":1149,"i_lat":-6.160725,"i_long":106.827103,"time":2,"transit":false,"station_name":"Sawah Besar","line":2,"station_id":"SW","is_transit":false},{"station_id":"MGB","i_lat":-6.149769,"station_name":"Manggabesar","transit":false,"is_transit":false,"time":2,"distance":906,"i_long":106.82482,"line":2},{"is_transit":false,"station_name":"Jayakarta","line":2,"distance":1080,"time":2,"i_lat":-6.141205,"station_id":"JAY","i_long":106.820901,"transit":false},{"is_transit":true,"i_lat":-6.137569,"station_id":"JAKK","time":4,"transit":true,"station_name":"Jakarta Kota","i_long":106.812439,"line":2,"distance":1264},{"i_long":106.826365,"line":4,"distance":1364,"time":3,"station_name":"Kampung Bandan","transit":true,"i_lat":-6.132549,"station_id":"KPB","is_transit":true},{"transit":false,"distance":4102,"i_long":106.79867,"line":1,"i_lat":-6.144674,"station_id":"AK","station_name":"Angke","is_transit":false,"time":9}],[{"line":5,"distance":0,"i_long":106.788277,"station_name":"Grogol","transit":false,"time":0,"i_lat":-6.162021,"station_id":"GGL","is_transit":false},{"distance":1700,"is_transit":true,"transit":true,"i_lat":-6.155215,"station_name":"Duri","station_id":"DU","i_long":106.800832,"time":3,"line":1},{"i_long":106.811091,"line":1,"distance":3632,"station_name":"Tanah Abang","is_transit":false,"time":8,"station_id":"THB","transit":false,"i_lat":-6.185545},{"time":5,"i_long":106.816351,"line":1,"station_id":"KAT","is_transit":false,"transit":false,"i_lat":-6.20132,"distance":2029,"station_name":"Karet"},{"station_id":"SUDB","is_transit":false,"distance":471,"i_lat":-6.201433,"transit":false,"station_name":"Sudirman Baru","i_long":106.819881,"time":1,"line":1},{"transit":false,"i_long":106.822649,"distance":280,"is_transit":false,"time":1,"line":1,"station_name":"Sudirman","i_lat":-6.202263,"station_id":"SUD"},{"i_long":106.84912,"station_name":"Manggarai","is_transit":false,"time":4,"distance":3186,"transit":false,"line":2,"station_id":"MRI","i_lat":-6.209883},{"is_transit":false,"line":1,"station_id":"MTR","i_lat":-6.212485,"i_long":106.858896,"time":2,"distance":1275,"transit":false,"station_name":"Matraman"},{"is_transit":true,"transit":true,"time":8,"distance":1377,"i_long":106.86807400000001,"station_id":"JNG","station_name":"Jatinegara","line":1,"i_lat":-6.215091},{"i_long":106.861737,"line":11,"station_id":"POK","is_transit":false,"station_name":"Pondok Jati","time":2,"distance":1236,"transit":false,"i_lat":-6.209188},{"i_long":106.855437,"distance":1829,"station_name":"Kramat","line":11,"station_id":"KMT","time":2,"i_lat":-6.193792,"is_transit":false,"transit":false},{"time":1,"i_lat":-6.185975,"i_long":106.850107,"transit":false,"line":11,"distance":973,"is_transit":false,"station_id":"GST","station_name":"Gang Sentiong"},{"distance":1567,"i_long":106.84368,"is_transit":false,"line":11,"station_id":"PSE","i_lat":-6.174784,"transit":false,"station_name":"Pasar Senen","time":8},{"time":4,"distance":1436,"line":11,"station_id":"KMO","transit":false,"i_lat":-6.161728,"is_transit":false,"i_long":106.839204,"station_name":"Kemayoran"},{"distance":1901,"is_transit":false,"time":5,"i_lat":-6.14505,"i_long":106.836569,"transit":false,"station_id":"RJW","station_name":"Rajawali","line":11},{"station_id":"KPB","station_name":"Kampung Bandan","i_long":106.826365,"line":4,"i_lat":-6.132549,"transit":true,"time":3,"distance":1444,"is_transit":true},{"transit":false,"station_name":"Angke","i_lat":-6.144674,"i_long":106.79867,"distance":4102,"is_transit":false,"line":1,"time":9,"station_id":"AK"}]]}