{"data":[[{"station_name":"Grogol","i_lat":-6.162021,"station_id":"GGL","time":0,"distance":0,"is_transit":false,"i_long":106.788277,"line":5,"transit":false},{"is_transit":true,"distance":1700,"i_long":106.800832,"time":3,"line":1,"i_lat":-6.155215,"station_name":"Duri","transit":true,"station_id":"DU"},{"station_id":"AK","i_long":106.79867,"time":4,"transit":false,"is_transit":false,"station_name":"Angke","line":1,"i_lat":-6.144674,"distance":1230},{"time":9,"station_name":"Kampung Bandan","i_lat":-6.132549,"station_id":"KPB","is_transit":true,"distance":4102,"i_long":106.826365,"line":4,"transit":true},{"transit":false,"line":11,"station_id":"RJW","station_name":"Rajawali","is_transit":false,"time":3,"distance":1444,"i_lat":-6.14505,"i_long":106.836569},{"is_transit":false,"station_id":"KMO","distance":1901,"transit":false,"i_long":106.839204,"line":11,"station_name":"Kemayoran","i_lat":-6.161728,"time":5},{"line":11,"time":4,"station_id":"PSE","station_name":"Pasar Senen","is_transit":false,"i_long":106.84368,"i_lat":-6.174784,"distance":1436,"transit":false}],[{"line":5,"station_name":"Grogol","i_lat":-6.162021,"transit":false,"i_long":106.788277,"station_id":"GGL","is_transit":false,"distance":0,"time":0},{"time":3,"is_transit":true,"distance":1700,"station_id":"DU","i_lat":-6.155215,"i_long":106.800832,"station_name":"Duri","line":1,"transit":true},{"distance":3632,"station_id":"THB","is_transit":false,"i_lat":-6.185545,"time":8,"line":1,"transit":false,"i_long":106.811091,"station_name":"Tanah Abang"},{"i_long":106.816351,"line":1,"is_transit":false,"station_id":"KAT","i_lat":-6.20132,"transit":false,"distance":2029,"time":5,"station_name":"Karet"},{"station_id":"SUDB","distance":471,"is_transit":false,"i_lat":-6.201433,"time":1,"station_name":"Sudirman Baru","i_long":106.819881,"line":1,"transit":false},{"time":1,"i_long":106.822649,"distance":280,"station_id":"SUD","station_name":"Sudirman","is_transit":false,"transit":false,"i_lat":-6.202263,"line":1},{"station_name":"Manggarai","distance":3186,"i_long":106.84912,"time":4,"station_id":"MRI","line":2,"transit":false,"is_transit":false,"i_lat":-6.209883},{"line":1,"station_id":"MTR","i_lat":-6.212485,"transit":false,"time":2,"i_long":106.858896,"is_transit":false,"station_name":"Matraman","distance":1275},{"i_long":106.86807400000001,"transit":true,"station_id":"JNG","i_lat":-6.215091,"line":1,"station_name":"Jatinegara","is_transit":true,"time":8,"distance":1377},{"transit":false,"line":11,"station_id":"POK","is_transit":false,"distance":1236,"i_lat":-6.209188,"i_long":106.861737,"station_name":"Pondok Jati","time":2},{"time":2,"transit":false,"station_id":"KMT","distance":1829,"i_lat":-6.193792,"i_long":106.855437,"is_transit":false,"line":11,"station_name":"Kramat"},{"distance":973,"time":1,"line":11,"i_long":106.850107,"station_name":"Gang Sentiong","i_lat":-6.185975,"is_transit":false,"transit":false,"station_id":"GST"},{"station_id":"PSE","station_name":"Pasar Senen","i_lat":-6.174784,"distance":1567,"i_long":106.84368,"time":8,"transit":false,"is_transit":false,"line":11}],[{"i_long":106.788277,"is_transit":false,"station_name":"Grogol","i_lat":-6.162021,"distance":0,"transit":false,"time":0,"station_id":"GGL","line":5},{"i_long":106.800832,"transit":true,"distance":1700,"time":3,"line":1,"is_transit":true,"i_lat":-6.155215,"station_id":"DU","station_name":"Duri"},{"line":1,"transit":false,"is_transit":false,"distance":1230,"station_name":"Angke","i_long":106.79867,"station_id":"AK","time":4,"i_lat":-6.144674},{"is_transit":true,"distance":4102,"station_name":"Kampung Bandan","i_lat":-6.132549,"station_id":"KPB","transit":true,"i_long":106.826365,"time":9,"line":4},{"distance":1364,"station_name":"Jakarta Kota","i_lat":-6.137569,"line":2,"is_transit":true,"i_long":106.812439,"transit":true,"station_id":"JAKK","time":3},{"station_name":"Jayakarta","time":4,"distance":1264,"line":2,"station_id":"JAY","transit":false,"i_lat":-6.141205,"i_long":106.820901,"is_transit":false},{"i_long":106.82482,"station_name":"Manggabesar","station_id":"MGB","is_transit":false,"transit":false,"i_lat":-6.149769,"time":2,"line":2,"distance":1080},{"is_transit":false,"station_id":"SW","time":2,"distance":906,"transit":false,"i_long":106.827103,"i_lat":-6.160725,"line":2,"station_name":"Sawah Besar"},{"time":2,"station_id":"JUA","is_transit":false,"transit":false,"i_long":106.828284,"line":2,"i_lat":-6.166716,"distance":1149,"station_name":"Juanda"},{"line":2,"time":4,"station_id":"GDD","transit":false,"is_transit":false,"distance":2015,"i_long":106.832183,"i_lat":-6.186295,"station_name":"Gondangdia"},{"time":3,"i_lat":-6.198556,"line":2,"is_transit":false,"station_id":"CKI","station_name":"Cikini","transit":false,"distance":1750,"i_long":106.840169},{"i_long":106.84912,"i_lat":-6.209883,"distance":1590,"station_name":"Manggarai","is_transit":true,"transit":true,"time":4,"line":2,"station_id":"MRI"},{"station_name":"Matraman","transit":false,"i_long":106.858896,"line":1,"time":2,"i_lat":-6.212485,"is_transit":false,"distance":1275,"station_id":"MTR"},{"distance":1377,"station_name":"Jatinegara","time":8,"transit":true,"station_id":"JNG","i_long":106.86807400000001,"i_lat":-6.215091,"line":1,"is_transit":true},{"transit":false,"i_lat":-6.209188,"time":2,"station_name":"Pondok Jati","distance":1236,"i_long":106.861737,"is_transit":false,"station_id":"POK","line":11},{"line":11,"transit":false,"i_long":106.855437,"i_lat":-6.193792,"is_transit":false,"station_name":"Kramat","station_id":"KMT","distance":1829,"time":2},{"time":1,"is_transit":false,"transit":false,"i_long":106.850107,"line":11,"station_name":"Gang Sentiong","i_lat":-6.185975,"distance":973,"station_id":"GST"},{"is_transit":false,"i_long":106.84368,"distance":1567,"i_lat":-6.174784,"station_name":"Pasar Senen","station_id":"PSE","time":8,"transit":false,"line":11}],[{"transit":false,"station_id":"GGL","is_transit":false,"time":0,"distance":0,"i_lat":-6.162021,"i_long":106.788277,"line":5,"station_name":"Grogol"},{"distance":1700,"is_transit":true,"time":3,"line":1,"station_name":"Duri","i_lat":-6.155215,"i_long":106.800832,"station_id":"DU","transit":true},{"i_lat":-6.185545,"distance":3632,"station_name":"Tanah Abang","transit":false,"station_id":"THB","is_transit":false,"i_long":106.811091,"line":1,"time":8},{"station_id":"KAT","distance":2029,"line":1,"is_transit":false,"i_lat":-6.20132,"station_name":"Karet","i_long":106.816351,"transit":false,"time":5},{"is_transit":false,"i_lat":-6.201433,"i_long":106.819881,"transit":false,"station_name":"Sudirman Baru","line":1,"station_id":"SUDB","time":1,"distance":471},{"is_transit":false,"station_id":"SUD","distance":280,"transit":false,"i_lat":-6.202263,"line":1,"time":1,"station_name":"Sudirman","i_long":106.822649},{"is_transit":true,"station_id":"MRI","transit":true,"time":4,"i_lat":-6.209883,"station_name":"Manggarai","line":2,"distance":3186,"i_long":106.84912},{"transit":false,"time":4,"line":2,"is_transit":false,"station_name":"Cikini","station_id":"CKI","i_long":106.840169,"distance":1590,"i_lat":-6.198556},{"station_name":"Gondangdia","station_id":"GDD","time":3,"transit":false,"line":2,"i_lat":-6.186295,"distance":1750,"i_long":106.832183,"is_transit":false},{"line":2,"i_long":106.828284,"station_name":"Juanda","is_transit":false,"transit":false,"i_lat":-6.166716,"time":4,"station_id":"JUA","distance":2015},{"transit":false,"station_name":"Sawah Besar","i_long":106.827103,"distance":1149,"is_transit":false,"station_id":"SW","line":2,"time":2,"i_lat":-6.160725},{"station_id":"MGB","i_long":106.82482,"distance":906,"i_lat":-6.149769,"is_transit":false,"line":2,"time":2,"transit":false,"station_name":"Manggabesar"},{"distance":1080,"station_name":"Jayakarta","transit":false,"i_lat":-6.141205,"i_long":106.820901,"line":2,"station_id":"JAY","time":2,"is_transit":false},{"transit":true,"i_long":106.812439,"time":4,"is_transit":true,"line":2,"i_lat":-6.137569,"station_name":"Jakarta Kota","distance":1264,"station_id":"JAKK"},{"transit":true,"line":4,"i_lat":-6.132549,"i_long":106.826365,"station_id":"KPB","distance":1364,"is_transit":true,"station_name":"Kampung Bandan","time":3},{"is_transit":false,"i_long":106.836569,"station_id":"RJW","station_name":"Rajawali","time":3,"distance":1444,"transit":false,"line":11,"i_lat":-6.14505},{"station_name":"Kemayoran","i_long":106.839204,"transit":false,"time":5,"is_transit":false,"station_id":"KMO","distance":1901,"i_lat":-6.161728,"line":11},{"station_name":"Pasar Senen","line":11,"distance":1436,"time":4,"transit":false,"station_id":"PSE","is_transit":false,"i_lat":-6.174784,"i_long":106.84368}]]}