{"data":[[{"is_transit":false,"i_lat":-6.162021,"time":0,"i_long":106.788277,"line":5,"distance":0,"station_name":"Grogol","transit":false,"station_id":"GGL"},{"i_lat":-6.155215,"line":1,"transit":true,"i_long":106.800832,"station_name":"Duri","distance":1700,"is_transit":true,"time":3,"station_id":"DU"},{"line":1,"time":8,"transit":false,"i_long":106.811091,"station_id":"THB","i_lat":-6.185545,"is_transit":false,"distance":3632,"station_name":"Tanah Abang"},{"station_id":"KAT","transit":false,"line":1,"time":5,"i_long":106.816351,"is_transit":false,"distance":2029,"i_lat":-6.20132,"station_name":"Karet"},{"i_long":106.819881,"i_lat":-6.201433,"line":1,"transit":false,"is_transit":false,"station_name":"Sudirman Baru","time":1,"distance":471,"station_id":"SUDB"},{"i_long":106.822649,"station_name":"Sudirman","time":1,"transit":false,"line":1,"distance":280,"station_id":"SUD","i_lat":-6.202263,"is_transit":false},{"distance":3186,"i_lat":-6.209883,"station_id":"MRI","i_long":106.84912,"is_transit":true,"station_name":"Manggarai","transit":true,"time":4,"line":2},{"station_id":"TEB","i_lat":-6.226659,"station_name":"Tebet","transit":false,"is_transit":false,"i_long":106.857948,"line":2,"time":4,"distance":2610},{"distance":1230,"i_lat":-6.242512,"is_transit":false,"station_id":"CW","station_name":"Cawang","transit":false,"time":2,"i_long":106.856607,"line":2},{"station_name":"Duren Kalibata","transit":false,"i_long":106.85449,"station_id":"DRN","line":2,"time":3,"i_lat":-6.255332,"is_transit":false,"distance":1546},{"i_lat":-6.263214,"station_name":"Pasar Minggu Baru","time":2,"transit":false,"distance":824,"is_transit":false,"i_long":106.851577,"line":2,"station_id":"PSMB"},{"line":2,"time":2,"i_long":106.843999,"station_id":"PSM","station_name":"Pasar Minggu","i_lat":-6.2842400000000005,"transit":false,"is_transit":false,"distance":2380},{"transit":false,"station_name":"Tanjung Barat","line":2,"time":4,"i_lat":-6.3080680000000005,"i_long":106.838896,"is_transit":false,"distance":2820,"station_id":"TNT"},{"time":3,"transit":false,"i_lat":-6.330363,"station_name":"Lenteng Agung","distance":2671,"is_transit":false,"station_id":"LNA","line":2,"i_long":106.832616},{"distance":1029,"station_name":"Univ. Pancasila","line":2,"station_id":"UP","i_long":106.834175,"transit":false,"is_transit":false,"time":2,"i_lat":-6.339291},{"line":2,"time":3,"station_id":"UI","transit":false,"is_transit":false,"i_lat":-6.360749,"i_long":106.831474,"station_name":"Univ. Indonesia","distance":2264}],[{"is_transit":false,"i_lat":-6.162021,"line":5,"time":0,"station_name":"Grogol","distance":0,"i_long":106.788277,"transit":false,"station_id":"GGL"},{"station_id":"DU","transit":true,"station_name":"Duri","time":3,"i_long":106.800832,"line":1,"i_lat":-6.155215,"is_transit":true,"distance":1700},{"line":1,"is_transit":false,"distance":1230,"i_long":106.79867,"station_name":"Angke","transit":false,"station_id":"AK","time":4,"i_lat":-6.144674},{"station_id":"KPB","i_long":106.826365,"i_lat":-6.132549,"line":4,"transit":true,"distance":4102,"time":9,"station_name":"Kampung Bandan","is_transit":true},{"distance":1364,"line":2,"transit":true,"is_transit":true,"station_name":"Jakarta Kota","time":3,"i_long":106.812439,"i_lat":-6.137569,"station_id":"JAKK"},{"i_lat":-6.141205,"i_long":106.820901,"transit":false,"is_transit":false,"line":2,"time":4,"station_id":"JAY","station_name":"Jayakarta","distance":1264},{"time":2,"distance":1080,"line":2,"transit":false,"is_transit":false,"i_lat":-6.149769,"i_long":106.82482,"station_id":"MGB","station_name":"Manggabesar"},{"i_lat":-6.160725,"transit":false,"line":2,"time":2,"is_transit":false,"station_name":"Sawah Besar","station_id":"SW","distance":906,"i_long":106.827103},{"transit":false,"i_lat":-6.166716,"line":2,"station_id":"JUA","time":2,"station_name":"Juanda","distance":1149,"i_long":106.828284,"is_transit":false},{"station_name":"Gondangdia","is_transit":false,"time":4,"station_id":"GDD","distance":2015,"i_long":106.832183,"i_lat":-6.186295,"transit":false,"line":2},{"is_transit":false,"i_long":106.840169,"transit":false,"line":2,"station_id":"CKI","station_name":"Cikini","distance":1750,"time":3,"i_lat":-6.198556},{"i_long":106.84912,"is_transit":false,"line":2,"i_lat":-6.209883,"distance":1590,"transit":false,"station_name":"Manggarai","station_id":"MRI","time":4},{"station_name":"Tebet","time":4,"i_long":106.857948,"transit":false,"i_lat":-6.226659,"distance":2610,"line":2,"is_transit":false,"station_id":"TEB"},{"i_long":106.856607,"time":2,"distance":1230,"transit":false,"station_name":"Cawang","is_transit":false,"i_lat":-6.242512,"line":2,"station_id":"CW"},{"is_transit":false,"line":2,"station_id":"DRN","transit":false,"i_lat":-6.255332,"i_long":106.85449,"station_name":"Duren Kalibata","distance":1546,"time":3},{"distance":824,"i_lat":-6.263214,"line":2,"station_id":"PSMB","time":2,"is_transit":false,"i_long":106.851577,"transit":false,"station_name":"Pasar Minggu Baru"},{"i_long":106.843999,"line":2,"station_name":"Pasar Minggu","is_transit":false,"station_id":"PSM","distance":2380,"time":2,"transit":false,"i_lat":-6.2842400000000005},{"i_lat":-6.3080680000000005,"transit":false,"i_long":106.838896,"line":2,"is_transit":false,"station_id":"TNT","station_name":"Tanjung Barat","time":4,"distance":2820},{"is_transit":false,"i_lat":-6.330363,"time":3,"station_id":"LNA","distance":2671,"transit":false,"station_name":"Lenteng Agung","line":2,"i_long":106.832616},{"time":2,"transit":false,"station_id":"UP","is_transit":false,"i_lat":-6.339291,"station_name":"Univ. Pancasila","distance":1029,"i_long":106.834175,"line":2},{"line":2,"station_name":"Univ. Indonesia","is_transit":false,"time":3,"i_long":106.831474,"distance":2264,"transit":false,"station_id":"UI","i_lat":-6.360749}],[{"station_name":"Grogol","is_transit":false,"i_lat":-6.162021,"i_long":106.788277,"time":0,"transit":false,"station_id":"GGL","line":5,"distance":0},{"is_transit":true,"transit":true,"time":3,"distance":1700,"i_lat":-6.155215,"i_long":106.800832,"line":1,"station_id":"DU","station_name":"Duri"},{"is_transit":false,"line":1,"station_id":"AK","i_lat":-6.144674,"station_name":"Angke","transit":false,"time":4,"i_long":106.79867,"distance":1230},{"transit":true,"is_transit":true,"i_long":106.826365,"distance":4102,"station_id":"KPB","time":9,"station_name":"Kampung Bandan","i_lat":-6.132549,"line":4},{"is_transit":false,"i_lat":-6.14505,"line":11,"distance":1444,"time":3,"transit":false,"station_id":"RJW","i_long":106.836569,"station_name":"Rajawali"},{"distance":1901,"line":11,"i_long":106.839204,"is_transit":false,"i_lat":-6.161728,"station_id":"KMO","transit":false,"station_name":"Kemayoran","time":5},{"station_id":"PSE","time":4,"distance":1436,"i_long":106.84368,"station_name":"Pasar Senen","i_lat":-6.174784,"is_transit":false,"line":11,"transit":false},{"is_transit":false,"distance":1567,"station_id":"GST","i_lat":-6.185975,"i_long":106.850107,"transit":false,"station_name":"Gang Sentiong","time":8,"line":11},{"line":11,"station_name":"Kramat","transit":false,"distance":973,"station_id":"KMT","is_transit":false,"time":1,"i_lat":-6.193792,"i_long":106.855437},{"distance":1829,"i_lat":-6.209188,"time":2,"is_transit":false,"line":11,"i_long":106.861737,"station_name":"Pondok Jati","station_id":"POK","transit":false},{"transit":true,"is_transit":true,"station_name":"Jatinegara","station_id":"JNG","i_lat":-6.215091,"time":9,"i_long":106.86807400000001,"distance":1236,"line":1},{"line":1,"transit":false,"station_id":"MTR","station_name":"Matraman","is_transit":false,"i_lat":-6.212485,"i_long":106.858896,"distance":1377,"time":2},{"i_long":106.84912,"line":2,"i_lat":-6.209883,"is_transit":true,"time":2,"transit":true,"station_name":"Manggarai","station_id":"MRI","distance":1275},{"i_long":106.857948,"station_id":"TEB","station_name":"Tebet","transit":false,"i_lat":-6.226659,"is_transit":false,"distance":2610,"time":4,"line":2},{"is_transit":false,"i_long":106.856607,"station_name":"Cawang","station_id":"CW","time":2,"distance":1230,"transit":false,"i_lat":-6.242512,"line":2},{"station_name":"Duren Kalibata","line":2,"station_id":"DRN","i_lat":-6.255332,"time":3,"i_long":106.85449,"transit":false,"distance":1546,"is_transit":false},{"i_lat":-6.263214,"i_long":106.851577,"is_transit":false,"time":2,"station_id":"PSMB","line":2,"station_name":"Pasar Minggu Baru","transit":false,"distance":824},{"i_lat":-6.2842400000000005,"station_id":"PSM","line":2,"distance":2380,"is_transit":false,"station_name":"Pasar Minggu","time":2,"i_long":106.843999,"transit":false},{"i_lat":-6.3080680000000005,"time":4,"i_long":106.838896,"station_id":"TNT","line":2,"transit":false,"station_name":"Tanjung Barat","is_transit":false,"distance":2820},{"station_name":"Lenteng Agung","i_lat":-6.330363,"station_id":"LNA","line":2,"transit":false,"time":3,"distance":2671,"is_transit":false,"i_long":106.832616},{"i_long":106.834175,"time":2,"distance":1029,"line":2,"transit":false,"station_id":"UP","is_transit":false,"station_name":"Univ. Pancasila","i_lat":-6.339291},{"i_lat":-6.360749,"station_id":"UI","is_transit":false,"time":3,"line":2,"station_name":"Univ. Indonesia","transit":false,"distance":2264,"i_long":106.831474}]]}