{"data":[[{"i_long":106.788277,"line":5,"distance":0,"is_transit":false,"time":0,"station_name":"Grogol","i_lat":-6.162021,"transit":false,"station_id":"GGL"},{"time":3,"line":1,"station_name":"Duri","transit":true,"is_transit":true,"distance":1700,"station_id":"DU","i_lat":-6.155215,"i_long":106.800832},{"line":1,"i_long":106.811091,"distance":3632,"station_name":"Tanah Abang","station_id":"THB","time":8,"is_transit":false,"i_lat":-6.185545,"transit":false},{"i_lat":-6.20132,"is_transit":false,"time":5,"station_id":"KAT","i_long":106.816351,"distance":2029,"transit":false,"station_name":"Karet","line":1},{"distance":471,"time":1,"i_long":106.819881,"line":1,"i_lat":-6.201433,"is_transit":false,"transit":false,"station_id":"SUDB","station_name":"Sudirman Baru"},{"station_id":"SUD","is_transit":false,"i_long":106.822649,"transit":false,"time":1,"line":1,"i_lat":-6.202263,"station_name":"Sudirman","distance":280},{"transit":true,"is_transit":true,"station_name":"Manggarai","distance":3186,"i_long":106.84912,"line":2,"station_id":"MRI","i_lat":-6.209883,"time":4},{"line":2,"distance":2610,"transit":false,"is_transit":false,"station_name":"Tebet","time":4,"i_lat":-6.226659,"station_id":"TEB","i_long":106.857948},{"time":2,"i_lat":-6.242512,"is_transit":false,"distance":1230,"station_name":"Cawang","line":2,"transit":false,"station_id":"CW","i_long":106.856607},{"line":2,"station_id":"DRN","time":3,"station_name":"Duren Kalibata","is_transit":false,"i_lat":-6.255332,"i_long":106.85449,"distance":1546,"transit":false},{"distance":824,"time":2,"line":2,"station_name":"Pasar Minggu Baru","station_id":"PSMB","i_long":106.851577,"transit":false,"is_transit":false,"i_lat":-6.263214}],[{"line":5,"i_lat":-6.162021,"station_name":"Grogol","is_transit":false,"time":0,"station_id":"GGL","distance":0,"i_long":106.788277,"transit":false},{"distance":1700,"station_id":"DU","station_name":"Duri","time":3,"i_long":106.800832,"line":1,"i_lat":-6.155215,"is_transit":true,"transit":true},{"is_transit":false,"station_id":"AK","i_long":106.79867,"distance":1230,"line":1,"station_name":"Angke","transit":false,"time":4,"i_lat":-6.144674},{"transit":true,"time":9,"distance":4102,"station_name":"Kampung Bandan","i_lat":-6.132549,"is_transit":true,"i_long":106.826365,"line":4,"station_id":"KPB"},{"i_long":106.812439,"station_id":"JAKK","station_name":"Jakarta Kota","is_transit":true,"line":2,"time":3,"i_lat":-6.137569,"transit":true,"distance":1364},{"line":2,"station_id":"JAY","transit":false,"is_transit":false,"station_name":"Jayakarta","i_lat":-6.141205,"i_long":106.820901,"distance":1264,"time":4},{"i_long":106.82482,"i_lat":-6.149769,"is_transit":false,"station_name":"Manggabesar","distance":1080,"line":2,"time":2,"station_id":"MGB","transit":false},{"i_lat":-6.160725,"line":2,"i_long":106.827103,"distance":906,"transit":false,"station_name":"Sawah Besar","is_transit":false,"time":2,"station_id":"SW"},{"is_transit":false,"distance":1149,"transit":false,"station_name":"Juanda","time":2,"station_id":"JUA","i_long":106.828284,"line":2,"i_lat":-6.166716},{"is_transit":false,"station_name":"Gondangdia","transit":false,"time":4,"station_id":"GDD","i_long":106.832183,"i_lat":-6.186295,"line":2,"distance":2015},{"time":3,"i_lat":-6.198556,"transit":false,"i_long":106.840169,"distance":1750,"station_id":"CKI","line":2,"is_transit":false,"station_name":"Cikini"},{"station_name":"Manggarai","transit":false,"distance":1590,"time":4,"line":2,"i_lat":-6.209883,"is_transit":false,"station_id":"MRI","i_long":106.84912},{"station_name":"Tebet","transit":false,"station_id":"TEB","i_long":106.857948,"line":2,"is_transit":false,"time":4,"distance":2610,"i_lat":-6.226659},{"is_transit":false,"distance":1230,"i_long":106.856607,"transit":false,"station_name":"Cawang","time":2,"station_id":"CW","line":2,"i_lat":-6.242512},{"is_transit":false,"station_id":"DRN","station_name":"Duren Kalibata","i_lat":-6.255332,"i_long":106.85449,"transit":false,"distance":1546,"time":3,"line":2},{"i_lat":-6.263214,"station_name":"Pasar Minggu Baru","time":2,"distance":824,"is_transit":false,"i_long":106.851577,"line":2,"station_id":"PSMB","transit":false}],[{"station_name":"Grogol","i_lat":-6.162021,"distance":0,"time":0,"is_transit":false,"transit":false,"station_id":"GGL","line":5,"i_long":106.788277},{"line":1,"station_id":"DU","i_lat":-6.155215,"station_name":"Duri","is_transit":true,"distance":1700,"i_long":106.800832,"time":3,"transit":true},{"station_id":"AK","transit":false,"i_lat":-6.144674,"distance":1230,"line":1,"station_name":"Angke","i_long":106.79867,"time":4,"is_transit":false},{"distance":4102,"transit":true,"station_id":"KPB","time":9,"station_name":"Kampung Bandan","i_lat":-6.132549,"i_long":106.826365,"is_transit":true,"line":4},{"is_transit":false,"i_long":106.836569,"line":11,"transit":false,"station_id":"RJW","distance":1444,"time":3,"i_lat":-6.14505,"station_name":"Rajawali"},{"transit":false,"i_lat":-6.161728,"i_long":106.839204,"time":5,"is_transit":false,"distance":1901,"station_name":"Kemayoran","station_id":"KMO","line":11},{"i_long":106.84368,"line":11,"station_id":"PSE","is_transit":false,"distance":1436,"i_lat":-6.174784,"station_name":"Pasar Senen","transit":false,"time":4},{"station_name":"Gang Sentiong","time":8,"i_lat":-6.185975,"line":11,"i_long":106.850107,"distance":1567,"station_id":"GST","is_transit":false,"transit":false},{"line":11,"is_transit":false,"transit":false,"time":1,"station_name":"Kramat","distance":973,"station_id":"KMT","i_lat":-6.193792,"i_long":106.855437},{"station_id":"POK","distance":1829,"station_name":"Pondok Jati","line":11,"transit":false,"i_lat":-6.209188,"i_long":106.861737,"time":2,"is_transit":false},{"distance":1236,"time":9,"i_lat":-6.215091,"i_long":106.86807400000001,"station_name":"Jatinegara","transit":true,"line":1,"station_id":"JNG","is_transit":true},{"i_lat":-6.212485,"i_long":106.858896,"station_id":"MTR","line":1,"time":2,"distance":1377,"is_transit":false,"transit":false,"station_name":"Matraman"},{"distance":1275,"station_id":"MRI","time":2,"i_lat":-6.209883,"station_name":"Manggarai","is_transit":true,"line":2,"transit":true,"i_long":106.84912},{"i_lat":-6.226659,"i_long":106.857948,"transit":false,"line":2,"time":4,"is_transit":false,"station_name":"Tebet","distance":2610,"station_id":"TEB"},{"is_transit":false,"distance":1230,"i_lat":-6.242512,"station_name":"Cawang","time":2,"station_id":"CW","i_long":106.856607,"transit":false,"line":2},{"is_transit":false,"station_name":"Duren Kalibata","distance":1546,"line":2,"transit":false,"i_lat":-6.255332,"station_id":"DRN","i_long":106.85449,"time":3},{"station_name":"Pasar Minggu Baru","station_id":"PSMB","transit":false,"i_long":106.851577,"line":2,"distance":824,"is_transit":false,"time":2,"i_lat":-6.263214}]]}