{"data":[[{"transit":false,"i_long":106.788277,"station_id":"GGL","time":0,"line":5,"i_lat":-6.162021,"station_name":"Grogol","is_transit":false,"distance":0},{"station_id":"DU","i_lat":-6.155215,"distance":1700,"time":3,"is_transit":true,"line":1,"station_name":"Duri","transit":true,"i_long":106.800832},{"station_name":"Tanah Abang","is_transit":false,"line":1,"station_id":"THB","distance":3632,"i_long":106.811091,"time":8,"i_lat":-6.185545,"transit":false},{"time":5,"i_long":106.816351,"i_lat":-6.20132,"transit":false,"distance":2029,"is_transit":false,"line":1,"station_id":"KAT","station_name":"Karet"},{"distance":471,"line":1,"i_lat":-6.201433,"i_long":106.819881,"station_id":"SUDB","is_transit":false,"transit":false,"station_name":"Sudirman Baru","time":1},{"time":1,"i_lat":-6.202263,"station_id":"SUD","line":1,"i_long":106.822649,"distance":280,"transit":false,"is_transit":false,"station_name":"Sudirman"},{"time":4,"distance":3186,"i_lat":-6.209883,"line":2,"i_long":106.84912,"transit":true,"station_name":"Manggarai","station_id":"MRI","is_transit":true},{"transit":false,"is_transit":false,"line":2,"station_name":"Tebet","i_lat":-6.226659,"time":4,"i_long":106.857948,"station_id":"TEB","distance":2610},{"i_lat":-6.242512,"transit":false,"is_transit":false,"time":2,"i_long":106.856607,"line":2,"distance":1230,"station_name":"Cawang","station_id":"CW"},{"time":3,"station_name":"Duren Kalibata","is_transit":false,"station_id":"DRN","distance":1546,"i_long":106.85449,"i_lat":-6.255332,"transit":false,"line":2},{"line":2,"is_transit":false,"distance":824,"transit":false,"time":2,"i_lat":-6.263214,"station_name":"Pasar Minggu Baru","i_long":106.851577,"station_id":"PSMB"},{"station_id":"PSM","is_transit":false,"i_lat":-6.2842400000000005,"i_long":106.843999,"time":2,"distance":2380,"line":2,"transit":false,"station_name":"Pasar Minggu"},{"station_name":"Tanjung Barat","transit":false,"is_transit":false,"distance":2820,"time":4,"i_long":106.838896,"station_id":"TNT","line":2,"i_lat":-6.3080680000000005},{"i_lat":-6.330363,"line":2,"time":3,"i_long":106.832616,"is_transit":false,"station_name":"Lenteng Agung","transit":false,"distance":2671,"station_id":"LNA"},{"i_long":106.834175,"station_id":"UP","transit":false,"distance":1029,"line":2,"time":2,"station_name":"Univ. Pancasila","is_transit":false,"i_lat":-6.339291},{"station_name":"Univ. Indonesia","distance":2264,"time":3,"transit":false,"station_id":"UI","i_long":106.831474,"is_transit":false,"i_lat":-6.360749,"line":2},{"transit":false,"is_transit":false,"line":2,"i_long":106.831114,"i_lat":-6.369073,"station_name":"Pondok Cina","station_id":"POC","time":2,"distance":1109},{"transit":false,"i_lat":-6.391065,"is_transit":false,"distance":2727,"station_id":"DPB","i_long":106.819451,"line":2,"time":4,"station_name":"Depokbaru"},{"i_long":106.816926,"transit":false,"line":2,"distance":1584,"station_id":"DP","i_lat":-6.405256,"time":3,"station_name":"Depok","is_transit":false}],[{"i_long":106.788277,"line":5,"transit":false,"station_id":"GGL","i_lat":-6.162021,"distance":0,"station_name":"Grogol","is_transit":false,"time":0},{"is_transit":true,"distance":1700,"i_long":106.800832,"i_lat":-6.155215,"line":1,"transit":true,"station_name":"Duri","time":3,"station_id":"DU"},{"transit":false,"time":4,"i_lat":-6.144674,"is_transit":false,"line":1,"distance":1230,"i_long":106.79867,"station_id":"AK","station_name":"Angke"},{"is_transit":true,"i_lat":-6.132549,"transit":true,"station_name":"Kampung Bandan","station_id":"KPB","i_long":106.826365,"line":4,"time":9,"distance":4102},{"time":3,"i_long":106.812439,"i_lat":-6.137569,"station_name":"Jakarta Kota","transit":true,"distance":1364,"line":2,"station_id":"JAKK","is_transit":true},{"station_id":"JAY","time":4,"distance":1264,"i_long":106.820901,"transit":false,"i_lat":-6.141205,"station_name":"Jayakarta","is_transit":false,"line":2},{"i_lat":-6.149769,"line":2,"transit":false,"is_transit":false,"distance":1080,"station_name":"Manggabesar","station_id":"MGB","time":2,"i_long":106.82482},{"line":2,"time":2,"i_lat":-6.160725,"i_long":106.827103,"station_name":"Sawah Besar","station_id":"SW","is_transit":false,"transit":false,"distance":906},{"i_lat":-6.166716,"time":2,"i_long":106.828284,"distance":1149,"line":2,"is_transit":false,"transit":false,"station_id":"JUA","station_name":"Juanda"},{"time":4,"line":2,"i_lat":-6.186295,"i_long":106.832183,"transit":false,"distance":2015,"station_name":"Gondangdia","is_transit":false,"station_id":"GDD"},{"time":3,"is_transit":false,"station_id":"CKI","i_long":106.840169,"i_lat":-6.198556,"transit":false,"line":2,"distance":1750,"station_name":"Cikini"},{"i_lat":-6.209883,"station_name":"Manggarai","time":4,"station_id":"MRI","is_transit":false,"distance":1590,"i_long":106.84912,"line":2,"transit":false},{"distance":2610,"is_transit":false,"line":2,"i_lat":-6.226659,"time":4,"station_name":"Tebet","transit":false,"station_id":"TEB","i_long":106.857948},{"transit":false,"distance":1230,"i_lat":-6.242512,"station_id":"CW","is_transit":false,"line":2,"time":2,"station_name":"Cawang","i_long":106.856607},{"transit":false,"is_transit":false,"i_lat":-6.255332,"line":2,"station_name":"Duren Kalibata","station_id":"DRN","time":3,"i_long":106.85449,"distance":1546},{"station_id":"PSMB","line":2,"distance":824,"transit":false,"is_transit":false,"i_long":106.851577,"station_name":"Pasar Minggu Baru","time":2,"i_lat":-6.263214},{"station_name":"Pasar Minggu","distance":2380,"transit":false,"station_id":"PSM","is_transit":false,"i_long":106.843999,"line":2,"time":2,"i_lat":-6.2842400000000005},{"is_transit":false,"station_name":"Tanjung Barat","transit":false,"station_id":"TNT","i_long":106.838896,"line":2,"time":4,"distance":2820,"i_lat":-6.3080680000000005},{"line":2,"transit":false,"time":3,"i_lat":-6.330363,"is_transit":false,"station_id":"LNA","distance":2671,"i_long":106.832616,"station_name":"Lenteng Agung"},{"station_id":"UP","i_lat":-6.339291,"station_name":"Univ. Pancasila","is_transit":false,"time":2,"distance":1029,"i_long":106.834175,"line":2,"transit":false},{"station_id":"UI","i_lat":-6.360749,"i_long":106.831474,"station_name":"Univ. Indonesia","transit":false,"distance":2264,"line":2,"is_transit":false,"time":3},{"transit":false,"station_id":"POC","station_name":"Pondok Cina","i_lat":-6.369073,"i_long":106.831114,"time":2,"is_transit":false,"distance":1109,"line":2},{"is_transit":false,"i_lat":-6.391065,"transit":false,"distance":2727,"station_name":"Depokbaru","time":4,"line":2,"station_id":"DPB","i_long":106.819451},{"station_id":"DP","transit":false,"is_transit":false,"station_name":"Depok","i_lat":-6.405256,"line":2,"i_long":106.816926,"distance":1584,"time":3}],[{"transit":false,"i_lat":-6.162021,"line":5,"station_id":"GGL","is_transit":false,"distance":0,"time":0,"i_long":106.788277,"station_name":"Grogol"},{"time":3,"i_long":106.800832,"line":1,"distance":1700,"i_lat":-6.155215,"station_id":"DU","is_transit":true,"transit":true,"station_name":"Duri"},{"i_lat":-6.144674,"i_long":106.79867,"station_name":"Angke","transit":false,"is_transit":false,"distance":1230,"time":4,"line":1,"station_id":"AK"},{"line":4,"station_id":"KPB","i_lat":-6.132549,"distance":4102,"i_long":106.826365,"transit":true,"is_transit":true,"station_name":"Kampung Bandan","time":9},{"station_name":"Rajawali","transit":false,"time":3,"line":11,"station_id":"RJW","distance":1444,"i_long":106.836569,"i_lat":-6.14505,"is_transit":false},{"time":5,"line":11,"is_transit":false,"transit":false,"station_name":"Kemayoran","i_long":106.839204,"station_id":"KMO","distance":1901,"i_lat":-6.161728},{"station_id":"PSE","distance":1436,"i_lat":-6.174784,"i_long":106.84368,"line":11,"station_name":"Pasar Senen","is_transit":false,"time":4,"transit":false},{"is_transit":false,"i_lat":-6.185975,"i_long":106.850107,"transit":false,"station_id":"GST","time":8,"distance":1567,"station_name":"Gang Sentiong","line":11},{"line":11,"time":1,"i_long":106.855437,"transit":false,"station_id":"KMT","is_transit":false,"distance":973,"i_lat":-6.193792,"station_name":"Kramat"},{"time":2,"transit":false,"i_lat":-6.209188,"distance":1829,"station_id":"POK","line":11,"i_long":106.861737,"is_transit":false,"station_name":"Pondok Jati"},{"distance":1236,"station_name":"Jatinegara","transit":true,"i_lat":-6.215091,"i_long":106.86807400000001,"is_transit":true,"time":9,"station_id":"JNG","line":1},{"transit":false,"time":2,"station_id":"MTR","station_name":"Matraman","is_transit":false,"i_lat":-6.212485,"i_long":106.858896,"line":1,"distance":1377},{"i_long":106.84912,"time":2,"line":2,"i_lat":-6.209883,"is_transit":true,"station_id":"MRI","distance":1275,"station_name":"Manggarai","transit":true},{"i_long":106.857948,"time":4,"transit":false,"station_name":"Tebet","is_transit":false,"distance":2610,"line":2,"station_id":"TEB","i_lat":-6.226659},{"station_id":"CW","i_long":106.856607,"line":2,"transit":false,"i_lat":-6.242512,"time":2,"station_name":"Cawang","is_transit":false,"distance":1230},{"station_name":"Duren Kalibata","station_id":"DRN","is_transit":false,"i_lat":-6.255332,"line":2,"i_long":106.85449,"distance":1546,"time":3,"transit":false},{"i_lat":-6.263214,"line":2,"distance":824,"transit":false,"station_name":"Pasar Minggu Baru","is_transit":false,"i_long":106.851577,"time":2,"station_id":"PSMB"},{"is_transit":false,"i_long":106.843999,"station_id":"PSM","distance":2380,"transit":false,"station_name":"Pasar Minggu","time":2,"line":2,"i_lat":-6.2842400000000005},{"station_id":"TNT","i_long":106.838896,"time":4,"transit":false,"is_transit":false,"line":2,"station_name":"Tanjung Barat","distance":2820,"i_lat":-6.3080680000000005},{"i_lat":-6.330363,"time":3,"distance":2671,"transit":false,"is_transit":false,"line":2,"i_long":106.832616,"station_name":"Lenteng Agung","station_id":"LNA"},{"distance":1029,"i_lat":-6.339291,"station_name":"Univ. Pancasila","station_id":"UP","line":2,"is_transit":false,"i_long":106.834175,"transit":false,"time":2},{"transit":false,"i_long":106.831474,"line":2,"time":3,"i_lat":-6.360749,"is_transit":false,"distance":2264,"station_name":"Univ. Indonesia","station_id":"UI"},{"time":2,"line":2,"transit":false,"station_name":"Pondok Cina","distance":1109,"station_id":"POC","is_transit":false,"i_long":106.831114,"i_lat":-6.369073},{"transit":false,"line":2,"distance":2727,"time":4,"is_transit":false,"station_id":"DPB","i_lat":-6.391065,"station_name":"Depokbaru","i_long":106.819451},{"station_name":"Depok","line":2,"station_id":"DP","distance":1584,"i_lat":-6.405256,"transit":false,"is_transit":false,"time":3,"i_long":106.816926}]]}