{"data":[[{"time":0,"i_lat":-6.162021,"line":5,"station_name":"Grogol","distance":0,"transit":false,"station_id":"GGL","is_transit":false,"i_long":106.788277},{"i_lat":-6.155215,"station_name":"Duri","i_long":106.800832,"line":1,"station_id":"DU","distance":1700,"transit":true,"is_transit":true,"time":3},{"is_transit":false,"i_long":106.811091,"transit":false,"time":8,"station_id":"THB","distance":3632,"i_lat":-6.185545,"line":1,"station_name":"Tanah Abang"},{"line":1,"i_long":106.816351,"station_id":"KAT","station_name":"Karet","time":5,"transit":false,"i_lat":-6.20132,"distance":2029,"is_transit":false},{"station_id":"SUDB","transit":false,"i_lat":-6.201433,"line":1,"distance":471,"is_transit":false,"i_long":106.819881,"time":1,"station_name":"Sudirman Baru"},{"station_id":"SUD","transit":false,"i_lat":-6.202263,"time":1,"station_name":"Sudirman","is_transit":false,"line":1,"i_long":106.822649,"distance":280},{"i_lat":-6.209883,"line":2,"time":4,"station_id":"MRI","is_transit":true,"distance":3186,"station_name":"Manggarai","i_long":106.84912,"transit":true},{"i_long":106.857948,"time":4,"i_lat":-6.226659,"station_name":"Tebet","transit":false,"is_transit":false,"line":2,"distance":2610,"station_id":"TEB"},{"transit":false,"station_name":"Cawang","i_lat":-6.242512,"is_transit":false,"line":2,"distance":1230,"station_id":"CW","i_long":106.856607,"time":2},{"time":3,"distance":1546,"station_id":"DRN","is_transit":false,"i_long":106.85449,"i_lat":-6.255332,"line":2,"station_name":"Duren Kalibata","transit":false},{"time":2,"is_transit":false,"station_id":"PSMB","distance":824,"i_long":106.851577,"i_lat":-6.263214,"station_name":"Pasar Minggu Baru","transit":false,"line":2},{"station_id":"PSM","is_transit":false,"i_long":106.843999,"i_lat":-6.2842400000000005,"station_name":"Pasar Minggu","transit":false,"time":2,"line":2,"distance":2380}],[{"transit":false,"line":5,"time":0,"station_id":"GGL","i_long":106.788277,"station_name":"Grogol","i_lat":-6.162021,"distance":0,"is_transit":false},{"station_id":"DU","station_name":"Duri","i_lat":-6.155215,"line":1,"transit":true,"time":3,"distance":1700,"is_transit":true,"i_long":106.800832},{"i_long":106.79867,"is_transit":false,"station_name":"Angke","line":1,"time":4,"i_lat":-6.144674,"station_id":"AK","distance":1230,"transit":false},{"i_lat":-6.132549,"station_id":"KPB","is_transit":true,"time":9,"i_long":106.826365,"distance":4102,"station_name":"Kampung Bandan","transit":true,"line":4},{"station_name":"Jakarta Kota","transit":true,"distance":1364,"is_transit":true,"i_lat":-6.137569,"line":2,"time":3,"i_long":106.812439,"station_id":"JAKK"},{"i_lat":-6.141205,"i_long":106.820901,"station_id":"JAY","station_name":"Jayakarta","transit":false,"is_transit":false,"line":2,"time":4,"distance":1264},{"line":2,"time":2,"distance":1080,"station_id":"MGB","transit":false,"station_name":"Manggabesar","is_transit":false,"i_lat":-6.149769,"i_long":106.82482},{"time":2,"line":2,"i_lat":-6.160725,"i_long":106.827103,"transit":false,"station_id":"SW","is_transit":false,"distance":906,"station_name":"Sawah Besar"},{"transit":false,"line":2,"is_transit":false,"station_id":"JUA","station_name":"Juanda","i_lat":-6.166716,"time":2,"distance":1149,"i_long":106.828284},{"transit":false,"distance":2015,"station_id":"GDD","is_transit":false,"station_name":"Gondangdia","i_long":106.832183,"line":2,"i_lat":-6.186295,"time":4},{"i_long":106.840169,"station_name":"Cikini","station_id":"CKI","time":3,"is_transit":false,"i_lat":-6.198556,"distance":1750,"line":2,"transit":false},{"transit":false,"station_name":"Manggarai","i_long":106.84912,"distance":1590,"station_id":"MRI","line":2,"i_lat":-6.209883,"is_transit":false,"time":4},{"line":2,"i_lat":-6.226659,"transit":false,"time":4,"is_transit":false,"i_long":106.857948,"distance":2610,"station_name":"Tebet","station_id":"TEB"},{"i_lat":-6.242512,"station_id":"CW","time":2,"is_transit":false,"transit":false,"distance":1230,"station_name":"Cawang","line":2,"i_long":106.856607},{"i_long":106.85449,"station_id":"DRN","time":3,"station_name":"Duren Kalibata","i_lat":-6.255332,"distance":1546,"is_transit":false,"line":2,"transit":false},{"i_long":106.851577,"distance":824,"i_lat":-6.263214,"time":2,"station_name":"Pasar Minggu Baru","is_transit":false,"line":2,"transit":false,"station_id":"PSMB"},{"is_transit":false,"i_lat":-6.2842400000000005,"distance":2380,"transit":false,"line":2,"station_name":"Pasar Minggu","station_id":"PSM","time":2,"i_long":106.843999}],[{"station_id":"GGL","time":0,"distance":0,"i_long":106.788277,"is_transit":false,"i_lat":-6.162021,"transit":false,"station_name":"Grogol","line":5},{"i_lat":-6.155215,"i_long":106.800832,"line":1,"distance":1700,"time":3,"station_id":"DU","is_transit":true,"station_name":"Duri","transit":true},{"distance":1230,"line":1,"time":4,"station_name":"Angke","station_id":"AK","is_transit":false,"transit":false,"i_lat":-6.144674,"i_long":106.79867},{"station_id":"KPB","station_name":"Kampung Bandan","i_long":106.826365,"transit":true,"time":9,"line":4,"is_transit":true,"i_lat":-6.132549,"distance":4102},{"is_transit":false,"transit":false,"station_name":"Rajawali","i_lat":-6.14505,"i_long":106.836569,"line":11,"time":3,"station_id":"RJW","distance":1444},{"time":5,"transit":false,"station_id":"KMO","i_long":106.839204,"i_lat":-6.161728,"line":11,"distance":1901,"is_transit":false,"station_name":"Kemayoran"},{"line":11,"transit":false,"is_transit":false,"time":4,"station_id":"PSE","distance":1436,"station_name":"Pasar Senen","i_lat":-6.174784,"i_long":106.84368},{"line":11,"station_id":"GST","time":8,"station_name":"Gang Sentiong","i_long":106.850107,"distance":1567,"i_lat":-6.185975,"is_transit":false,"transit":false},{"i_lat":-6.193792,"line":11,"i_long":106.855437,"is_transit":false,"station_name":"Kramat","time":1,"distance":973,"transit":false,"station_id":"KMT"},{"line":11,"distance":1829,"i_long":106.861737,"is_transit":false,"transit":false,"time":2,"station_id":"POK","station_name":"Pondok Jati","i_lat":-6.209188},{"transit":true,"time":9,"station_name":"Jatinegara","i_lat":-6.215091,"distance":1236,"is_transit":true,"station_id":"JNG","i_long":106.86807400000001,"line":1},{"time":2,"station_name":"Matraman","distance":1377,"line":1,"transit":false,"station_id":"MTR","is_transit":false,"i_lat":-6.212485,"i_long":106.858896},{"station_id":"MRI","station_name":"Manggarai","i_long":106.84912,"time":2,"line":2,"is_transit":true,"transit":true,"distance":1275,"i_lat":-6.209883},{"distance":2610,"station_id":"TEB","i_lat":-6.226659,"station_name":"Tebet","line":2,"time":4,"transit":false,"is_transit":false,"i_long":106.857948},{"station_id":"CW","transit":false,"station_name":"Cawang","i_lat":-6.242512,"distance":1230,"i_long":106.856607,"is_transit":false,"line":2,"time":2},{"station_name":"Duren Kalibata","transit":false,"time":3,"is_transit":false,"line":2,"distance":1546,"i_long":106.85449,"i_lat":-6.255332,"station_id":"DRN"},{"line":2,"is_transit":false,"station_name":"Pasar Minggu Baru","distance":824,"transit":false,"time":2,"station_id":"PSMB","i_long":106.851577,"i_lat":-6.263214},{"transit":false,"station_id":"PSM","station_name":"Pasar Minggu","i_lat":-6.2842400000000005,"i_long":106.843999,"line":2,"is_transit":false,"distance":2380,"time":2}]]}