{"data":[[{"distance":0,"station_name":"Grogol","station_id":"GGL","i_lat":-6.162021,"i_long":106.788277,"time":0,"transit":false,"is_transit":false,"line":5},{"station_name":"Duri","i_lat":-6.155215,"station_id":"DU","line":1,"distance":1700,"i_long":106.800832,"is_transit":true,"transit":true,"time":3},{"time":8,"is_transit":true,"distance":3632,"i_long":106.811091,"station_id":"THB","transit":true,"station_name":"Tanah Abang","line":1,"i_lat":-6.185545},{"time":6,"distance":3191,"transit":false,"station_id":"PLM","i_lat":-6.207404,"is_transit":false,"i_long":106.79689,"station_name":"Palmerah","line":6},{"line":6,"time":7,"station_name":"Kebayoran","is_transit":false,"station_id":"KBY","transit":false,"i_long":106.780334,"i_lat":-6.237242,"distance":3737},{"i_long":106.74273,"i_lat":-6.276362,"station_id":"PDJ","is_transit":false,"station_name":"Pondokranji","transit":false,"line":6,"distance":6218,"time":8},{"station_name":"Jurangmangu","line":6,"is_transit":false,"time":3,"transit":false,"i_long":106.728916,"i_lat":-6.288927,"station_id":"JMU","distance":2179},{"line":6,"time":4,"i_long":106.712277,"station_name":"Sudimara","distance":1994,"transit":false,"i_lat":-6.296963,"station_id":"SDM","is_transit":false},{"i_lat":-6.314823,"distance":4566,"transit":false,"line":6,"time":6,"is_transit":false,"station_id":"RU","station_name":"Rawa Buntu","i_long":106.675475},{"distance":2413,"i_lat":-6.319871,"transit":false,"i_long":106.66566,"time":4,"is_transit":false,"line":6,"station_name":"Serpong","station_id":"SRP"},{"station_name":"Cisauk","is_transit":false,"station_id":"CSK","transit":false,"time":4,"i_long":106.640411,"line":3,"distance":1784,"i_lat":-6.32484},{"is_transit":false,"station_id":"CC","line":3,"station_name":"Cicayur","i_long":106.617853,"distance":2519,"transit":false,"time":4,"i_lat":-6.329547},{"transit":false,"is_transit":false,"line":6,"time":8,"station_id":"PRP","i_long":106.568863,"i_lat":-6.3441410000000005,"distance":5968,"station_name":"Parung Panjang"},{"is_transit":false,"distance":7025,"line":3,"i_lat":-6.354349,"i_long":106.508482,"transit":false,"station_name":"Cilejit","time":9,"station_id":"CJT"},{"transit":false,"time":6,"i_long":106.491338,"line":0,"i_lat":-6.338021,"is_transit":false,"station_id":"DAR","station_name":"Daru","distance":2675},{"station_name":"Tenjo","line":6,"time":5,"is_transit":false,"transit":false,"station_id":"TEJ","i_lat":-6.327251,"i_long":106.460812,"distance":3902},{"transit":false,"line":6,"station_name":"Tigaraksa","is_transit":false,"distance":2974,"time":5,"station_id":"TGS","i_lat":-6.328533,"i_long":106.425991}],[{"is_transit":false,"time":0,"i_lat":-6.162021,"line":5,"i_long":106.788277,"station_name":"Grogol","station_id":"GGL","distance":0,"transit":false},{"is_transit":true,"station_name":"Duri","transit":true,"i_long":106.800832,"i_lat":-6.155215,"line":1,"station_id":"DU","time":3,"distance":1700},{"time":4,"transit":false,"is_transit":false,"i_long":106.79867,"i_lat":-6.144674,"distance":1230,"station_id":"AK","station_name":"Angke","line":1},{"distance":4102,"line":4,"time":9,"station_name":"Kampung Bandan","station_id":"KPB","transit":true,"i_lat":-6.132549,"is_transit":true,"i_long":106.826365},{"transit":true,"station_id":"JAKK","distance":1364,"is_transit":true,"station_name":"Jakarta Kota","time":3,"line":2,"i_lat":-6.137569,"i_long":106.812439},{"is_transit":false,"i_lat":-6.141205,"line":2,"station_name":"Jayakarta","time":4,"distance":1264,"i_long":106.820901,"transit":false,"station_id":"JAY"},{"transit":false,"i_long":106.82482,"station_id":"MGB","time":2,"distance":1080,"station_name":"Manggabesar","is_transit":false,"line":2,"i_lat":-6.149769},{"transit":false,"is_transit":false,"station_name":"Sawah Besar","i_lat":-6.160725,"distance":906,"station_id":"SW","i_long":106.827103,"line":2,"time":2},{"transit":false,"i_long":106.828284,"station_name":"Juanda","is_transit":false,"distance":1149,"line":2,"station_id":"JUA","time":2,"i_lat":-6.166716},{"distance":2015,"line":2,"transit":false,"station_id":"GDD","i_lat":-6.186295,"is_transit":false,"i_long":106.832183,"station_name":"Gondangdia","time":4},{"transit":false,"line":2,"distance":1750,"time":3,"is_transit":false,"station_name":"Cikini","station_id":"CKI","i_lat":-6.198556,"i_long":106.840169},{"station_name":"Manggarai","time":4,"i_lat":-6.209883,"line":2,"station_id":"MRI","i_long":106.84912,"transit":true,"distance":1590,"is_transit":true},{"station_name":"Sudirman","i_long":106.822649,"station_id":"SUD","time":4,"line":1,"transit":false,"is_transit":false,"i_lat":-6.202263,"distance":3186},{"line":1,"distance":280,"station_name":"Sudirman Baru","transit":false,"is_transit":false,"station_id":"SUDB","i_lat":-6.201433,"time":1,"i_long":106.819881},{"station_id":"KAT","station_name":"Karet","time":1,"is_transit":false,"transit":false,"distance":471,"i_lat":-6.20132,"line":1,"i_long":106.816351},{"station_name":"Tanah Abang","distance":2029,"i_long":106.811091,"is_transit":true,"i_lat":-6.185545,"station_id":"THB","time":5,"transit":true,"line":1},{"distance":3191,"transit":false,"is_transit":false,"station_id":"PLM","station_name":"Palmerah","i_long":106.79689,"time":6,"line":6,"i_lat":-6.207404},{"distance":3737,"transit":false,"is_transit":false,"station_name":"Kebayoran","i_lat":-6.237242,"station_id":"KBY","time":7,"line":6,"i_long":106.780334},{"i_lat":-6.276362,"transit":false,"line":6,"is_transit":false,"station_id":"PDJ","time":8,"distance":6218,"station_name":"Pondokranji","i_long":106.74273},{"transit":false,"station_id":"JMU","is_transit":false,"i_lat":-6.288927,"time":3,"distance":2179,"line":6,"i_long":106.728916,"station_name":"Jurangmangu"},{"station_name":"Sudimara","is_transit":false,"transit":false,"station_id":"SDM","time":4,"distance":1994,"i_lat":-6.296963,"i_long":106.712277,"line":6},{"station_name":"Rawa Buntu","i_lat":-6.314823,"line":6,"time":6,"is_transit":false,"i_long":106.675475,"station_id":"RU","transit":false,"distance":4566},{"i_long":106.66566,"is_transit":false,"transit":false,"distance":2413,"station_name":"Serpong","line":6,"station_id":"SRP","i_lat":-6.319871,"time":4},{"line":3,"time":4,"transit":false,"i_lat":-6.32484,"is_transit":false,"station_name":"Cisauk","station_id":"CSK","distance":1784,"i_long":106.640411},{"i_lat":-6.329547,"station_name":"Cicayur","distance":2519,"transit":false,"is_transit":false,"i_long":106.617853,"time":4,"station_id":"CC","line":3},{"time":8,"transit":false,"distance":5968,"i_long":106.568863,"line":6,"i_lat":-6.3441410000000005,"station_id":"PRP","is_transit":false,"station_name":"Parung Panjang"},{"i_lat":-6.354349,"station_name":"Cilejit","transit":false,"time":9,"is_transit":false,"distance":7025,"i_long":106.508482,"line":3,"station_id":"CJT"},{"i_lat":-6.338021,"time":6,"transit":false,"station_id":"DAR","station_name":"Daru","line":0,"distance":2675,"is_transit":false,"i_long":106.491338},{"time":5,"station_name":"Tenjo","i_lat":-6.327251,"is_transit":false,"transit":false,"i_long":106.460812,"station_id":"TEJ","line":6,"distance":3902},{"i_long":106.425991,"i_lat":-6.328533,"time":5,"station_id":"TGS","line":6,"station_name":"Tigaraksa","transit":false,"distance":2974,"is_transit":false}],[{"line":5,"transit":false,"i_lat":-6.162021,"time":0,"station_name":"Grogol","station_id":"GGL","distance":0,"i_long":106.788277,"is_transit":false},{"distance":1700,"transit":true,"time":3,"i_lat":-6.155215,"line":1,"is_transit":true,"station_name":"Duri","station_id":"DU","i_long":106.800832},{"time":4,"line":1,"distance":1230,"i_long":106.79867,"i_lat":-6.144674,"station_id":"AK","is_transit":false,"station_name":"Angke","transit":false},{"station_id":"KPB","distance":4102,"station_name":"Kampung Bandan","line":4,"time":9,"i_lat":-6.132549,"is_transit":true,"i_long":106.826365,"transit":true},{"time":3,"is_transit":false,"distance":1444,"i_lat":-6.14505,"i_long":106.836569,"station_id":"RJW","transit":false,"station_name":"Rajawali","line":11},{"i_lat":-6.161728,"distance":1901,"line":11,"time":5,"station_id":"KMO","i_long":106.839204,"is_transit":false,"transit":false,"station_name":"Kemayoran"},{"distance":1436,"station_name":"Pasar Senen","line":11,"time":4,"station_id":"PSE","i_lat":-6.174784,"i_long":106.84368,"transit":false,"is_transit":false},{"line":11,"distance":1567,"is_transit":false,"time":8,"i_lat":-6.185975,"station_id":"GST","transit":false,"i_long":106.850107,"station_name":"Gang Sentiong"},{"transit":false,"time":1,"station_name":"Kramat","station_id":"KMT","is_transit":false,"i_long":106.855437,"i_lat":-6.193792,"line":11,"distance":973},{"is_transit":false,"distance":1829,"i_lat":-6.209188,"i_long":106.861737,"line":11,"transit":false,"station_name":"Pondok Jati","time":2,"station_id":"POK"},{"i_long":106.86807400000001,"station_id":"JNG","time":9,"distance":1236,"is_transit":true,"i_lat":-6.215091,"line":1,"station_name":"Jatinegara","transit":true},{"time":2,"station_id":"MTR","transit":false,"i_lat":-6.212485,"distance":1377,"station_name":"Matraman","is_transit":false,"line":1,"i_long":106.858896},{"distance":1275,"i_long":106.84912,"transit":false,"station_id":"MRI","is_transit":false,"station_name":"Manggarai","i_lat":-6.209883,"line":2,"time":2},{"station_id":"SUD","line":1,"transit":false,"time":4,"distance":3186,"i_lat":-6.202263,"is_transit":false,"station_name":"Sudirman","i_long":106.822649},{"time":1,"station_name":"Sudirman Baru","line":1,"i_lat":-6.201433,"station_id":"SUDB","distance":280,"transit":false,"is_transit":false,"i_long":106.819881},{"transit":false,"station_name":"Karet","i_lat":-6.20132,"is_transit":false,"station_id":"KAT","i_long":106.816351,"time":1,"distance":471,"line":1},{"time":5,"station_name":"Tanah Abang","distance":2029,"transit":true,"is_transit":true,"i_lat":-6.185545,"station_id":"THB","line":1,"i_long":106.811091},{"is_transit":false,"station_id":"PLM","distance":3191,"i_lat":-6.207404,"i_long":106.79689,"station_name":"Palmerah","time":6,"transit":false,"line":6},{"transit":false,"distance":3737,"i_lat":-6.237242,"station_name":"Kebayoran","line":6,"station_id":"KBY","is_transit":false,"i_long":106.780334,"time":7},{"i_lat":-6.276362,"time":8,"distance":6218,"i_long":106.74273,"line":6,"station_id":"PDJ","transit":false,"is_transit":false,"station_name":"Pondokranji"},{"time":3,"i_lat":-6.288927,"is_transit":false,"station_name":"Jurangmangu","transit":false,"line":6,"i_long":106.728916,"distance":2179,"station_id":"JMU"},{"time":4,"station_id":"SDM","station_name":"Sudimara","is_transit":false,"i_lat":-6.296963,"line":6,"distance":1994,"i_long":106.712277,"transit":false},{"transit":false,"time":6,"distance":4566,"station_name":"Rawa Buntu","i_lat":-6.314823,"line":6,"is_transit":false,"i_long":106.675475,"station_id":"RU"},{"station_id":"SRP","distance":2413,"station_name":"Serpong","i_lat":-6.319871,"line":6,"transit":false,"is_transit":false,"time":4,"i_long":106.66566},{"time":4,"station_name":"Cisauk","distance":1784,"station_id":"CSK","i_lat":-6.32484,"transit":false,"is_transit":false,"line":3,"i_long":106.640411},{"is_transit":false,"station_name":"Cicayur","transit":false,"i_long":106.617853,"station_id":"CC","i_lat":-6.329547,"distance":2519,"time":4,"line":3},{"time":8,"station_name":"Parung Panjang","is_transit":false,"line":6,"station_id":"PRP","transit":false,"distance":5968,"i_lat":-6.3441410000000005,"i_long":106.568863},{"station_name":"Cilejit","time":9,"line":3,"is_transit":false,"station_id":"CJT","i_lat":-6.354349,"i_long":106.508482,"transit":false,"distance":7025},{"station_name":"Daru","is_transit":false,"i_long":106.491338,"transit":false,"time":6,"line":0,"distance":2675,"i_lat":-6.338021,"station_id":"DAR"},{"transit":false,"i_lat":-6.327251,"time":5,"i_long":106.460812,"line":6,"is_transit":false,"station_id":"TEJ","distance":3902,"station_name":"Tenjo"},{"is_transit":false,"line":6,"transit":false,"i_lat":-6.328533,"distance":2974,"i_long":106.425991,"station_id":"TGS","station_name":"Tigaraksa","time":5}]]}