{"data":[[{"i_long":106.788277,"transit":false,"station_id":"GGL","is_transit":false,"station_name":"Grogol","i_lat":-6.162021,"distance":0,"time":0,"line":5},{"distance":1700,"transit":true,"station_id":"DU","is_transit":true,"time":3,"i_lat":-6.155215,"i_long":106.800832,"line":1,"station_name":"Duri"},{"transit":true,"station_name":"Tanah Abang","i_lat":-6.185545,"distance":3632,"station_id":"THB","is_transit":true,"time":8,"line":1,"i_long":106.811091},{"distance":3191,"i_lat":-6.207404,"station_name":"Palmerah","transit":false,"is_transit":false,"time":6,"line":6,"station_id":"PLM","i_long":106.79689},{"line":6,"distance":3737,"i_long":106.780334,"is_transit":false,"i_lat":-6.237242,"time":7,"station_name":"Kebayoran","transit":false,"station_id":"KBY"},{"time":8,"distance":6218,"line":6,"is_transit":false,"i_lat":-6.276362,"i_long":106.74273,"station_id":"PDJ","transit":false,"station_name":"Pondokranji"},{"line":6,"distance":2179,"station_id":"JMU","transit":false,"station_name":"Jurangmangu","i_lat":-6.288927,"i_long":106.728916,"is_transit":false,"time":3},{"time":4,"station_name":"Sudimara","i_lat":-6.296963,"i_long":106.712277,"is_transit":false,"distance":1994,"station_id":"SDM","line":6,"transit":false},{"transit":false,"time":6,"station_id":"RU","distance":4566,"station_name":"Rawa Buntu","i_lat":-6.314823,"i_long":106.675475,"line":6,"is_transit":false},{"station_name":"Serpong","time":4,"i_lat":-6.319871,"station_id":"SRP","transit":false,"line":6,"distance":2413,"is_transit":false,"i_long":106.66566}],[{"station_name":"Grogol","station_id":"GGL","is_transit":false,"i_long":106.788277,"distance":0,"transit":false,"time":0,"i_lat":-6.162021,"line":5},{"distance":1700,"line":1,"station_id":"DU","is_transit":true,"transit":true,"time":3,"i_long":106.800832,"station_name":"Duri","i_lat":-6.155215},{"is_transit":false,"time":4,"i_long":106.79867,"distance":1230,"i_lat":-6.144674,"station_name":"Angke","line":1,"transit":false,"station_id":"AK"},{"station_id":"KPB","i_lat":-6.132549,"is_transit":true,"line":4,"time":9,"station_name":"Kampung Bandan","i_long":106.826365,"distance":4102,"transit":true},{"is_transit":true,"transit":true,"i_long":106.812439,"station_id":"JAKK","time":3,"distance":1364,"station_name":"Jakarta Kota","i_lat":-6.137569,"line":2},{"station_name":"Jayakarta","distance":1264,"line":2,"is_transit":false,"i_long":106.820901,"time":4,"i_lat":-6.141205,"station_id":"JAY","transit":false},{"i_long":106.82482,"distance":1080,"transit":false,"station_name":"Manggabesar","station_id":"MGB","time":2,"line":2,"i_lat":-6.149769,"is_transit":false},{"station_name":"Sawah Besar","transit":false,"i_long":106.827103,"i_lat":-6.160725,"line":2,"time":2,"station_id":"SW","distance":906,"is_transit":false},{"station_name":"Juanda","line":2,"i_lat":-6.166716,"station_id":"JUA","time":2,"distance":1149,"transit":false,"is_transit":false,"i_long":106.828284},{"i_lat":-6.186295,"i_long":106.832183,"transit":false,"station_id":"GDD","station_name":"Gondangdia","is_transit":false,"time":4,"line":2,"distance":2015},{"i_lat":-6.198556,"distance":1750,"line":2,"transit":false,"station_id":"CKI","i_long":106.840169,"station_name":"Cikini","is_transit":false,"time":3},{"transit":true,"is_transit":true,"station_name":"Manggarai","time":4,"line":2,"distance":1590,"i_lat":-6.209883,"station_id":"MRI","i_long":106.84912},{"i_long":106.822649,"is_transit":false,"line":1,"distance":3186,"transit":false,"time":4,"station_id":"SUD","station_name":"Sudirman","i_lat":-6.202263},{"transit":false,"line":1,"station_name":"Sudirman Baru","i_lat":-6.201433,"distance":280,"is_transit":false,"i_long":106.819881,"station_id":"SUDB","time":1},{"i_long":106.816351,"is_transit":false,"i_lat":-6.20132,"transit":false,"distance":471,"station_id":"KAT","station_name":"Karet","line":1,"time":1},{"is_transit":true,"i_lat":-6.185545,"distance":2029,"time":5,"transit":true,"line":1,"station_id":"THB","station_name":"Tanah Abang","i_long":106.811091},{"station_name":"Palmerah","distance":3191,"is_transit":false,"time":6,"i_lat":-6.207404,"station_id":"PLM","line":6,"transit":false,"i_long":106.79689},{"distance":3737,"i_lat":-6.237242,"station_name":"Kebayoran","time":7,"line":6,"transit":false,"station_id":"KBY","i_long":106.780334,"is_transit":false},{"i_long":106.74273,"distance":6218,"line":6,"transit":false,"i_lat":-6.276362,"station_name":"Pondokranji","time":8,"station_id":"PDJ","is_transit":false},{"i_long":106.728916,"i_lat":-6.288927,"station_name":"Jurangmangu","transit":false,"is_transit":false,"time":3,"station_id":"JMU","distance":2179,"line":6},{"transit":false,"i_lat":-6.296963,"station_name":"Sudimara","distance":1994,"i_long":106.712277,"station_id":"SDM","time":4,"line":6,"is_transit":false},{"time":6,"i_long":106.675475,"station_id":"RU","station_name":"Rawa Buntu","is_transit":false,"i_lat":-6.314823,"transit":false,"distance":4566,"line":6},{"distance":2413,"is_transit":false,"line":6,"transit":false,"station_name":"Serpong","station_id":"SRP","time":4,"i_lat":-6.319871,"i_long":106.66566}],[{"transit":false,"distance":0,"i_long":106.788277,"station_name":"Grogol","time":0,"i_lat":-6.162021,"line":5,"station_id":"GGL","is_transit":false},{"i_lat":-6.155215,"distance":1700,"station_name":"Duri","transit":true,"i_long":106.800832,"is_transit":true,"line":1,"station_id":"DU","time":3},{"distance":1230,"is_transit":false,"station_id":"AK","transit":false,"station_name":"Angke","time":4,"i_lat":-6.144674,"i_long":106.79867,"line":1},{"i_lat":-6.132549,"is_transit":true,"time":9,"i_long":106.826365,"line":4,"transit":true,"distance":4102,"station_id":"KPB","station_name":"Kampung Bandan"},{"station_id":"RJW","i_long":106.836569,"line":11,"is_transit":false,"distance":1444,"station_name":"Rajawali","time":3,"transit":false,"i_lat":-6.14505},{"time":5,"station_name":"Kemayoran","is_transit":false,"transit":false,"i_lat":-6.161728,"station_id":"KMO","distance":1901,"i_long":106.839204,"line":11},{"i_lat":-6.174784,"transit":false,"i_long":106.84368,"time":4,"station_id":"PSE","distance":1436,"station_name":"Pasar Senen","is_transit":false,"line":11},{"station_id":"GST","transit":false,"i_lat":-6.185975,"line":11,"is_transit":false,"distance":1567,"station_name":"Gang Sentiong","time":8,"i_long":106.850107},{"station_name":"Kramat","distance":973,"i_long":106.855437,"station_id":"KMT","is_transit":false,"line":11,"transit":false,"i_lat":-6.193792,"time":1},{"transit":false,"is_transit":false,"line":11,"distance":1829,"time":2,"station_id":"POK","i_lat":-6.209188,"i_long":106.861737,"station_name":"Pondok Jati"},{"i_long":106.86807400000001,"is_transit":true,"time":9,"line":1,"transit":true,"station_id":"JNG","distance":1236,"station_name":"Jatinegara","i_lat":-6.215091},{"is_transit":false,"transit":false,"i_long":106.858896,"station_id":"MTR","time":2,"station_name":"Matraman","i_lat":-6.212485,"distance":1377,"line":1},{"i_lat":-6.209883,"i_long":106.84912,"line":2,"station_id":"MRI","is_transit":false,"transit":false,"time":2,"distance":1275,"station_name":"Manggarai"},{"distance":3186,"is_transit":false,"station_name":"Sudirman","i_long":106.822649,"i_lat":-6.202263,"transit":false,"line":1,"station_id":"SUD","time":4},{"distance":280,"i_lat":-6.201433,"station_id":"SUDB","line":1,"station_name":"Sudirman Baru","is_transit":false,"i_long":106.819881,"transit":false,"time":1},{"is_transit":false,"i_long":106.816351,"line":1,"station_id":"KAT","station_name":"Karet","time":1,"transit":false,"i_lat":-6.20132,"distance":471},{"station_id":"THB","distance":2029,"i_lat":-6.185545,"i_long":106.811091,"station_name":"Tanah Abang","is_transit":true,"transit":true,"time":5,"line":1},{"i_lat":-6.207404,"distance":3191,"station_name":"Palmerah","station_id":"PLM","transit":false,"time":6,"is_transit":false,"i_long":106.79689,"line":6},{"station_id":"KBY","time":7,"station_name":"Kebayoran","transit":false,"is_transit":false,"line":6,"distance":3737,"i_long":106.780334,"i_lat":-6.237242},{"station_name":"Pondokranji","transit":false,"i_long":106.74273,"distance":6218,"station_id":"PDJ","is_transit":false,"i_lat":-6.276362,"line":6,"time":8},{"distance":2179,"station_id":"JMU","station_name":"Jurangmangu","time":3,"transit":false,"i_lat":-6.288927,"line":6,"is_transit":false,"i_long":106.728916},{"station_name":"Sudimara","time":4,"i_lat":-6.296963,"i_long":106.712277,"line":6,"transit":false,"distance":1994,"is_transit":false,"station_id":"SDM"},{"i_long":106.675475,"line":6,"is_transit":false,"station_id":"RU","transit":false,"distance":4566,"time":6,"station_name":"Rawa Buntu","i_lat":-6.314823},{"line":6,"time":4,"i_lat":-6.319871,"i_long":106.66566,"distance":2413,"transit":false,"is_transit":false,"station_id":"SRP","station_name":"Serpong"}]]}