{"data":[[{"time":0,"i_long":106.788277,"line":5,"is_transit":false,"transit":false,"distance":0,"i_lat":-6.162021,"station_id":"GGL","station_name":"Grogol"},{"line":1,"station_id":"DU","is_transit":true,"time":3,"station_name":"Duri","distance":1700,"i_long":106.800832,"transit":true,"i_lat":-6.155215},{"line":1,"station_name":"Tanah Abang","is_transit":true,"time":8,"i_lat":-6.185545,"distance":3632,"station_id":"THB","i_long":106.811091,"transit":true},{"i_lat":-6.207404,"station_id":"PLM","transit":false,"station_name":"Palmerah","line":6,"distance":3191,"i_long":106.79689,"is_transit":false,"time":6},{"station_name":"Kebayoran","distance":3737,"time":7,"line":6,"i_long":106.780334,"transit":false,"station_id":"KBY","i_lat":-6.237242,"is_transit":false},{"line":6,"distance":6218,"transit":false,"i_long":106.74273,"i_lat":-6.276362,"time":8,"station_id":"PDJ","station_name":"Pondokranji","is_transit":false},{"station_id":"JMU","distance":2179,"transit":false,"i_lat":-6.288927,"line":6,"is_transit":false,"i_long":106.728916,"time":3,"station_name":"Jurangmangu"},{"i_long":106.712277,"transit":false,"station_name":"Sudimara","line":6,"distance":1994,"station_id":"SDM","is_transit":false,"time":4,"i_lat":-6.296963},{"line":6,"is_transit":false,"station_name":"Rawa Buntu","station_id":"RU","i_lat":-6.314823,"transit":false,"distance":4566,"i_long":106.675475,"time":6},{"time":4,"station_id":"SRP","transit":false,"distance":2413,"line":6,"i_long":106.66566,"is_transit":false,"i_lat":-6.319871,"station_name":"Serpong"},{"time":4,"transit":false,"is_transit":false,"distance":1784,"line":0,"i_long":106.640411,"station_name":"Cisauk","station_id":"CSK","i_lat":-6.32484},{"time":4,"distance":2519,"is_transit":false,"transit":false,"station_id":"CC","station_name":"Cicayur","i_lat":-6.329547,"i_long":106.617853,"line":0},{"i_lat":-6.3441410000000005,"transit":false,"is_transit":false,"time":8,"distance":5968,"i_long":106.568863,"station_id":"PRP","line":6,"station_name":"Parung Panjang"},{"line":0,"time":9,"is_transit":false,"i_long":106.508482,"station_name":"Cilejit","station_id":"CJT","i_lat":-6.354349,"transit":false,"distance":7025},{"i_lat":-6.338021,"is_transit":false,"i_long":106.491338,"distance":2675,"station_id":"DAR","transit":false,"station_name":"Daru","time":6,"line":0},{"i_lat":-6.327251,"is_transit":false,"i_long":106.460812,"line":6,"transit":false,"station_name":"Tenjo","time":5,"station_id":"TEJ","distance":3902},{"transit":false,"time":5,"station_name":"Tigaraksa","is_transit":false,"distance":2974,"station_id":"TGS","i_lat":-6.328533,"i_long":106.425991,"line":6}],[{"i_long":106.788277,"i_lat":-6.162021,"station_id":"GGL","station_name":"Grogol","line":5,"is_transit":false,"time":0,"transit":false,"distance":0},{"is_transit":true,"time":3,"line":1,"station_name":"Duri","i_lat":-6.155215,"transit":true,"distance":1700,"i_long":106.800832,"station_id":"DU"},{"station_name":"Angke","time":4,"is_transit":false,"i_lat":-6.144674,"i_long":106.79867,"line":0,"station_id":"AK","distance":1230,"transit":false},{"is_transit":true,"time":9,"i_lat":-6.132549,"transit":false,"station_id":"KPB","distance":4102,"i_long":106.826365,"station_name":"Kampung Bandan","line":0},{"i_lat":-6.137569,"station_name":"Jakarta Kota","line":0,"transit":true,"i_long":106.812439,"is_transit":true,"time":3,"distance":1364,"station_id":"JAKK"},{"station_name":"Jayakarta","line":7,"transit":false,"station_id":"JAY","distance":1264,"time":4,"i_lat":-6.141205,"is_transit":false,"i_long":106.820901},{"is_transit":false,"i_long":106.82482,"distance":1080,"time":2,"station_name":"Manggabesar","i_lat":-6.149769,"transit":false,"line":2,"station_id":"MGB"},{"is_transit":false,"i_lat":-6.160725,"time":2,"line":2,"distance":906,"station_id":"SW","transit":false,"i_long":106.827103,"station_name":"Sawah Besar"},{"distance":1149,"line":2,"is_transit":false,"time":2,"station_id":"JUA","i_lat":-6.166716,"transit":false,"station_name":"Juanda","i_long":106.828284},{"time":4,"distance":2015,"station_name":"Gondangdia","i_lat":-6.186295,"i_long":106.832183,"station_id":"GDD","is_transit":false,"transit":false,"line":2},{"i_long":106.840169,"i_lat":-6.198556,"line":0,"station_id":"CKI","station_name":"Cikini","is_transit":false,"time":3,"distance":1750,"transit":false},{"distance":1590,"transit":true,"line":0,"is_transit":true,"station_id":"MRI","i_lat":-6.209883,"station_name":"Manggarai","time":4,"i_long":106.84912},{"transit":false,"station_id":"SUD","station_name":"Sudirman","i_long":106.822649,"line":1,"is_transit":false,"distance":3186,"time":4,"i_lat":-6.202263},{"line":1,"station_id":"SUDB","i_long":106.819881,"station_name":"Sudirman Baru","is_transit":false,"transit":false,"distance":280,"time":1,"i_lat":-6.201433},{"line":1,"i_lat":-6.20132,"is_transit":false,"station_name":"Karet","station_id":"KAT","i_long":106.816351,"transit":false,"distance":471,"time":1},{"transit":true,"is_transit":true,"i_lat":-6.185545,"distance":2029,"i_long":106.811091,"time":5,"station_name":"Tanah Abang","station_id":"THB","line":1},{"is_transit":false,"transit":false,"i_long":106.79689,"distance":3191,"station_id":"PLM","time":6,"station_name":"Palmerah","i_lat":-6.207404,"line":6},{"station_name":"Kebayoran","time":7,"line":6,"distance":3737,"transit":false,"station_id":"KBY","i_lat":-6.237242,"is_transit":false,"i_long":106.780334},{"is_transit":false,"transit":false,"distance":6218,"i_lat":-6.276362,"line":6,"station_id":"PDJ","i_long":106.74273,"time":8,"station_name":"Pondokranji"},{"station_id":"JMU","time":3,"distance":2179,"i_lat":-6.288927,"transit":false,"i_long":106.728916,"line":6,"is_transit":false,"station_name":"Jurangmangu"},{"i_long":106.712277,"distance":1994,"line":6,"is_transit":false,"station_id":"SDM","time":4,"i_lat":-6.296963,"station_name":"Sudimara","transit":false},{"is_transit":false,"i_lat":-6.314823,"distance":4566,"time":6,"station_name":"Rawa Buntu","i_long":106.675475,"transit":false,"station_id":"RU","line":6},{"i_lat":-6.319871,"distance":2413,"line":6,"i_long":106.66566,"station_name":"Serpong","is_transit":false,"transit":false,"station_id":"SRP","time":4},{"time":4,"i_long":106.640411,"station_id":"CSK","i_lat":-6.32484,"is_transit":false,"line":0,"station_name":"Cisauk","distance":1784,"transit":false},{"distance":2519,"station_id":"CC","i_long":106.617853,"transit":false,"time":4,"station_name":"Cicayur","i_lat":-6.329547,"is_transit":false,"line":0},{"transit":false,"line":6,"distance":5968,"time":8,"is_transit":false,"i_lat":-6.3441410000000005,"station_name":"Parung Panjang","i_long":106.568863,"station_id":"PRP"},{"distance":7025,"i_long":106.508482,"station_id":"CJT","station_name":"Cilejit","time":9,"is_transit":false,"transit":false,"i_lat":-6.354349,"line":0},{"transit":false,"i_long":106.491338,"is_transit":false,"line":0,"station_name":"Daru","station_id":"DAR","time":6,"i_lat":-6.338021,"distance":2675},{"i_long":106.460812,"is_transit":false,"line":6,"distance":3902,"time":5,"station_name":"Tenjo","station_id":"TEJ","transit":false,"i_lat":-6.327251},{"line":6,"is_transit":false,"distance":2974,"transit":false,"time":5,"i_long":106.425991,"station_name":"Tigaraksa","station_id":"TGS","i_lat":-6.328533}],[{"i_long":106.788277,"distance":0,"i_lat":-6.162021,"is_transit":false,"time":0,"transit":false,"line":5,"station_name":"Grogol","station_id":"GGL"},{"station_name":"Duri","is_transit":true,"time":3,"i_lat":-6.155215,"i_long":106.800832,"station_id":"DU","transit":true,"distance":1700,"line":1},{"transit":false,"station_name":"Angke","i_long":106.79867,"time":4,"i_lat":-6.144674,"is_transit":false,"line":0,"station_id":"AK","distance":1230},{"station_name":"Kampung Bandan","distance":4102,"i_lat":-6.132549,"line":0,"i_long":106.826365,"time":9,"station_id":"KPB","transit":true,"is_transit":true},{"time":3,"station_name":"Rajawali","i_long":106.836569,"station_id":"RJW","transit":false,"is_transit":false,"i_lat":-6.14505,"distance":1444,"line":11},{"time":5,"distance":1901,"i_lat":-6.161728,"station_id":"KMO","line":11,"is_transit":false,"transit":false,"i_long":106.839204,"station_name":"Kemayoran"},{"station_id":"PSE","time":4,"i_lat":-6.174784,"line":11,"is_transit":false,"station_name":"Pasar Senen","i_long":106.84368,"distance":1436,"transit":false},{"i_lat":-6.185975,"is_transit":false,"transit":false,"time":8,"station_id":"GST","distance":1567,"line":11,"station_name":"Gang Sentiong","i_long":106.850107},{"i_lat":-6.193792,"i_long":106.855437,"distance":973,"station_name":"Kramat","line":11,"is_transit":false,"station_id":"KMT","transit":false,"time":1},{"transit":false,"time":2,"i_long":106.861737,"is_transit":false,"i_lat":-6.209188,"distance":1829,"line":11,"station_name":"Pondok Jati","station_id":"POK"},{"time":9,"i_long":106.86807400000001,"line":0,"i_lat":-6.215091,"distance":1236,"transit":true,"station_name":"Jatinegara","station_id":"JNG","is_transit":true},{"i_lat":-6.212485,"line":1,"transit":false,"is_transit":false,"station_id":"MTR","distance":1377,"i_long":106.858896,"time":2,"station_name":"Matraman"},{"i_long":106.84912,"station_id":"MRI","line":0,"time":2,"transit":false,"distance":1275,"is_transit":true,"station_name":"Manggarai","i_lat":-6.209883},{"is_transit":false,"station_name":"Sudirman","distance":3186,"transit":false,"station_id":"SUD","i_long":106.822649,"i_lat":-6.202263,"time":4,"line":1},{"distance":280,"i_long":106.819881,"station_id":"SUDB","station_name":"Sudirman Baru","is_transit":false,"i_lat":-6.201433,"transit":false,"time":1,"line":1},{"line":1,"transit":false,"distance":471,"i_lat":-6.20132,"station_name":"Karet","is_transit":false,"station_id":"KAT","i_long":106.816351,"time":1},{"station_name":"Tanah Abang","is_transit":true,"line":1,"i_long":106.811091,"i_lat":-6.185545,"time":5,"station_id":"THB","transit":true,"distance":2029},{"time":6,"i_lat":-6.207404,"i_long":106.79689,"is_transit":false,"station_id":"PLM","line":6,"transit":false,"station_name":"Palmerah","distance":3191},{"station_name":"Kebayoran","station_id":"KBY","i_long":106.780334,"is_transit":false,"transit":false,"time":7,"i_lat":-6.237242,"line":6,"distance":3737},{"is_transit":false,"line":6,"i_long":106.74273,"transit":false,"distance":6218,"station_name":"Pondokranji","time":8,"station_id":"PDJ","i_lat":-6.276362},{"i_long":106.728916,"station_name":"Jurangmangu","line":6,"distance":2179,"i_lat":-6.288927,"time":3,"transit":false,"station_id":"JMU","is_transit":false},{"distance":1994,"transit":false,"i_lat":-6.296963,"is_transit":false,"i_long":106.712277,"line":6,"time":4,"station_name":"Sudimara","station_id":"SDM"},{"is_transit":false,"transit":false,"i_lat":-6.314823,"line":6,"i_long":106.675475,"distance":4566,"time":6,"station_name":"Rawa Buntu","station_id":"RU"},{"i_long":106.66566,"line":6,"i_lat":-6.319871,"transit":false,"station_name":"Serpong","is_transit":false,"time":4,"station_id":"SRP","distance":2413},{"line":0,"is_transit":false,"time":4,"station_name":"Cisauk","distance":1784,"i_lat":-6.32484,"i_long":106.640411,"station_id":"CSK","transit":false},{"i_long":106.617853,"is_transit":false,"station_name":"Cicayur","i_lat":-6.329547,"distance":2519,"line":0,"transit":false,"time":4,"station_id":"CC"},{"i_lat":-6.3441410000000005,"transit":false,"station_id":"PRP","is_transit":false,"distance":5968,"station_name":"Parung Panjang","time":8,"i_long":106.568863,"line":6},{"transit":false,"line":0,"station_id":"CJT","i_lat":-6.354349,"is_transit":false,"i_long":106.508482,"station_name":"Cilejit","time":9,"distance":7025},{"transit":false,"is_transit":false,"station_name":"Daru","time":6,"station_id":"DAR","distance":2675,"i_long":106.491338,"line":0,"i_lat":-6.338021},{"transit":false,"time":5,"distance":3902,"station_name":"Tenjo","is_transit":false,"line":6,"i_lat":-6.327251,"i_long":106.460812,"station_id":"TEJ"},{"is_transit":false,"i_lat":-6.328533,"line":6,"distance":2974,"station_id":"TGS","station_name":"Tigaraksa","transit":false,"i_long":106.425991,"time":5}]]}