{"data":[[{"i_long":106.788277,"station_id":"GGL","station_name":"Grogol","is_transit":false,"line":5,"transit":false,"time":0,"distance":0,"i_lat":-6.162021},{"is_transit":true,"distance":1700,"station_id":"DU","station_name":"Duri","i_lat":-6.155215,"i_long":106.800832,"line":1,"time":3,"transit":true},{"line":1,"is_transit":false,"time":8,"station_name":"Tanah Abang","transit":false,"distance":3632,"station_id":"THB","i_long":106.811091,"i_lat":-6.185545},{"station_id":"KAT","distance":2029,"i_lat":-6.20132,"i_long":106.816351,"time":5,"transit":false,"line":1,"is_transit":false,"station_name":"Karet"},{"distance":471,"transit":false,"line":1,"i_long":106.819881,"station_id":"SUDB","time":1,"is_transit":false,"i_lat":-6.201433,"station_name":"Sudirman Baru"},{"transit":false,"station_name":"Sudirman","i_lat":-6.202263,"is_transit":false,"distance":280,"line":1,"i_long":106.822649,"station_id":"SUD","time":1},{"distance":3186,"i_lat":-6.209883,"transit":false,"is_transit":false,"station_id":"MRI","line":2,"station_name":"Manggarai","time":4,"i_long":106.84912}],[{"time":0,"station_name":"Grogol","is_transit":false,"distance":0,"transit":false,"line":5,"i_lat":-6.162021,"station_id":"GGL","i_long":106.788277},{"i_long":106.800832,"time":3,"station_id":"DU","station_name":"Duri","distance":1700,"is_transit":true,"line":1,"i_lat":-6.155215,"transit":true},{"time":4,"i_lat":-6.144674,"is_transit":false,"station_name":"Angke","transit":false,"i_long":106.79867,"line":1,"distance":1230,"station_id":"AK"},{"i_lat":-6.132549,"station_name":"Kampung Bandan","line":4,"is_transit":true,"i_long":106.826365,"time":9,"transit":true,"distance":4102,"station_id":"KPB"},{"station_name":"Jakarta Kota","time":3,"is_transit":true,"line":2,"transit":true,"distance":1364,"station_id":"JAKK","i_long":106.812439,"i_lat":-6.137569},{"station_name":"Jayakarta","i_lat":-6.141205,"i_long":106.820901,"station_id":"JAY","distance":1264,"transit":false,"line":2,"time":4,"is_transit":false},{"station_id":"MGB","time":2,"distance":1080,"line":2,"i_long":106.82482,"i_lat":-6.149769,"station_name":"Manggabesar","transit":false,"is_transit":false},{"station_id":"SW","i_lat":-6.160725,"i_long":106.827103,"station_name":"Sawah Besar","line":2,"is_transit":false,"time":2,"transit":false,"distance":906},{"is_transit":false,"transit":false,"i_lat":-6.166716,"line":2,"station_name":"Juanda","time":2,"i_long":106.828284,"distance":1149,"station_id":"JUA"},{"time":4,"is_transit":false,"station_id":"GDD","line":2,"distance":2015,"transit":false,"station_name":"Gondangdia","i_long":106.832183,"i_lat":-6.186295},{"i_lat":-6.198556,"is_transit":false,"time":3,"line":2,"i_long":106.840169,"transit":false,"station_id":"CKI","distance":1750,"station_name":"Cikini"},{"time":4,"is_transit":false,"i_lat":-6.209883,"transit":false,"line":2,"distance":1590,"station_id":"MRI","station_name":"Manggarai","i_long":106.84912}],[{"i_long":106.788277,"time":0,"i_lat":-6.162021,"transit":false,"is_transit":false,"line":5,"distance":0,"station_id":"GGL","station_name":"Grogol"},{"i_lat":-6.155215,"time":3,"transit":true,"station_name":"Duri","line":1,"station_id":"DU","i_long":106.800832,"distance":1700,"is_transit":true},{"is_transit":false,"transit":false,"line":1,"i_lat":-6.144674,"station_id":"AK","distance":1230,"time":4,"station_name":"Angke","i_long":106.79867},{"i_long":106.826365,"is_transit":true,"line":4,"transit":true,"i_lat":-6.132549,"station_id":"KPB","time":9,"distance":4102,"station_name":"Kampung Bandan"},{"line":11,"i_long":106.836569,"time":3,"transit":false,"distance":1444,"station_name":"Rajawali","is_transit":false,"i_lat":-6.14505,"station_id":"RJW"},{"i_long":106.839204,"station_name":"Kemayoran","line":11,"distance":1901,"i_lat":-6.161728,"station_id":"KMO","time":5,"is_transit":false,"transit":false},{"station_id":"PSE","i_lat":-6.174784,"transit":false,"time":4,"line":11,"station_name":"Pasar Senen","distance":1436,"i_long":106.84368,"is_transit":false},{"i_long":106.850107,"time":8,"is_transit":false,"line":11,"distance":1567,"station_id":"GST","station_name":"Gang Sentiong","i_lat":-6.185975,"transit":false},{"station_name":"Kramat","i_long":106.855437,"line":11,"i_lat":-6.193792,"transit":false,"time":1,"station_id":"KMT","is_transit":false,"distance":973},{"time":2,"line":11,"transit":false,"station_name":"Pondok Jati","i_long":106.861737,"distance":1829,"station_id":"POK","is_transit":false,"i_lat":-6.209188},{"distance":1236,"i_lat":-6.215091,"time":9,"transit":true,"line":1,"station_name":"Jatinegara","is_transit":true,"station_id":"JNG","i_long":106.86807400000001},{"station_id":"MTR","transit":false,"i_long":106.858896,"i_lat":-6.212485,"line":1,"distance":1377,"time":2,"station_name":"Matraman","is_transit":false},{"is_transit":false,"station_name":"Manggarai","line":2,"time":2,"transit":false,"i_long":106.84912,"distance":1275,"station_id":"MRI","i_lat":-6.209883}]]}