{"data":[[{"station_name":"Grogol","line":5,"is_transit":false,"time":0,"distance":0,"station_id":"GGL","i_long":106.788277,"i_lat":-6.162021,"transit":false},{"station_id":"DU","line":1,"is_transit":true,"transit":true,"i_long":106.800832,"i_lat":-6.155215,"distance":1700,"time":3,"station_name":"Duri"},{"time":8,"i_long":106.811091,"line":1,"is_transit":true,"distance":3632,"station_id":"THB","i_lat":-6.185545,"transit":false,"station_name":"Tanah Abang"},{"line":1,"station_name":"Karet","is_transit":false,"i_long":106.816351,"transit":false,"time":5,"distance":2029,"station_id":"KAT","i_lat":-6.20132},{"is_transit":false,"time":1,"distance":471,"i_lat":-6.201433,"line":1,"station_id":"SUDB","station_name":"Sudirman Baru","transit":false,"i_long":106.819881},{"time":1,"station_id":"SUD","distance":280,"line":1,"i_long":106.822649,"is_transit":false,"transit":false,"station_name":"Sudirman","i_lat":-6.202263},{"line":0,"station_name":"Manggarai","i_lat":-6.209883,"station_id":"MRI","distance":3186,"i_long":106.84912,"time":4,"is_transit":true,"transit":true},{"transit":false,"station_name":"Tebet","i_lat":-6.226659,"i_long":106.857948,"station_id":"TEB","line":2,"is_transit":false,"distance":2610,"time":4},{"i_long":106.856607,"line":0,"is_transit":false,"time":2,"distance":1230,"station_id":"CW","station_name":"Cawang","i_lat":-6.242512,"transit":false}],[{"i_lat":-6.162021,"transit":false,"i_long":106.788277,"distance":0,"station_name":"Grogol","station_id":"GGL","line":5,"is_transit":false,"time":0},{"transit":true,"i_lat":-6.155215,"is_transit":true,"i_long":106.800832,"station_id":"DU","line":1,"station_name":"Duri","distance":1700,"time":3},{"distance":1230,"line":0,"transit":false,"i_lat":-6.144674,"is_transit":false,"i_long":106.79867,"station_name":"Angke","time":4,"station_id":"AK"},{"station_name":"Kampung Bandan","time":9,"transit":false,"i_lat":-6.132549,"line":0,"distance":4102,"is_transit":true,"station_id":"KPB","i_long":106.826365},{"is_transit":true,"line":0,"transit":true,"time":3,"distance":1364,"station_name":"Jakarta Kota","i_long":106.812439,"station_id":"JAKK","i_lat":-6.137569},{"is_transit":false,"distance":1264,"station_name":"Jayakarta","line":7,"i_long":106.820901,"i_lat":-6.141205,"transit":false,"station_id":"JAY","time":4},{"transit":false,"is_transit":false,"i_long":106.82482,"i_lat":-6.149769,"time":2,"station_name":"Manggabesar","station_id":"MGB","line":2,"distance":1080},{"station_name":"Sawah Besar","transit":false,"i_lat":-6.160725,"distance":906,"i_long":106.827103,"is_transit":false,"station_id":"SW","time":2,"line":2},{"time":2,"i_long":106.828284,"station_id":"JUA","is_transit":false,"distance":1149,"line":2,"station_name":"Juanda","i_lat":-6.166716,"transit":false},{"station_name":"Gondangdia","transit":false,"distance":2015,"i_long":106.832183,"i_lat":-6.186295,"is_transit":false,"time":4,"station_id":"GDD","line":2},{"i_lat":-6.198556,"station_id":"CKI","i_long":106.840169,"is_transit":false,"distance":1750,"time":3,"line":0,"transit":false,"station_name":"Cikini"},{"distance":1590,"station_name":"Manggarai","line":0,"time":4,"i_long":106.84912,"is_transit":true,"i_lat":-6.209883,"transit":true,"station_id":"MRI"},{"station_id":"TEB","time":4,"is_transit":false,"distance":2610,"line":2,"transit":false,"station_name":"Tebet","i_long":106.857948,"i_lat":-6.226659},{"is_transit":false,"i_long":106.856607,"i_lat":-6.242512,"station_name":"Cawang","line":0,"transit":false,"time":2,"distance":1230,"station_id":"CW"}],[{"distance":0,"station_id":"GGL","i_lat":-6.162021,"time":0,"is_transit":false,"station_name":"Grogol","i_long":106.788277,"transit":false,"line":5},{"line":1,"is_transit":true,"transit":true,"i_long":106.800832,"i_lat":-6.155215,"distance":1700,"station_name":"Duri","time":3,"station_id":"DU"},{"line":0,"i_long":106.79867,"i_lat":-6.144674,"time":4,"transit":false,"is_transit":false,"station_name":"Angke","station_id":"AK","distance":1230},{"distance":4102,"time":9,"station_name":"Kampung Bandan","transit":true,"i_lat":-6.132549,"station_id":"KPB","is_transit":true,"line":0,"i_long":106.826365},{"time":3,"i_long":106.836569,"station_name":"Rajawali","line":11,"transit":false,"distance":1444,"station_id":"RJW","i_lat":-6.14505,"is_transit":false},{"time":5,"i_long":106.839204,"is_transit":false,"distance":1901,"station_id":"KMO","i_lat":-6.161728,"transit":false,"line":11,"station_name":"Kemayoran"},{"transit":false,"line":11,"station_name":"Pasar Senen","station_id":"PSE","i_long":106.84368,"time":4,"is_transit":false,"distance":1436,"i_lat":-6.174784},{"line":11,"station_id":"GST","time":8,"station_name":"Gang Sentiong","transit":false,"is_transit":false,"i_long":106.850107,"distance":1567,"i_lat":-6.185975},{"station_name":"Kramat","is_transit":false,"i_lat":-6.193792,"i_long":106.855437,"time":1,"station_id":"KMT","transit":false,"line":11,"distance":973},{"distance":1829,"i_long":106.861737,"station_name":"Pondok Jati","i_lat":-6.209188,"line":11,"time":2,"transit":false,"is_transit":false,"station_id":"POK"},{"i_lat":-6.215091,"line":0,"time":9,"station_id":"JNG","i_long":106.86807400000001,"is_transit":true,"transit":true,"distance":1236,"station_name":"Jatinegara"},{"i_long":106.858896,"time":2,"transit":false,"station_id":"MTR","is_transit":false,"distance":1377,"line":1,"station_name":"Matraman","i_lat":-6.212485},{"i_lat":-6.209883,"is_transit":true,"time":2,"line":0,"transit":true,"station_id":"MRI","i_long":106.84912,"station_name":"Manggarai","distance":1275},{"i_lat":-6.226659,"time":4,"distance":2610,"transit":false,"station_name":"Tebet","i_long":106.857948,"is_transit":false,"station_id":"TEB","line":2},{"station_id":"CW","station_name":"Cawang","i_lat":-6.242512,"is_transit":false,"distance":1230,"i_long":106.856607,"line":0,"time":2,"transit":false}]]}