{"data":[[{"station_name":"Grogol","station_id":"GGL","distance":0,"time":0,"line":5,"i_lat":-6.162021,"i_long":106.788277,"is_transit":false,"transit":false},{"station_id":"DU","transit":true,"station_name":"Duri","time":3,"distance":1700,"line":1,"i_lat":-6.155215,"i_long":106.800832,"is_transit":true},{"i_lat":-6.185545,"station_id":"THB","transit":false,"station_name":"Tanah Abang","time":8,"line":1,"i_long":106.811091,"is_transit":false,"distance":3632},{"transit":false,"is_transit":false,"station_id":"KAT","time":5,"distance":2029,"i_lat":-6.20132,"i_long":106.816351,"line":1,"station_name":"Karet"},{"distance":471,"i_lat":-6.201433,"transit":false,"line":1,"is_transit":false,"station_name":"Sudirman Baru","i_long":106.819881,"station_id":"SUDB","time":1},{"i_lat":-6.202263,"transit":false,"line":1,"distance":280,"time":1,"station_name":"Sudirman","station_id":"SUD","is_transit":false,"i_long":106.822649},{"is_transit":true,"i_long":106.84912,"time":4,"line":2,"station_name":"Manggarai","station_id":"MRI","transit":true,"i_lat":-6.209883,"distance":3186},{"line":2,"is_transit":false,"time":4,"transit":false,"distance":2610,"station_name":"Tebet","i_long":106.857948,"station_id":"TEB","i_lat":-6.226659},{"transit":false,"time":2,"station_name":"Cawang","is_transit":false,"station_id":"CW","distance":1230,"i_long":106.856607,"line":2,"i_lat":-6.242512},{"distance":1546,"i_lat":-6.255332,"i_long":106.85449,"line":2,"station_id":"DRN","is_transit":false,"station_name":"Duren Kalibata","time":3,"transit":false},{"line":2,"is_transit":false,"station_name":"Pasar Minggu Baru","station_id":"PSMB","transit":false,"distance":824,"i_lat":-6.263214,"time":2,"i_long":106.851577},{"is_transit":false,"line":2,"station_name":"Pasar Minggu","i_lat":-6.2842400000000005,"transit":false,"time":2,"station_id":"PSM","distance":2380,"i_long":106.843999},{"distance":2820,"line":2,"station_name":"Tanjung Barat","is_transit":false,"station_id":"TNT","i_long":106.838896,"time":4,"i_lat":-6.3080680000000005,"transit":false},{"line":2,"transit":false,"i_lat":-6.330363,"time":3,"is_transit":false,"distance":2671,"i_long":106.832616,"station_name":"Lenteng Agung","station_id":"LNA"},{"station_name":"Univ. Pancasila","time":2,"is_transit":false,"transit":false,"station_id":"UP","i_long":106.834175,"distance":1029,"i_lat":-6.339291,"line":2},{"station_name":"Univ. Indonesia","i_lat":-6.360749,"station_id":"UI","time":3,"i_long":106.831474,"line":2,"distance":2264,"is_transit":false,"transit":false},{"is_transit":false,"station_id":"POC","i_long":106.831114,"line":2,"station_name":"Pondok Cina","transit":false,"time":2,"distance":1109,"i_lat":-6.369073},{"is_transit":false,"transit":false,"station_name":"Depokbaru","i_long":106.819451,"station_id":"DPB","i_lat":-6.391065,"distance":2727,"time":4,"line":2},{"i_lat":-6.405256,"is_transit":false,"distance":1584,"transit":false,"i_long":106.816926,"station_name":"Depok","time":3,"line":2,"station_id":"DP"},{"station_id":"CTA","is_transit":false,"i_lat":-6.448811,"transit":false,"time":6,"distance":5084,"i_long":106.800298,"line":2,"station_name":"Citayam"},{"i_lat":-6.493243,"station_name":"Bojonggede","i_long":106.792719,"line":2,"distance":5197,"transit":false,"is_transit":false,"station_id":"BJD","time":5}],[{"is_transit":false,"i_long":106.788277,"time":0,"i_lat":-6.162021,"station_id":"GGL","transit":false,"station_name":"Grogol","line":5,"distance":0},{"i_lat":-6.155215,"line":1,"time":3,"transit":true,"distance":1700,"station_id":"DU","station_name":"Duri","i_long":106.800832,"is_transit":true},{"time":4,"station_name":"Angke","line":1,"transit":false,"station_id":"AK","i_long":106.79867,"distance":1230,"i_lat":-6.144674,"is_transit":false},{"distance":4102,"transit":true,"is_transit":true,"time":9,"station_id":"KPB","i_lat":-6.132549,"i_long":106.826365,"station_name":"Kampung Bandan","line":4},{"line":2,"station_name":"Jakarta Kota","is_transit":true,"time":3,"i_lat":-6.137569,"transit":true,"i_long":106.812439,"station_id":"JAKK","distance":1364},{"transit":false,"time":4,"i_long":106.820901,"is_transit":false,"line":2,"station_name":"Jayakarta","i_lat":-6.141205,"distance":1264,"station_id":"JAY"},{"line":2,"is_transit":false,"station_id":"MGB","i_long":106.82482,"distance":1080,"i_lat":-6.149769,"transit":false,"station_name":"Manggabesar","time":2},{"station_name":"Sawah Besar","station_id":"SW","transit":false,"i_long":106.827103,"time":2,"line":2,"i_lat":-6.160725,"is_transit":false,"distance":906},{"time":2,"is_transit":false,"station_name":"Juanda","station_id":"JUA","distance":1149,"i_lat":-6.166716,"transit":false,"i_long":106.828284,"line":2},{"distance":2015,"transit":false,"station_name":"Gondangdia","station_id":"GDD","time":4,"i_lat":-6.186295,"i_long":106.832183,"line":2,"is_transit":false},{"transit":false,"station_id":"CKI","distance":1750,"i_lat":-6.198556,"station_name":"Cikini","line":2,"is_transit":false,"time":3,"i_long":106.840169},{"i_long":106.84912,"station_id":"MRI","distance":1590,"is_transit":false,"line":2,"station_name":"Manggarai","transit":false,"time":4,"i_lat":-6.209883},{"distance":2610,"i_long":106.857948,"transit":false,"line":2,"station_id":"TEB","is_transit":false,"time":4,"station_name":"Tebet","i_lat":-6.226659},{"i_lat":-6.242512,"station_id":"CW","line":2,"is_transit":false,"time":2,"transit":false,"station_name":"Cawang","i_long":106.856607,"distance":1230},{"station_id":"DRN","i_long":106.85449,"i_lat":-6.255332,"transit":false,"line":2,"is_transit":false,"distance":1546,"station_name":"Duren Kalibata","time":3},{"i_lat":-6.263214,"transit":false,"station_id":"PSMB","i_long":106.851577,"time":2,"line":2,"distance":824,"is_transit":false,"station_name":"Pasar Minggu Baru"},{"station_name":"Pasar Minggu","i_long":106.843999,"time":2,"distance":2380,"station_id":"PSM","i_lat":-6.2842400000000005,"line":2,"is_transit":false,"transit":false},{"station_name":"Tanjung Barat","is_transit":false,"line":2,"distance":2820,"i_long":106.838896,"transit":false,"time":4,"i_lat":-6.3080680000000005,"station_id":"TNT"},{"i_long":106.832616,"line":2,"station_name":"Lenteng Agung","is_transit":false,"i_lat":-6.330363,"transit":false,"station_id":"LNA","time":3,"distance":2671},{"i_lat":-6.339291,"distance":1029,"transit":false,"station_name":"Univ. Pancasila","is_transit":false,"station_id":"UP","time":2,"line":2,"i_long":106.834175},{"i_long":106.831474,"transit":false,"station_name":"Univ. Indonesia","is_transit":false,"station_id":"UI","time":3,"distance":2264,"i_lat":-6.360749,"line":2},{"is_transit":false,"transit":false,"distance":1109,"station_name":"Pondok Cina","station_id":"POC","line":2,"time":2,"i_lat":-6.369073,"i_long":106.831114},{"is_transit":false,"i_long":106.819451,"transit":false,"time":4,"distance":2727,"station_name":"Depokbaru","line":2,"i_lat":-6.391065,"station_id":"DPB"},{"line":2,"station_name":"Depok","station_id":"DP","time":3,"distance":1584,"i_lat":-6.405256,"i_long":106.816926,"is_transit":false,"transit":false},{"line":2,"distance":5084,"station_name":"Citayam","i_long":106.800298,"is_transit":false,"i_lat":-6.448811,"station_id":"CTA","time":6,"transit":false},{"time":5,"station_name":"Bojonggede","distance":5197,"line":2,"is_transit":false,"i_lat":-6.493243,"i_long":106.792719,"transit":false,"station_id":"BJD"}],[{"i_long":106.788277,"distance":0,"time":0,"is_transit":false,"station_name":"Grogol","station_id":"GGL","i_lat":-6.162021,"line":5,"transit":false},{"is_transit":true,"time":3,"line":1,"station_name":"Duri","station_id":"DU","i_long":106.800832,"distance":1700,"transit":true,"i_lat":-6.155215},{"time":4,"i_lat":-6.144674,"distance":1230,"i_long":106.79867,"transit":false,"is_transit":false,"line":1,"station_id":"AK","station_name":"Angke"},{"transit":true,"station_name":"Kampung Bandan","station_id":"KPB","time":9,"i_lat":-6.132549,"distance":4102,"line":4,"is_transit":true,"i_long":106.826365},{"station_id":"RJW","transit":false,"i_lat":-6.14505,"station_name":"Rajawali","distance":1444,"is_transit":false,"time":3,"i_long":106.836569,"line":11},{"i_long":106.839204,"line":11,"station_name":"Kemayoran","is_transit":false,"transit":false,"distance":1901,"station_id":"KMO","time":5,"i_lat":-6.161728},{"i_long":106.84368,"station_name":"Pasar Senen","distance":1436,"is_transit":false,"transit":false,"time":4,"station_id":"PSE","i_lat":-6.174784,"line":11},{"transit":false,"station_name":"Gang Sentiong","line":11,"i_lat":-6.185975,"time":8,"distance":1567,"i_long":106.850107,"station_id":"GST","is_transit":false},{"station_id":"KMT","transit":false,"is_transit":false,"station_name":"Kramat","distance":973,"time":1,"line":11,"i_long":106.855437,"i_lat":-6.193792},{"time":2,"is_transit":false,"station_name":"Pondok Jati","station_id":"POK","line":11,"i_long":106.861737,"transit":false,"distance":1829,"i_lat":-6.209188},{"distance":1236,"station_id":"JNG","i_long":106.86807400000001,"transit":true,"time":9,"i_lat":-6.215091,"line":1,"station_name":"Jatinegara","is_transit":true},{"distance":1377,"i_long":106.858896,"time":2,"station_id":"MTR","transit":false,"i_lat":-6.212485,"station_name":"Matraman","is_transit":false,"line":1},{"time":2,"i_lat":-6.209883,"i_long":106.84912,"transit":true,"is_transit":true,"station_name":"Manggarai","distance":1275,"station_id":"MRI","line":2},{"station_name":"Tebet","is_transit":false,"time":4,"transit":false,"line":2,"i_long":106.857948,"station_id":"TEB","distance":2610,"i_lat":-6.226659},{"i_long":106.856607,"station_name":"Cawang","i_lat":-6.242512,"time":2,"station_id":"CW","line":2,"is_transit":false,"transit":false,"distance":1230},{"distance":1546,"i_lat":-6.255332,"i_long":106.85449,"is_transit":false,"station_name":"Duren Kalibata","station_id":"DRN","transit":false,"line":2,"time":3},{"transit":false,"distance":824,"is_transit":false,"station_name":"Pasar Minggu Baru","i_lat":-6.263214,"i_long":106.851577,"time":2,"station_id":"PSMB","line":2},{"station_id":"PSM","time":2,"transit":false,"i_long":106.843999,"is_transit":false,"line":2,"station_name":"Pasar Minggu","distance":2380,"i_lat":-6.2842400000000005},{"is_transit":false,"i_long":106.838896,"line":2,"transit":false,"station_name":"Tanjung Barat","time":4,"distance":2820,"station_id":"TNT","i_lat":-6.3080680000000005},{"transit":false,"time":3,"distance":2671,"i_lat":-6.330363,"i_long":106.832616,"line":2,"is_transit":false,"station_name":"Lenteng Agung","station_id":"LNA"},{"station_id":"UP","time":2,"transit":false,"i_lat":-6.339291,"line":2,"i_long":106.834175,"station_name":"Univ. Pancasila","distance":1029,"is_transit":false},{"time":3,"i_lat":-6.360749,"station_id":"UI","line":2,"station_name":"Univ. Indonesia","distance":2264,"is_transit":false,"i_long":106.831474,"transit":false},{"station_name":"Pondok Cina","is_transit":false,"time":2,"transit":false,"i_lat":-6.369073,"distance":1109,"i_long":106.831114,"station_id":"POC","line":2},{"line":2,"i_long":106.819451,"station_name":"Depokbaru","i_lat":-6.391065,"distance":2727,"transit":false,"station_id":"DPB","time":4,"is_transit":false},{"transit":false,"i_long":106.816926,"i_lat":-6.405256,"line":2,"is_transit":false,"station_name":"Depok","station_id":"DP","distance":1584,"time":3},{"station_name":"Citayam","distance":5084,"station_id":"CTA","time":6,"transit":false,"i_lat":-6.448811,"is_transit":false,"i_long":106.800298,"line":2},{"station_name":"Bojonggede","station_id":"BJD","time":5,"transit":false,"i_lat":-6.493243,"i_long":106.792719,"distance":5197,"is_transit":false,"line":2}]]}