{"data":[[{"station_name":"Grogol","is_transit":false,"i_long":106.788277,"time":0,"i_lat":-6.162021,"line":5,"station_id":"GGL","distance":0,"transit":false},{"i_lat":-6.155215,"i_long":106.800832,"is_transit":true,"station_id":"DU","time":3,"transit":true,"line":1,"distance":1700,"station_name":"Duri"},{"i_lat":-6.185545,"time":8,"i_long":106.811091,"is_transit":true,"distance":3632,"line":1,"station_name":"Tanah Abang","station_id":"THB","transit":true},{"is_transit":false,"station_name":"Palmerah","distance":3191,"i_lat":-6.207404,"i_long":106.79689,"time":6,"line":6,"station_id":"PLM","transit":false},{"time":7,"distance":3737,"station_id":"KBY","is_transit":false,"transit":false,"i_lat":-6.237242,"i_long":106.780334,"line":6,"station_name":"Kebayoran"},{"station_name":"Pondokranji","line":6,"i_lat":-6.276362,"station_id":"PDJ","time":8,"is_transit":false,"distance":6218,"transit":false,"i_long":106.74273},{"station_name":"Jurangmangu","i_long":106.728916,"line":6,"distance":2179,"time":3,"transit":false,"i_lat":-6.288927,"station_id":"JMU","is_transit":false},{"transit":false,"station_id":"SDM","is_transit":false,"i_lat":-6.296963,"time":4,"i_long":106.712277,"distance":1994,"line":6,"station_name":"Sudimara"},{"i_long":106.675475,"station_name":"Rawa Buntu","distance":4566,"line":6,"i_lat":-6.314823,"time":6,"station_id":"RU","is_transit":false,"transit":false},{"i_lat":-6.319871,"distance":2413,"i_long":106.66566,"line":6,"transit":false,"station_id":"SRP","is_transit":false,"time":4,"station_name":"Serpong"},{"time":4,"distance":1784,"line":3,"station_id":"CSK","i_long":106.640411,"is_transit":false,"i_lat":-6.32484,"station_name":"Cisauk","transit":false},{"transit":false,"station_id":"CC","i_long":106.617853,"time":4,"station_name":"Cicayur","is_transit":false,"i_lat":-6.329547,"line":3,"distance":2519},{"distance":5968,"transit":false,"station_id":"PRP","i_lat":-6.3441410000000005,"i_long":106.568863,"line":6,"time":8,"station_name":"Parung Panjang","is_transit":false},{"i_long":106.508482,"transit":false,"time":9,"line":3,"is_transit":false,"station_name":"Cilejit","station_id":"CJT","distance":7025,"i_lat":-6.354349},{"is_transit":false,"i_long":106.491338,"station_id":"DAR","transit":false,"line":0,"time":6,"station_name":"Daru","distance":2675,"i_lat":-6.338021},{"transit":false,"station_id":"TEJ","distance":3902,"line":6,"time":5,"is_transit":false,"station_name":"Tenjo","i_lat":-6.327251,"i_long":106.460812},{"i_lat":-6.328533,"time":5,"station_id":"TGS","transit":false,"i_long":106.425991,"line":6,"distance":2974,"station_name":"Tigaraksa","is_transit":false},{"is_transit":false,"station_name":"Cikoya","line":3,"distance":2651,"station_id":"CKY","time":3,"i_lat":-6.33561,"transit":false,"i_long":106.411216}],[{"station_name":"Grogol","i_lat":-6.162021,"transit":false,"line":5,"time":0,"station_id":"GGL","is_transit":false,"distance":0,"i_long":106.788277},{"station_id":"DU","distance":1700,"i_lat":-6.155215,"transit":true,"station_name":"Duri","line":1,"i_long":106.800832,"time":3,"is_transit":true},{"i_long":106.79867,"i_lat":-6.144674,"is_transit":false,"station_id":"AK","line":1,"transit":false,"distance":1230,"time":4,"station_name":"Angke"},{"i_lat":-6.132549,"line":4,"is_transit":true,"i_long":106.826365,"station_name":"Kampung Bandan","distance":4102,"transit":true,"time":9,"station_id":"KPB"},{"i_long":106.812439,"i_lat":-6.137569,"distance":1364,"station_name":"Jakarta Kota","station_id":"JAKK","time":3,"is_transit":true,"transit":true,"line":2},{"time":4,"station_name":"Jayakarta","is_transit":false,"distance":1264,"station_id":"JAY","line":2,"i_lat":-6.141205,"i_long":106.820901,"transit":false},{"station_name":"Manggabesar","distance":1080,"is_transit":false,"i_long":106.82482,"time":2,"transit":false,"station_id":"MGB","i_lat":-6.149769,"line":2},{"i_long":106.827103,"is_transit":false,"distance":906,"station_id":"SW","station_name":"Sawah Besar","line":2,"time":2,"transit":false,"i_lat":-6.160725},{"distance":1149,"i_lat":-6.166716,"time":2,"is_transit":false,"transit":false,"station_name":"Juanda","i_long":106.828284,"line":2,"station_id":"JUA"},{"distance":2015,"time":4,"transit":false,"line":2,"station_name":"Gondangdia","i_long":106.832183,"i_lat":-6.186295,"is_transit":false,"station_id":"GDD"},{"time":3,"transit":false,"station_id":"CKI","line":2,"i_lat":-6.198556,"station_name":"Cikini","is_transit":false,"distance":1750,"i_long":106.840169},{"station_id":"MRI","is_transit":true,"distance":1590,"transit":true,"station_name":"Manggarai","i_long":106.84912,"i_lat":-6.209883,"time":4,"line":2},{"is_transit":false,"station_id":"SUD","time":4,"distance":3186,"transit":false,"i_long":106.822649,"i_lat":-6.202263,"line":1,"station_name":"Sudirman"},{"line":1,"station_name":"Sudirman Baru","is_transit":false,"i_lat":-6.201433,"time":1,"distance":280,"station_id":"SUDB","transit":false,"i_long":106.819881},{"i_lat":-6.20132,"station_name":"Karet","transit":false,"station_id":"KAT","i_long":106.816351,"line":1,"time":1,"is_transit":false,"distance":471},{"time":5,"i_long":106.811091,"transit":true,"station_name":"Tanah Abang","station_id":"THB","distance":2029,"i_lat":-6.185545,"is_transit":true,"line":1},{"distance":3191,"station_name":"Palmerah","i_lat":-6.207404,"line":6,"time":6,"i_long":106.79689,"station_id":"PLM","is_transit":false,"transit":false},{"station_id":"KBY","i_lat":-6.237242,"i_long":106.780334,"distance":3737,"transit":false,"line":6,"time":7,"is_transit":false,"station_name":"Kebayoran"},{"transit":false,"time":8,"line":6,"station_name":"Pondokranji","i_long":106.74273,"station_id":"PDJ","is_transit":false,"distance":6218,"i_lat":-6.276362},{"transit":false,"is_transit":false,"distance":2179,"i_long":106.728916,"station_id":"JMU","station_name":"Jurangmangu","line":6,"time":3,"i_lat":-6.288927},{"station_name":"Sudimara","is_transit":false,"time":4,"transit":false,"station_id":"SDM","i_long":106.712277,"distance":1994,"i_lat":-6.296963,"line":6},{"i_lat":-6.314823,"i_long":106.675475,"line":6,"station_id":"RU","is_transit":false,"transit":false,"time":6,"station_name":"Rawa Buntu","distance":4566},{"time":4,"transit":false,"station_id":"SRP","distance":2413,"line":6,"is_transit":false,"i_lat":-6.319871,"i_long":106.66566,"station_name":"Serpong"},{"is_transit":false,"time":4,"distance":1784,"i_lat":-6.32484,"station_name":"Cisauk","transit":false,"line":3,"station_id":"CSK","i_long":106.640411},{"station_id":"CC","transit":false,"line":3,"station_name":"Cicayur","i_long":106.617853,"distance":2519,"time":4,"is_transit":false,"i_lat":-6.329547},{"i_lat":-6.3441410000000005,"station_name":"Parung Panjang","time":8,"station_id":"PRP","is_transit":false,"transit":false,"line":6,"distance":5968,"i_long":106.568863},{"station_id":"CJT","distance":7025,"station_name":"Cilejit","time":9,"i_lat":-6.354349,"transit":false,"line":3,"is_transit":false,"i_long":106.508482},{"time":6,"station_id":"DAR","i_lat":-6.338021,"i_long":106.491338,"station_name":"Daru","distance":2675,"is_transit":false,"transit":false,"line":0},{"is_transit":false,"transit":false,"station_name":"Tenjo","line":6,"distance":3902,"i_long":106.460812,"time":5,"i_lat":-6.327251,"station_id":"TEJ"},{"station_id":"TGS","station_name":"Tigaraksa","i_long":106.425991,"i_lat":-6.328533,"time":5,"is_transit":false,"distance":2974,"transit":false,"line":6},{"is_transit":false,"station_name":"Cikoya","station_id":"CKY","distance":2651,"transit":false,"line":3,"i_long":106.411216,"time":3,"i_lat":-6.33561}],[{"station_name":"Grogol","is_transit":false,"time":0,"i_long":106.788277,"station_id":"GGL","distance":0,"transit":false,"i_lat":-6.162021,"line":5},{"is_transit":true,"station_id":"DU","transit":true,"i_long":106.800832,"i_lat":-6.155215,"time":3,"station_name":"Duri","line":1,"distance":1700},{"distance":1230,"i_lat":-6.144674,"i_long":106.79867,"line":1,"is_transit":false,"transit":false,"station_name":"Angke","station_id":"AK","time":4},{"i_long":106.826365,"line":4,"transit":true,"time":9,"i_lat":-6.132549,"station_name":"Kampung Bandan","is_transit":true,"distance":4102,"station_id":"KPB"},{"time":3,"transit":false,"is_transit":false,"i_lat":-6.14505,"line":11,"station_id":"RJW","distance":1444,"station_name":"Rajawali","i_long":106.836569},{"distance":1901,"station_name":"Kemayoran","is_transit":false,"transit":false,"i_lat":-6.161728,"i_long":106.839204,"line":11,"time":5,"station_id":"KMO"},{"distance":1436,"station_id":"PSE","time":4,"is_transit":false,"transit":false,"i_long":106.84368,"station_name":"Pasar Senen","i_lat":-6.174784,"line":11},{"time":8,"line":11,"distance":1567,"is_transit":false,"station_id":"GST","i_lat":-6.185975,"transit":false,"i_long":106.850107,"station_name":"Gang Sentiong"},{"station_id":"KMT","line":11,"i_lat":-6.193792,"is_transit":false,"i_long":106.855437,"time":1,"distance":973,"station_name":"Kramat","transit":false},{"station_id":"POK","i_lat":-6.209188,"transit":false,"station_name":"Pondok Jati","line":11,"time":2,"distance":1829,"is_transit":false,"i_long":106.861737},{"distance":1236,"station_id":"JNG","is_transit":true,"i_lat":-6.215091,"line":1,"transit":true,"station_name":"Jatinegara","i_long":106.86807400000001,"time":9},{"station_name":"Matraman","distance":1377,"time":2,"is_transit":false,"transit":false,"i_lat":-6.212485,"station_id":"MTR","i_long":106.858896,"line":1},{"time":2,"transit":false,"is_transit":false,"i_long":106.84912,"line":2,"distance":1275,"station_name":"Manggarai","station_id":"MRI","i_lat":-6.209883},{"i_long":106.822649,"distance":3186,"station_name":"Sudirman","station_id":"SUD","is_transit":false,"i_lat":-6.202263,"time":4,"transit":false,"line":1},{"is_transit":false,"station_name":"Sudirman Baru","station_id":"SUDB","i_lat":-6.201433,"line":1,"time":1,"i_long":106.819881,"distance":280,"transit":false},{"is_transit":false,"i_long":106.816351,"i_lat":-6.20132,"time":1,"station_name":"Karet","distance":471,"transit":false,"station_id":"KAT","line":1},{"station_name":"Tanah Abang","station_id":"THB","is_transit":true,"distance":2029,"transit":true,"line":1,"i_long":106.811091,"i_lat":-6.185545,"time":5},{"transit":false,"i_long":106.79689,"i_lat":-6.207404,"line":6,"distance":3191,"station_name":"Palmerah","station_id":"PLM","time":6,"is_transit":false},{"distance":3737,"station_name":"Kebayoran","station_id":"KBY","i_lat":-6.237242,"i_long":106.780334,"transit":false,"line":6,"is_transit":false,"time":7},{"station_id":"PDJ","distance":6218,"time":8,"i_long":106.74273,"i_lat":-6.276362,"transit":false,"is_transit":false,"station_name":"Pondokranji","line":6},{"is_transit":false,"station_id":"JMU","transit":false,"i_long":106.728916,"time":3,"distance":2179,"i_lat":-6.288927,"line":6,"station_name":"Jurangmangu"},{"i_lat":-6.296963,"distance":1994,"time":4,"is_transit":false,"i_long":106.712277,"transit":false,"line":6,"station_name":"Sudimara","station_id":"SDM"},{"station_id":"RU","distance":4566,"station_name":"Rawa Buntu","i_lat":-6.314823,"line":6,"transit":false,"i_long":106.675475,"time":6,"is_transit":false},{"station_id":"SRP","line":6,"time":4,"i_long":106.66566,"transit":false,"distance":2413,"station_name":"Serpong","is_transit":false,"i_lat":-6.319871},{"distance":1784,"i_long":106.640411,"line":3,"station_id":"CSK","transit":false,"i_lat":-6.32484,"time":4,"is_transit":false,"station_name":"Cisauk"},{"transit":false,"time":4,"distance":2519,"i_long":106.617853,"line":3,"i_lat":-6.329547,"station_id":"CC","is_transit":false,"station_name":"Cicayur"},{"station_name":"Parung Panjang","is_transit":false,"time":8,"line":6,"station_id":"PRP","i_long":106.568863,"i_lat":-6.3441410000000005,"distance":5968,"transit":false},{"station_id":"CJT","distance":7025,"transit":false,"i_long":106.508482,"line":3,"is_transit":false,"i_lat":-6.354349,"time":9,"station_name":"Cilejit"},{"distance":2675,"line":0,"is_transit":false,"station_id":"DAR","time":6,"i_lat":-6.338021,"i_long":106.491338,"transit":false,"station_name":"Daru"},{"time":5,"i_long":106.460812,"line":6,"station_name":"Tenjo","station_id":"TEJ","distance":3902,"transit":false,"i_lat":-6.327251,"is_transit":false},{"time":5,"i_long":106.425991,"station_name":"Tigaraksa","line":6,"station_id":"TGS","transit":false,"distance":2974,"i_lat":-6.328533,"is_transit":false},{"transit":false,"time":3,"line":3,"is_transit":false,"station_name":"Cikoya","station_id":"CKY","distance":2651,"i_lat":-6.33561,"i_long":106.411216}]]}