{"data":[[{"station_id":"GGL","station_name":"Grogol","is_transit":false,"time":0,"distance":0,"transit":false,"i_lat":-6.162021,"i_long":106.788277,"line":5},{"transit":true,"i_long":106.800832,"station_name":"Duri","is_transit":true,"station_id":"DU","time":3,"distance":1700,"i_lat":-6.155215,"line":1},{"station_id":"THB","transit":true,"is_transit":true,"i_long":106.811091,"station_name":"Tanah Abang","distance":3632,"i_lat":-6.185545,"time":8,"line":1},{"is_transit":false,"time":6,"transit":false,"station_name":"Palmerah","distance":3191,"i_lat":-6.207404,"line":6,"station_id":"PLM","i_long":106.79689},{"i_lat":-6.237242,"station_id":"KBY","station_name":"Kebayoran","line":6,"i_long":106.780334,"transit":false,"time":7,"distance":3737,"is_transit":false},{"is_transit":false,"time":8,"distance":6218,"i_long":106.74273,"station_id":"PDJ","station_name":"Pondokranji","transit":false,"i_lat":-6.276362,"line":6},{"i_lat":-6.288927,"station_name":"Jurangmangu","distance":2179,"station_id":"JMU","i_long":106.728916,"time":3,"line":6,"transit":false,"is_transit":false}],[{"line":5,"is_transit":false,"i_lat":-6.162021,"distance":0,"i_long":106.788277,"station_id":"GGL","station_name":"Grogol","time":0,"transit":false},{"station_id":"DU","is_transit":true,"transit":true,"distance":1700,"time":3,"i_lat":-6.155215,"i_long":106.800832,"line":1,"station_name":"Duri"},{"station_id":"AK","is_transit":false,"distance":1230,"time":4,"i_long":106.79867,"station_name":"Angke","line":0,"transit":false,"i_lat":-6.144674},{"station_id":"KPB","is_transit":true,"station_name":"Kampung Bandan","time":9,"i_lat":-6.132549,"i_long":106.826365,"distance":4102,"line":0,"transit":false},{"station_id":"JAKK","i_long":106.812439,"time":3,"station_name":"Jakarta Kota","transit":true,"i_lat":-6.137569,"distance":1364,"line":0,"is_transit":true},{"is_transit":false,"i_lat":-6.141205,"time":4,"distance":1264,"transit":false,"i_long":106.820901,"line":7,"station_name":"Jayakarta","station_id":"JAY"},{"transit":false,"time":2,"station_id":"MGB","i_long":106.82482,"line":2,"is_transit":false,"station_name":"Manggabesar","distance":1080,"i_lat":-6.149769},{"station_id":"SW","transit":false,"i_lat":-6.160725,"line":2,"i_long":106.827103,"distance":906,"station_name":"Sawah Besar","is_transit":false,"time":2},{"i_lat":-6.166716,"distance":1149,"i_long":106.828284,"line":2,"is_transit":false,"time":2,"station_id":"JUA","station_name":"Juanda","transit":false},{"transit":false,"time":4,"is_transit":false,"line":2,"i_lat":-6.186295,"station_id":"GDD","station_name":"Gondangdia","distance":2015,"i_long":106.832183},{"station_name":"Cikini","time":3,"distance":1750,"is_transit":false,"line":0,"transit":false,"i_long":106.840169,"station_id":"CKI","i_lat":-6.198556},{"station_name":"Manggarai","is_transit":true,"station_id":"MRI","distance":1590,"transit":true,"i_lat":-6.209883,"line":0,"time":4,"i_long":106.84912},{"i_lat":-6.202263,"i_long":106.822649,"is_transit":false,"distance":3186,"transit":false,"line":1,"station_id":"SUD","station_name":"Sudirman","time":4},{"station_id":"SUDB","distance":280,"is_transit":false,"transit":false,"time":1,"i_long":106.819881,"i_lat":-6.201433,"station_name":"Sudirman Baru","line":1},{"is_transit":false,"transit":false,"station_id":"KAT","i_long":106.816351,"distance":471,"station_name":"Karet","time":1,"line":1,"i_lat":-6.20132},{"is_transit":true,"station_name":"Tanah Abang","time":5,"transit":true,"line":1,"i_lat":-6.185545,"station_id":"THB","i_long":106.811091,"distance":2029},{"i_lat":-6.207404,"time":6,"station_id":"PLM","is_transit":false,"distance":3191,"line":6,"i_long":106.79689,"station_name":"Palmerah","transit":false},{"time":7,"i_long":106.780334,"transit":false,"line":6,"station_name":"Kebayoran","station_id":"KBY","is_transit":false,"distance":3737,"i_lat":-6.237242},{"station_name":"Pondokranji","i_long":106.74273,"transit":false,"is_transit":false,"i_lat":-6.276362,"line":6,"station_id":"PDJ","distance":6218,"time":8},{"i_lat":-6.288927,"station_name":"Jurangmangu","transit":false,"station_id":"JMU","is_transit":false,"i_long":106.728916,"distance":2179,"time":3,"line":6}],[{"i_lat":-6.162021,"station_id":"GGL","i_long":106.788277,"distance":0,"line":5,"is_transit":false,"station_name":"Grogol","time":0,"transit":false},{"time":3,"i_lat":-6.155215,"i_long":106.800832,"station_name":"Duri","station_id":"DU","transit":true,"line":1,"is_transit":true,"distance":1700},{"line":0,"is_transit":false,"distance":1230,"transit":false,"station_id":"AK","station_name":"Angke","time":4,"i_lat":-6.144674,"i_long":106.79867},{"time":9,"i_lat":-6.132549,"distance":4102,"line":0,"transit":true,"is_transit":true,"i_long":106.826365,"station_id":"KPB","station_name":"Kampung Bandan"},{"i_long":106.836569,"station_name":"Rajawali","i_lat":-6.14505,"distance":1444,"station_id":"RJW","line":11,"is_transit":false,"transit":false,"time":3},{"station_id":"KMO","time":5,"transit":false,"station_name":"Kemayoran","line":11,"distance":1901,"i_long":106.839204,"is_transit":false,"i_lat":-6.161728},{"i_lat":-6.174784,"time":4,"line":11,"station_name":"Pasar Senen","is_transit":false,"distance":1436,"transit":false,"i_long":106.84368,"station_id":"PSE"},{"distance":1567,"transit":false,"line":11,"time":8,"i_long":106.850107,"station_name":"Gang Sentiong","station_id":"GST","i_lat":-6.185975,"is_transit":false},{"station_id":"KMT","i_long":106.855437,"is_transit":false,"line":11,"distance":973,"station_name":"Kramat","i_lat":-6.193792,"transit":false,"time":1},{"transit":false,"distance":1829,"station_name":"Pondok Jati","station_id":"POK","is_transit":false,"i_long":106.861737,"time":2,"i_lat":-6.209188,"line":11},{"distance":1236,"i_long":106.86807400000001,"i_lat":-6.215091,"station_id":"JNG","line":0,"station_name":"Jatinegara","transit":true,"time":9,"is_transit":true},{"i_lat":-6.212485,"i_long":106.858896,"station_name":"Matraman","distance":1377,"line":1,"is_transit":false,"station_id":"MTR","time":2,"transit":false},{"station_id":"MRI","i_long":106.84912,"is_transit":true,"distance":1275,"transit":false,"i_lat":-6.209883,"line":0,"station_name":"Manggarai","time":2},{"i_lat":-6.202263,"line":1,"is_transit":false,"transit":false,"i_long":106.822649,"station_id":"SUD","station_name":"Sudirman","time":4,"distance":3186},{"is_transit":false,"station_id":"SUDB","time":1,"i_lat":-6.201433,"i_long":106.819881,"transit":false,"station_name":"Sudirman Baru","distance":280,"line":1},{"transit":false,"is_transit":false,"station_id":"KAT","time":1,"distance":471,"i_lat":-6.20132,"i_long":106.816351,"line":1,"station_name":"Karet"},{"is_transit":true,"time":5,"station_id":"THB","station_name":"Tanah Abang","distance":2029,"i_lat":-6.185545,"i_long":106.811091,"line":1,"transit":true},{"time":6,"is_transit":false,"line":6,"transit":false,"distance":3191,"i_lat":-6.207404,"station_name":"Palmerah","station_id":"PLM","i_long":106.79689},{"station_id":"KBY","station_name":"Kebayoran","time":7,"transit":false,"line":6,"i_long":106.780334,"is_transit":false,"distance":3737,"i_lat":-6.237242},{"i_lat":-6.276362,"is_transit":false,"time":8,"station_id":"PDJ","line":6,"station_name":"Pondokranji","distance":6218,"transit":false,"i_long":106.74273},{"i_lat":-6.288927,"transit":false,"i_long":106.728916,"line":6,"station_id":"JMU","station_name":"Jurangmangu","time":3,"is_transit":false,"distance":2179}]]}