{"data":[[{"i_long":106.788277,"station_name":"Grogol","transit":false,"line":5,"is_transit":false,"time":0,"station_id":"GGL","distance":0,"i_lat":-6.162021},{"i_long":106.800832,"transit":true,"time":3,"i_lat":-6.155215,"station_name":"Duri","line":1,"distance":1700,"station_id":"DU","is_transit":true},{"transit":false,"time":8,"i_lat":-6.185545,"distance":3632,"station_id":"THB","station_name":"Tanah Abang","is_transit":true,"line":1,"i_long":106.811091},{"is_transit":false,"i_long":106.816351,"station_name":"Karet","transit":false,"i_lat":-6.20132,"line":1,"distance":2029,"station_id":"KAT","time":5},{"transit":false,"station_id":"SUDB","is_transit":false,"i_lat":-6.201433,"distance":471,"i_long":106.819881,"station_name":"Sudirman Baru","line":1,"time":1},{"station_id":"SUD","line":1,"distance":280,"station_name":"Sudirman","time":1,"i_lat":-6.202263,"transit":false,"i_long":106.822649,"is_transit":false},{"station_id":"MRI","i_long":106.84912,"i_lat":-6.209883,"time":4,"line":0,"station_name":"Manggarai","is_transit":true,"transit":true,"distance":3186},{"distance":1590,"line":0,"time":4,"i_lat":-6.198556,"transit":false,"is_transit":false,"i_long":106.840169,"station_id":"CKI","station_name":"Cikini"}],[{"i_lat":-6.162021,"time":0,"transit":false,"i_long":106.788277,"line":5,"is_transit":false,"station_id":"GGL","station_name":"Grogol","distance":0},{"is_transit":true,"station_id":"DU","time":3,"i_lat":-6.155215,"transit":true,"line":1,"distance":1700,"i_long":106.800832,"station_name":"Duri"},{"i_long":106.79867,"station_id":"AK","line":0,"i_lat":-6.144674,"transit":false,"is_transit":false,"station_name":"Angke","time":4,"distance":1230},{"i_long":106.826365,"station_id":"KPB","time":9,"distance":4102,"transit":false,"line":0,"is_transit":true,"i_lat":-6.132549,"station_name":"Kampung Bandan"},{"distance":1364,"station_id":"JAKK","station_name":"Jakarta Kota","time":3,"transit":true,"line":0,"i_lat":-6.137569,"i_long":106.812439,"is_transit":true},{"time":4,"station_name":"Jayakarta","transit":false,"i_long":106.820901,"distance":1264,"station_id":"JAY","is_transit":false,"line":7,"i_lat":-6.141205},{"line":2,"time":2,"transit":false,"station_name":"Manggabesar","is_transit":false,"i_lat":-6.149769,"i_long":106.82482,"station_id":"MGB","distance":1080},{"station_name":"Sawah Besar","station_id":"SW","time":2,"line":2,"is_transit":false,"distance":906,"i_long":106.827103,"transit":false,"i_lat":-6.160725},{"station_name":"Juanda","transit":false,"time":2,"is_transit":false,"i_lat":-6.166716,"distance":1149,"i_long":106.828284,"station_id":"JUA","line":2},{"station_name":"Gondangdia","line":2,"station_id":"GDD","is_transit":false,"time":4,"distance":2015,"i_lat":-6.186295,"i_long":106.832183,"transit":false},{"station_name":"Cikini","i_lat":-6.198556,"time":3,"line":0,"station_id":"CKI","transit":false,"distance":1750,"i_long":106.840169,"is_transit":false}],[{"is_transit":false,"i_lat":-6.162021,"time":0,"i_long":106.788277,"distance":0,"transit":false,"station_id":"GGL","station_name":"Grogol","line":5},{"station_name":"Duri","transit":true,"station_id":"DU","is_transit":true,"line":1,"i_lat":-6.155215,"time":3,"distance":1700,"i_long":106.800832},{"line":0,"station_id":"AK","station_name":"Angke","is_transit":false,"transit":false,"time":4,"distance":1230,"i_lat":-6.144674,"i_long":106.79867},{"distance":4102,"station_id":"KPB","i_long":106.826365,"transit":true,"line":0,"station_name":"Kampung Bandan","is_transit":true,"i_lat":-6.132549,"time":9},{"is_transit":false,"i_lat":-6.14505,"distance":1444,"line":11,"station_id":"RJW","i_long":106.836569,"station_name":"Rajawali","transit":false,"time":3},{"i_lat":-6.161728,"i_long":106.839204,"line":11,"station_name":"Kemayoran","time":5,"station_id":"KMO","distance":1901,"is_transit":false,"transit":false},{"station_id":"PSE","time":4,"distance":1436,"station_name":"Pasar Senen","transit":false,"line":11,"is_transit":false,"i_long":106.84368,"i_lat":-6.174784},{"distance":1567,"i_long":106.850107,"i_lat":-6.185975,"station_name":"Gang Sentiong","is_transit":false,"station_id":"GST","time":8,"line":11,"transit":false},{"is_transit":false,"time":1,"station_id":"KMT","distance":973,"i_lat":-6.193792,"i_long":106.855437,"line":11,"station_name":"Kramat","transit":false},{"i_long":106.861737,"station_name":"Pondok Jati","transit":false,"line":11,"is_transit":false,"time":2,"distance":1829,"i_lat":-6.209188,"station_id":"POK"},{"distance":1236,"line":0,"transit":true,"i_lat":-6.215091,"station_id":"JNG","station_name":"Jatinegara","i_long":106.86807400000001,"time":9,"is_transit":true},{"i_lat":-6.212485,"i_long":106.858896,"station_name":"Matraman","time":2,"is_transit":false,"station_id":"MTR","line":1,"distance":1377,"transit":false},{"is_transit":true,"i_lat":-6.209883,"station_name":"Manggarai","time":2,"station_id":"MRI","line":0,"i_long":106.84912,"transit":true,"distance":1275},{"distance":1590,"transit":false,"line":0,"station_name":"Cikini","station_id":"CKI","time":4,"i_long":106.840169,"i_lat":-6.198556,"is_transit":false}],[{"transit":false,"line":5,"station_id":"GGL","time":0,"is_transit":false,"station_name":"Grogol","i_lat":-6.162021,"i_long":106.788277,"distance":0},{"distance":1700,"is_transit":true,"time":3,"transit":true,"station_id":"DU","line":1,"i_lat":-6.155215,"station_name":"Duri","i_long":106.800832},{"i_lat":-6.185545,"station_name":"Tanah Abang","distance":3632,"transit":false,"line":1,"station_id":"THB","is_transit":true,"time":8,"i_long":106.811091},{"time":5,"line":1,"station_id":"KAT","transit":false,"i_long":106.816351,"station_name":"Karet","distance":2029,"i_lat":-6.20132,"is_transit":false},{"line":1,"station_id":"SUDB","i_long":106.819881,"station_name":"Sudirman Baru","is_transit":false,"time":1,"distance":471,"i_lat":-6.201433,"transit":false},{"line":1,"station_id":"SUD","time":1,"i_lat":-6.202263,"transit":false,"station_name":"Sudirman","distance":280,"i_long":106.822649,"is_transit":false},{"transit":false,"i_lat":-6.209883,"distance":3186,"is_transit":true,"time":4,"station_name":"Manggarai","station_id":"MRI","i_long":106.84912,"line":0},{"distance":1275,"station_id":"MTR","station_name":"Matraman","i_lat":-6.212485,"i_long":106.858896,"line":1,"is_transit":false,"time":2,"transit":false},{"i_long":106.86807400000001,"i_lat":-6.215091,"station_name":"Jatinegara","is_transit":true,"transit":true,"line":0,"time":8,"station_id":"JNG","distance":1377},{"transit":false,"station_id":"POK","distance":1236,"line":11,"station_name":"Pondok Jati","i_lat":-6.209188,"time":2,"i_long":106.861737,"is_transit":false},{"i_long":106.855437,"line":11,"transit":false,"station_name":"Kramat","distance":1829,"i_lat":-6.193792,"is_transit":false,"station_id":"KMT","time":2},{"i_lat":-6.185975,"time":1,"i_long":106.850107,"station_id":"GST","distance":973,"line":11,"station_name":"Gang Sentiong","is_transit":false,"transit":false},{"is_transit":false,"station_name":"Pasar Senen","time":8,"transit":false,"distance":1567,"station_id":"PSE","i_lat":-6.174784,"i_long":106.84368,"line":11},{"i_long":106.839204,"is_transit":false,"station_id":"KMO","time":4,"line":11,"station_name":"Kemayoran","i_lat":-6.161728,"distance":1436,"transit":false},{"is_transit":false,"i_long":106.836569,"line":11,"station_id":"RJW","i_lat":-6.14505,"distance":1901,"station_name":"Rajawali","transit":false,"time":5},{"distance":1444,"station_id":"KPB","station_name":"Kampung Bandan","is_transit":true,"time":3,"i_lat":-6.132549,"transit":true,"i_long":106.826365,"line":0},{"station_id":"JAKK","line":0,"i_long":106.812439,"is_transit":true,"distance":1364,"station_name":"Jakarta Kota","transit":true,"i_lat":-6.137569,"time":3},{"transit":false,"time":4,"is_transit":false,"station_name":"Jayakarta","station_id":"JAY","distance":1264,"i_lat":-6.141205,"i_long":106.820901,"line":7},{"distance":1080,"i_lat":-6.149769,"line":2,"station_name":"Manggabesar","station_id":"MGB","i_long":106.82482,"transit":false,"is_transit":false,"time":2},{"line":2,"transit":false,"i_long":106.827103,"distance":906,"station_name":"Sawah Besar","is_transit":false,"station_id":"SW","time":2,"i_lat":-6.160725},{"station_name":"Juanda","i_long":106.828284,"station_id":"JUA","is_transit":false,"time":2,"transit":false,"i_lat":-6.166716,"distance":1149,"line":2},{"station_id":"GDD","i_lat":-6.186295,"time":4,"station_name":"Gondangdia","is_transit":false,"transit":false,"distance":2015,"i_long":106.832183,"line":2},{"i_lat":-6.198556,"distance":1750,"station_name":"Cikini","transit":false,"is_transit":false,"i_long":106.840169,"line":0,"station_id":"CKI","time":3}]]}