{"data":[[{"time":0,"line":5,"station_name":"Grogol","distance":0,"transit":false,"i_long":106.788277,"is_transit":false,"i_lat":-6.162021,"station_id":"GGL"},{"is_transit":true,"i_long":106.800832,"time":3,"line":1,"transit":true,"i_lat":-6.155215,"station_name":"Duri","station_id":"DU","distance":1700},{"time":8,"i_long":106.811091,"station_name":"Tanah Abang","i_lat":-6.185545,"transit":false,"station_id":"THB","distance":3632,"line":1,"is_transit":true},{"i_long":106.816351,"station_name":"Karet","transit":false,"is_transit":false,"time":5,"i_lat":-6.20132,"line":1,"station_id":"KAT","distance":2029},{"is_transit":false,"i_long":106.819881,"line":1,"transit":false,"i_lat":-6.201433,"station_id":"SUDB","station_name":"Sudirman Baru","time":1,"distance":471},{"transit":false,"distance":280,"i_long":106.822649,"line":1,"station_id":"SUD","time":1,"i_lat":-6.202263,"station_name":"Sudirman","is_transit":false},{"i_long":106.84912,"i_lat":-6.209883,"station_name":"Manggarai","line":0,"station_id":"MRI","time":4,"transit":true,"distance":3186,"is_transit":true},{"station_id":"TEB","station_name":"Tebet","is_transit":false,"distance":2610,"i_lat":-6.226659,"line":2,"time":4,"transit":false,"i_long":106.857948},{"i_lat":-6.242512,"is_transit":false,"i_long":106.856607,"station_id":"CW","transit":false,"line":0,"station_name":"Cawang","time":2,"distance":1230},{"line":0,"time":3,"i_lat":-6.255332,"is_transit":false,"station_id":"DRN","station_name":"Duren Kalibata","distance":1546,"i_long":106.85449,"transit":false},{"time":2,"transit":false,"station_id":"PSMB","i_lat":-6.263214,"line":2,"is_transit":false,"station_name":"Pasar Minggu Baru","distance":824,"i_long":106.851577},{"i_lat":-6.2842400000000005,"i_long":106.843999,"line":2,"transit":false,"station_id":"PSM","station_name":"Pasar Minggu","distance":2380,"time":2,"is_transit":false},{"station_id":"TNT","i_lat":-6.3080680000000005,"line":2,"station_name":"Tanjung Barat","distance":2820,"i_long":106.838896,"time":4,"is_transit":false,"transit":false},{"i_long":106.832616,"distance":2671,"transit":false,"station_name":"Lenteng Agung","station_id":"LNA","is_transit":false,"line":2,"i_lat":-6.330363,"time":3},{"distance":1029,"station_name":"Univ. Pancasila","is_transit":false,"station_id":"UP","transit":false,"i_lat":-6.339291,"time":2,"i_long":106.834175,"line":2},{"station_name":"Univ. Indonesia","i_long":106.831474,"distance":2264,"i_lat":-6.360749,"time":3,"transit":false,"station_id":"UI","line":2,"is_transit":false},{"is_transit":false,"distance":1109,"line":2,"transit":false,"station_id":"POC","station_name":"Pondok Cina","time":2,"i_lat":-6.369073,"i_long":106.831114},{"i_long":106.819451,"transit":false,"station_id":"DPB","is_transit":false,"station_name":"Depokbaru","distance":2727,"time":4,"i_lat":-6.391065,"line":0},{"time":3,"station_id":"DP","station_name":"Depok","i_lat":-6.405256,"line":0,"is_transit":false,"transit":false,"distance":1584,"i_long":106.816926},{"station_id":"CTA","station_name":"Citayam","line":1,"time":6,"distance":5084,"i_lat":-6.448811,"transit":false,"is_transit":true,"i_long":106.800298},{"line":0,"i_lat":-6.46424,"station_id":"CBN","time":10,"station_name":"Cibinong","transit":false,"is_transit":false,"distance":6740,"i_long":106.851978}],[{"i_lat":-6.162021,"station_name":"Grogol","time":0,"transit":false,"i_long":106.788277,"station_id":"GGL","distance":0,"line":5,"is_transit":false},{"station_id":"DU","station_name":"Duri","is_transit":true,"time":3,"i_lat":-6.155215,"i_long":106.800832,"line":1,"distance":1700,"transit":true},{"station_id":"AK","is_transit":false,"station_name":"Angke","line":0,"time":4,"distance":1230,"i_long":106.79867,"i_lat":-6.144674,"transit":false},{"is_transit":true,"time":9,"station_id":"KPB","i_lat":-6.132549,"i_long":106.826365,"distance":4102,"line":0,"station_name":"Kampung Bandan","transit":false},{"i_lat":-6.137569,"distance":1364,"transit":true,"is_transit":true,"time":3,"i_long":106.812439,"station_name":"Jakarta Kota","line":0,"station_id":"JAKK"},{"station_name":"Jayakarta","time":4,"distance":1264,"i_lat":-6.141205,"i_long":106.820901,"transit":false,"is_transit":false,"line":7,"station_id":"JAY"},{"is_transit":false,"time":2,"distance":1080,"station_id":"MGB","station_name":"Manggabesar","transit":false,"i_lat":-6.149769,"line":2,"i_long":106.82482},{"distance":906,"station_id":"SW","i_long":106.827103,"station_name":"Sawah Besar","time":2,"transit":false,"line":2,"is_transit":false,"i_lat":-6.160725},{"station_name":"Juanda","i_long":106.828284,"distance":1149,"station_id":"JUA","is_transit":false,"time":2,"transit":false,"i_lat":-6.166716,"line":2},{"distance":2015,"transit":false,"i_lat":-6.186295,"line":2,"i_long":106.832183,"station_name":"Gondangdia","is_transit":false,"time":4,"station_id":"GDD"},{"transit":false,"time":3,"station_id":"CKI","i_lat":-6.198556,"line":0,"distance":1750,"is_transit":false,"station_name":"Cikini","i_long":106.840169},{"line":0,"station_name":"Manggarai","is_transit":true,"station_id":"MRI","time":4,"transit":true,"i_long":106.84912,"distance":1590,"i_lat":-6.209883},{"line":2,"station_id":"TEB","station_name":"Tebet","time":4,"is_transit":false,"distance":2610,"transit":false,"i_lat":-6.226659,"i_long":106.857948},{"station_id":"CW","is_transit":false,"line":0,"time":2,"i_lat":-6.242512,"station_name":"Cawang","i_long":106.856607,"transit":false,"distance":1230},{"i_lat":-6.255332,"i_long":106.85449,"line":0,"distance":1546,"time":3,"transit":false,"station_name":"Duren Kalibata","station_id":"DRN","is_transit":false},{"is_transit":false,"distance":824,"station_id":"PSMB","line":2,"i_long":106.851577,"transit":false,"i_lat":-6.263214,"time":2,"station_name":"Pasar Minggu Baru"},{"transit":false,"distance":2380,"station_id":"PSM","is_transit":false,"station_name":"Pasar Minggu","i_long":106.843999,"time":2,"line":2,"i_lat":-6.2842400000000005},{"i_lat":-6.3080680000000005,"i_long":106.838896,"time":4,"transit":false,"station_id":"TNT","is_transit":false,"station_name":"Tanjung Barat","line":2,"distance":2820},{"is_transit":false,"i_lat":-6.330363,"i_long":106.832616,"distance":2671,"line":2,"station_id":"LNA","station_name":"Lenteng Agung","time":3,"transit":false},{"station_name":"Univ. Pancasila","transit":false,"i_lat":-6.339291,"i_long":106.834175,"is_transit":false,"time":2,"line":2,"distance":1029,"station_id":"UP"},{"station_id":"UI","i_lat":-6.360749,"transit":false,"i_long":106.831474,"station_name":"Univ. Indonesia","is_transit":false,"time":3,"distance":2264,"line":2},{"transit":false,"i_long":106.831114,"station_name":"Pondok Cina","line":2,"distance":1109,"i_lat":-6.369073,"is_transit":false,"station_id":"POC","time":2},{"station_id":"DPB","distance":2727,"i_lat":-6.391065,"i_long":106.819451,"station_name":"Depokbaru","is_transit":false,"time":4,"line":0,"transit":false},{"distance":1584,"transit":false,"i_lat":-6.405256,"station_id":"DP","i_long":106.816926,"line":0,"station_name":"Depok","is_transit":false,"time":3},{"is_transit":true,"i_lat":-6.448811,"distance":5084,"line":1,"time":6,"station_id":"CTA","station_name":"Citayam","transit":false,"i_long":106.800298},{"line":0,"station_name":"Cibinong","distance":6740,"time":10,"station_id":"CBN","is_transit":false,"i_long":106.851978,"transit":false,"i_lat":-6.46424}],[{"is_transit":false,"transit":false,"station_name":"Grogol","i_lat":-6.162021,"line":5,"station_id":"GGL","distance":0,"i_long":106.788277,"time":0},{"i_long":106.800832,"time":3,"station_name":"Duri","station_id":"DU","transit":true,"line":1,"distance":1700,"is_transit":true,"i_lat":-6.155215},{"station_id":"AK","i_lat":-6.144674,"time":4,"i_long":106.79867,"station_name":"Angke","distance":1230,"is_transit":false,"transit":false,"line":0},{"transit":true,"is_transit":true,"line":0,"station_name":"Kampung Bandan","i_long":106.826365,"station_id":"KPB","time":9,"distance":4102,"i_lat":-6.132549},{"is_transit":false,"transit":false,"i_lat":-6.14505,"line":11,"station_id":"RJW","distance":1444,"station_name":"Rajawali","i_long":106.836569,"time":3},{"distance":1901,"time":5,"i_long":106.839204,"station_id":"KMO","transit":false,"is_transit":false,"i_lat":-6.161728,"line":11,"station_name":"Kemayoran"},{"i_lat":-6.174784,"station_id":"PSE","is_transit":false,"time":4,"i_long":106.84368,"station_name":"Pasar Senen","transit":false,"distance":1436,"line":11},{"station_id":"GST","line":11,"station_name":"Gang Sentiong","is_transit":false,"i_long":106.850107,"transit":false,"time":8,"i_lat":-6.185975,"distance":1567},{"station_name":"Kramat","station_id":"KMT","transit":false,"i_long":106.855437,"line":11,"is_transit":false,"distance":973,"time":1,"i_lat":-6.193792},{"station_name":"Pondok Jati","line":11,"i_lat":-6.209188,"time":2,"transit":false,"station_id":"POK","i_long":106.861737,"distance":1829,"is_transit":false},{"i_lat":-6.215091,"station_name":"Jatinegara","is_transit":true,"transit":true,"time":9,"line":0,"distance":1236,"i_long":106.86807400000001,"station_id":"JNG"},{"station_name":"Matraman","is_transit":false,"transit":false,"time":2,"line":1,"distance":1377,"i_long":106.858896,"i_lat":-6.212485,"station_id":"MTR"},{"station_id":"MRI","station_name":"Manggarai","transit":true,"i_lat":-6.209883,"is_transit":true,"time":2,"i_long":106.84912,"line":0,"distance":1275},{"station_id":"TEB","i_lat":-6.226659,"transit":false,"i_long":106.857948,"time":4,"is_transit":false,"line":2,"station_name":"Tebet","distance":2610},{"i_long":106.856607,"distance":1230,"station_name":"Cawang","station_id":"CW","time":2,"i_lat":-6.242512,"is_transit":false,"transit":false,"line":0},{"station_name":"Duren Kalibata","distance":1546,"line":0,"station_id":"DRN","transit":false,"i_lat":-6.255332,"time":3,"i_long":106.85449,"is_transit":false},{"line":2,"transit":false,"time":2,"is_transit":false,"distance":824,"station_id":"PSMB","station_name":"Pasar Minggu Baru","i_long":106.851577,"i_lat":-6.263214},{"distance":2380,"station_id":"PSM","i_long":106.843999,"is_transit":false,"station_name":"Pasar Minggu","transit":false,"time":2,"i_lat":-6.2842400000000005,"line":2},{"station_name":"Tanjung Barat","i_long":106.838896,"time":4,"transit":false,"line":2,"distance":2820,"i_lat":-6.3080680000000005,"station_id":"TNT","is_transit":false},{"station_id":"LNA","time":3,"transit":false,"is_transit":false,"distance":2671,"i_long":106.832616,"i_lat":-6.330363,"station_name":"Lenteng Agung","line":2},{"is_transit":false,"station_id":"UP","station_name":"Univ. Pancasila","transit":false,"i_lat":-6.339291,"time":2,"distance":1029,"i_long":106.834175,"line":2},{"i_lat":-6.360749,"i_long":106.831474,"station_name":"Univ. Indonesia","is_transit":false,"line":2,"distance":2264,"time":3,"transit":false,"station_id":"UI"},{"time":2,"line":2,"distance":1109,"transit":false,"i_lat":-6.369073,"station_id":"POC","is_transit":false,"i_long":106.831114,"station_name":"Pondok Cina"},{"transit":false,"i_lat":-6.391065,"time":4,"i_long":106.819451,"station_id":"DPB","line":0,"is_transit":false,"distance":2727,"station_name":"Depokbaru"},{"station_name":"Depok","is_transit":false,"transit":false,"station_id":"DP","i_lat":-6.405256,"i_long":106.816926,"distance":1584,"time":3,"line":0},{"line":1,"transit":false,"time":6,"distance":5084,"station_name":"Citayam","is_transit":true,"station_id":"CTA","i_long":106.800298,"i_lat":-6.448811},{"time":10,"station_name":"Cibinong","station_id":"CBN","i_long":106.851978,"is_transit":false,"distance":6740,"transit":false,"line":0,"i_lat":-6.46424}]]}