{"data":[[{"line":5,"time":0,"station_id":"GGL","transit":false,"i_long":106.788277,"distance":0,"is_transit":false,"station_name":"Grogol","i_lat":-6.162021},{"time":3,"distance":1700,"station_id":"DU","transit":true,"i_long":106.800832,"line":1,"station_name":"Duri","i_lat":-6.155215,"is_transit":true},{"is_transit":true,"transit":false,"distance":3632,"i_lat":-6.185545,"line":1,"station_name":"Tanah Abang","station_id":"THB","time":8,"i_long":106.811091},{"line":1,"is_transit":false,"station_name":"Karet","i_lat":-6.20132,"transit":false,"time":5,"i_long":106.816351,"station_id":"KAT","distance":2029},{"transit":false,"i_lat":-6.201433,"is_transit":false,"time":1,"station_id":"SUDB","i_long":106.819881,"station_name":"Sudirman Baru","line":1,"distance":471},{"is_transit":false,"distance":280,"transit":false,"i_lat":-6.202263,"time":1,"i_long":106.822649,"line":1,"station_id":"SUD","station_name":"Sudirman"},{"i_lat":-6.209883,"i_long":106.84912,"line":0,"is_transit":true,"distance":3186,"time":4,"station_id":"MRI","station_name":"Manggarai","transit":true},{"distance":2610,"station_name":"Tebet","station_id":"TEB","time":4,"transit":false,"i_long":106.857948,"i_lat":-6.226659,"line":2,"is_transit":false},{"i_lat":-6.242512,"is_transit":false,"distance":1230,"time":2,"transit":false,"i_long":106.856607,"line":0,"station_name":"Cawang","station_id":"CW"},{"i_lat":-6.255332,"station_id":"DRN","is_transit":false,"time":3,"line":0,"station_name":"Duren Kalibata","i_long":106.85449,"distance":1546,"transit":false},{"is_transit":false,"distance":824,"line":2,"transit":false,"i_lat":-6.263214,"station_id":"PSMB","time":2,"station_name":"Pasar Minggu Baru","i_long":106.851577},{"station_name":"Pasar Minggu","i_long":106.843999,"is_transit":false,"i_lat":-6.2842400000000005,"transit":false,"distance":2380,"line":2,"station_id":"PSM","time":2},{"station_name":"Tanjung Barat","transit":false,"is_transit":false,"i_lat":-6.3080680000000005,"i_long":106.838896,"time":4,"station_id":"TNT","distance":2820,"line":2},{"line":2,"i_lat":-6.330363,"time":3,"station_name":"Lenteng Agung","i_long":106.832616,"is_transit":false,"station_id":"LNA","distance":2671,"transit":false},{"i_long":106.834175,"distance":1029,"time":2,"station_name":"Univ. Pancasila","i_lat":-6.339291,"line":2,"is_transit":false,"transit":false,"station_id":"UP"},{"time":3,"distance":2264,"is_transit":false,"transit":false,"station_name":"Univ. Indonesia","line":2,"station_id":"UI","i_lat":-6.360749,"i_long":106.831474}],[{"station_id":"GGL","is_transit":false,"time":0,"transit":false,"station_name":"Grogol","distance":0,"i_long":106.788277,"i_lat":-6.162021,"line":5},{"i_long":106.800832,"time":3,"station_name":"Duri","i_lat":-6.155215,"line":1,"distance":1700,"transit":true,"is_transit":true,"station_id":"DU"},{"transit":false,"station_name":"Angke","i_lat":-6.144674,"station_id":"AK","distance":1230,"i_long":106.79867,"line":0,"time":4,"is_transit":false},{"time":9,"i_long":106.826365,"line":0,"i_lat":-6.132549,"station_name":"Kampung Bandan","station_id":"KPB","distance":4102,"is_transit":true,"transit":false},{"i_lat":-6.137569,"line":0,"transit":true,"distance":1364,"is_transit":true,"station_id":"JAKK","time":3,"station_name":"Jakarta Kota","i_long":106.812439},{"i_long":106.820901,"i_lat":-6.141205,"time":4,"transit":false,"line":7,"distance":1264,"is_transit":false,"station_id":"JAY","station_name":"Jayakarta"},{"i_long":106.82482,"time":2,"i_lat":-6.149769,"line":2,"station_name":"Manggabesar","distance":1080,"is_transit":false,"station_id":"MGB","transit":false},{"is_transit":false,"station_id":"SW","distance":906,"line":2,"time":2,"i_lat":-6.160725,"i_long":106.827103,"station_name":"Sawah Besar","transit":false},{"distance":1149,"transit":false,"i_lat":-6.166716,"i_long":106.828284,"station_id":"JUA","is_transit":false,"time":2,"station_name":"Juanda","line":2},{"is_transit":false,"transit":false,"i_lat":-6.186295,"i_long":106.832183,"station_id":"GDD","distance":2015,"station_name":"Gondangdia","line":2,"time":4},{"i_long":106.840169,"line":0,"station_id":"CKI","transit":false,"i_lat":-6.198556,"distance":1750,"station_name":"Cikini","is_transit":false,"time":3},{"station_id":"MRI","time":4,"i_lat":-6.209883,"i_long":106.84912,"distance":1590,"transit":true,"line":0,"is_transit":true,"station_name":"Manggarai"},{"line":2,"i_lat":-6.226659,"station_id":"TEB","transit":false,"i_long":106.857948,"distance":2610,"time":4,"station_name":"Tebet","is_transit":false},{"station_name":"Cawang","is_transit":false,"transit":false,"i_lat":-6.242512,"distance":1230,"line":0,"time":2,"i_long":106.856607,"station_id":"CW"},{"station_name":"Duren Kalibata","transit":false,"station_id":"DRN","is_transit":false,"line":0,"time":3,"distance":1546,"i_lat":-6.255332,"i_long":106.85449},{"station_name":"Pasar Minggu Baru","i_lat":-6.263214,"line":2,"is_transit":false,"i_long":106.851577,"distance":824,"transit":false,"station_id":"PSMB","time":2},{"station_name":"Pasar Minggu","i_long":106.843999,"distance":2380,"is_transit":false,"transit":false,"i_lat":-6.2842400000000005,"line":2,"time":2,"station_id":"PSM"},{"is_transit":false,"distance":2820,"transit":false,"i_long":106.838896,"line":2,"station_name":"Tanjung Barat","time":4,"i_lat":-6.3080680000000005,"station_id":"TNT"},{"distance":2671,"i_lat":-6.330363,"i_long":106.832616,"line":2,"station_name":"Lenteng Agung","station_id":"LNA","time":3,"transit":false,"is_transit":false},{"is_transit":false,"station_id":"UP","time":2,"distance":1029,"i_long":106.834175,"transit":false,"i_lat":-6.339291,"station_name":"Univ. Pancasila","line":2},{"line":2,"transit":false,"i_long":106.831474,"is_transit":false,"station_name":"Univ. Indonesia","i_lat":-6.360749,"time":3,"distance":2264,"station_id":"UI"}],[{"i_long":106.788277,"time":0,"i_lat":-6.162021,"is_transit":false,"station_id":"GGL","transit":false,"line":5,"station_name":"Grogol","distance":0},{"station_id":"DU","time":3,"distance":1700,"station_name":"Duri","transit":true,"is_transit":true,"i_long":106.800832,"i_lat":-6.155215,"line":1},{"transit":false,"line":0,"is_transit":false,"station_name":"Angke","distance":1230,"station_id":"AK","i_lat":-6.144674,"time":4,"i_long":106.79867},{"station_id":"KPB","distance":4102,"time":9,"transit":true,"i_long":106.826365,"line":0,"is_transit":true,"i_lat":-6.132549,"station_name":"Kampung Bandan"},{"time":3,"is_transit":false,"i_lat":-6.14505,"i_long":106.836569,"transit":false,"line":11,"station_id":"RJW","station_name":"Rajawali","distance":1444},{"time":5,"line":11,"distance":1901,"station_name":"Kemayoran","is_transit":false,"station_id":"KMO","i_long":106.839204,"i_lat":-6.161728,"transit":false},{"is_transit":false,"transit":false,"i_long":106.84368,"i_lat":-6.174784,"station_name":"Pasar Senen","time":4,"line":11,"station_id":"PSE","distance":1436},{"distance":1567,"line":11,"station_name":"Gang Sentiong","i_long":106.850107,"is_transit":false,"i_lat":-6.185975,"station_id":"GST","transit":false,"time":8},{"i_long":106.855437,"station_id":"KMT","time":1,"line":11,"station_name":"Kramat","transit":false,"is_transit":false,"distance":973,"i_lat":-6.193792},{"station_id":"POK","distance":1829,"station_name":"Pondok Jati","is_transit":false,"transit":false,"i_long":106.861737,"line":11,"i_lat":-6.209188,"time":2},{"i_lat":-6.215091,"transit":true,"line":0,"i_long":106.86807400000001,"is_transit":true,"time":9,"station_id":"JNG","station_name":"Jatinegara","distance":1236},{"line":1,"is_transit":false,"station_id":"MTR","distance":1377,"time":2,"transit":false,"station_name":"Matraman","i_lat":-6.212485,"i_long":106.858896},{"station_id":"MRI","time":2,"line":0,"station_name":"Manggarai","i_lat":-6.209883,"i_long":106.84912,"transit":true,"distance":1275,"is_transit":true},{"distance":2610,"station_name":"Tebet","time":4,"transit":false,"i_lat":-6.226659,"i_long":106.857948,"station_id":"TEB","line":2,"is_transit":false},{"i_lat":-6.242512,"transit":false,"time":2,"station_id":"CW","is_transit":false,"line":0,"i_long":106.856607,"distance":1230,"station_name":"Cawang"},{"is_transit":false,"line":0,"i_long":106.85449,"station_id":"DRN","time":3,"station_name":"Duren Kalibata","i_lat":-6.255332,"transit":false,"distance":1546},{"i_lat":-6.263214,"transit":false,"i_long":106.851577,"line":2,"station_name":"Pasar Minggu Baru","station_id":"PSMB","is_transit":false,"time":2,"distance":824},{"is_transit":false,"time":2,"station_name":"Pasar Minggu","i_long":106.843999,"distance":2380,"station_id":"PSM","transit":false,"i_lat":-6.2842400000000005,"line":2},{"transit":false,"time":4,"station_name":"Tanjung Barat","i_lat":-6.3080680000000005,"line":2,"i_long":106.838896,"distance":2820,"station_id":"TNT","is_transit":false},{"distance":2671,"i_lat":-6.330363,"is_transit":false,"i_long":106.832616,"station_id":"LNA","time":3,"station_name":"Lenteng Agung","line":2,"transit":false},{"is_transit":false,"line":2,"transit":false,"i_long":106.834175,"station_id":"UP","time":2,"distance":1029,"i_lat":-6.339291,"station_name":"Univ. Pancasila"},{"transit":false,"i_long":106.831474,"distance":2264,"is_transit":false,"time":3,"station_id":"UI","station_name":"Univ. Indonesia","line":2,"i_lat":-6.360749}]]}