{"data":[[{"is_transit":false,"i_lat":-6.162021,"line":5,"distance":0,"station_id":"GGL","time":0,"transit":false,"station_name":"Grogol","i_long":106.788277},{"distance":1700,"is_transit":true,"i_lat":-6.155215,"i_long":106.800832,"station_id":"DU","time":3,"station_name":"Duri","transit":true,"line":1},{"station_id":"THB","line":1,"time":8,"distance":3632,"i_lat":-6.185545,"is_transit":true,"i_long":106.811091,"transit":true,"station_name":"Tanah Abang"},{"station_id":"PLM","station_name":"Palmerah","is_transit":false,"distance":3191,"i_lat":-6.207404,"time":6,"i_long":106.79689,"line":6,"transit":false},{"is_transit":false,"time":7,"i_lat":-6.237242,"station_id":"KBY","transit":false,"i_long":106.780334,"station_name":"Kebayoran","distance":3737,"line":6},{"transit":false,"distance":6218,"i_lat":-6.276362,"time":8,"station_name":"Pondokranji","station_id":"PDJ","line":6,"is_transit":false,"i_long":106.74273},{"is_transit":false,"i_lat":-6.288927,"station_name":"Jurangmangu","distance":2179,"time":3,"station_id":"JMU","i_long":106.728916,"line":6,"transit":false},{"distance":1994,"i_long":106.712277,"line":6,"i_lat":-6.296963,"time":4,"transit":false,"station_name":"Sudimara","station_id":"SDM","is_transit":false},{"time":6,"station_name":"Rawa Buntu","line":6,"distance":4566,"i_lat":-6.314823,"station_id":"RU","transit":false,"is_transit":false,"i_long":106.675475},{"transit":false,"station_name":"Serpong","distance":2413,"i_long":106.66566,"i_lat":-6.319871,"line":6,"time":4,"is_transit":false,"station_id":"SRP"},{"i_lat":-6.32484,"station_name":"Cisauk","line":3,"transit":false,"is_transit":false,"station_id":"CSK","distance":1784,"i_long":106.640411,"time":4},{"is_transit":false,"transit":false,"station_name":"Cicayur","station_id":"CC","distance":2519,"i_lat":-6.329547,"i_long":106.617853,"line":3,"time":4},{"distance":5968,"station_name":"Parung Panjang","time":8,"is_transit":false,"i_lat":-6.3441410000000005,"transit":false,"line":6,"i_long":106.568863,"station_id":"PRP"},{"time":9,"i_long":106.508482,"station_name":"Cilejit","distance":7025,"line":3,"i_lat":-6.354349,"station_id":"CJT","transit":false,"is_transit":false},{"station_name":"Daru","i_lat":-6.338021,"station_id":"DAR","distance":2675,"time":6,"transit":false,"line":0,"i_long":106.491338,"is_transit":false},{"i_long":106.460812,"line":6,"transit":false,"time":5,"i_lat":-6.327251,"is_transit":false,"station_name":"Tenjo","distance":3902,"station_id":"TEJ"},{"station_id":"TGS","i_lat":-6.328533,"transit":false,"station_name":"Tigaraksa","distance":2974,"line":6,"time":5,"is_transit":false,"i_long":106.425991},{"time":3,"transit":false,"i_lat":-6.33561,"distance":2651,"station_name":"Cikoya","station_id":"CKY","i_long":106.411216,"is_transit":false,"line":3}],[{"i_long":106.788277,"is_transit":false,"transit":false,"distance":0,"line":5,"time":0,"station_name":"Grogol","station_id":"GGL","i_lat":-6.162021},{"station_id":"DU","i_long":106.800832,"line":1,"is_transit":true,"time":3,"distance":1700,"i_lat":-6.155215,"transit":true,"station_name":"Duri"},{"i_lat":-6.144674,"line":1,"transit":false,"time":4,"i_long":106.79867,"is_transit":false,"station_id":"AK","distance":1230,"station_name":"Angke"},{"line":4,"station_id":"KPB","i_long":106.826365,"distance":4102,"time":9,"is_transit":true,"transit":true,"station_name":"Kampung Bandan","i_lat":-6.132549},{"distance":1364,"is_transit":true,"line":2,"i_lat":-6.137569,"station_id":"JAKK","time":3,"i_long":106.812439,"station_name":"Jakarta Kota","transit":true},{"i_long":106.820901,"i_lat":-6.141205,"transit":false,"station_name":"Jayakarta","line":2,"distance":1264,"is_transit":false,"time":4,"station_id":"JAY"},{"i_lat":-6.149769,"is_transit":false,"distance":1080,"station_name":"Manggabesar","time":2,"transit":false,"station_id":"MGB","i_long":106.82482,"line":2},{"i_lat":-6.160725,"time":2,"station_name":"Sawah Besar","line":2,"is_transit":false,"transit":false,"i_long":106.827103,"distance":906,"station_id":"SW"},{"time":2,"is_transit":false,"station_id":"JUA","i_long":106.828284,"station_name":"Juanda","line":2,"distance":1149,"transit":false,"i_lat":-6.166716},{"transit":false,"time":4,"i_long":106.832183,"is_transit":false,"station_id":"GDD","line":2,"station_name":"Gondangdia","distance":2015,"i_lat":-6.186295},{"i_long":106.840169,"transit":false,"station_id":"CKI","line":2,"time":3,"station_name":"Cikini","i_lat":-6.198556,"is_transit":false,"distance":1750},{"is_transit":true,"time":4,"transit":true,"distance":1590,"i_lat":-6.209883,"station_id":"MRI","i_long":106.84912,"line":2,"station_name":"Manggarai"},{"i_long":106.822649,"line":1,"station_name":"Sudirman","station_id":"SUD","i_lat":-6.202263,"transit":false,"distance":3186,"time":4,"is_transit":false},{"time":1,"is_transit":false,"line":1,"distance":280,"transit":false,"station_id":"SUDB","i_lat":-6.201433,"station_name":"Sudirman Baru","i_long":106.819881},{"distance":471,"is_transit":false,"station_name":"Karet","transit":false,"time":1,"station_id":"KAT","i_lat":-6.20132,"i_long":106.816351,"line":1},{"distance":2029,"station_id":"THB","station_name":"Tanah Abang","is_transit":true,"time":5,"i_lat":-6.185545,"i_long":106.811091,"line":1,"transit":true},{"station_id":"PLM","i_long":106.79689,"station_name":"Palmerah","transit":false,"i_lat":-6.207404,"line":6,"distance":3191,"time":6,"is_transit":false},{"station_id":"KBY","i_lat":-6.237242,"line":6,"i_long":106.780334,"is_transit":false,"station_name":"Kebayoran","transit":false,"time":7,"distance":3737},{"i_long":106.74273,"i_lat":-6.276362,"transit":false,"time":8,"line":6,"is_transit":false,"distance":6218,"station_name":"Pondokranji","station_id":"PDJ"},{"line":6,"station_name":"Jurangmangu","i_lat":-6.288927,"transit":false,"is_transit":false,"time":3,"distance":2179,"station_id":"JMU","i_long":106.728916},{"time":4,"i_lat":-6.296963,"station_id":"SDM","transit":false,"line":6,"station_name":"Sudimara","is_transit":false,"distance":1994,"i_long":106.712277},{"station_name":"Rawa Buntu","station_id":"RU","i_lat":-6.314823,"time":6,"is_transit":false,"line":6,"transit":false,"distance":4566,"i_long":106.675475},{"i_lat":-6.319871,"line":6,"distance":2413,"time":4,"station_name":"Serpong","transit":false,"is_transit":false,"i_long":106.66566,"station_id":"SRP"},{"time":4,"i_long":106.640411,"is_transit":false,"station_name":"Cisauk","transit":false,"i_lat":-6.32484,"station_id":"CSK","distance":1784,"line":3},{"i_long":106.617853,"line":3,"time":4,"distance":2519,"transit":false,"station_name":"Cicayur","station_id":"CC","i_lat":-6.329547,"is_transit":false},{"time":8,"station_id":"PRP","i_long":106.568863,"station_name":"Parung Panjang","line":6,"distance":5968,"is_transit":false,"i_lat":-6.3441410000000005,"transit":false},{"i_lat":-6.354349,"distance":7025,"station_name":"Cilejit","time":9,"is_transit":false,"station_id":"CJT","transit":false,"i_long":106.508482,"line":3},{"transit":false,"i_lat":-6.338021,"i_long":106.491338,"station_id":"DAR","time":6,"is_transit":false,"station_name":"Daru","line":0,"distance":2675},{"line":6,"station_id":"TEJ","transit":false,"distance":3902,"is_transit":false,"station_name":"Tenjo","i_long":106.460812,"i_lat":-6.327251,"time":5},{"station_name":"Tigaraksa","distance":2974,"line":6,"time":5,"is_transit":false,"station_id":"TGS","i_long":106.425991,"i_lat":-6.328533,"transit":false},{"time":3,"station_name":"Cikoya","i_lat":-6.33561,"line":3,"distance":2651,"transit":false,"station_id":"CKY","i_long":106.411216,"is_transit":false}],[{"i_long":106.788277,"time":0,"station_name":"Grogol","i_lat":-6.162021,"transit":false,"is_transit":false,"station_id":"GGL","distance":0,"line":5},{"transit":true,"line":1,"station_id":"DU","time":3,"is_transit":true,"distance":1700,"station_name":"Duri","i_long":106.800832,"i_lat":-6.155215},{"is_transit":false,"i_long":106.79867,"line":1,"transit":false,"i_lat":-6.144674,"distance":1230,"time":4,"station_name":"Angke","station_id":"AK"},{"time":9,"i_long":106.826365,"i_lat":-6.132549,"station_name":"Kampung Bandan","station_id":"KPB","transit":true,"distance":4102,"is_transit":true,"line":4},{"station_name":"Rajawali","station_id":"RJW","transit":false,"i_lat":-6.14505,"time":3,"distance":1444,"is_transit":false,"line":11,"i_long":106.836569},{"station_name":"Kemayoran","is_transit":false,"time":5,"i_lat":-6.161728,"station_id":"KMO","transit":false,"distance":1901,"i_long":106.839204,"line":11},{"is_transit":false,"i_lat":-6.174784,"station_name":"Pasar Senen","distance":1436,"station_id":"PSE","line":11,"time":4,"i_long":106.84368,"transit":false},{"station_name":"Gang Sentiong","i_long":106.850107,"transit":false,"i_lat":-6.185975,"is_transit":false,"station_id":"GST","line":11,"time":8,"distance":1567},{"i_lat":-6.193792,"distance":973,"time":1,"i_long":106.855437,"station_id":"KMT","station_name":"Kramat","line":11,"transit":false,"is_transit":false},{"i_long":106.861737,"line":11,"is_transit":false,"distance":1829,"station_name":"Pondok Jati","i_lat":-6.209188,"transit":false,"station_id":"POK","time":2},{"station_id":"JNG","transit":true,"time":9,"distance":1236,"i_long":106.86807400000001,"is_transit":true,"station_name":"Jatinegara","i_lat":-6.215091,"line":1},{"is_transit":false,"line":1,"station_name":"Matraman","time":2,"transit":false,"distance":1377,"i_lat":-6.212485,"station_id":"MTR","i_long":106.858896},{"station_name":"Manggarai","time":2,"is_transit":false,"distance":1275,"transit":false,"i_long":106.84912,"line":2,"i_lat":-6.209883,"station_id":"MRI"},{"is_transit":false,"i_long":106.822649,"distance":3186,"time":4,"transit":false,"station_name":"Sudirman","station_id":"SUD","i_lat":-6.202263,"line":1},{"transit":false,"i_lat":-6.201433,"station_id":"SUDB","line":1,"time":1,"station_name":"Sudirman Baru","distance":280,"i_long":106.819881,"is_transit":false},{"station_id":"KAT","station_name":"Karet","distance":471,"time":1,"i_lat":-6.20132,"transit":false,"line":1,"is_transit":false,"i_long":106.816351},{"is_transit":true,"line":1,"station_id":"THB","time":5,"distance":2029,"i_long":106.811091,"transit":true,"station_name":"Tanah Abang","i_lat":-6.185545},{"line":6,"i_lat":-6.207404,"transit":false,"distance":3191,"station_name":"Palmerah","i_long":106.79689,"is_transit":false,"station_id":"PLM","time":6},{"distance":3737,"is_transit":false,"i_lat":-6.237242,"line":6,"time":7,"station_name":"Kebayoran","station_id":"KBY","i_long":106.780334,"transit":false},{"transit":false,"i_lat":-6.276362,"distance":6218,"is_transit":false,"i_long":106.74273,"time":8,"station_name":"Pondokranji","station_id":"PDJ","line":6},{"distance":2179,"i_long":106.728916,"is_transit":false,"i_lat":-6.288927,"line":6,"station_id":"JMU","time":3,"transit":false,"station_name":"Jurangmangu"},{"distance":1994,"station_id":"SDM","time":4,"station_name":"Sudimara","is_transit":false,"i_long":106.712277,"i_lat":-6.296963,"transit":false,"line":6},{"station_name":"Rawa Buntu","distance":4566,"station_id":"RU","is_transit":false,"line":6,"i_lat":-6.314823,"time":6,"transit":false,"i_long":106.675475},{"i_lat":-6.319871,"line":6,"time":4,"station_name":"Serpong","transit":false,"station_id":"SRP","distance":2413,"i_long":106.66566,"is_transit":false},{"transit":false,"distance":1784,"station_name":"Cisauk","station_id":"CSK","i_lat":-6.32484,"time":4,"i_long":106.640411,"line":3,"is_transit":false},{"i_lat":-6.329547,"is_transit":false,"station_name":"Cicayur","line":3,"transit":false,"time":4,"station_id":"CC","distance":2519,"i_long":106.617853},{"i_lat":-6.3441410000000005,"station_id":"PRP","distance":5968,"i_long":106.568863,"is_transit":false,"transit":false,"station_name":"Parung Panjang","line":6,"time":8},{"line":3,"transit":false,"station_id":"CJT","i_long":106.508482,"station_name":"Cilejit","is_transit":false,"distance":7025,"i_lat":-6.354349,"time":9},{"i_long":106.491338,"distance":2675,"station_name":"Daru","is_transit":false,"transit":false,"line":0,"i_lat":-6.338021,"time":6,"station_id":"DAR"},{"distance":3902,"is_transit":false,"i_lat":-6.327251,"line":6,"station_name":"Tenjo","time":5,"station_id":"TEJ","i_long":106.460812,"transit":false},{"station_name":"Tigaraksa","i_lat":-6.328533,"transit":false,"is_transit":false,"line":6,"distance":2974,"time":5,"station_id":"TGS","i_long":106.425991},{"is_transit":false,"distance":2651,"i_lat":-6.33561,"time":3,"station_name":"Cikoya","transit":false,"station_id":"CKY","i_long":106.411216,"line":3}]]}