{"data":[[{"i_long":106.788277,"is_transit":false,"transit":false,"distance":0,"station_name":"Grogol","time":0,"i_lat":-6.162021,"line":5,"station_id":"GGL"},{"station_id":"DU","i_long":106.800832,"distance":1700,"is_transit":true,"station_name":"Duri","time":3,"i_lat":-6.155215,"line":1,"transit":true},{"distance":3632,"time":8,"is_transit":false,"line":1,"station_name":"Tanah Abang","station_id":"THB","i_long":106.811091,"i_lat":-6.185545,"transit":false},{"i_long":106.816351,"is_transit":false,"station_id":"KAT","distance":2029,"time":5,"i_lat":-6.20132,"station_name":"Karet","line":1,"transit":false},{"distance":471,"i_lat":-6.201433,"i_long":106.819881,"line":1,"station_name":"Sudirman Baru","is_transit":false,"time":1,"transit":false,"station_id":"SUDB"},{"station_id":"SUD","is_transit":false,"station_name":"Sudirman","distance":280,"line":1,"i_lat":-6.202263,"time":1,"transit":false,"i_long":106.822649},{"i_lat":-6.209883,"distance":3186,"transit":false,"is_transit":false,"station_id":"MRI","time":4,"station_name":"Manggarai","i_long":106.84912,"line":2},{"is_transit":false,"distance":1275,"i_long":106.858896,"line":1,"station_name":"Matraman","time":2,"i_lat":-6.212485,"transit":false,"station_id":"MTR"},{"station_id":"JNG","distance":1377,"i_long":106.86807400000001,"i_lat":-6.215091,"station_name":"Jatinegara","transit":false,"time":8,"is_transit":false,"line":1},{"time":3,"transit":false,"i_long":106.899548,"is_transit":false,"distance":3395,"line":1,"i_lat":-6.2135,"station_id":"KLD","station_name":"Klender"},{"time":2,"station_name":"Buaran","station_id":"BUA","line":1,"distance":3100,"i_lat":-6.215568,"is_transit":false,"transit":false,"i_long":106.922662},{"is_transit":false,"station_name":"Klenderbaru","i_lat":-6.217455,"time":1,"line":1,"station_id":"KLDB","transit":false,"distance":1305,"i_long":106.939679},{"station_name":"Cakung","time":8,"is_transit":false,"station_id":"CUK","transit":false,"i_lat":-6.219053,"i_long":106.951283,"distance":1385,"line":1},{"transit":false,"distance":3097,"i_lat":-6.224515,"time":3,"station_name":"Kranji","i_long":106.977657,"station_id":"KRI","is_transit":false,"line":1},{"transit":false,"i_long":106.997013,"line":1,"time":4,"i_lat":-6.236616,"station_id":"BKS","distance":2520,"is_transit":false,"station_name":"Bekasi"},{"time":2,"distance":2368,"line":1,"station_name":"Bekasi Timur","transit":false,"station_id":"BKST","i_lat":-6.248029,"i_long":107.016735,"is_transit":false},{"is_transit":false,"i_long":107.055722,"transit":false,"station_name":"Tambun","line":1,"time":7,"distance":4460,"station_id":"TB","i_lat":-6.258864},{"distance":3420,"time":3,"line":1,"is_transit":false,"i_lat":-6.261877,"station_name":"Cibitung","transit":false,"i_long":107.083084,"station_id":"CIT"},{"station_name":"Metland Telaga Murni","time":2,"is_transit":false,"line":1,"i_long":107.093313,"distance":2800,"i_lat":-6.262938,"transit":false,"station_id":"TLM"}],[{"station_id":"GGL","transit":false,"distance":0,"station_name":"Grogol","i_lat":-6.162021,"i_long":106.788277,"is_transit":false,"line":5,"time":0},{"station_id":"DU","station_name":"Duri","i_lat":-6.155215,"distance":1700,"line":1,"time":3,"transit":true,"is_transit":true,"i_long":106.800832},{"line":1,"station_id":"AK","i_long":106.79867,"transit":false,"station_name":"Angke","i_lat":-6.144674,"is_transit":false,"time":4,"distance":1230},{"distance":4102,"i_long":106.826365,"line":4,"station_id":"KPB","time":9,"is_transit":true,"station_name":"Kampung Bandan","i_lat":-6.132549,"transit":true},{"i_lat":-6.14505,"i_long":106.836569,"time":3,"station_id":"RJW","transit":false,"distance":1444,"is_transit":false,"station_name":"Rajawali","line":11},{"station_name":"Kemayoran","i_lat":-6.161728,"line":11,"station_id":"KMO","time":5,"transit":false,"is_transit":false,"distance":1901,"i_long":106.839204},{"time":4,"station_id":"PSE","transit":false,"i_long":106.84368,"line":11,"is_transit":false,"distance":1436,"i_lat":-6.174784,"station_name":"Pasar Senen"},{"distance":1567,"transit":false,"time":8,"station_id":"GST","i_long":106.850107,"is_transit":false,"station_name":"Gang Sentiong","i_lat":-6.185975,"line":11},{"line":11,"time":1,"station_id":"KMT","distance":973,"station_name":"Kramat","i_lat":-6.193792,"is_transit":false,"transit":false,"i_long":106.855437},{"is_transit":false,"station_id":"POK","i_long":106.861737,"distance":1829,"station_name":"Pondok Jati","transit":false,"time":2,"line":11,"i_lat":-6.209188},{"i_long":106.86807400000001,"line":1,"time":9,"i_lat":-6.215091,"distance":1236,"transit":true,"station_name":"Jatinegara","station_id":"JNG","is_transit":true},{"i_long":106.899548,"station_id":"KLD","station_name":"Klender","i_lat":-6.2135,"distance":3395,"is_transit":false,"transit":false,"time":3,"line":1},{"transit":false,"time":2,"is_transit":false,"station_id":"BUA","line":1,"distance":3100,"station_name":"Buaran","i_lat":-6.215568,"i_long":106.922662},{"station_name":"Klenderbaru","time":1,"distance":1305,"line":1,"station_id":"KLDB","is_transit":false,"i_lat":-6.217455,"i_long":106.939679,"transit":false},{"line":1,"transit":false,"station_name":"Cakung","is_transit":false,"time":8,"distance":1385,"station_id":"CUK","i_lat":-6.219053,"i_long":106.951283},{"station_name":"Kranji","line":1,"distance":3097,"time":3,"transit":false,"station_id":"KRI","i_long":106.977657,"is_transit":false,"i_lat":-6.224515},{"line":1,"time":4,"is_transit":false,"distance":2520,"transit":false,"i_lat":-6.236616,"station_name":"Bekasi","station_id":"BKS","i_long":106.997013},{"distance":2368,"station_name":"Bekasi Timur","is_transit":false,"i_lat":-6.248029,"i_long":107.016735,"station_id":"BKST","transit":false,"time":2,"line":1},{"i_long":107.055722,"transit":false,"i_lat":-6.258864,"station_name":"Tambun","station_id":"TB","time":7,"is_transit":false,"line":1,"distance":4460},{"station_id":"CIT","transit":false,"i_long":107.083084,"line":1,"distance":3420,"i_lat":-6.261877,"station_name":"Cibitung","time":3,"is_transit":false},{"i_lat":-6.262938,"i_long":107.093313,"time":2,"is_transit":false,"line":1,"station_id":"TLM","distance":2800,"transit":false,"station_name":"Metland Telaga Murni"}],[{"i_long":106.788277,"line":5,"time":0,"transit":false,"i_lat":-6.162021,"distance":0,"is_transit":false,"station_id":"GGL","station_name":"Grogol"},{"line":1,"time":3,"distance":1700,"station_name":"Duri","i_long":106.800832,"is_transit":true,"transit":true,"station_id":"DU","i_lat":-6.155215},{"station_id":"AK","station_name":"Angke","distance":1230,"i_long":106.79867,"is_transit":false,"transit":false,"line":1,"time":4,"i_lat":-6.144674},{"time":9,"transit":true,"i_lat":-6.132549,"line":4,"distance":4102,"is_transit":true,"i_long":106.826365,"station_name":"Kampung Bandan","station_id":"KPB"},{"is_transit":true,"time":3,"transit":true,"station_id":"JAKK","i_lat":-6.137569,"distance":1364,"station_name":"Jakarta Kota","i_long":106.812439,"line":2},{"is_transit":false,"time":4,"station_id":"JAY","i_lat":-6.141205,"transit":false,"station_name":"Jayakarta","line":2,"distance":1264,"i_long":106.820901},{"transit":false,"i_long":106.82482,"i_lat":-6.149769,"station_name":"Manggabesar","is_transit":false,"line":2,"time":2,"distance":1080,"station_id":"MGB"},{"distance":906,"station_name":"Sawah Besar","station_id":"SW","i_long":106.827103,"is_transit":false,"transit":false,"line":2,"i_lat":-6.160725,"time":2},{"i_lat":-6.166716,"line":2,"station_id":"JUA","is_transit":false,"time":2,"transit":false,"distance":1149,"i_long":106.828284,"station_name":"Juanda"},{"line":2,"is_transit":false,"i_long":106.832183,"i_lat":-6.186295,"transit":false,"distance":2015,"station_id":"GDD","station_name":"Gondangdia","time":4},{"transit":false,"station_name":"Cikini","i_long":106.840169,"station_id":"CKI","is_transit":false,"distance":1750,"time":3,"i_lat":-6.198556,"line":2},{"line":2,"time":4,"transit":true,"station_name":"Manggarai","i_long":106.84912,"station_id":"MRI","distance":1590,"i_lat":-6.209883,"is_transit":true},{"time":2,"station_id":"MTR","station_name":"Matraman","i_lat":-6.212485,"line":1,"i_long":106.858896,"distance":1275,"is_transit":false,"transit":false},{"distance":1377,"station_name":"Jatinegara","i_lat":-6.215091,"is_transit":false,"time":8,"station_id":"JNG","i_long":106.86807400000001,"transit":false,"line":1},{"is_transit":false,"i_lat":-6.2135,"distance":3395,"line":1,"i_long":106.899548,"time":3,"station_name":"Klender","transit":false,"station_id":"KLD"},{"i_lat":-6.215568,"time":2,"transit":false,"i_long":106.922662,"station_name":"Buaran","is_transit":false,"station_id":"BUA","distance":3100,"line":1},{"line":1,"transit":false,"is_transit":false,"i_long":106.939679,"station_name":"Klenderbaru","station_id":"KLDB","time":1,"i_lat":-6.217455,"distance":1305},{"i_lat":-6.219053,"distance":1385,"station_id":"CUK","transit":false,"station_name":"Cakung","time":8,"i_long":106.951283,"is_transit":false,"line":1},{"distance":3097,"i_lat":-6.224515,"station_id":"KRI","station_name":"Kranji","i_long":106.977657,"transit":false,"line":1,"time":3,"is_transit":false},{"time":4,"station_name":"Bekasi","is_transit":false,"i_lat":-6.236616,"i_long":106.997013,"station_id":"BKS","line":1,"transit":false,"distance":2520},{"time":2,"i_lat":-6.248029,"transit":false,"distance":2368,"i_long":107.016735,"line":1,"is_transit":false,"station_name":"Bekasi Timur","station_id":"BKST"},{"station_id":"TB","is_transit":false,"i_long":107.055722,"distance":4460,"line":1,"time":7,"transit":false,"station_name":"Tambun","i_lat":-6.258864},{"i_long":107.083084,"time":3,"station_id":"CIT","distance":3420,"transit":false,"is_transit":false,"line":1,"i_lat":-6.261877,"station_name":"Cibitung"},{"station_id":"TLM","transit":false,"is_transit":false,"i_lat":-6.262938,"i_long":107.093313,"time":2,"line":1,"station_name":"Metland Telaga Murni","distance":2800}],[{"i_lat":-6.162021,"station_name":"Grogol","time":0,"transit":false,"is_transit":false,"station_id":"GGL","distance":0,"line":5,"i_long":106.788277},{"station_id":"DU","distance":1700,"time":3,"is_transit":true,"i_lat":-6.155215,"i_long":106.800832,"station_name":"Duri","line":1,"transit":true},{"transit":false,"station_id":"THB","is_transit":false,"distance":3632,"i_long":106.811091,"line":1,"i_lat":-6.185545,"station_name":"Tanah Abang","time":8},{"distance":2029,"is_transit":false,"i_lat":-6.20132,"station_id":"KAT","i_long":106.816351,"station_name":"Karet","line":1,"transit":false,"time":5},{"distance":471,"is_transit":false,"time":1,"station_id":"SUDB","station_name":"Sudirman Baru","transit":false,"i_long":106.819881,"i_lat":-6.201433,"line":1},{"distance":280,"i_long":106.822649,"line":1,"station_name":"Sudirman","station_id":"SUD","time":1,"i_lat":-6.202263,"transit":false,"is_transit":false},{"i_lat":-6.209883,"is_transit":true,"distance":3186,"time":4,"station_name":"Manggarai","i_long":106.84912,"transit":true,"station_id":"MRI","line":2},{"transit":false,"distance":1590,"station_name":"Cikini","is_transit":false,"i_lat":-6.198556,"station_id":"CKI","line":2,"i_long":106.840169,"time":4},{"distance":1750,"station_name":"Gondangdia","is_transit":false,"i_long":106.832183,"station_id":"GDD","transit":false,"i_lat":-6.186295,"line":2,"time":3},{"time":4,"distance":2015,"i_lat":-6.166716,"line":2,"i_long":106.828284,"station_id":"JUA","station_name":"Juanda","is_transit":false,"transit":false},{"station_name":"Sawah Besar","station_id":"SW","i_lat":-6.160725,"transit":false,"distance":1149,"i_long":106.827103,"time":2,"line":2,"is_transit":false},{"transit":false,"time":2,"i_lat":-6.149769,"station_id":"MGB","i_long":106.82482,"distance":906,"station_name":"Manggabesar","line":2,"is_transit":false},{"is_transit":false,"line":2,"time":2,"distance":1080,"transit":false,"i_lat":-6.141205,"i_long":106.820901,"station_id":"JAY","station_name":"Jayakarta"},{"i_lat":-6.137569,"i_long":106.812439,"line":2,"transit":true,"is_transit":true,"station_id":"JAKK","time":4,"distance":1264,"station_name":"Jakarta Kota"},{"is_transit":true,"i_lat":-6.132549,"i_long":106.826365,"line":4,"station_id":"KPB","transit":true,"time":3,"station_name":"Kampung Bandan","distance":1364},{"is_transit":false,"distance":1444,"time":3,"station_id":"RJW","i_long":106.836569,"station_name":"Rajawali","i_lat":-6.14505,"transit":false,"line":11},{"transit":false,"distance":1901,"i_lat":-6.161728,"line":11,"station_id":"KMO","time":5,"is_transit":false,"station_name":"Kemayoran","i_long":106.839204},{"distance":1436,"transit":false,"i_lat":-6.174784,"i_long":106.84368,"station_id":"PSE","is_transit":false,"station_name":"Pasar Senen","time":4,"line":11},{"is_transit":false,"transit":false,"i_long":106.850107,"i_lat":-6.185975,"time":8,"station_name":"Gang Sentiong","station_id":"GST","line":11,"distance":1567},{"time":1,"i_long":106.855437,"line":11,"transit":false,"station_name":"Kramat","station_id":"KMT","is_transit":false,"distance":973,"i_lat":-6.193792},{"time":2,"is_transit":false,"line":11,"distance":1829,"i_lat":-6.209188,"transit":false,"i_long":106.861737,"station_id":"POK","station_name":"Pondok Jati"},{"is_transit":true,"station_id":"JNG","distance":1236,"i_long":106.86807400000001,"station_name":"Jatinegara","transit":true,"i_lat":-6.215091,"time":9,"line":1},{"is_transit":false,"i_long":106.899548,"station_id":"KLD","time":3,"i_lat":-6.2135,"distance":3395,"line":1,"transit":false,"station_name":"Klender"},{"line":1,"station_name":"Buaran","time":2,"transit":false,"i_lat":-6.215568,"station_id":"BUA","is_transit":false,"i_long":106.922662,"distance":3100},{"station_name":"Klenderbaru","distance":1305,"i_lat":-6.217455,"time":1,"transit":false,"i_long":106.939679,"is_transit":false,"line":1,"station_id":"KLDB"},{"line":1,"i_long":106.951283,"station_id":"CUK","transit":false,"i_lat":-6.219053,"time":8,"distance":1385,"station_name":"Cakung","is_transit":false},{"station_id":"KRI","i_long":106.977657,"i_lat":-6.224515,"transit":false,"time":3,"line":1,"is_transit":false,"distance":3097,"station_name":"Kranji"},{"transit":false,"line":1,"is_transit":false,"station_id":"BKS","time":4,"distance":2520,"i_long":106.997013,"i_lat":-6.236616,"station_name":"Bekasi"},{"station_name":"Bekasi Timur","is_transit":false,"station_id":"BKST","transit":false,"i_lat":-6.248029,"i_long":107.016735,"distance":2368,"time":2,"line":1},{"station_name":"Tambun","distance":4460,"time":7,"transit":false,"i_lat":-6.258864,"station_id":"TB","line":1,"i_long":107.055722,"is_transit":false},{"station_id":"CIT","station_name":"Cibitung","i_lat":-6.261877,"transit":false,"is_transit":false,"line":1,"time":3,"distance":3420,"i_long":107.083084},{"i_lat":-6.262938,"transit":false,"is_transit":false,"station_name":"Metland Telaga Murni","distance":2800,"time":2,"i_long":107.093313,"station_id":"TLM","line":1}]]}