{"data":[[{"transit":false,"line":5,"station_name":"Grogol","station_id":"GGL","distance":0,"is_transit":false,"time":0,"i_long":106.788277,"i_lat":-6.162021},{"station_name":"Duri","station_id":"DU","transit":true,"i_long":106.800832,"line":1,"time":3,"is_transit":true,"i_lat":-6.155215,"distance":1700},{"distance":3632,"station_id":"THB","i_lat":-6.185545,"time":8,"transit":true,"station_name":"Tanah Abang","is_transit":true,"line":1,"i_long":106.811091},{"transit":false,"i_lat":-6.207404,"i_long":106.79689,"is_transit":false,"distance":3191,"line":6,"station_id":"PLM","station_name":"Palmerah","time":6},{"i_lat":-6.237242,"station_id":"KBY","is_transit":false,"i_long":106.780334,"station_name":"Kebayoran","time":7,"distance":3737,"line":6,"transit":false},{"is_transit":false,"i_lat":-6.276362,"line":6,"i_long":106.74273,"station_id":"PDJ","time":8,"distance":6218,"transit":false,"station_name":"Pondokranji"},{"i_lat":-6.288927,"time":3,"line":6,"i_long":106.728916,"distance":2179,"station_id":"JMU","is_transit":false,"transit":false,"station_name":"Jurangmangu"},{"transit":false,"distance":1994,"line":6,"station_name":"Sudimara","i_lat":-6.296963,"i_long":106.712277,"time":4,"is_transit":false,"station_id":"SDM"},{"is_transit":false,"transit":false,"station_name":"Rawa Buntu","i_long":106.675475,"distance":4566,"i_lat":-6.314823,"station_id":"RU","line":6,"time":6},{"station_id":"SRP","station_name":"Serpong","transit":false,"time":4,"is_transit":false,"i_long":106.66566,"line":6,"distance":2413,"i_lat":-6.319871}],[{"line":5,"is_transit":false,"i_long":106.788277,"distance":0,"station_id":"GGL","station_name":"Grogol","time":0,"transit":false,"i_lat":-6.162021},{"transit":true,"i_long":106.800832,"i_lat":-6.155215,"station_name":"Duri","is_transit":true,"station_id":"DU","line":1,"time":3,"distance":1700},{"is_transit":false,"time":4,"distance":1230,"i_lat":-6.144674,"transit":false,"station_id":"AK","i_long":106.79867,"station_name":"Angke","line":0},{"transit":false,"i_lat":-6.132549,"is_transit":true,"i_long":106.826365,"line":0,"distance":4102,"time":9,"station_name":"Kampung Bandan","station_id":"KPB"},{"i_long":106.812439,"transit":true,"is_transit":true,"time":3,"i_lat":-6.137569,"line":0,"station_name":"Jakarta Kota","station_id":"JAKK","distance":1364},{"transit":false,"i_lat":-6.141205,"station_name":"Jayakarta","is_transit":false,"distance":1264,"line":7,"i_long":106.820901,"station_id":"JAY","time":4},{"distance":1080,"station_name":"Manggabesar","is_transit":false,"time":2,"i_long":106.82482,"transit":false,"line":2,"station_id":"MGB","i_lat":-6.149769},{"i_lat":-6.160725,"i_long":106.827103,"distance":906,"transit":false,"is_transit":false,"station_id":"SW","station_name":"Sawah Besar","time":2,"line":2},{"time":2,"station_name":"Juanda","distance":1149,"i_lat":-6.166716,"station_id":"JUA","transit":false,"i_long":106.828284,"line":2,"is_transit":false},{"i_long":106.832183,"time":4,"station_id":"GDD","station_name":"Gondangdia","is_transit":false,"line":2,"distance":2015,"i_lat":-6.186295,"transit":false},{"line":0,"i_lat":-6.198556,"is_transit":false,"station_name":"Cikini","distance":1750,"transit":false,"station_id":"CKI","time":3,"i_long":106.840169},{"station_id":"MRI","distance":1590,"time":4,"station_name":"Manggarai","i_long":106.84912,"line":0,"is_transit":true,"i_lat":-6.209883,"transit":true},{"i_lat":-6.202263,"station_name":"Sudirman","station_id":"SUD","line":1,"distance":3186,"i_long":106.822649,"is_transit":false,"time":4,"transit":false},{"time":1,"distance":280,"station_id":"SUDB","station_name":"Sudirman Baru","line":1,"is_transit":false,"i_long":106.819881,"transit":false,"i_lat":-6.201433},{"station_name":"Karet","time":1,"station_id":"KAT","transit":false,"is_transit":false,"i_long":106.816351,"i_lat":-6.20132,"line":1,"distance":471},{"transit":true,"is_transit":true,"i_long":106.811091,"time":5,"line":1,"station_name":"Tanah Abang","distance":2029,"i_lat":-6.185545,"station_id":"THB"},{"time":6,"distance":3191,"is_transit":false,"station_id":"PLM","station_name":"Palmerah","transit":false,"i_lat":-6.207404,"i_long":106.79689,"line":6},{"line":6,"station_id":"KBY","is_transit":false,"distance":3737,"i_lat":-6.237242,"i_long":106.780334,"station_name":"Kebayoran","time":7,"transit":false},{"time":8,"transit":false,"is_transit":false,"line":6,"station_name":"Pondokranji","i_long":106.74273,"station_id":"PDJ","i_lat":-6.276362,"distance":6218},{"station_name":"Jurangmangu","time":3,"is_transit":false,"distance":2179,"station_id":"JMU","transit":false,"i_long":106.728916,"i_lat":-6.288927,"line":6},{"distance":1994,"station_name":"Sudimara","i_lat":-6.296963,"is_transit":false,"time":4,"i_long":106.712277,"line":6,"transit":false,"station_id":"SDM"},{"i_lat":-6.314823,"i_long":106.675475,"station_name":"Rawa Buntu","is_transit":false,"station_id":"RU","line":6,"transit":false,"time":6,"distance":4566},{"line":6,"time":4,"transit":false,"distance":2413,"is_transit":false,"station_id":"SRP","station_name":"Serpong","i_lat":-6.319871,"i_long":106.66566}],[{"transit":false,"i_long":106.788277,"line":5,"station_id":"GGL","time":0,"distance":0,"i_lat":-6.162021,"is_transit":false,"station_name":"Grogol"},{"station_name":"Duri","time":3,"i_long":106.800832,"station_id":"DU","is_transit":true,"distance":1700,"transit":true,"line":1,"i_lat":-6.155215},{"time":4,"line":0,"i_long":106.79867,"transit":false,"station_name":"Angke","i_lat":-6.144674,"distance":1230,"is_transit":false,"station_id":"AK"},{"line":0,"station_name":"Kampung Bandan","transit":true,"i_long":106.826365,"i_lat":-6.132549,"distance":4102,"time":9,"station_id":"KPB","is_transit":true},{"distance":1444,"is_transit":false,"transit":false,"i_lat":-6.14505,"i_long":106.836569,"time":3,"line":11,"station_id":"RJW","station_name":"Rajawali"},{"station_name":"Kemayoran","distance":1901,"transit":false,"line":11,"i_long":106.839204,"is_transit":false,"time":5,"i_lat":-6.161728,"station_id":"KMO"},{"line":11,"station_id":"PSE","distance":1436,"time":4,"station_name":"Pasar Senen","transit":false,"i_lat":-6.174784,"i_long":106.84368,"is_transit":false},{"is_transit":false,"station_id":"GST","station_name":"Gang Sentiong","distance":1567,"transit":false,"i_long":106.850107,"i_lat":-6.185975,"time":8,"line":11},{"time":1,"transit":false,"station_name":"Kramat","i_lat":-6.193792,"line":11,"station_id":"KMT","i_long":106.855437,"is_transit":false,"distance":973},{"time":2,"transit":false,"i_lat":-6.209188,"line":11,"distance":1829,"i_long":106.861737,"is_transit":false,"station_id":"POK","station_name":"Pondok Jati"},{"is_transit":true,"station_id":"JNG","time":9,"line":0,"distance":1236,"transit":true,"station_name":"Jatinegara","i_lat":-6.215091,"i_long":106.86807400000001},{"line":1,"time":2,"is_transit":false,"i_long":106.858896,"distance":1377,"transit":false,"station_id":"MTR","i_lat":-6.212485,"station_name":"Matraman"},{"station_name":"Manggarai","time":2,"distance":1275,"transit":false,"i_long":106.84912,"line":0,"is_transit":true,"i_lat":-6.209883,"station_id":"MRI"},{"station_name":"Sudirman","station_id":"SUD","i_long":106.822649,"transit":false,"is_transit":false,"distance":3186,"i_lat":-6.202263,"time":4,"line":1},{"line":1,"time":1,"distance":280,"i_lat":-6.201433,"station_id":"SUDB","transit":false,"station_name":"Sudirman Baru","i_long":106.819881,"is_transit":false},{"distance":471,"line":1,"station_name":"Karet","time":1,"is_transit":false,"i_lat":-6.20132,"station_id":"KAT","i_long":106.816351,"transit":false},{"station_id":"THB","transit":true,"line":1,"distance":2029,"station_name":"Tanah Abang","time":5,"is_transit":true,"i_lat":-6.185545,"i_long":106.811091},{"station_id":"PLM","time":6,"transit":false,"i_long":106.79689,"line":6,"i_lat":-6.207404,"distance":3191,"is_transit":false,"station_name":"Palmerah"},{"line":6,"station_name":"Kebayoran","i_lat":-6.237242,"transit":false,"is_transit":false,"time":7,"i_long":106.780334,"station_id":"KBY","distance":3737},{"line":6,"i_lat":-6.276362,"i_long":106.74273,"transit":false,"station_name":"Pondokranji","is_transit":false,"time":8,"distance":6218,"station_id":"PDJ"},{"distance":2179,"transit":false,"line":6,"station_id":"JMU","i_lat":-6.288927,"station_name":"Jurangmangu","i_long":106.728916,"is_transit":false,"time":3},{"i_lat":-6.296963,"i_long":106.712277,"is_transit":false,"line":6,"station_id":"SDM","time":4,"transit":false,"distance":1994,"station_name":"Sudimara"},{"line":6,"i_lat":-6.314823,"distance":4566,"i_long":106.675475,"station_name":"Rawa Buntu","time":6,"transit":false,"is_transit":false,"station_id":"RU"},{"station_id":"SRP","distance":2413,"is_transit":false,"time":4,"transit":false,"station_name":"Serpong","i_lat":-6.319871,"line":6,"i_long":106.66566}]]}