{"data":[[{"is_transit":false,"station_name":"Grogol","distance":0,"i_long":106.788277,"line":5,"i_lat":-6.162021,"time":0,"station_id":"GGL","transit":false},{"station_name":"Duri","i_lat":-6.155215,"transit":true,"is_transit":true,"distance":1700,"station_id":"DU","time":3,"line":1,"i_long":106.800832},{"is_transit":false,"station_name":"Angke","time":4,"line":1,"distance":1230,"station_id":"AK","i_lat":-6.144674,"i_long":106.79867,"transit":false}],[{"line":5,"distance":0,"station_id":"GGL","transit":false,"i_long":106.788277,"station_name":"Grogol","time":0,"i_lat":-6.162021,"is_transit":false},{"distance":1700,"is_transit":true,"i_long":106.800832,"station_id":"DU","time":3,"i_lat":-6.155215,"line":1,"station_name":"Duri","transit":true},{"transit":false,"station_name":"Tanah Abang","is_transit":false,"distance":3632,"i_lat":-6.185545,"time":8,"i_long":106.811091,"line":1,"station_id":"THB"},{"station_id":"KAT","transit":false,"station_name":"Karet","i_lat":-6.20132,"is_transit":false,"line":1,"i_long":106.816351,"time":5,"distance":2029},{"distance":471,"i_lat":-6.201433,"is_transit":false,"line":1,"i_long":106.819881,"station_name":"Sudirman Baru","time":1,"transit":false,"station_id":"SUDB"},{"i_long":106.822649,"station_id":"SUD","is_transit":false,"time":1,"transit":false,"station_name":"Sudirman","i_lat":-6.202263,"line":1,"distance":280},{"transit":true,"i_lat":-6.209883,"time":4,"station_name":"Manggarai","i_long":106.84912,"distance":3186,"line":2,"station_id":"MRI","is_transit":true},{"i_lat":-6.198556,"station_name":"Cikini","station_id":"CKI","time":4,"distance":1590,"transit":false,"i_long":106.840169,"is_transit":false,"line":2},{"station_id":"GDD","is_transit":false,"transit":false,"distance":1750,"time":3,"line":2,"i_lat":-6.186295,"i_long":106.832183,"station_name":"Gondangdia"},{"i_long":106.828284,"station_id":"JUA","time":4,"transit":false,"line":2,"distance":2015,"i_lat":-6.166716,"is_transit":false,"station_name":"Juanda"},{"distance":1149,"i_long":106.827103,"is_transit":false,"time":2,"line":2,"i_lat":-6.160725,"station_id":"SW","station_name":"Sawah Besar","transit":false},{"line":2,"time":2,"transit":false,"station_id":"MGB","is_transit":false,"distance":906,"i_lat":-6.149769,"i_long":106.82482,"station_name":"Manggabesar"},{"station_id":"JAY","line":2,"i_lat":-6.141205,"i_long":106.820901,"transit":false,"station_name":"Jayakarta","is_transit":false,"time":2,"distance":1080},{"station_id":"JAKK","distance":1264,"line":2,"i_lat":-6.137569,"station_name":"Jakarta Kota","time":4,"i_long":106.812439,"is_transit":true,"transit":true},{"station_name":"Kampung Bandan","is_transit":true,"distance":1364,"line":4,"i_lat":-6.132549,"station_id":"KPB","time":3,"transit":true,"i_long":106.826365},{"i_long":106.79867,"i_lat":-6.144674,"line":1,"time":9,"transit":false,"station_id":"AK","station_name":"Angke","is_transit":false,"distance":4102}],[{"i_lat":-6.162021,"line":5,"distance":0,"time":0,"is_transit":false,"i_long":106.788277,"station_name":"Grogol","station_id":"GGL","transit":false},{"distance":1700,"is_transit":true,"station_name":"Duri","time":3,"i_lat":-6.155215,"i_long":106.800832,"transit":true,"line":1,"station_id":"DU"},{"station_name":"Tanah Abang","station_id":"THB","time":8,"distance":3632,"i_lat":-6.185545,"line":1,"transit":false,"is_transit":false,"i_long":106.811091},{"station_name":"Karet","i_lat":-6.20132,"i_long":106.816351,"time":5,"station_id":"KAT","is_transit":false,"line":1,"transit":false,"distance":2029},{"distance":471,"i_long":106.819881,"station_id":"SUDB","is_transit":false,"time":1,"line":1,"station_name":"Sudirman Baru","i_lat":-6.201433,"transit":false},{"station_id":"SUD","i_long":106.822649,"line":1,"i_lat":-6.202263,"distance":280,"transit":false,"is_transit":false,"station_name":"Sudirman","time":1},{"time":4,"i_long":106.84912,"is_transit":false,"i_lat":-6.209883,"line":2,"station_name":"Manggarai","station_id":"MRI","distance":3186,"transit":false},{"distance":1275,"i_long":106.858896,"station_name":"Matraman","line":1,"i_lat":-6.212485,"transit":false,"station_id":"MTR","is_transit":false,"time":2},{"transit":true,"i_lat":-6.215091,"i_long":106.86807400000001,"line":1,"is_transit":true,"station_id":"JNG","station_name":"Jatinegara","time":8,"distance":1377},{"distance":1236,"is_transit":false,"transit":false,"line":11,"i_long":106.861737,"station_name":"Pondok Jati","station_id":"POK","i_lat":-6.209188,"time":2},{"time":2,"is_transit":false,"line":11,"station_name":"Kramat","i_long":106.855437,"transit":false,"i_lat":-6.193792,"distance":1829,"station_id":"KMT"},{"is_transit":false,"i_long":106.850107,"station_id":"GST","transit":false,"distance":973,"time":1,"line":11,"i_lat":-6.185975,"station_name":"Gang Sentiong"},{"station_name":"Pasar Senen","line":11,"station_id":"PSE","i_long":106.84368,"distance":1567,"is_transit":false,"i_lat":-6.174784,"time":8,"transit":false},{"is_transit":false,"station_id":"KMO","station_name":"Kemayoran","i_lat":-6.161728,"distance":1436,"transit":false,"time":4,"i_long":106.839204,"line":11},{"i_long":106.836569,"line":11,"i_lat":-6.14505,"transit":false,"time":5,"distance":1901,"station_name":"Rajawali","station_id":"RJW","is_transit":false},{"station_name":"Kampung Bandan","line":4,"i_long":106.826365,"is_transit":true,"time":3,"distance":1444,"station_id":"KPB","i_lat":-6.132549,"transit":true},{"time":9,"station_name":"Angke","i_long":106.79867,"i_lat":-6.144674,"line":1,"station_id":"AK","is_transit":false,"transit":false,"distance":4102}]]}