{"data":[[{"is_transit":false,"i_lat":-6.162021,"distance":0,"i_long":106.788277,"time":0,"station_id":"GGL","line":5,"transit":false,"station_name":"Grogol"},{"transit":true,"line":1,"station_name":"Duri","time":3,"station_id":"DU","i_lat":-6.155215,"i_long":106.800832,"is_transit":true,"distance":1700},{"station_id":"THB","is_transit":false,"transit":false,"line":1,"i_lat":-6.185545,"station_name":"Tanah Abang","i_long":106.811091,"distance":3632,"time":8},{"station_name":"Karet","is_transit":false,"station_id":"KAT","i_lat":-6.20132,"line":1,"distance":2029,"transit":false,"time":5,"i_long":106.816351},{"transit":false,"i_long":106.819881,"time":1,"station_id":"SUDB","station_name":"Sudirman Baru","i_lat":-6.201433,"distance":471,"is_transit":false,"line":1},{"line":1,"station_id":"SUD","station_name":"Sudirman","transit":false,"time":1,"distance":280,"is_transit":false,"i_lat":-6.202263,"i_long":106.822649},{"station_name":"Manggarai","is_transit":true,"distance":3186,"transit":true,"time":4,"i_long":106.84912,"station_id":"MRI","i_lat":-6.209883,"line":2},{"distance":2610,"time":4,"station_id":"TEB","is_transit":false,"i_lat":-6.226659,"station_name":"Tebet","i_long":106.857948,"transit":false,"line":2},{"distance":1230,"is_transit":false,"time":2,"station_name":"Cawang","transit":false,"i_lat":-6.242512,"line":2,"station_id":"CW","i_long":106.856607},{"distance":1546,"station_id":"DRN","station_name":"Duren Kalibata","i_long":106.85449,"i_lat":-6.255332,"line":2,"is_transit":false,"time":3,"transit":false},{"time":2,"station_name":"Pasar Minggu Baru","station_id":"PSMB","line":2,"i_long":106.851577,"distance":824,"transit":false,"i_lat":-6.263214,"is_transit":false},{"line":2,"distance":2380,"station_id":"PSM","i_long":106.843999,"time":2,"is_transit":false,"i_lat":-6.2842400000000005,"transit":false,"station_name":"Pasar Minggu"}],[{"distance":0,"i_long":106.788277,"i_lat":-6.162021,"line":5,"time":0,"station_name":"Grogol","transit":false,"station_id":"GGL","is_transit":false},{"i_long":106.800832,"i_lat":-6.155215,"is_transit":true,"distance":1700,"station_id":"DU","line":1,"transit":true,"station_name":"Duri","time":3},{"transit":false,"station_id":"AK","station_name":"Angke","is_transit":false,"i_lat":-6.144674,"time":4,"distance":1230,"line":1,"i_long":106.79867},{"transit":true,"line":4,"time":9,"station_name":"Kampung Bandan","i_lat":-6.132549,"distance":4102,"i_long":106.826365,"station_id":"KPB","is_transit":true},{"station_id":"JAKK","i_long":106.812439,"time":3,"i_lat":-6.137569,"is_transit":true,"line":2,"transit":true,"distance":1364,"station_name":"Jakarta Kota"},{"transit":false,"is_transit":false,"time":4,"station_id":"JAY","i_long":106.820901,"line":2,"distance":1264,"station_name":"Jayakarta","i_lat":-6.141205},{"is_transit":false,"line":2,"station_name":"Manggabesar","station_id":"MGB","distance":1080,"transit":false,"time":2,"i_lat":-6.149769,"i_long":106.82482},{"distance":906,"time":2,"i_long":106.827103,"i_lat":-6.160725,"line":2,"transit":false,"station_name":"Sawah Besar","is_transit":false,"station_id":"SW"},{"i_lat":-6.166716,"i_long":106.828284,"transit":false,"line":2,"time":2,"station_name":"Juanda","is_transit":false,"distance":1149,"station_id":"JUA"},{"station_id":"GDD","i_long":106.832183,"time":4,"i_lat":-6.186295,"is_transit":false,"distance":2015,"transit":false,"station_name":"Gondangdia","line":2},{"transit":false,"station_id":"CKI","i_long":106.840169,"i_lat":-6.198556,"line":2,"station_name":"Cikini","time":3,"distance":1750,"is_transit":false},{"distance":1590,"station_id":"MRI","i_lat":-6.209883,"transit":false,"station_name":"Manggarai","time":4,"line":2,"i_long":106.84912,"is_transit":false},{"i_long":106.857948,"transit":false,"distance":2610,"i_lat":-6.226659,"line":2,"station_name":"Tebet","time":4,"is_transit":false,"station_id":"TEB"},{"station_id":"CW","time":2,"i_lat":-6.242512,"distance":1230,"line":2,"transit":false,"station_name":"Cawang","is_transit":false,"i_long":106.856607},{"distance":1546,"i_lat":-6.255332,"line":2,"time":3,"station_name":"Duren Kalibata","station_id":"DRN","transit":false,"i_long":106.85449,"is_transit":false},{"station_id":"PSMB","line":2,"is_transit":false,"i_lat":-6.263214,"time":2,"transit":false,"i_long":106.851577,"station_name":"Pasar Minggu Baru","distance":824},{"transit":false,"is_transit":false,"distance":2380,"time":2,"station_id":"PSM","station_name":"Pasar Minggu","i_lat":-6.2842400000000005,"line":2,"i_long":106.843999}],[{"station_id":"GGL","line":5,"time":0,"distance":0,"station_name":"Grogol","i_long":106.788277,"i_lat":-6.162021,"is_transit":false,"transit":false},{"is_transit":true,"i_long":106.800832,"station_name":"Duri","time":3,"transit":true,"line":1,"station_id":"DU","i_lat":-6.155215,"distance":1700},{"station_id":"AK","distance":1230,"line":1,"i_long":106.79867,"time":4,"i_lat":-6.144674,"station_name":"Angke","is_transit":false,"transit":false},{"line":4,"time":9,"i_long":106.826365,"station_name":"Kampung Bandan","transit":true,"distance":4102,"i_lat":-6.132549,"is_transit":true,"station_id":"KPB"},{"distance":1444,"is_transit":false,"line":11,"i_lat":-6.14505,"time":3,"station_name":"Rajawali","transit":false,"station_id":"RJW","i_long":106.836569},{"station_name":"Kemayoran","is_transit":false,"distance":1901,"time":5,"line":11,"transit":false,"station_id":"KMO","i_long":106.839204,"i_lat":-6.161728},{"i_lat":-6.174784,"i_long":106.84368,"transit":false,"station_name":"Pasar Senen","line":11,"time":4,"distance":1436,"station_id":"PSE","is_transit":false},{"is_transit":false,"station_id":"GST","time":8,"i_lat":-6.185975,"i_long":106.850107,"distance":1567,"station_name":"Gang Sentiong","line":11,"transit":false},{"i_lat":-6.193792,"time":1,"line":11,"transit":false,"i_long":106.855437,"distance":973,"station_name":"Kramat","station_id":"KMT","is_transit":false},{"i_lat":-6.209188,"i_long":106.861737,"distance":1829,"time":2,"station_name":"Pondok Jati","is_transit":false,"transit":false,"station_id":"POK","line":11},{"station_id":"JNG","transit":true,"station_name":"Jatinegara","is_transit":true,"i_long":106.86807400000001,"time":9,"i_lat":-6.215091,"line":1,"distance":1236},{"i_lat":-6.212485,"line":1,"transit":false,"time":2,"station_name":"Matraman","is_transit":false,"station_id":"MTR","i_long":106.858896,"distance":1377},{"station_id":"MRI","line":2,"station_name":"Manggarai","i_long":106.84912,"transit":true,"distance":1275,"is_transit":true,"i_lat":-6.209883,"time":2},{"time":4,"is_transit":false,"station_name":"Tebet","i_long":106.857948,"i_lat":-6.226659,"station_id":"TEB","distance":2610,"line":2,"transit":false},{"time":2,"transit":false,"station_id":"CW","i_long":106.856607,"line":2,"station_name":"Cawang","distance":1230,"i_lat":-6.242512,"is_transit":false},{"line":2,"is_transit":false,"i_lat":-6.255332,"station_name":"Duren Kalibata","transit":false,"distance":1546,"station_id":"DRN","i_long":106.85449,"time":3},{"station_name":"Pasar Minggu Baru","line":2,"time":2,"transit":false,"i_lat":-6.263214,"is_transit":false,"distance":824,"i_long":106.851577,"station_id":"PSMB"},{"station_name":"Pasar Minggu","distance":2380,"line":2,"transit":false,"station_id":"PSM","i_lat":-6.2842400000000005,"i_long":106.843999,"is_transit":false,"time":2}]]}