{"data":[[{"line":5,"time":0,"distance":0,"i_long":106.788277,"transit":false,"is_transit":false,"station_id":"GGL","station_name":"Grogol","i_lat":-6.162021},{"station_id":"DU","line":1,"i_lat":-6.155215,"i_long":106.800832,"transit":true,"station_name":"Duri","is_transit":true,"time":3,"distance":1700},{"is_transit":false,"time":8,"station_id":"THB","transit":false,"station_name":"Tanah Abang","distance":3632,"line":1,"i_long":106.811091,"i_lat":-6.185545},{"time":5,"station_id":"KAT","i_lat":-6.20132,"i_long":106.816351,"transit":false,"is_transit":false,"distance":2029,"station_name":"Karet","line":1},{"line":1,"i_long":106.819881,"station_id":"SUDB","time":1,"is_transit":false,"i_lat":-6.201433,"distance":471,"transit":false,"station_name":"Sudirman Baru"},{"station_name":"Sudirman","i_lat":-6.202263,"distance":280,"is_transit":false,"i_long":106.822649,"time":1,"line":1,"transit":false,"station_id":"SUD"},{"i_lat":-6.209883,"i_long":106.84912,"line":2,"station_name":"Manggarai","is_transit":false,"transit":false,"station_id":"MRI","time":4,"distance":3186}],[{"time":0,"station_name":"Grogol","station_id":"GGL","transit":false,"i_long":106.788277,"line":5,"distance":0,"is_transit":false,"i_lat":-6.162021},{"is_transit":true,"distance":1700,"station_id":"DU","time":3,"i_long":106.800832,"i_lat":-6.155215,"line":1,"transit":true,"station_name":"Duri"},{"time":4,"station_name":"Angke","is_transit":false,"line":1,"transit":false,"station_id":"AK","i_lat":-6.144674,"distance":1230,"i_long":106.79867},{"station_id":"KPB","time":9,"distance":4102,"transit":true,"line":4,"station_name":"Kampung Bandan","i_long":106.826365,"i_lat":-6.132549,"is_transit":true},{"distance":1364,"station_id":"JAKK","station_name":"Jakarta Kota","is_transit":true,"transit":true,"i_long":106.812439,"i_lat":-6.137569,"line":2,"time":3},{"transit":false,"station_id":"JAY","is_transit":false,"i_lat":-6.141205,"time":4,"station_name":"Jayakarta","i_long":106.820901,"distance":1264,"line":2},{"i_lat":-6.149769,"is_transit":false,"station_id":"MGB","distance":1080,"line":2,"transit":false,"i_long":106.82482,"station_name":"Manggabesar","time":2},{"station_id":"SW","i_lat":-6.160725,"line":2,"distance":906,"transit":false,"i_long":106.827103,"is_transit":false,"time":2,"station_name":"Sawah Besar"},{"is_transit":false,"station_id":"JUA","line":2,"time":2,"station_name":"Juanda","i_lat":-6.166716,"distance":1149,"i_long":106.828284,"transit":false},{"distance":2015,"station_name":"Gondangdia","transit":false,"line":2,"station_id":"GDD","is_transit":false,"i_long":106.832183,"i_lat":-6.186295,"time":4},{"time":3,"is_transit":false,"i_lat":-6.198556,"line":2,"station_name":"Cikini","station_id":"CKI","distance":1750,"i_long":106.840169,"transit":false},{"line":2,"station_name":"Manggarai","time":4,"is_transit":false,"station_id":"MRI","transit":false,"distance":1590,"i_lat":-6.209883,"i_long":106.84912}],[{"time":0,"is_transit":false,"line":5,"station_id":"GGL","distance":0,"station_name":"Grogol","i_lat":-6.162021,"i_long":106.788277,"transit":false},{"station_name":"Duri","i_lat":-6.155215,"transit":true,"station_id":"DU","is_transit":true,"time":3,"distance":1700,"i_long":106.800832,"line":1},{"is_transit":false,"station_name":"Angke","transit":false,"time":4,"distance":1230,"line":1,"station_id":"AK","i_lat":-6.144674,"i_long":106.79867},{"station_id":"KPB","station_name":"Kampung Bandan","is_transit":true,"transit":true,"i_lat":-6.132549,"i_long":106.826365,"line":4,"time":9,"distance":4102},{"i_long":106.836569,"i_lat":-6.14505,"station_name":"Rajawali","transit":false,"is_transit":false,"station_id":"RJW","time":3,"distance":1444,"line":11},{"distance":1901,"is_transit":false,"transit":false,"time":5,"station_name":"Kemayoran","i_long":106.839204,"line":11,"station_id":"KMO","i_lat":-6.161728},{"transit":false,"distance":1436,"station_id":"PSE","station_name":"Pasar Senen","time":4,"line":11,"is_transit":false,"i_lat":-6.174784,"i_long":106.84368},{"i_long":106.850107,"line":11,"station_id":"GST","distance":1567,"i_lat":-6.185975,"is_transit":false,"time":8,"station_name":"Gang Sentiong","transit":false},{"is_transit":false,"time":1,"station_id":"KMT","station_name":"Kramat","line":11,"distance":973,"i_long":106.855437,"i_lat":-6.193792,"transit":false},{"transit":false,"station_id":"POK","i_long":106.861737,"is_transit":false,"station_name":"Pondok Jati","time":2,"distance":1829,"i_lat":-6.209188,"line":11},{"i_lat":-6.215091,"is_transit":true,"i_long":106.86807400000001,"transit":true,"distance":1236,"station_name":"Jatinegara","time":9,"station_id":"JNG","line":1},{"transit":false,"is_transit":false,"station_name":"Matraman","distance":1377,"i_lat":-6.212485,"line":1,"station_id":"MTR","time":2,"i_long":106.858896},{"station_id":"MRI","transit":false,"is_transit":false,"station_name":"Manggarai","i_long":106.84912,"time":2,"distance":1275,"line":2,"i_lat":-6.209883}]]}