{"data":[[{"is_transit":false,"distance":0,"transit":false,"time":0,"line":5,"i_long":106.788277,"station_id":"GGL","i_lat":-6.162021,"station_name":"Grogol"},{"is_transit":true,"i_long":106.800832,"i_lat":-6.155215,"line":1,"station_id":"DU","time":3,"distance":1700,"transit":true,"station_name":"Duri"},{"station_name":"Tanah Abang","distance":3632,"i_long":106.811091,"is_transit":false,"i_lat":-6.185545,"station_id":"THB","line":1,"transit":false,"time":8},{"station_id":"KAT","distance":2029,"i_lat":-6.20132,"station_name":"Karet","line":1,"transit":false,"i_long":106.816351,"time":5,"is_transit":false},{"distance":471,"transit":false,"i_long":106.819881,"station_id":"SUDB","i_lat":-6.201433,"time":1,"line":1,"is_transit":false,"station_name":"Sudirman Baru"},{"distance":280,"is_transit":false,"transit":false,"station_name":"Sudirman","station_id":"SUD","i_long":106.822649,"line":1,"time":1,"i_lat":-6.202263},{"is_transit":true,"i_long":106.84912,"station_name":"Manggarai","line":2,"i_lat":-6.209883,"station_id":"MRI","time":4,"transit":true,"distance":3186},{"transit":false,"i_long":106.840169,"distance":1590,"is_transit":false,"station_name":"Cikini","time":4,"i_lat":-6.198556,"station_id":"CKI","line":2}],[{"i_long":106.788277,"distance":0,"time":0,"is_transit":false,"station_name":"Grogol","line":5,"i_lat":-6.162021,"transit":false,"station_id":"GGL"},{"distance":1700,"time":3,"station_name":"Duri","transit":true,"i_lat":-6.155215,"i_long":106.800832,"station_id":"DU","is_transit":true,"line":1},{"distance":1230,"station_id":"AK","i_lat":-6.144674,"line":1,"transit":false,"is_transit":false,"i_long":106.79867,"station_name":"Angke","time":4},{"time":9,"station_id":"KPB","line":4,"i_long":106.826365,"station_name":"Kampung Bandan","transit":true,"distance":4102,"i_lat":-6.132549,"is_transit":true},{"time":3,"distance":1364,"is_transit":true,"station_name":"Jakarta Kota","i_long":106.812439,"station_id":"JAKK","i_lat":-6.137569,"transit":true,"line":2},{"time":4,"i_long":106.820901,"station_id":"JAY","station_name":"Jayakarta","is_transit":false,"distance":1264,"i_lat":-6.141205,"transit":false,"line":2},{"time":2,"transit":false,"station_id":"MGB","i_lat":-6.149769,"i_long":106.82482,"station_name":"Manggabesar","is_transit":false,"distance":1080,"line":2},{"i_lat":-6.160725,"line":2,"station_id":"SW","station_name":"Sawah Besar","distance":906,"i_long":106.827103,"is_transit":false,"time":2,"transit":false},{"station_id":"JUA","transit":false,"station_name":"Juanda","i_lat":-6.166716,"i_long":106.828284,"line":2,"distance":1149,"is_transit":false,"time":2},{"station_id":"GDD","i_long":106.832183,"i_lat":-6.186295,"line":2,"is_transit":false,"transit":false,"station_name":"Gondangdia","time":4,"distance":2015},{"i_lat":-6.198556,"station_id":"CKI","time":3,"distance":1750,"i_long":106.840169,"is_transit":false,"line":2,"station_name":"Cikini","transit":false}],[{"time":0,"transit":false,"station_id":"GGL","station_name":"Grogol","is_transit":false,"distance":0,"i_lat":-6.162021,"line":5,"i_long":106.788277},{"transit":true,"station_name":"Duri","line":1,"i_lat":-6.155215,"i_long":106.800832,"time":3,"distance":1700,"station_id":"DU","is_transit":true},{"line":1,"station_name":"Angke","station_id":"AK","i_long":106.79867,"time":4,"is_transit":false,"distance":1230,"i_lat":-6.144674,"transit":false},{"line":4,"transit":true,"station_name":"Kampung Bandan","distance":4102,"i_lat":-6.132549,"is_transit":true,"i_long":106.826365,"station_id":"KPB","time":9},{"station_id":"RJW","station_name":"Rajawali","is_transit":false,"distance":1444,"time":3,"i_lat":-6.14505,"i_long":106.836569,"transit":false,"line":11},{"time":5,"i_lat":-6.161728,"station_name":"Kemayoran","station_id":"KMO","distance":1901,"i_long":106.839204,"transit":false,"line":11,"is_transit":false},{"station_name":"Pasar Senen","line":11,"distance":1436,"i_lat":-6.174784,"time":4,"transit":false,"is_transit":false,"i_long":106.84368,"station_id":"PSE"},{"line":11,"station_name":"Gang Sentiong","station_id":"GST","is_transit":false,"i_long":106.850107,"time":8,"distance":1567,"transit":false,"i_lat":-6.185975},{"i_long":106.855437,"time":1,"is_transit":false,"transit":false,"i_lat":-6.193792,"line":11,"distance":973,"station_id":"KMT","station_name":"Kramat"},{"time":2,"station_id":"POK","transit":false,"distance":1829,"i_lat":-6.209188,"i_long":106.861737,"line":11,"station_name":"Pondok Jati","is_transit":false},{"station_id":"JNG","transit":true,"line":1,"is_transit":true,"time":9,"i_lat":-6.215091,"distance":1236,"station_name":"Jatinegara","i_long":106.86807400000001},{"transit":false,"distance":1377,"i_lat":-6.212485,"station_name":"Matraman","i_long":106.858896,"line":1,"is_transit":false,"time":2,"station_id":"MTR"},{"time":2,"i_lat":-6.209883,"distance":1275,"i_long":106.84912,"station_id":"MRI","transit":true,"station_name":"Manggarai","is_transit":true,"line":2},{"time":4,"distance":1590,"i_lat":-6.198556,"station_id":"CKI","is_transit":false,"transit":false,"station_name":"Cikini","i_long":106.840169,"line":2}],[{"is_transit":false,"station_name":"Grogol","station_id":"GGL","transit":false,"i_lat":-6.162021,"distance":0,"line":5,"time":0,"i_long":106.788277},{"i_long":106.800832,"i_lat":-6.155215,"distance":1700,"line":1,"transit":true,"station_id":"DU","is_transit":true,"station_name":"Duri","time":3},{"station_id":"THB","i_long":106.811091,"line":1,"i_lat":-6.185545,"is_transit":false,"transit":false,"station_name":"Tanah Abang","time":8,"distance":3632},{"time":5,"i_lat":-6.20132,"is_transit":false,"station_id":"KAT","transit":false,"station_name":"Karet","line":1,"i_long":106.816351,"distance":2029},{"transit":false,"station_name":"Sudirman Baru","time":1,"distance":471,"station_id":"SUDB","is_transit":false,"i_lat":-6.201433,"i_long":106.819881,"line":1},{"station_name":"Sudirman","distance":280,"i_lat":-6.202263,"time":1,"station_id":"SUD","line":1,"is_transit":false,"i_long":106.822649,"transit":false},{"time":4,"i_lat":-6.209883,"is_transit":false,"station_id":"MRI","transit":false,"station_name":"Manggarai","i_long":106.84912,"line":2,"distance":3186},{"transit":false,"line":1,"time":2,"is_transit":false,"station_id":"MTR","station_name":"Matraman","distance":1275,"i_lat":-6.212485,"i_long":106.858896},{"distance":1377,"transit":true,"is_transit":true,"time":8,"i_long":106.86807400000001,"i_lat":-6.215091,"line":1,"station_id":"JNG","station_name":"Jatinegara"},{"i_lat":-6.209188,"i_long":106.861737,"line":11,"station_name":"Pondok Jati","time":2,"station_id":"POK","is_transit":false,"transit":false,"distance":1236},{"time":2,"transit":false,"i_lat":-6.193792,"station_name":"Kramat","i_long":106.855437,"station_id":"KMT","line":11,"distance":1829,"is_transit":false},{"i_long":106.850107,"distance":973,"line":11,"is_transit":false,"station_id":"GST","time":1,"transit":false,"i_lat":-6.185975,"station_name":"Gang Sentiong"},{"station_id":"PSE","i_long":106.84368,"line":11,"i_lat":-6.174784,"transit":false,"is_transit":false,"time":8,"station_name":"Pasar Senen","distance":1567},{"i_long":106.839204,"line":11,"distance":1436,"station_id":"KMO","station_name":"Kemayoran","time":4,"i_lat":-6.161728,"transit":false,"is_transit":false},{"i_long":106.836569,"transit":false,"line":11,"station_id":"RJW","is_transit":false,"time":5,"i_lat":-6.14505,"station_name":"Rajawali","distance":1901},{"line":4,"transit":true,"is_transit":true,"i_lat":-6.132549,"station_id":"KPB","distance":1444,"time":3,"station_name":"Kampung Bandan","i_long":106.826365},{"line":2,"time":3,"station_name":"Jakarta Kota","i_lat":-6.137569,"transit":true,"i_long":106.812439,"station_id":"JAKK","is_transit":true,"distance":1364},{"i_long":106.820901,"station_name":"Jayakarta","transit":false,"line":2,"station_id":"JAY","distance":1264,"i_lat":-6.141205,"is_transit":false,"time":4},{"i_lat":-6.149769,"i_long":106.82482,"line":2,"time":2,"transit":false,"distance":1080,"is_transit":false,"station_name":"Manggabesar","station_id":"MGB"},{"i_long":106.827103,"transit":false,"is_transit":false,"distance":906,"station_id":"SW","time":2,"station_name":"Sawah Besar","i_lat":-6.160725,"line":2},{"is_transit":false,"time":2,"distance":1149,"station_name":"Juanda","transit":false,"i_lat":-6.166716,"i_long":106.828284,"station_id":"JUA","line":2},{"station_id":"GDD","is_transit":false,"i_long":106.832183,"line":2,"distance":2015,"transit":false,"time":4,"station_name":"Gondangdia","i_lat":-6.186295},{"distance":1750,"line":2,"time":3,"i_long":106.840169,"is_transit":false,"i_lat":-6.198556,"station_id":"CKI","transit":false,"station_name":"Cikini"}]]}