{"data":[[{"station_name":"Grogol","i_long":106.788277,"distance":0,"transit":false,"line":5,"station_id":"GGL","time":0,"i_lat":-6.162021,"is_transit":false},{"station_name":"Duri","i_lat":-6.155215,"distance":1700,"is_transit":true,"time":3,"station_id":"DU","i_long":106.800832,"transit":true,"line":1},{"transit":false,"is_transit":false,"i_long":106.811091,"station_id":"THB","time":8,"distance":3632,"i_lat":-6.185545,"station_name":"Tanah Abang","line":1},{"is_transit":false,"i_long":106.816351,"transit":false,"station_id":"KAT","station_name":"Karet","line":1,"distance":2029,"i_lat":-6.20132,"time":5},{"transit":false,"station_id":"SUDB","is_transit":false,"distance":471,"time":1,"i_long":106.819881,"station_name":"Sudirman Baru","i_lat":-6.201433,"line":1},{"station_name":"Sudirman","i_long":106.822649,"i_lat":-6.202263,"transit":false,"time":1,"distance":280,"line":1,"is_transit":false,"station_id":"SUD"},{"distance":3186,"line":2,"transit":false,"i_long":106.84912,"station_id":"MRI","time":4,"i_lat":-6.209883,"station_name":"Manggarai","is_transit":false},{"distance":1275,"station_id":"MTR","transit":false,"i_long":106.858896,"station_name":"Matraman","time":2,"is_transit":false,"i_lat":-6.212485,"line":1},{"line":1,"distance":1377,"i_lat":-6.215091,"is_transit":false,"time":8,"station_name":"Jatinegara","station_id":"JNG","transit":false,"i_long":106.86807400000001},{"is_transit":false,"station_id":"KLD","i_long":106.899548,"station_name":"Klender","time":3,"line":1,"i_lat":-6.2135,"transit":false,"distance":3395},{"is_transit":false,"time":2,"line":1,"station_id":"BUA","i_long":106.922662,"i_lat":-6.215568,"transit":false,"station_name":"Buaran","distance":3100},{"line":1,"i_lat":-6.217455,"transit":false,"i_long":106.939679,"station_name":"Klenderbaru","station_id":"KLDB","is_transit":false,"time":1,"distance":1305},{"time":8,"is_transit":false,"i_long":106.951283,"line":1,"station_id":"CUK","distance":1385,"station_name":"Cakung","transit":false,"i_lat":-6.219053},{"i_lat":-6.224515,"station_id":"KRI","distance":3097,"i_long":106.977657,"line":1,"station_name":"Kranji","transit":false,"is_transit":false,"time":3},{"i_long":106.997013,"station_id":"BKS","distance":2520,"station_name":"Bekasi","transit":false,"time":4,"i_lat":-6.236616,"is_transit":false,"line":1},{"distance":2368,"i_lat":-6.248029,"station_name":"Bekasi Timur","station_id":"BKST","transit":false,"is_transit":false,"time":2,"i_long":107.016735,"line":1},{"i_long":107.055722,"station_id":"TB","distance":4460,"station_name":"Tambun","line":1,"transit":false,"i_lat":-6.258864,"time":7,"is_transit":false},{"distance":3420,"i_long":107.083084,"transit":false,"time":3,"i_lat":-6.261877,"line":1,"station_id":"CIT","is_transit":false,"station_name":"Cibitung"}],[{"is_transit":false,"i_lat":-6.162021,"line":5,"time":0,"station_name":"Grogol","distance":0,"i_long":106.788277,"transit":false,"station_id":"GGL"},{"station_id":"DU","transit":true,"station_name":"Duri","time":3,"i_long":106.800832,"line":1,"i_lat":-6.155215,"is_transit":true,"distance":1700},{"line":1,"is_transit":false,"distance":1230,"i_long":106.79867,"station_name":"Angke","transit":false,"station_id":"AK","time":4,"i_lat":-6.144674},{"station_id":"KPB","i_long":106.826365,"i_lat":-6.132549,"line":4,"transit":true,"distance":4102,"time":9,"station_name":"Kampung Bandan","is_transit":true},{"distance":1444,"line":11,"transit":false,"is_transit":false,"station_name":"Rajawali","time":3,"i_long":106.836569,"i_lat":-6.14505,"station_id":"RJW"},{"i_lat":-6.161728,"i_long":106.839204,"transit":false,"is_transit":false,"line":11,"time":5,"station_id":"KMO","station_name":"Kemayoran","distance":1901},{"time":4,"distance":1436,"line":11,"transit":false,"is_transit":false,"i_lat":-6.174784,"i_long":106.84368,"station_id":"PSE","station_name":"Pasar Senen"},{"i_lat":-6.185975,"transit":false,"line":11,"time":8,"is_transit":false,"station_name":"Gang Sentiong","station_id":"GST","distance":1567,"i_long":106.850107},{"transit":false,"i_lat":-6.193792,"line":11,"station_id":"KMT","time":1,"station_name":"Kramat","distance":973,"i_long":106.855437,"is_transit":false},{"station_name":"Pondok Jati","is_transit":false,"time":2,"station_id":"POK","distance":1829,"i_long":106.861737,"i_lat":-6.209188,"transit":false,"line":11},{"is_transit":true,"i_long":106.86807400000001,"transit":true,"line":1,"station_id":"JNG","station_name":"Jatinegara","distance":1236,"time":9,"i_lat":-6.215091},{"i_long":106.899548,"is_transit":false,"line":1,"i_lat":-6.2135,"distance":3395,"transit":false,"station_name":"Klender","station_id":"KLD","time":3},{"station_name":"Buaran","time":2,"i_long":106.922662,"transit":false,"i_lat":-6.215568,"distance":3100,"line":1,"is_transit":false,"station_id":"BUA"},{"i_long":106.939679,"time":1,"distance":1305,"transit":false,"station_name":"Klenderbaru","is_transit":false,"i_lat":-6.217455,"line":1,"station_id":"KLDB"},{"is_transit":false,"line":1,"station_id":"CUK","transit":false,"i_lat":-6.219053,"i_long":106.951283,"station_name":"Cakung","distance":1385,"time":8},{"distance":3097,"i_lat":-6.224515,"line":1,"station_id":"KRI","time":3,"is_transit":false,"i_long":106.977657,"transit":false,"station_name":"Kranji"},{"i_long":106.997013,"line":1,"station_name":"Bekasi","is_transit":false,"station_id":"BKS","distance":2520,"time":4,"transit":false,"i_lat":-6.236616},{"i_lat":-6.248029,"transit":false,"i_long":107.016735,"line":1,"is_transit":false,"station_id":"BKST","station_name":"Bekasi Timur","time":2,"distance":2368},{"is_transit":false,"i_lat":-6.258864,"time":7,"station_id":"TB","distance":4460,"transit":false,"station_name":"Tambun","line":1,"i_long":107.055722},{"time":3,"transit":false,"station_id":"CIT","is_transit":false,"i_lat":-6.261877,"station_name":"Cibitung","distance":3420,"i_long":107.083084,"line":1}],[{"line":5,"station_name":"Grogol","is_transit":false,"time":0,"i_long":106.788277,"distance":0,"transit":false,"station_id":"GGL","i_lat":-6.162021},{"station_name":"Duri","is_transit":true,"i_lat":-6.155215,"i_long":106.800832,"time":3,"transit":true,"station_id":"DU","line":1,"distance":1700},{"is_transit":false,"transit":false,"time":4,"distance":1230,"i_lat":-6.144674,"i_long":106.79867,"line":1,"station_id":"AK","station_name":"Angke"},{"is_transit":true,"line":4,"station_id":"KPB","i_lat":-6.132549,"station_name":"Kampung Bandan","transit":true,"time":9,"i_long":106.826365,"distance":4102},{"transit":true,"is_transit":true,"i_long":106.812439,"distance":1364,"station_id":"JAKK","time":3,"station_name":"Jakarta Kota","i_lat":-6.137569,"line":2},{"is_transit":false,"i_lat":-6.141205,"line":2,"distance":1264,"time":4,"transit":false,"station_id":"JAY","i_long":106.820901,"station_name":"Jayakarta"},{"distance":1080,"line":2,"i_long":106.82482,"is_transit":false,"i_lat":-6.149769,"station_id":"MGB","transit":false,"station_name":"Manggabesar","time":2},{"station_id":"SW","time":2,"distance":906,"i_long":106.827103,"station_name":"Sawah Besar","i_lat":-6.160725,"is_transit":false,"line":2,"transit":false},{"is_transit":false,"distance":1149,"station_id":"JUA","i_lat":-6.166716,"i_long":106.828284,"transit":false,"station_name":"Juanda","time":2,"line":2},{"line":2,"station_name":"Gondangdia","transit":false,"distance":2015,"station_id":"GDD","is_transit":false,"time":4,"i_lat":-6.186295,"i_long":106.832183},{"distance":1750,"i_lat":-6.198556,"time":3,"is_transit":false,"line":2,"i_long":106.840169,"station_name":"Cikini","station_id":"CKI","transit":false},{"transit":true,"is_transit":true,"station_name":"Manggarai","station_id":"MRI","i_lat":-6.209883,"time":4,"i_long":106.84912,"distance":1590,"line":2},{"line":1,"transit":false,"station_id":"MTR","station_name":"Matraman","is_transit":false,"i_lat":-6.212485,"i_long":106.858896,"distance":1275,"time":2},{"i_long":106.86807400000001,"line":1,"i_lat":-6.215091,"is_transit":false,"time":8,"transit":false,"station_name":"Jatinegara","station_id":"JNG","distance":1377},{"i_long":106.899548,"station_id":"KLD","station_name":"Klender","transit":false,"i_lat":-6.2135,"is_transit":false,"distance":3395,"time":3,"line":1},{"is_transit":false,"i_long":106.922662,"station_name":"Buaran","station_id":"BUA","time":2,"distance":3100,"transit":false,"i_lat":-6.215568,"line":1},{"station_name":"Klenderbaru","line":1,"station_id":"KLDB","i_lat":-6.217455,"time":1,"i_long":106.939679,"transit":false,"distance":1305,"is_transit":false},{"transit":false,"time":8,"distance":1385,"i_lat":-6.219053,"station_name":"Cakung","is_transit":false,"station_id":"CUK","line":1,"i_long":106.951283},{"i_lat":-6.224515,"station_id":"KRI","line":1,"distance":3097,"is_transit":false,"station_name":"Kranji","time":3,"i_long":106.977657,"transit":false},{"i_lat":-6.236616,"time":4,"i_long":106.997013,"station_id":"BKS","line":1,"transit":false,"station_name":"Bekasi","is_transit":false,"distance":2520},{"station_name":"Bekasi Timur","i_lat":-6.248029,"station_id":"BKST","line":1,"transit":false,"time":2,"distance":2368,"is_transit":false,"i_long":107.016735},{"i_long":107.055722,"time":7,"distance":4460,"line":1,"transit":false,"station_id":"TB","is_transit":false,"station_name":"Tambun","i_lat":-6.258864},{"i_lat":-6.261877,"station_id":"CIT","is_transit":false,"time":3,"line":1,"station_name":"Cibitung","transit":false,"distance":3420,"i_long":107.083084}],[{"line":5,"station_name":"Grogol","time":0,"i_long":106.788277,"i_lat":-6.162021,"distance":0,"station_id":"GGL","transit":false,"is_transit":false},{"transit":true,"station_name":"Duri","is_transit":true,"time":3,"station_id":"DU","distance":1700,"i_lat":-6.155215,"i_long":106.800832,"line":1},{"distance":3632,"station_id":"THB","transit":false,"station_name":"Tanah Abang","i_long":106.811091,"line":1,"is_transit":false,"time":8,"i_lat":-6.185545},{"line":1,"is_transit":false,"transit":false,"station_id":"KAT","distance":2029,"i_long":106.816351,"time":5,"station_name":"Karet","i_lat":-6.20132},{"transit":false,"is_transit":false,"time":1,"station_id":"SUDB","line":1,"i_lat":-6.201433,"station_name":"Sudirman Baru","i_long":106.819881,"distance":471},{"distance":280,"is_transit":false,"station_id":"SUD","station_name":"Sudirman","i_long":106.822649,"transit":false,"i_lat":-6.202263,"line":1,"time":1},{"time":4,"station_name":"Manggarai","i_lat":-6.209883,"i_long":106.84912,"transit":true,"station_id":"MRI","is_transit":true,"line":2,"distance":3186},{"distance":1590,"time":4,"station_id":"CKI","station_name":"Cikini","transit":false,"i_lat":-6.198556,"line":2,"is_transit":false,"i_long":106.840169},{"is_transit":false,"time":3,"distance":1750,"station_name":"Gondangdia","line":2,"i_lat":-6.186295,"transit":false,"i_long":106.832183,"station_id":"GDD"},{"station_id":"JUA","i_lat":-6.166716,"line":2,"i_long":106.828284,"is_transit":false,"time":4,"transit":false,"station_name":"Juanda","distance":2015},{"transit":false,"i_lat":-6.160725,"station_name":"Sawah Besar","time":2,"distance":1149,"i_long":106.827103,"station_id":"SW","line":2,"is_transit":false},{"is_transit":false,"time":2,"station_name":"Manggabesar","i_lat":-6.149769,"transit":false,"station_id":"MGB","distance":906,"i_long":106.82482,"line":2},{"time":2,"line":2,"i_lat":-6.141205,"i_long":106.820901,"station_name":"Jayakarta","is_transit":false,"distance":1080,"station_id":"JAY","transit":false},{"line":2,"i_lat":-6.137569,"station_name":"Jakarta Kota","station_id":"JAKK","distance":1264,"time":4,"is_transit":true,"transit":true,"i_long":106.812439},{"transit":true,"time":3,"distance":1364,"station_id":"KPB","i_long":106.826365,"i_lat":-6.132549,"is_transit":true,"line":4,"station_name":"Kampung Bandan"},{"i_lat":-6.14505,"station_name":"Rajawali","is_transit":false,"i_long":106.836569,"transit":false,"station_id":"RJW","distance":1444,"line":11,"time":3},{"i_long":106.839204,"time":5,"distance":1901,"station_id":"KMO","is_transit":false,"i_lat":-6.161728,"line":11,"transit":false,"station_name":"Kemayoran"},{"i_long":106.84368,"station_id":"PSE","i_lat":-6.174784,"is_transit":false,"time":4,"distance":1436,"line":11,"station_name":"Pasar Senen","transit":false},{"transit":false,"station_name":"Gang Sentiong","line":11,"time":8,"distance":1567,"station_id":"GST","i_lat":-6.185975,"is_transit":false,"i_long":106.850107},{"i_long":106.855437,"distance":973,"station_id":"KMT","line":11,"station_name":"Kramat","i_lat":-6.193792,"is_transit":false,"time":1,"transit":false},{"transit":false,"station_name":"Pondok Jati","is_transit":false,"station_id":"POK","distance":1829,"i_long":106.861737,"i_lat":-6.209188,"time":2,"line":11},{"distance":1236,"time":9,"line":1,"station_id":"JNG","i_long":106.86807400000001,"station_name":"Jatinegara","transit":true,"i_lat":-6.215091,"is_transit":true},{"station_name":"Klender","transit":false,"i_lat":-6.2135,"line":1,"time":3,"station_id":"KLD","is_transit":false,"distance":3395,"i_long":106.899548},{"distance":3100,"i_lat":-6.215568,"station_name":"Buaran","station_id":"BUA","time":2,"transit":false,"line":1,"is_transit":false,"i_long":106.922662},{"distance":1305,"time":1,"i_lat":-6.217455,"line":1,"is_transit":false,"station_id":"KLDB","i_long":106.939679,"station_name":"Klenderbaru","transit":false},{"is_transit":false,"station_id":"CUK","i_lat":-6.219053,"time":8,"distance":1385,"station_name":"Cakung","transit":false,"line":1,"i_long":106.951283},{"station_id":"KRI","time":3,"transit":false,"i_long":106.977657,"i_lat":-6.224515,"is_transit":false,"station_name":"Kranji","distance":3097,"line":1},{"distance":2520,"station_name":"Bekasi","time":4,"i_lat":-6.236616,"i_long":106.997013,"station_id":"BKS","is_transit":false,"line":1,"transit":false},{"station_name":"Bekasi Timur","i_lat":-6.248029,"line":1,"time":2,"station_id":"BKST","i_long":107.016735,"is_transit":false,"transit":false,"distance":2368},{"i_lat":-6.258864,"station_id":"TB","transit":false,"is_transit":false,"distance":4460,"line":1,"i_long":107.055722,"time":7,"station_name":"Tambun"},{"i_long":107.083084,"station_name":"Cibitung","time":3,"line":1,"is_transit":false,"transit":false,"distance":3420,"i_lat":-6.261877,"station_id":"CIT"}]]}