{"data":[[{"line":5,"station_id":"GGL","time":0,"i_lat":-6.162021,"i_long":106.788277,"is_transit":false,"transit":false,"station_name":"Grogol","distance":0},{"time":3,"transit":true,"line":1,"station_id":"DU","station_name":"Duri","i_lat":-6.155215,"distance":1700,"i_long":106.800832,"is_transit":true},{"is_transit":false,"i_lat":-6.185545,"line":1,"i_long":106.811091,"transit":false,"station_name":"Tanah Abang","time":8,"distance":3632,"station_id":"THB"},{"is_transit":false,"time":5,"distance":2029,"station_id":"KAT","transit":false,"line":1,"i_long":106.816351,"station_name":"Karet","i_lat":-6.20132},{"station_name":"Sudirman Baru","is_transit":false,"i_lat":-6.201433,"time":1,"transit":false,"i_long":106.819881,"distance":471,"station_id":"SUDB","line":1},{"distance":280,"i_lat":-6.202263,"station_name":"Sudirman","i_long":106.822649,"station_id":"SUD","time":1,"line":1,"is_transit":false,"transit":false},{"station_id":"MRI","line":2,"i_long":106.84912,"i_lat":-6.209883,"transit":false,"station_name":"Manggarai","distance":3186,"time":4,"is_transit":false}],[{"transit":false,"i_lat":-6.162021,"station_id":"GGL","is_transit":false,"distance":0,"time":0,"i_long":106.788277,"station_name":"Grogol","line":5},{"i_lat":-6.155215,"time":3,"station_id":"DU","station_name":"Duri","is_transit":true,"transit":true,"line":1,"i_long":106.800832,"distance":1700},{"i_lat":-6.144674,"i_long":106.79867,"distance":1230,"station_id":"AK","station_name":"Angke","is_transit":false,"line":1,"time":4,"transit":false},{"transit":true,"is_transit":true,"i_lat":-6.132549,"line":4,"time":9,"distance":4102,"i_long":106.826365,"station_id":"KPB","station_name":"Kampung Bandan"},{"transit":true,"i_lat":-6.137569,"station_id":"JAKK","time":3,"distance":1364,"line":2,"station_name":"Jakarta Kota","is_transit":true,"i_long":106.812439},{"is_transit":false,"i_long":106.820901,"i_lat":-6.141205,"distance":1264,"transit":false,"station_name":"Jayakarta","station_id":"JAY","time":4,"line":2},{"is_transit":false,"i_lat":-6.149769,"station_id":"MGB","transit":false,"line":2,"station_name":"Manggabesar","time":2,"distance":1080,"i_long":106.82482},{"transit":false,"line":2,"distance":906,"is_transit":false,"i_long":106.827103,"station_id":"SW","station_name":"Sawah Besar","i_lat":-6.160725,"time":2},{"transit":false,"i_lat":-6.166716,"station_name":"Juanda","i_long":106.828284,"time":2,"is_transit":false,"station_id":"JUA","line":2,"distance":1149},{"station_id":"GDD","line":2,"time":4,"distance":2015,"is_transit":false,"i_lat":-6.186295,"i_long":106.832183,"station_name":"Gondangdia","transit":false},{"distance":1750,"station_name":"Cikini","transit":false,"line":2,"station_id":"CKI","is_transit":false,"time":3,"i_lat":-6.198556,"i_long":106.840169},{"station_name":"Manggarai","i_lat":-6.209883,"line":2,"is_transit":false,"time":4,"distance":1590,"transit":false,"station_id":"MRI","i_long":106.84912}],[{"station_id":"GGL","station_name":"Grogol","distance":0,"transit":false,"line":5,"i_lat":-6.162021,"time":0,"is_transit":false,"i_long":106.788277},{"time":3,"distance":1700,"transit":true,"station_id":"DU","is_transit":true,"i_lat":-6.155215,"i_long":106.800832,"station_name":"Duri","line":1},{"time":4,"transit":false,"line":1,"station_id":"AK","i_lat":-6.144674,"station_name":"Angke","is_transit":false,"i_long":106.79867,"distance":1230},{"i_long":106.826365,"is_transit":true,"transit":true,"line":4,"station_id":"KPB","station_name":"Kampung Bandan","distance":4102,"i_lat":-6.132549,"time":9},{"station_name":"Rajawali","transit":false,"is_transit":false,"i_lat":-6.14505,"station_id":"RJW","i_long":106.836569,"distance":1444,"line":11,"time":3},{"station_id":"KMO","transit":false,"station_name":"Kemayoran","i_long":106.839204,"is_transit":false,"i_lat":-6.161728,"line":11,"distance":1901,"time":5},{"transit":false,"distance":1436,"i_lat":-6.174784,"i_long":106.84368,"line":11,"station_name":"Pasar Senen","is_transit":false,"station_id":"PSE","time":4},{"is_transit":false,"station_id":"GST","i_lat":-6.185975,"i_long":106.850107,"time":8,"line":11,"distance":1567,"station_name":"Gang Sentiong","transit":false},{"transit":false,"line":11,"station_id":"KMT","is_transit":false,"i_long":106.855437,"station_name":"Kramat","time":1,"distance":973,"i_lat":-6.193792},{"transit":false,"station_name":"Pondok Jati","is_transit":false,"time":2,"distance":1829,"line":11,"station_id":"POK","i_lat":-6.209188,"i_long":106.861737},{"station_name":"Jatinegara","transit":true,"line":1,"i_lat":-6.215091,"is_transit":true,"distance":1236,"i_long":106.86807400000001,"time":9,"station_id":"JNG"},{"i_long":106.858896,"station_id":"MTR","time":2,"station_name":"Matraman","is_transit":false,"distance":1377,"transit":false,"i_lat":-6.212485,"line":1},{"station_id":"MRI","i_long":106.84912,"line":2,"time":2,"distance":1275,"is_transit":false,"station_name":"Manggarai","i_lat":-6.209883,"transit":false}]]}