{"data":[[{"is_transit":false,"distance":0,"time":0,"transit":false,"station_id":"GGL","station_name":"Grogol","i_lat":-6.162021,"line":5,"i_long":106.788277},{"line":1,"distance":1700,"station_name":"Duri","i_lat":-6.155215,"transit":true,"station_id":"DU","is_transit":true,"time":3,"i_long":106.800832},{"station_id":"THB","transit":true,"distance":3632,"i_long":106.811091,"i_lat":-6.185545,"time":8,"station_name":"Tanah Abang","line":1,"is_transit":true},{"distance":3191,"i_lat":-6.207404,"i_long":106.79689,"station_name":"Palmerah","station_id":"PLM","line":6,"time":6,"transit":false,"is_transit":false},{"i_lat":-6.237242,"time":7,"station_name":"Kebayoran","distance":3737,"line":6,"transit":false,"i_long":106.780334,"station_id":"KBY","is_transit":false},{"time":8,"i_long":106.74273,"line":6,"i_lat":-6.276362,"transit":false,"distance":6218,"is_transit":false,"station_id":"PDJ","station_name":"Pondokranji"},{"i_long":106.728916,"station_name":"Jurangmangu","is_transit":false,"distance":2179,"transit":false,"line":6,"time":3,"station_id":"JMU","i_lat":-6.288927},{"is_transit":false,"station_name":"Sudimara","i_lat":-6.296963,"time":4,"line":6,"transit":false,"distance":1994,"station_id":"SDM","i_long":106.712277},{"station_id":"RU","station_name":"Rawa Buntu","i_long":106.675475,"i_lat":-6.314823,"line":6,"is_transit":false,"transit":false,"distance":4566,"time":6},{"i_lat":-6.319871,"station_name":"Serpong","time":4,"line":6,"is_transit":false,"station_id":"SRP","i_long":106.66566,"distance":2413,"transit":false},{"distance":1784,"transit":false,"station_id":"CSK","i_lat":-6.32484,"line":3,"i_long":106.640411,"is_transit":false,"station_name":"Cisauk","time":4},{"i_lat":-6.329547,"time":4,"station_id":"CC","line":3,"i_long":106.617853,"station_name":"Cicayur","is_transit":false,"distance":2519,"transit":false},{"station_id":"PRP","i_long":106.568863,"distance":5968,"is_transit":false,"time":8,"line":6,"station_name":"Parung Panjang","transit":false,"i_lat":-6.3441410000000005},{"transit":false,"is_transit":false,"time":9,"station_id":"CJT","distance":7025,"i_long":106.508482,"line":3,"station_name":"Cilejit","i_lat":-6.354349},{"is_transit":false,"i_lat":-6.338021,"i_long":106.491338,"distance":2675,"station_name":"Daru","time":6,"line":0,"transit":false,"station_id":"DAR"},{"station_id":"TEJ","transit":false,"is_transit":false,"time":5,"i_long":106.460812,"distance":3902,"i_lat":-6.327251,"line":6,"station_name":"Tenjo"},{"i_long":106.425991,"station_name":"Tigaraksa","is_transit":false,"i_lat":-6.328533,"distance":2974,"time":5,"line":6,"transit":false,"station_id":"TGS"}],[{"transit":false,"time":0,"station_name":"Grogol","distance":0,"station_id":"GGL","line":5,"i_long":106.788277,"is_transit":false,"i_lat":-6.162021},{"transit":true,"station_name":"Duri","line":1,"time":3,"i_long":106.800832,"station_id":"DU","distance":1700,"is_transit":true,"i_lat":-6.155215},{"distance":1230,"transit":false,"station_name":"Angke","is_transit":false,"i_long":106.79867,"station_id":"AK","time":4,"i_lat":-6.144674,"line":1},{"station_name":"Kampung Bandan","is_transit":true,"i_lat":-6.132549,"transit":true,"time":9,"i_long":106.826365,"station_id":"KPB","line":4,"distance":4102},{"line":2,"i_lat":-6.137569,"is_transit":true,"station_name":"Jakarta Kota","distance":1364,"time":3,"i_long":106.812439,"transit":true,"station_id":"JAKK"},{"i_lat":-6.141205,"line":2,"distance":1264,"time":4,"is_transit":false,"station_id":"JAY","i_long":106.820901,"station_name":"Jayakarta","transit":false},{"station_name":"Manggabesar","is_transit":false,"distance":1080,"time":2,"transit":false,"station_id":"MGB","i_lat":-6.149769,"line":2,"i_long":106.82482},{"is_transit":false,"transit":false,"station_name":"Sawah Besar","line":2,"distance":906,"i_long":106.827103,"station_id":"SW","i_lat":-6.160725,"time":2},{"station_id":"JUA","line":2,"distance":1149,"transit":false,"i_lat":-6.166716,"station_name":"Juanda","i_long":106.828284,"is_transit":false,"time":2},{"i_lat":-6.186295,"transit":false,"i_long":106.832183,"station_id":"GDD","distance":2015,"station_name":"Gondangdia","time":4,"is_transit":false,"line":2},{"transit":false,"station_name":"Cikini","station_id":"CKI","is_transit":false,"i_long":106.840169,"line":2,"time":3,"i_lat":-6.198556,"distance":1750},{"transit":true,"i_lat":-6.209883,"i_long":106.84912,"station_name":"Manggarai","time":4,"is_transit":true,"station_id":"MRI","distance":1590,"line":2},{"distance":3186,"station_name":"Sudirman","line":1,"i_lat":-6.202263,"transit":false,"is_transit":false,"station_id":"SUD","i_long":106.822649,"time":4},{"station_name":"Sudirman Baru","transit":false,"station_id":"SUDB","is_transit":false,"distance":280,"i_lat":-6.201433,"i_long":106.819881,"line":1,"time":1},{"transit":false,"line":1,"i_lat":-6.20132,"i_long":106.816351,"station_id":"KAT","distance":471,"station_name":"Karet","time":1,"is_transit":false},{"time":5,"i_long":106.811091,"distance":2029,"station_name":"Tanah Abang","transit":true,"station_id":"THB","i_lat":-6.185545,"is_transit":true,"line":1},{"distance":3191,"station_name":"Palmerah","time":6,"transit":false,"line":6,"is_transit":false,"station_id":"PLM","i_long":106.79689,"i_lat":-6.207404},{"is_transit":false,"transit":false,"i_long":106.780334,"station_id":"KBY","line":6,"time":7,"station_name":"Kebayoran","i_lat":-6.237242,"distance":3737},{"is_transit":false,"line":6,"station_name":"Pondokranji","distance":6218,"station_id":"PDJ","transit":false,"i_lat":-6.276362,"i_long":106.74273,"time":8},{"i_lat":-6.288927,"transit":false,"i_long":106.728916,"line":6,"distance":2179,"is_transit":false,"station_id":"JMU","station_name":"Jurangmangu","time":3},{"i_lat":-6.296963,"station_name":"Sudimara","time":4,"line":6,"is_transit":false,"distance":1994,"i_long":106.712277,"station_id":"SDM","transit":false},{"station_name":"Rawa Buntu","time":6,"transit":false,"line":6,"station_id":"RU","i_lat":-6.314823,"is_transit":false,"distance":4566,"i_long":106.675475},{"distance":2413,"station_id":"SRP","is_transit":false,"time":4,"station_name":"Serpong","i_long":106.66566,"transit":false,"line":6,"i_lat":-6.319871},{"is_transit":false,"time":4,"i_long":106.640411,"line":3,"i_lat":-6.32484,"distance":1784,"station_name":"Cisauk","transit":false,"station_id":"CSK"},{"line":3,"time":4,"i_lat":-6.329547,"station_name":"Cicayur","transit":false,"i_long":106.617853,"is_transit":false,"distance":2519,"station_id":"CC"},{"line":6,"station_name":"Parung Panjang","transit":false,"time":8,"i_lat":-6.3441410000000005,"i_long":106.568863,"station_id":"PRP","distance":5968,"is_transit":false},{"time":9,"i_long":106.508482,"line":3,"station_id":"CJT","station_name":"Cilejit","transit":false,"i_lat":-6.354349,"distance":7025,"is_transit":false},{"station_name":"Daru","i_lat":-6.338021,"transit":false,"time":6,"i_long":106.491338,"station_id":"DAR","line":0,"is_transit":false,"distance":2675},{"time":5,"line":6,"i_lat":-6.327251,"i_long":106.460812,"distance":3902,"transit":false,"is_transit":false,"station_id":"TEJ","station_name":"Tenjo"},{"time":5,"line":6,"transit":false,"distance":2974,"station_name":"Tigaraksa","is_transit":false,"station_id":"TGS","i_long":106.425991,"i_lat":-6.328533}],[{"distance":0,"transit":false,"station_id":"GGL","station_name":"Grogol","i_long":106.788277,"line":5,"time":0,"i_lat":-6.162021,"is_transit":false},{"i_long":106.800832,"transit":true,"station_name":"Duri","is_transit":true,"station_id":"DU","time":3,"i_lat":-6.155215,"line":1,"distance":1700},{"transit":false,"distance":1230,"time":4,"is_transit":false,"i_lat":-6.144674,"i_long":106.79867,"station_name":"Angke","line":1,"station_id":"AK"},{"i_long":106.826365,"distance":4102,"line":4,"station_name":"Kampung Bandan","is_transit":true,"station_id":"KPB","transit":true,"time":9,"i_lat":-6.132549},{"line":11,"station_id":"RJW","time":3,"distance":1444,"i_long":106.836569,"is_transit":false,"transit":false,"station_name":"Rajawali","i_lat":-6.14505},{"station_name":"Kemayoran","transit":false,"i_lat":-6.161728,"i_long":106.839204,"distance":1901,"station_id":"KMO","is_transit":false,"line":11,"time":5},{"is_transit":false,"station_id":"PSE","station_name":"Pasar Senen","time":4,"i_lat":-6.174784,"transit":false,"i_long":106.84368,"distance":1436,"line":11},{"station_id":"GST","i_lat":-6.185975,"distance":1567,"i_long":106.850107,"transit":false,"station_name":"Gang Sentiong","time":8,"line":11,"is_transit":false},{"time":1,"is_transit":false,"station_name":"Kramat","transit":false,"distance":973,"station_id":"KMT","i_lat":-6.193792,"i_long":106.855437,"line":11},{"transit":false,"station_id":"POK","is_transit":false,"time":2,"distance":1829,"i_long":106.861737,"line":11,"station_name":"Pondok Jati","i_lat":-6.209188},{"i_lat":-6.215091,"station_id":"JNG","i_long":106.86807400000001,"line":1,"is_transit":true,"transit":true,"station_name":"Jatinegara","distance":1236,"time":9},{"distance":1377,"line":1,"station_id":"MTR","i_lat":-6.212485,"is_transit":false,"station_name":"Matraman","time":2,"transit":false,"i_long":106.858896},{"time":2,"station_name":"Manggarai","station_id":"MRI","i_long":106.84912,"line":2,"is_transit":false,"transit":false,"distance":1275,"i_lat":-6.209883},{"line":1,"transit":false,"time":4,"i_lat":-6.202263,"i_long":106.822649,"is_transit":false,"station_name":"Sudirman","distance":3186,"station_id":"SUD"},{"distance":280,"time":1,"is_transit":false,"i_lat":-6.201433,"transit":false,"station_id":"SUDB","station_name":"Sudirman Baru","i_long":106.819881,"line":1},{"distance":471,"station_id":"KAT","time":1,"i_long":106.816351,"transit":false,"station_name":"Karet","is_transit":false,"i_lat":-6.20132,"line":1},{"i_lat":-6.185545,"station_name":"Tanah Abang","station_id":"THB","is_transit":true,"time":5,"distance":2029,"i_long":106.811091,"line":1,"transit":true},{"transit":false,"distance":3191,"station_id":"PLM","station_name":"Palmerah","time":6,"i_lat":-6.207404,"i_long":106.79689,"line":6,"is_transit":false},{"i_lat":-6.237242,"i_long":106.780334,"line":6,"transit":false,"is_transit":false,"distance":3737,"station_name":"Kebayoran","station_id":"KBY","time":7},{"is_transit":false,"i_lat":-6.276362,"time":8,"station_id":"PDJ","i_long":106.74273,"line":6,"transit":false,"distance":6218,"station_name":"Pondokranji"},{"station_name":"Jurangmangu","transit":false,"line":6,"distance":2179,"station_id":"JMU","time":3,"i_long":106.728916,"is_transit":false,"i_lat":-6.288927},{"station_name":"Sudimara","time":4,"is_transit":false,"i_long":106.712277,"line":6,"i_lat":-6.296963,"distance":1994,"transit":false,"station_id":"SDM"},{"station_name":"Rawa Buntu","i_long":106.675475,"i_lat":-6.314823,"is_transit":false,"transit":false,"line":6,"station_id":"RU","distance":4566,"time":6},{"i_long":106.66566,"i_lat":-6.319871,"station_name":"Serpong","is_transit":false,"transit":false,"time":4,"line":6,"distance":2413,"station_id":"SRP"},{"station_name":"Cisauk","line":3,"station_id":"CSK","is_transit":false,"time":4,"i_long":106.640411,"transit":false,"distance":1784,"i_lat":-6.32484},{"i_lat":-6.329547,"time":4,"i_long":106.617853,"line":3,"is_transit":false,"transit":false,"station_id":"CC","station_name":"Cicayur","distance":2519},{"station_name":"Parung Panjang","i_long":106.568863,"i_lat":-6.3441410000000005,"line":6,"distance":5968,"time":8,"is_transit":false,"transit":false,"station_id":"PRP"},{"i_long":106.508482,"distance":7025,"station_name":"Cilejit","line":3,"is_transit":false,"i_lat":-6.354349,"station_id":"CJT","time":9,"transit":false},{"is_transit":false,"time":6,"i_long":106.491338,"transit":false,"line":0,"distance":2675,"station_name":"Daru","station_id":"DAR","i_lat":-6.338021},{"time":5,"transit":false,"station_name":"Tenjo","i_lat":-6.327251,"is_transit":false,"line":6,"distance":3902,"station_id":"TEJ","i_long":106.460812},{"station_name":"Tigaraksa","is_transit":false,"time":5,"i_long":106.425991,"distance":2974,"station_id":"TGS","transit":false,"i_lat":-6.328533,"line":6}]]}