{"data":[[{"is_transit":false,"i_long":106.788277,"station_id":"GGL","line":5,"transit":false,"i_lat":-6.162021,"distance":0,"station_name":"Grogol","time":0},{"station_name":"Duri","transit":true,"is_transit":true,"time":3,"station_id":"DU","distance":1700,"i_long":106.800832,"i_lat":-6.155215,"line":1},{"station_id":"THB","distance":3632,"station_name":"Tanah Abang","transit":false,"time":8,"i_lat":-6.185545,"is_transit":true,"i_long":106.811091,"line":1},{"distance":2029,"station_id":"KAT","station_name":"Karet","i_long":106.816351,"is_transit":false,"transit":false,"i_lat":-6.20132,"line":1,"time":5},{"station_name":"Sudirman Baru","line":1,"station_id":"SUDB","is_transit":false,"distance":471,"i_lat":-6.201433,"i_long":106.819881,"transit":false,"time":1},{"is_transit":false,"station_name":"Sudirman","distance":280,"i_lat":-6.202263,"time":1,"i_long":106.822649,"station_id":"SUD","line":1,"transit":false},{"i_lat":-6.209883,"i_long":106.84912,"transit":false,"station_id":"MRI","time":4,"is_transit":true,"distance":3186,"line":0,"station_name":"Manggarai"}],[{"time":0,"i_long":106.788277,"station_id":"GGL","transit":false,"i_lat":-6.162021,"is_transit":false,"line":5,"distance":0,"station_name":"Grogol"},{"time":3,"line":1,"i_long":106.800832,"station_id":"DU","i_lat":-6.155215,"is_transit":true,"distance":1700,"station_name":"Duri","transit":true},{"time":4,"transit":false,"i_lat":-6.144674,"distance":1230,"line":0,"station_id":"AK","i_long":106.79867,"station_name":"Angke","is_transit":false},{"is_transit":true,"transit":false,"i_long":106.826365,"station_name":"Kampung Bandan","distance":4102,"station_id":"KPB","time":9,"line":0,"i_lat":-6.132549},{"station_name":"Jakarta Kota","is_transit":true,"time":3,"distance":1364,"transit":true,"line":0,"i_long":106.812439,"station_id":"JAKK","i_lat":-6.137569},{"is_transit":false,"time":4,"distance":1264,"station_name":"Jayakarta","line":7,"transit":false,"i_lat":-6.141205,"i_long":106.820901,"station_id":"JAY"},{"is_transit":false,"distance":1080,"time":2,"transit":false,"i_lat":-6.149769,"station_id":"MGB","station_name":"Manggabesar","i_long":106.82482,"line":2},{"is_transit":false,"station_name":"Sawah Besar","i_lat":-6.160725,"transit":false,"station_id":"SW","time":2,"distance":906,"i_long":106.827103,"line":2},{"i_lat":-6.166716,"distance":1149,"time":2,"station_name":"Juanda","is_transit":false,"transit":false,"i_long":106.828284,"line":2,"station_id":"JUA"},{"line":2,"transit":false,"station_name":"Gondangdia","time":4,"distance":2015,"station_id":"GDD","is_transit":false,"i_long":106.832183,"i_lat":-6.186295},{"i_long":106.840169,"station_id":"CKI","station_name":"Cikini","is_transit":false,"line":0,"time":3,"i_lat":-6.198556,"transit":false,"distance":1750},{"station_name":"Manggarai","transit":false,"i_lat":-6.209883,"line":0,"distance":1590,"is_transit":true,"station_id":"MRI","time":4,"i_long":106.84912}],[{"distance":0,"is_transit":false,"station_name":"Grogol","i_lat":-6.162021,"time":0,"transit":false,"station_id":"GGL","i_long":106.788277,"line":5},{"time":3,"is_transit":true,"i_lat":-6.155215,"station_name":"Duri","station_id":"DU","distance":1700,"i_long":106.800832,"line":1,"transit":true},{"time":4,"line":0,"transit":false,"is_transit":false,"distance":1230,"i_long":106.79867,"station_name":"Angke","i_lat":-6.144674,"station_id":"AK"},{"time":9,"is_transit":true,"i_long":106.826365,"station_id":"KPB","distance":4102,"transit":true,"line":0,"i_lat":-6.132549,"station_name":"Kampung Bandan"},{"time":3,"i_lat":-6.14505,"i_long":106.836569,"station_name":"Rajawali","transit":false,"distance":1444,"is_transit":false,"line":11,"station_id":"RJW"},{"distance":1901,"time":5,"transit":false,"i_lat":-6.161728,"i_long":106.839204,"station_name":"Kemayoran","is_transit":false,"station_id":"KMO","line":11},{"transit":false,"i_lat":-6.174784,"time":4,"line":11,"station_name":"Pasar Senen","is_transit":false,"station_id":"PSE","distance":1436,"i_long":106.84368},{"is_transit":false,"station_name":"Gang Sentiong","i_lat":-6.185975,"time":8,"i_long":106.850107,"station_id":"GST","line":11,"distance":1567,"transit":false},{"station_id":"KMT","i_long":106.855437,"i_lat":-6.193792,"is_transit":false,"transit":false,"distance":973,"time":1,"station_name":"Kramat","line":11},{"transit":false,"station_name":"Pondok Jati","time":2,"station_id":"POK","i_lat":-6.209188,"is_transit":false,"distance":1829,"i_long":106.861737,"line":11},{"distance":1236,"line":0,"station_name":"Jatinegara","i_long":106.86807400000001,"time":9,"transit":true,"is_transit":true,"station_id":"JNG","i_lat":-6.215091},{"station_name":"Matraman","transit":false,"distance":1377,"i_lat":-6.212485,"i_long":106.858896,"time":2,"line":1,"station_id":"MTR","is_transit":false},{"line":0,"station_name":"Manggarai","station_id":"MRI","is_transit":true,"time":2,"transit":false,"distance":1275,"i_lat":-6.209883,"i_long":106.84912}]]}