{"data":[[{"station_name":"Grogol","is_transit":false,"distance":0,"i_lat":-6.162021,"transit":false,"station_id":"GGL","time":0,"i_long":106.788277,"line":5},{"distance":1700,"transit":true,"station_id":"DU","i_lat":-6.155215,"line":1,"time":3,"station_name":"Duri","i_long":106.800832,"is_transit":true},{"station_id":"THB","i_lat":-6.185545,"transit":false,"i_long":106.811091,"station_name":"Tanah Abang","is_transit":false,"time":8,"distance":3632,"line":1},{"is_transit":false,"distance":2029,"time":5,"i_lat":-6.20132,"line":1,"station_name":"Karet","i_long":106.816351,"transit":false,"station_id":"KAT"},{"i_lat":-6.201433,"line":1,"transit":false,"station_name":"Sudirman Baru","is_transit":false,"station_id":"SUDB","i_long":106.819881,"distance":471,"time":1},{"station_name":"Sudirman","time":1,"station_id":"SUD","line":1,"i_long":106.822649,"transit":false,"is_transit":false,"distance":280,"i_lat":-6.202263},{"station_id":"MRI","line":2,"is_transit":true,"distance":3186,"i_lat":-6.209883,"time":4,"station_name":"Manggarai","i_long":106.84912,"transit":true},{"time":4,"is_transit":false,"i_lat":-6.226659,"station_name":"Tebet","distance":2610,"station_id":"TEB","line":2,"i_long":106.857948,"transit":false}],[{"distance":0,"i_long":106.788277,"station_id":"GGL","transit":false,"station_name":"Grogol","i_lat":-6.162021,"line":5,"is_transit":false,"time":0},{"distance":1700,"time":3,"i_long":106.800832,"transit":true,"station_id":"DU","station_name":"Duri","line":1,"i_lat":-6.155215,"is_transit":true},{"station_name":"Angke","transit":false,"is_transit":false,"distance":1230,"time":4,"station_id":"AK","i_long":106.79867,"line":1,"i_lat":-6.144674},{"transit":true,"i_long":106.826365,"time":9,"i_lat":-6.132549,"station_name":"Kampung Bandan","distance":4102,"is_transit":true,"station_id":"KPB","line":4},{"time":3,"station_name":"Jakarta Kota","line":2,"is_transit":true,"i_lat":-6.137569,"distance":1364,"transit":true,"i_long":106.812439,"station_id":"JAKK"},{"transit":false,"time":4,"station_name":"Jayakarta","distance":1264,"station_id":"JAY","line":2,"i_lat":-6.141205,"i_long":106.820901,"is_transit":false},{"time":2,"is_transit":false,"i_lat":-6.149769,"transit":false,"station_id":"MGB","i_long":106.82482,"line":2,"distance":1080,"station_name":"Manggabesar"},{"line":2,"time":2,"distance":906,"is_transit":false,"i_long":106.827103,"transit":false,"station_id":"SW","i_lat":-6.160725,"station_name":"Sawah Besar"},{"station_id":"JUA","i_lat":-6.166716,"is_transit":false,"distance":1149,"transit":false,"time":2,"i_long":106.828284,"line":2,"station_name":"Juanda"},{"line":2,"i_long":106.832183,"transit":false,"is_transit":false,"station_name":"Gondangdia","i_lat":-6.186295,"distance":2015,"station_id":"GDD","time":4},{"station_name":"Cikini","time":3,"i_long":106.840169,"i_lat":-6.198556,"line":2,"distance":1750,"transit":false,"is_transit":false,"station_id":"CKI"},{"time":4,"station_name":"Manggarai","line":2,"distance":1590,"i_long":106.84912,"is_transit":false,"station_id":"MRI","transit":false,"i_lat":-6.209883},{"station_id":"TEB","station_name":"Tebet","i_long":106.857948,"transit":false,"line":2,"distance":2610,"time":4,"is_transit":false,"i_lat":-6.226659}],[{"station_name":"Grogol","distance":0,"time":0,"station_id":"GGL","transit":false,"i_lat":-6.162021,"line":5,"is_transit":false,"i_long":106.788277},{"i_long":106.800832,"is_transit":true,"distance":1700,"transit":true,"time":3,"i_lat":-6.155215,"line":1,"station_name":"Duri","station_id":"DU"},{"transit":false,"station_id":"AK","station_name":"Angke","is_transit":false,"i_lat":-6.144674,"distance":1230,"i_long":106.79867,"line":1,"time":4},{"is_transit":true,"station_name":"Kampung Bandan","distance":4102,"i_lat":-6.132549,"i_long":106.826365,"line":4,"time":9,"station_id":"KPB","transit":true},{"time":3,"i_lat":-6.14505,"i_long":106.836569,"line":11,"is_transit":false,"station_id":"RJW","station_name":"Rajawali","transit":false,"distance":1444},{"time":5,"transit":false,"is_transit":false,"station_id":"KMO","i_lat":-6.161728,"distance":1901,"station_name":"Kemayoran","i_long":106.839204,"line":11},{"station_name":"Pasar Senen","transit":false,"i_long":106.84368,"station_id":"PSE","time":4,"line":11,"i_lat":-6.174784,"is_transit":false,"distance":1436},{"time":8,"station_name":"Gang Sentiong","line":11,"i_lat":-6.185975,"distance":1567,"i_long":106.850107,"transit":false,"station_id":"GST","is_transit":false},{"transit":false,"station_id":"KMT","is_transit":false,"i_lat":-6.193792,"i_long":106.855437,"line":11,"distance":973,"station_name":"Kramat","time":1},{"is_transit":false,"station_name":"Pondok Jati","station_id":"POK","distance":1829,"i_lat":-6.209188,"transit":false,"time":2,"i_long":106.861737,"line":11},{"station_id":"JNG","station_name":"Jatinegara","i_lat":-6.215091,"i_long":106.86807400000001,"time":9,"line":1,"distance":1236,"transit":true,"is_transit":true},{"is_transit":false,"time":2,"line":1,"i_lat":-6.212485,"transit":false,"station_name":"Matraman","distance":1377,"i_long":106.858896,"station_id":"MTR"},{"i_lat":-6.209883,"time":2,"i_long":106.84912,"line":2,"station_id":"MRI","is_transit":true,"transit":true,"station_name":"Manggarai","distance":1275},{"station_name":"Tebet","distance":2610,"station_id":"TEB","is_transit":false,"i_long":106.857948,"transit":false,"time":4,"i_lat":-6.226659,"line":2}]]}