{"data":[[{"i_lat":-6.162021,"is_transit":false,"distance":0,"transit":false,"station_name":"Grogol","time":0,"i_long":106.788277,"station_id":"GGL","line":5},{"i_lat":-6.155215,"is_transit":true,"line":1,"station_id":"DU","time":3,"i_long":106.800832,"station_name":"Duri","transit":true,"distance":1700},{"distance":3632,"line":1,"i_lat":-6.185545,"i_long":106.811091,"time":8,"station_name":"Tanah Abang","transit":false,"is_transit":true,"station_id":"THB"},{"is_transit":false,"station_id":"KAT","i_long":106.816351,"transit":false,"i_lat":-6.20132,"line":1,"time":5,"station_name":"Karet","distance":2029},{"i_long":106.819881,"line":1,"is_transit":false,"time":1,"transit":false,"station_id":"SUDB","distance":471,"i_lat":-6.201433,"station_name":"Sudirman Baru"},{"line":1,"i_lat":-6.202263,"station_name":"Sudirman","transit":false,"station_id":"SUD","time":1,"is_transit":false,"distance":280,"i_long":106.822649},{"transit":false,"station_id":"MRI","time":4,"i_long":106.84912,"line":0,"station_name":"Manggarai","is_transit":true,"distance":3186,"i_lat":-6.209883},{"i_lat":-6.212485,"line":1,"station_name":"Matraman","station_id":"MTR","i_long":106.858896,"time":2,"distance":1275,"is_transit":false,"transit":false},{"is_transit":true,"line":0,"station_id":"JNG","time":8,"station_name":"Jatinegara","distance":1377,"i_long":106.86807400000001,"i_lat":-6.215091,"transit":false},{"station_id":"KLD","distance":3395,"station_name":"Klender","line":1,"transit":false,"i_long":106.899548,"i_lat":-6.2135,"is_transit":false,"time":3},{"time":2,"i_lat":-6.215568,"i_long":106.922662,"station_id":"BUA","line":0,"is_transit":false,"distance":3100,"station_name":"Buaran","transit":false},{"distance":1305,"transit":false,"station_id":"KLDB","time":1,"station_name":"Klenderbaru","is_transit":false,"i_lat":-6.217455,"line":1,"i_long":106.939679},{"station_id":"CUK","distance":1385,"line":0,"time":8,"i_lat":-6.219053,"i_long":106.951283,"is_transit":false,"station_name":"Cakung","transit":false},{"transit":false,"is_transit":false,"i_long":106.977657,"line":1,"station_name":"Kranji","time":3,"station_id":"KRI","distance":3097,"i_lat":-6.224515},{"station_id":"BKS","i_lat":-6.236616,"transit":false,"time":4,"distance":2520,"i_long":106.997013,"line":0,"is_transit":false,"station_name":"Bekasi"},{"i_long":107.016735,"time":2,"station_id":"BKST","transit":false,"is_transit":false,"line":0,"station_name":"Bekasi Timur","distance":2368,"i_lat":-6.248029},{"time":7,"i_lat":-6.258864,"line":1,"station_name":"Tambun","i_long":107.055722,"is_transit":false,"distance":4460,"transit":false,"station_id":"TB"},{"station_id":"CIT","i_lat":-6.261877,"line":0,"distance":3420,"station_name":"Cibitung","time":3,"transit":false,"is_transit":false,"i_long":107.083084}],[{"station_id":"GGL","time":0,"is_transit":false,"distance":0,"transit":false,"i_long":106.788277,"line":5,"i_lat":-6.162021,"station_name":"Grogol"},{"i_long":106.800832,"transit":true,"is_transit":true,"i_lat":-6.155215,"station_name":"Duri","station_id":"DU","time":3,"distance":1700,"line":1},{"is_transit":false,"station_id":"AK","distance":1230,"transit":false,"time":4,"station_name":"Angke","i_long":106.79867,"i_lat":-6.144674,"line":0},{"i_lat":-6.132549,"station_name":"Kampung Bandan","is_transit":true,"i_long":106.826365,"station_id":"KPB","transit":true,"distance":4102,"line":0,"time":9},{"i_lat":-6.14505,"station_id":"RJW","is_transit":false,"i_long":106.836569,"station_name":"Rajawali","time":3,"line":11,"transit":false,"distance":1444},{"distance":1901,"station_name":"Kemayoran","is_transit":false,"time":5,"i_lat":-6.161728,"i_long":106.839204,"station_id":"KMO","transit":false,"line":11},{"line":11,"distance":1436,"station_id":"PSE","is_transit":false,"station_name":"Pasar Senen","time":4,"i_long":106.84368,"transit":false,"i_lat":-6.174784},{"time":8,"i_long":106.850107,"station_id":"GST","is_transit":false,"distance":1567,"i_lat":-6.185975,"line":11,"station_name":"Gang Sentiong","transit":false},{"station_name":"Kramat","transit":false,"station_id":"KMT","i_lat":-6.193792,"line":11,"i_long":106.855437,"is_transit":false,"time":1,"distance":973},{"line":11,"time":2,"station_name":"Pondok Jati","station_id":"POK","i_long":106.861737,"transit":false,"is_transit":false,"distance":1829,"i_lat":-6.209188},{"transit":true,"station_id":"JNG","time":9,"station_name":"Jatinegara","distance":1236,"i_long":106.86807400000001,"line":0,"is_transit":true,"i_lat":-6.215091},{"i_lat":-6.2135,"time":3,"transit":false,"station_name":"Klender","distance":3395,"i_long":106.899548,"line":1,"station_id":"KLD","is_transit":false},{"line":0,"station_name":"Buaran","transit":false,"i_lat":-6.215568,"i_long":106.922662,"is_transit":false,"time":2,"station_id":"BUA","distance":3100},{"i_long":106.939679,"station_id":"KLDB","distance":1305,"is_transit":false,"transit":false,"station_name":"Klenderbaru","line":1,"time":1,"i_lat":-6.217455},{"distance":1385,"station_name":"Cakung","line":0,"transit":false,"is_transit":false,"i_lat":-6.219053,"station_id":"CUK","i_long":106.951283,"time":8},{"is_transit":false,"line":1,"station_name":"Kranji","i_long":106.977657,"distance":3097,"i_lat":-6.224515,"station_id":"KRI","time":3,"transit":false},{"is_transit":false,"i_long":106.997013,"line":0,"station_id":"BKS","station_name":"Bekasi","distance":2520,"i_lat":-6.236616,"time":4,"transit":false},{"station_name":"Bekasi Timur","is_transit":false,"time":2,"transit":false,"distance":2368,"i_lat":-6.248029,"station_id":"BKST","line":0,"i_long":107.016735},{"station_id":"TB","station_name":"Tambun","distance":4460,"is_transit":false,"transit":false,"i_long":107.055722,"time":7,"i_lat":-6.258864,"line":1},{"is_transit":false,"time":3,"distance":3420,"transit":false,"station_id":"CIT","i_lat":-6.261877,"line":0,"station_name":"Cibitung","i_long":107.083084}],[{"station_id":"GGL","time":0,"station_name":"Grogol","distance":0,"line":5,"is_transit":false,"i_lat":-6.162021,"transit":false,"i_long":106.788277},{"time":3,"station_name":"Duri","station_id":"DU","is_transit":true,"transit":true,"distance":1700,"i_lat":-6.155215,"i_long":106.800832,"line":1},{"station_id":"AK","is_transit":false,"time":4,"i_lat":-6.144674,"line":0,"i_long":106.79867,"transit":false,"station_name":"Angke","distance":1230},{"time":9,"i_long":106.826365,"station_name":"Kampung Bandan","line":0,"transit":false,"station_id":"KPB","is_transit":true,"i_lat":-6.132549,"distance":4102},{"i_lat":-6.137569,"station_id":"JAKK","distance":1364,"line":0,"time":3,"station_name":"Jakarta Kota","is_transit":true,"transit":true,"i_long":106.812439},{"is_transit":false,"line":7,"station_name":"Jayakarta","transit":false,"station_id":"JAY","time":4,"distance":1264,"i_long":106.820901,"i_lat":-6.141205},{"distance":1080,"is_transit":false,"station_name":"Manggabesar","station_id":"MGB","i_long":106.82482,"time":2,"line":2,"transit":false,"i_lat":-6.149769},{"i_long":106.827103,"transit":false,"distance":906,"station_id":"SW","is_transit":false,"station_name":"Sawah Besar","i_lat":-6.160725,"time":2,"line":2},{"i_lat":-6.166716,"line":2,"time":2,"station_name":"Juanda","station_id":"JUA","i_long":106.828284,"is_transit":false,"distance":1149,"transit":false},{"station_id":"GDD","transit":false,"i_lat":-6.186295,"time":4,"i_long":106.832183,"line":2,"station_name":"Gondangdia","is_transit":false,"distance":2015},{"station_name":"Cikini","transit":false,"station_id":"CKI","is_transit":false,"i_long":106.840169,"i_lat":-6.198556,"line":0,"time":3,"distance":1750},{"is_transit":true,"station_name":"Manggarai","station_id":"MRI","line":0,"time":4,"i_long":106.84912,"i_lat":-6.209883,"transit":true,"distance":1590},{"station_id":"MTR","line":1,"i_long":106.858896,"station_name":"Matraman","is_transit":false,"time":2,"transit":false,"distance":1275,"i_lat":-6.212485},{"i_long":106.86807400000001,"i_lat":-6.215091,"time":8,"station_name":"Jatinegara","station_id":"JNG","is_transit":true,"line":0,"distance":1377,"transit":false},{"station_name":"Klender","time":3,"station_id":"KLD","transit":false,"is_transit":false,"distance":3395,"i_lat":-6.2135,"i_long":106.899548,"line":1},{"line":0,"is_transit":false,"i_long":106.922662,"station_name":"Buaran","time":2,"i_lat":-6.215568,"transit":false,"distance":3100,"station_id":"BUA"},{"i_lat":-6.217455,"line":1,"transit":false,"i_long":106.939679,"is_transit":false,"distance":1305,"station_name":"Klenderbaru","station_id":"KLDB","time":1},{"distance":1385,"i_long":106.951283,"time":8,"is_transit":false,"station_id":"CUK","station_name":"Cakung","line":0,"transit":false,"i_lat":-6.219053},{"transit":false,"line":1,"i_lat":-6.224515,"station_id":"KRI","i_long":106.977657,"is_transit":false,"distance":3097,"time":3,"station_name":"Kranji"},{"is_transit":false,"i_lat":-6.236616,"i_long":106.997013,"station_id":"BKS","distance":2520,"station_name":"Bekasi","line":0,"time":4,"transit":false},{"station_id":"BKST","station_name":"Bekasi Timur","i_long":107.016735,"i_lat":-6.248029,"transit":false,"is_transit":false,"time":2,"distance":2368,"line":0},{"line":1,"station_name":"Tambun","i_lat":-6.258864,"station_id":"TB","is_transit":false,"i_long":107.055722,"transit":false,"distance":4460,"time":7},{"is_transit":false,"station_id":"CIT","distance":3420,"i_long":107.083084,"transit":false,"time":3,"i_lat":-6.261877,"line":0,"station_name":"Cibitung"}],[{"station_name":"Grogol","station_id":"GGL","is_transit":false,"i_lat":-6.162021,"i_long":106.788277,"time":0,"line":5,"transit":false,"distance":0},{"station_name":"Duri","station_id":"DU","i_lat":-6.155215,"is_transit":true,"i_long":106.800832,"line":1,"time":3,"distance":1700,"transit":true},{"station_id":"THB","is_transit":true,"time":8,"distance":3632,"i_long":106.811091,"transit":false,"line":1,"station_name":"Tanah Abang","i_lat":-6.185545},{"distance":2029,"transit":false,"line":1,"time":5,"station_id":"KAT","is_transit":false,"i_long":106.816351,"station_name":"Karet","i_lat":-6.20132},{"i_lat":-6.201433,"station_name":"Sudirman Baru","is_transit":false,"station_id":"SUDB","time":1,"distance":471,"i_long":106.819881,"line":1,"transit":false},{"station_name":"Sudirman","is_transit":false,"station_id":"SUD","time":1,"i_lat":-6.202263,"i_long":106.822649,"transit":false,"distance":280,"line":1},{"station_name":"Manggarai","station_id":"MRI","is_transit":true,"time":4,"i_lat":-6.209883,"i_long":106.84912,"line":0,"distance":3186,"transit":true},{"station_name":"Cikini","line":0,"i_long":106.840169,"time":4,"i_lat":-6.198556,"station_id":"CKI","is_transit":false,"distance":1590,"transit":false},{"distance":1750,"i_lat":-6.186295,"is_transit":false,"time":3,"i_long":106.832183,"transit":false,"station_id":"GDD","line":2,"station_name":"Gondangdia"},{"is_transit":false,"station_name":"Juanda","transit":false,"line":2,"i_long":106.828284,"station_id":"JUA","time":4,"distance":2015,"i_lat":-6.166716},{"i_long":106.827103,"line":2,"transit":false,"station_id":"SW","time":2,"i_lat":-6.160725,"station_name":"Sawah Besar","is_transit":false,"distance":1149},{"distance":906,"i_lat":-6.149769,"time":2,"line":2,"station_name":"Manggabesar","i_long":106.82482,"station_id":"MGB","is_transit":false,"transit":false},{"transit":false,"line":7,"station_id":"JAY","is_transit":false,"distance":1080,"i_lat":-6.141205,"i_long":106.820901,"time":2,"station_name":"Jayakarta"},{"station_id":"JAKK","i_lat":-6.137569,"is_transit":true,"time":4,"distance":1264,"i_long":106.812439,"station_name":"Jakarta Kota","transit":true,"line":0},{"i_lat":-6.132549,"line":0,"transit":true,"i_long":106.826365,"station_name":"Kampung Bandan","distance":1364,"station_id":"KPB","is_transit":true,"time":3},{"i_long":106.836569,"time":3,"i_lat":-6.14505,"is_transit":false,"line":11,"station_id":"RJW","distance":1444,"transit":false,"station_name":"Rajawali"},{"transit":false,"i_lat":-6.161728,"distance":1901,"time":5,"i_long":106.839204,"is_transit":false,"line":11,"station_id":"KMO","station_name":"Kemayoran"},{"station_id":"PSE","line":11,"transit":false,"station_name":"Pasar Senen","distance":1436,"i_long":106.84368,"is_transit":false,"time":4,"i_lat":-6.174784},{"time":8,"distance":1567,"line":11,"i_long":106.850107,"i_lat":-6.185975,"is_transit":false,"transit":false,"station_name":"Gang Sentiong","station_id":"GST"},{"station_id":"KMT","is_transit":false,"transit":false,"i_lat":-6.193792,"i_long":106.855437,"line":11,"time":1,"distance":973,"station_name":"Kramat"},{"i_long":106.861737,"station_name":"Pondok Jati","is_transit":false,"distance":1829,"i_lat":-6.209188,"station_id":"POK","line":11,"transit":false,"time":2},{"station_id":"JNG","distance":1236,"transit":true,"i_lat":-6.215091,"line":0,"is_transit":true,"time":9,"i_long":106.86807400000001,"station_name":"Jatinegara"},{"transit":false,"station_name":"Klender","is_transit":false,"i_lat":-6.2135,"line":1,"distance":3395,"time":3,"station_id":"KLD","i_long":106.899548},{"i_lat":-6.215568,"station_name":"Buaran","line":0,"i_long":106.922662,"is_transit":false,"time":2,"transit":false,"distance":3100,"station_id":"BUA"},{"line":1,"is_transit":false,"transit":false,"i_lat":-6.217455,"i_long":106.939679,"distance":1305,"time":1,"station_id":"KLDB","station_name":"Klenderbaru"},{"station_name":"Cakung","i_lat":-6.219053,"station_id":"CUK","transit":false,"line":0,"distance":1385,"time":8,"i_long":106.951283,"is_transit":false},{"time":3,"station_name":"Kranji","distance":3097,"i_lat":-6.224515,"i_long":106.977657,"line":1,"is_transit":false,"transit":false,"station_id":"KRI"},{"line":0,"time":4,"station_name":"Bekasi","distance":2520,"is_transit":false,"i_lat":-6.236616,"i_long":106.997013,"transit":false,"station_id":"BKS"},{"station_name":"Bekasi Timur","distance":2368,"time":2,"i_lat":-6.248029,"line":0,"station_id":"BKST","is_transit":false,"transit":false,"i_long":107.016735},{"is_transit":false,"station_id":"TB","distance":4460,"transit":false,"i_long":107.055722,"line":1,"i_lat":-6.258864,"time":7,"station_name":"Tambun"},{"i_long":107.083084,"station_name":"Cibitung","distance":3420,"time":3,"is_transit":false,"i_lat":-6.261877,"line":0,"transit":false,"station_id":"CIT"}]]}