{"data":[[{"is_transit":false,"i_lat":-6.162021,"station_id":"GGL","transit":false,"station_name":"Grogol","time":0,"distance":0,"line":5,"i_long":106.788277},{"transit":true,"distance":1700,"i_long":106.800832,"is_transit":true,"i_lat":-6.155215,"station_id":"DU","line":1,"time":3,"station_name":"Duri"},{"is_transit":true,"i_long":106.811091,"station_name":"Tanah Abang","station_id":"THB","transit":false,"time":8,"i_lat":-6.185545,"line":1,"distance":3632},{"transit":false,"is_transit":false,"station_name":"Karet","station_id":"KAT","i_long":106.816351,"time":5,"distance":2029,"i_lat":-6.20132,"line":1},{"distance":471,"transit":false,"station_name":"Sudirman Baru","i_lat":-6.201433,"i_long":106.819881,"line":1,"is_transit":false,"time":1,"station_id":"SUDB"},{"i_long":106.822649,"transit":false,"i_lat":-6.202263,"station_name":"Sudirman","time":1,"distance":280,"is_transit":false,"line":1,"station_id":"SUD"},{"station_id":"MRI","transit":true,"distance":3186,"i_lat":-6.209883,"line":0,"time":4,"station_name":"Manggarai","i_long":106.84912,"is_transit":true},{"distance":2610,"station_name":"Tebet","is_transit":false,"transit":false,"time":4,"i_lat":-6.226659,"line":2,"station_id":"TEB","i_long":106.857948},{"time":2,"is_transit":false,"station_name":"Cawang","i_long":106.856607,"i_lat":-6.242512,"transit":false,"station_id":"CW","distance":1230,"line":0},{"transit":false,"time":3,"station_id":"DRN","i_long":106.85449,"i_lat":-6.255332,"distance":1546,"station_name":"Duren Kalibata","is_transit":false,"line":0},{"transit":false,"time":2,"i_long":106.851577,"is_transit":false,"station_name":"Pasar Minggu Baru","distance":824,"line":2,"i_lat":-6.263214,"station_id":"PSMB"},{"time":2,"station_id":"PSM","is_transit":false,"transit":false,"station_name":"Pasar Minggu","i_long":106.843999,"line":2,"i_lat":-6.2842400000000005,"distance":2380},{"station_id":"TNT","time":4,"i_lat":-6.3080680000000005,"line":2,"distance":2820,"station_name":"Tanjung Barat","i_long":106.838896,"is_transit":false,"transit":false},{"is_transit":false,"transit":false,"station_name":"Lenteng Agung","i_lat":-6.330363,"i_long":106.832616,"line":2,"station_id":"LNA","time":3,"distance":2671}],[{"station_name":"Grogol","transit":false,"i_long":106.788277,"distance":0,"is_transit":false,"i_lat":-6.162021,"time":0,"station_id":"GGL","line":5},{"line":1,"station_name":"Duri","transit":true,"time":3,"station_id":"DU","i_lat":-6.155215,"i_long":106.800832,"is_transit":true,"distance":1700},{"time":4,"distance":1230,"transit":false,"station_id":"AK","is_transit":false,"i_lat":-6.144674,"station_name":"Angke","i_long":106.79867,"line":0},{"transit":false,"is_transit":true,"station_id":"KPB","line":0,"distance":4102,"i_lat":-6.132549,"time":9,"i_long":106.826365,"station_name":"Kampung Bandan"},{"i_long":106.812439,"is_transit":true,"line":0,"transit":true,"station_id":"JAKK","station_name":"Jakarta Kota","distance":1364,"time":3,"i_lat":-6.137569},{"i_lat":-6.141205,"transit":false,"line":7,"i_long":106.820901,"station_name":"Jayakarta","is_transit":false,"time":4,"station_id":"JAY","distance":1264},{"i_long":106.82482,"distance":1080,"station_name":"Manggabesar","line":2,"transit":false,"i_lat":-6.149769,"time":2,"station_id":"MGB","is_transit":false},{"time":2,"station_id":"SW","transit":false,"distance":906,"is_transit":false,"i_lat":-6.160725,"station_name":"Sawah Besar","i_long":106.827103,"line":2},{"transit":false,"station_name":"Juanda","station_id":"JUA","is_transit":false,"distance":1149,"line":2,"i_lat":-6.166716,"i_long":106.828284,"time":2},{"station_name":"Gondangdia","is_transit":false,"i_lat":-6.186295,"i_long":106.832183,"time":4,"station_id":"GDD","distance":2015,"line":2,"transit":false},{"i_lat":-6.198556,"is_transit":false,"transit":false,"time":3,"station_name":"Cikini","line":0,"i_long":106.840169,"station_id":"CKI","distance":1750},{"distance":1590,"line":0,"station_id":"MRI","transit":true,"station_name":"Manggarai","time":4,"is_transit":true,"i_lat":-6.209883,"i_long":106.84912},{"station_id":"TEB","i_lat":-6.226659,"time":4,"distance":2610,"is_transit":false,"i_long":106.857948,"line":2,"transit":false,"station_name":"Tebet"},{"transit":false,"station_id":"CW","station_name":"Cawang","i_lat":-6.242512,"i_long":106.856607,"distance":1230,"is_transit":false,"time":2,"line":0},{"line":0,"distance":1546,"i_long":106.85449,"transit":false,"is_transit":false,"station_id":"DRN","station_name":"Duren Kalibata","time":3,"i_lat":-6.255332},{"transit":false,"line":2,"i_long":106.851577,"i_lat":-6.263214,"distance":824,"station_id":"PSMB","is_transit":false,"time":2,"station_name":"Pasar Minggu Baru"},{"line":2,"station_name":"Pasar Minggu","is_transit":false,"station_id":"PSM","i_lat":-6.2842400000000005,"i_long":106.843999,"distance":2380,"time":2,"transit":false},{"is_transit":false,"transit":false,"i_lat":-6.3080680000000005,"distance":2820,"i_long":106.838896,"station_name":"Tanjung Barat","time":4,"station_id":"TNT","line":2},{"station_id":"LNA","station_name":"Lenteng Agung","is_transit":false,"line":2,"transit":false,"distance":2671,"i_lat":-6.330363,"time":3,"i_long":106.832616}],[{"station_name":"Grogol","time":0,"i_long":106.788277,"distance":0,"station_id":"GGL","i_lat":-6.162021,"transit":false,"line":5,"is_transit":false},{"line":1,"i_lat":-6.155215,"i_long":106.800832,"station_name":"Duri","distance":1700,"station_id":"DU","transit":true,"time":3,"is_transit":true},{"distance":1230,"station_id":"AK","transit":false,"is_transit":false,"i_long":106.79867,"line":0,"i_lat":-6.144674,"station_name":"Angke","time":4},{"line":0,"transit":true,"time":9,"station_id":"KPB","distance":4102,"station_name":"Kampung Bandan","i_lat":-6.132549,"is_transit":true,"i_long":106.826365},{"time":3,"station_name":"Rajawali","station_id":"RJW","transit":false,"distance":1444,"line":11,"is_transit":false,"i_lat":-6.14505,"i_long":106.836569},{"line":11,"transit":false,"i_lat":-6.161728,"time":5,"is_transit":false,"station_name":"Kemayoran","i_long":106.839204,"distance":1901,"station_id":"KMO"},{"station_name":"Pasar Senen","station_id":"PSE","distance":1436,"transit":false,"time":4,"i_lat":-6.174784,"i_long":106.84368,"is_transit":false,"line":11},{"i_long":106.850107,"line":11,"time":8,"station_id":"GST","station_name":"Gang Sentiong","i_lat":-6.185975,"transit":false,"distance":1567,"is_transit":false},{"i_lat":-6.193792,"is_transit":false,"time":1,"i_long":106.855437,"station_id":"KMT","transit":false,"distance":973,"line":11,"station_name":"Kramat"},{"i_lat":-6.209188,"station_id":"POK","transit":false,"time":2,"line":11,"i_long":106.861737,"station_name":"Pondok Jati","distance":1829,"is_transit":false},{"is_transit":true,"station_name":"Jatinegara","distance":1236,"time":9,"station_id":"JNG","transit":true,"i_lat":-6.215091,"i_long":106.86807400000001,"line":0},{"line":1,"time":2,"station_name":"Matraman","distance":1377,"is_transit":false,"station_id":"MTR","i_lat":-6.212485,"i_long":106.858896,"transit":false},{"transit":true,"i_long":106.84912,"time":2,"distance":1275,"i_lat":-6.209883,"line":0,"station_name":"Manggarai","station_id":"MRI","is_transit":true},{"i_lat":-6.226659,"i_long":106.857948,"line":2,"is_transit":false,"transit":false,"time":4,"distance":2610,"station_id":"TEB","station_name":"Tebet"},{"distance":1230,"i_lat":-6.242512,"station_id":"CW","is_transit":false,"transit":false,"time":2,"station_name":"Cawang","line":0,"i_long":106.856607},{"i_lat":-6.255332,"is_transit":false,"distance":1546,"i_long":106.85449,"time":3,"station_name":"Duren Kalibata","station_id":"DRN","transit":false,"line":0},{"line":2,"i_long":106.851577,"transit":false,"distance":824,"time":2,"i_lat":-6.263214,"station_name":"Pasar Minggu Baru","station_id":"PSMB","is_transit":false},{"i_lat":-6.2842400000000005,"i_long":106.843999,"is_transit":false,"line":2,"transit":false,"station_id":"PSM","time":2,"station_name":"Pasar Minggu","distance":2380},{"i_long":106.838896,"i_lat":-6.3080680000000005,"transit":false,"distance":2820,"station_name":"Tanjung Barat","time":4,"station_id":"TNT","is_transit":false,"line":2},{"i_long":106.832616,"is_transit":false,"i_lat":-6.330363,"line":2,"station_id":"LNA","transit":false,"time":3,"distance":2671,"station_name":"Lenteng Agung"}]]}