{"data":[[{"transit":false,"i_lat":-6.162021,"line":5,"time":0,"station_name":"Grogol","i_long":106.788277,"station_id":"GGL","is_transit":false,"distance":0},{"i_lat":-6.155215,"is_transit":true,"distance":1700,"i_long":106.800832,"station_id":"DU","line":1,"time":3,"transit":true,"station_name":"Duri"},{"is_transit":false,"line":1,"time":8,"station_name":"Tanah Abang","i_long":106.811091,"station_id":"THB","distance":3632,"i_lat":-6.185545,"transit":false},{"is_transit":false,"i_long":106.816351,"i_lat":-6.20132,"station_id":"KAT","station_name":"Karet","transit":false,"distance":2029,"line":1,"time":5},{"station_name":"Sudirman Baru","i_long":106.819881,"distance":471,"station_id":"SUDB","time":1,"i_lat":-6.201433,"line":1,"transit":false,"is_transit":false},{"transit":false,"i_long":106.822649,"station_name":"Sudirman","station_id":"SUD","distance":280,"is_transit":false,"i_lat":-6.202263,"line":1,"time":1},{"i_long":106.84912,"distance":3186,"line":2,"transit":true,"i_lat":-6.209883,"is_transit":true,"station_id":"MRI","time":4,"station_name":"Manggarai"},{"time":4,"line":2,"station_name":"Tebet","is_transit":false,"station_id":"TEB","distance":2610,"i_lat":-6.226659,"transit":false,"i_long":106.857948},{"station_id":"CW","is_transit":false,"i_long":106.856607,"line":2,"transit":false,"station_name":"Cawang","distance":1230,"i_lat":-6.242512,"time":2}],[{"is_transit":false,"station_name":"Grogol","distance":0,"station_id":"GGL","transit":false,"i_long":106.788277,"i_lat":-6.162021,"line":5,"time":0},{"i_lat":-6.155215,"line":1,"i_long":106.800832,"is_transit":true,"station_id":"DU","station_name":"Duri","time":3,"transit":true,"distance":1700},{"distance":1230,"station_id":"AK","i_lat":-6.144674,"transit":false,"time":4,"i_long":106.79867,"line":1,"is_transit":false,"station_name":"Angke"},{"transit":true,"line":4,"is_transit":true,"i_lat":-6.132549,"distance":4102,"i_long":106.826365,"station_name":"Kampung Bandan","station_id":"KPB","time":9},{"line":2,"is_transit":true,"station_name":"Jakarta Kota","i_long":106.812439,"time":3,"transit":true,"station_id":"JAKK","i_lat":-6.137569,"distance":1364},{"transit":false,"station_name":"Jayakarta","i_lat":-6.141205,"time":4,"is_transit":false,"station_id":"JAY","line":2,"i_long":106.820901,"distance":1264},{"time":2,"distance":1080,"station_name":"Manggabesar","is_transit":false,"line":2,"i_lat":-6.149769,"i_long":106.82482,"transit":false,"station_id":"MGB"},{"time":2,"distance":906,"station_id":"SW","station_name":"Sawah Besar","line":2,"transit":false,"i_long":106.827103,"is_transit":false,"i_lat":-6.160725},{"i_lat":-6.166716,"distance":1149,"station_id":"JUA","station_name":"Juanda","is_transit":false,"line":2,"time":2,"i_long":106.828284,"transit":false},{"is_transit":false,"time":4,"station_id":"GDD","distance":2015,"i_lat":-6.186295,"i_long":106.832183,"line":2,"transit":false,"station_name":"Gondangdia"},{"station_name":"Cikini","station_id":"CKI","line":2,"i_long":106.840169,"distance":1750,"transit":false,"time":3,"i_lat":-6.198556,"is_transit":false},{"station_name":"Manggarai","distance":1590,"i_lat":-6.209883,"transit":false,"i_long":106.84912,"time":4,"station_id":"MRI","is_transit":false,"line":2},{"distance":2610,"time":4,"station_id":"TEB","station_name":"Tebet","transit":false,"i_lat":-6.226659,"i_long":106.857948,"line":2,"is_transit":false},{"line":2,"transit":false,"station_id":"CW","station_name":"Cawang","is_transit":false,"time":2,"distance":1230,"i_lat":-6.242512,"i_long":106.856607}],[{"line":5,"time":0,"i_lat":-6.162021,"station_name":"Grogol","is_transit":false,"station_id":"GGL","transit":false,"i_long":106.788277,"distance":0},{"transit":true,"i_lat":-6.155215,"time":3,"station_name":"Duri","i_long":106.800832,"station_id":"DU","is_transit":true,"line":1,"distance":1700},{"station_id":"AK","distance":1230,"transit":false,"station_name":"Angke","time":4,"i_lat":-6.144674,"i_long":106.79867,"is_transit":false,"line":1},{"is_transit":true,"line":4,"station_name":"Kampung Bandan","time":9,"i_lat":-6.132549,"distance":4102,"transit":true,"station_id":"KPB","i_long":106.826365},{"is_transit":false,"transit":false,"i_long":106.836569,"station_id":"RJW","station_name":"Rajawali","distance":1444,"time":3,"i_lat":-6.14505,"line":11},{"i_lat":-6.161728,"is_transit":false,"transit":false,"i_long":106.839204,"line":11,"time":5,"station_id":"KMO","station_name":"Kemayoran","distance":1901},{"distance":1436,"i_lat":-6.174784,"is_transit":false,"station_id":"PSE","i_long":106.84368,"time":4,"transit":false,"line":11,"station_name":"Pasar Senen"},{"i_long":106.850107,"is_transit":false,"transit":false,"station_name":"Gang Sentiong","line":11,"time":8,"distance":1567,"i_lat":-6.185975,"station_id":"GST"},{"station_id":"KMT","i_lat":-6.193792,"is_transit":false,"transit":false,"station_name":"Kramat","line":11,"time":1,"distance":973,"i_long":106.855437},{"station_name":"Pondok Jati","station_id":"POK","i_lat":-6.209188,"time":2,"distance":1829,"transit":false,"line":11,"i_long":106.861737,"is_transit":false},{"time":9,"station_name":"Jatinegara","i_long":106.86807400000001,"transit":true,"i_lat":-6.215091,"distance":1236,"is_transit":true,"line":1,"station_id":"JNG"},{"distance":1377,"is_transit":false,"station_id":"MTR","time":2,"i_long":106.858896,"transit":false,"station_name":"Matraman","line":1,"i_lat":-6.212485},{"transit":true,"station_id":"MRI","distance":1275,"line":2,"time":2,"station_name":"Manggarai","is_transit":true,"i_lat":-6.209883,"i_long":106.84912},{"i_lat":-6.226659,"line":2,"i_long":106.857948,"time":4,"station_id":"TEB","transit":false,"station_name":"Tebet","is_transit":false,"distance":2610},{"is_transit":false,"line":2,"transit":false,"time":2,"station_name":"Cawang","i_lat":-6.242512,"i_long":106.856607,"station_id":"CW","distance":1230}]]}