{"data":[[{"time":0,"station_id":"GGL","line":5,"i_lat":-6.162021,"is_transit":false,"i_long":106.788277,"transit":false,"distance":0,"station_name":"Grogol"},{"line":1,"i_long":106.800832,"is_transit":true,"distance":1700,"transit":true,"station_id":"DU","time":3,"i_lat":-6.155215,"station_name":"Duri"},{"distance":1230,"i_lat":-6.144674,"time":4,"station_name":"Angke","i_long":106.79867,"transit":false,"station_id":"AK","line":1,"is_transit":false},{"transit":true,"time":9,"station_id":"KPB","is_transit":true,"line":4,"i_lat":-6.132549,"i_long":106.826365,"distance":4102,"station_name":"Kampung Bandan"},{"station_id":"RJW","time":3,"transit":false,"i_long":106.836569,"is_transit":false,"line":11,"station_name":"Rajawali","distance":1444,"i_lat":-6.14505},{"is_transit":false,"i_long":106.839204,"line":11,"station_name":"Kemayoran","transit":false,"time":5,"distance":1901,"station_id":"KMO","i_lat":-6.161728},{"transit":false,"is_transit":false,"time":4,"i_lat":-6.174784,"i_long":106.84368,"line":11,"distance":1436,"station_id":"PSE","station_name":"Pasar Senen"}],[{"station_id":"GGL","time":0,"transit":false,"i_lat":-6.162021,"line":5,"i_long":106.788277,"station_name":"Grogol","distance":0,"is_transit":false},{"time":3,"i_lat":-6.155215,"station_id":"DU","line":1,"distance":1700,"station_name":"Duri","is_transit":true,"i_long":106.800832,"transit":true},{"station_name":"Tanah Abang","is_transit":false,"time":8,"transit":false,"i_lat":-6.185545,"distance":3632,"i_long":106.811091,"station_id":"THB","line":1},{"line":1,"i_long":106.816351,"station_name":"Karet","i_lat":-6.20132,"distance":2029,"transit":false,"station_id":"KAT","time":5,"is_transit":false},{"transit":false,"i_long":106.819881,"i_lat":-6.201433,"line":1,"station_name":"Sudirman Baru","is_transit":false,"distance":471,"station_id":"SUDB","time":1},{"station_name":"Sudirman","distance":280,"station_id":"SUD","time":1,"transit":false,"i_lat":-6.202263,"is_transit":false,"i_long":106.822649,"line":1},{"station_name":"Manggarai","station_id":"MRI","time":4,"transit":false,"i_lat":-6.209883,"i_long":106.84912,"distance":3186,"is_transit":false,"line":2},{"station_name":"Matraman","time":2,"distance":1275,"transit":false,"station_id":"MTR","i_lat":-6.212485,"i_long":106.858896,"line":1,"is_transit":false},{"station_id":"JNG","transit":true,"i_long":106.86807400000001,"distance":1377,"time":8,"is_transit":true,"i_lat":-6.215091,"line":1,"station_name":"Jatinegara"},{"i_long":106.861737,"is_transit":false,"station_name":"Pondok Jati","transit":false,"time":2,"i_lat":-6.209188,"line":11,"station_id":"POK","distance":1236},{"transit":false,"i_long":106.855437,"distance":1829,"station_id":"KMT","station_name":"Kramat","is_transit":false,"time":2,"i_lat":-6.193792,"line":11},{"station_id":"GST","line":11,"i_lat":-6.185975,"distance":973,"i_long":106.850107,"time":1,"transit":false,"station_name":"Gang Sentiong","is_transit":false},{"is_transit":false,"line":11,"transit":false,"station_id":"PSE","time":8,"i_long":106.84368,"distance":1567,"i_lat":-6.174784,"station_name":"Pasar Senen"}],[{"line":5,"is_transit":false,"transit":false,"distance":0,"station_id":"GGL","time":0,"i_lat":-6.162021,"station_name":"Grogol","i_long":106.788277},{"i_lat":-6.155215,"distance":1700,"i_long":106.800832,"line":1,"is_transit":true,"transit":true,"time":3,"station_id":"DU","station_name":"Duri"},{"time":4,"line":1,"station_name":"Angke","i_long":106.79867,"station_id":"AK","i_lat":-6.144674,"distance":1230,"transit":false,"is_transit":false},{"i_lat":-6.132549,"time":9,"station_name":"Kampung Bandan","is_transit":true,"distance":4102,"transit":true,"i_long":106.826365,"line":4,"station_id":"KPB"},{"transit":true,"i_lat":-6.137569,"station_name":"Jakarta Kota","i_long":106.812439,"line":2,"station_id":"JAKK","time":3,"is_transit":true,"distance":1364},{"time":4,"i_lat":-6.141205,"i_long":106.820901,"station_name":"Jayakarta","line":2,"distance":1264,"station_id":"JAY","transit":false,"is_transit":false},{"line":2,"time":2,"i_lat":-6.149769,"station_id":"MGB","transit":false,"i_long":106.82482,"distance":1080,"is_transit":false,"station_name":"Manggabesar"},{"is_transit":false,"i_lat":-6.160725,"station_id":"SW","station_name":"Sawah Besar","time":2,"transit":false,"i_long":106.827103,"distance":906,"line":2},{"i_lat":-6.166716,"i_long":106.828284,"time":2,"distance":1149,"station_id":"JUA","station_name":"Juanda","line":2,"transit":false,"is_transit":false},{"transit":false,"i_long":106.832183,"distance":2015,"is_transit":false,"time":4,"station_name":"Gondangdia","line":2,"i_lat":-6.186295,"station_id":"GDD"},{"time":3,"transit":false,"i_long":106.840169,"station_id":"CKI","is_transit":false,"distance":1750,"line":2,"station_name":"Cikini","i_lat":-6.198556},{"line":2,"time":4,"i_lat":-6.209883,"station_name":"Manggarai","i_long":106.84912,"distance":1590,"station_id":"MRI","transit":true,"is_transit":true},{"transit":false,"i_long":106.858896,"time":2,"station_name":"Matraman","i_lat":-6.212485,"line":1,"distance":1275,"station_id":"MTR","is_transit":false},{"line":1,"distance":1377,"station_id":"JNG","station_name":"Jatinegara","i_lat":-6.215091,"i_long":106.86807400000001,"time":8,"transit":true,"is_transit":true},{"is_transit":false,"station_id":"POK","i_lat":-6.209188,"line":11,"transit":false,"time":2,"station_name":"Pondok Jati","distance":1236,"i_long":106.861737},{"station_id":"KMT","distance":1829,"time":2,"station_name":"Kramat","transit":false,"i_long":106.855437,"line":11,"i_lat":-6.193792,"is_transit":false},{"station_name":"Gang Sentiong","station_id":"GST","distance":973,"i_lat":-6.185975,"transit":false,"is_transit":false,"i_long":106.850107,"line":11,"time":1},{"is_transit":false,"i_long":106.84368,"i_lat":-6.174784,"transit":false,"distance":1567,"station_id":"PSE","time":8,"line":11,"station_name":"Pasar Senen"}],[{"transit":false,"station_name":"Grogol","station_id":"GGL","is_transit":false,"i_lat":-6.162021,"line":5,"distance":0,"i_long":106.788277,"time":0},{"line":1,"distance":1700,"i_lat":-6.155215,"station_name":"Duri","transit":true,"is_transit":true,"i_long":106.800832,"station_id":"DU","time":3},{"transit":false,"station_id":"THB","i_long":106.811091,"is_transit":false,"distance":3632,"station_name":"Tanah Abang","i_lat":-6.185545,"line":1,"time":8},{"station_id":"KAT","i_lat":-6.20132,"distance":2029,"i_long":106.816351,"station_name":"Karet","transit":false,"time":5,"is_transit":false,"line":1},{"is_transit":false,"station_name":"Sudirman Baru","time":1,"i_lat":-6.201433,"line":1,"distance":471,"station_id":"SUDB","transit":false,"i_long":106.819881},{"line":1,"i_lat":-6.202263,"distance":280,"transit":false,"station_id":"SUD","i_long":106.822649,"station_name":"Sudirman","is_transit":false,"time":1},{"i_long":106.84912,"time":4,"is_transit":true,"line":2,"transit":true,"i_lat":-6.209883,"station_name":"Manggarai","station_id":"MRI","distance":3186},{"station_name":"Cikini","transit":false,"time":4,"line":2,"i_long":106.840169,"distance":1590,"is_transit":false,"station_id":"CKI","i_lat":-6.198556},{"i_long":106.832183,"i_lat":-6.186295,"station_name":"Gondangdia","time":3,"transit":false,"distance":1750,"station_id":"GDD","is_transit":false,"line":2},{"is_transit":false,"time":4,"i_lat":-6.166716,"line":2,"i_long":106.828284,"distance":2015,"station_id":"JUA","station_name":"Juanda","transit":false},{"transit":false,"time":2,"is_transit":false,"line":2,"distance":1149,"station_name":"Sawah Besar","i_lat":-6.160725,"i_long":106.827103,"station_id":"SW"},{"time":2,"distance":906,"station_id":"MGB","transit":false,"station_name":"Manggabesar","i_lat":-6.149769,"i_long":106.82482,"is_transit":false,"line":2},{"time":2,"line":2,"is_transit":false,"distance":1080,"station_name":"Jayakarta","i_lat":-6.141205,"i_long":106.820901,"transit":false,"station_id":"JAY"},{"transit":true,"station_id":"JAKK","i_lat":-6.137569,"distance":1264,"i_long":106.812439,"is_transit":true,"station_name":"Jakarta Kota","time":4,"line":2},{"transit":true,"distance":1364,"station_id":"KPB","i_lat":-6.132549,"time":3,"station_name":"Kampung Bandan","i_long":106.826365,"line":4,"is_transit":true},{"is_transit":false,"i_long":106.836569,"station_name":"Rajawali","transit":false,"time":3,"distance":1444,"station_id":"RJW","i_lat":-6.14505,"line":11},{"time":5,"distance":1901,"is_transit":false,"station_name":"Kemayoran","transit":false,"i_lat":-6.161728,"station_id":"KMO","i_long":106.839204,"line":11},{"transit":false,"i_lat":-6.174784,"station_id":"PSE","is_transit":false,"time":4,"i_long":106.84368,"station_name":"Pasar Senen","distance":1436,"line":11}]]}