{"data":[[{"is_transit":false,"time":0,"line":5,"station_name":"Grogol","distance":0,"transit":false,"station_id":"GGL","i_long":106.788277,"i_lat":-6.162021},{"is_transit":true,"distance":1700,"i_lat":-6.155215,"i_long":106.800832,"line":1,"station_name":"Duri","station_id":"DU","transit":true,"time":3},{"distance":3632,"time":8,"transit":false,"line":1,"i_long":106.811091,"station_id":"THB","is_transit":false,"station_name":"Tanah Abang","i_lat":-6.185545},{"transit":false,"line":1,"time":5,"i_long":106.816351,"station_name":"Karet","distance":2029,"i_lat":-6.20132,"is_transit":false,"station_id":"KAT"},{"i_lat":-6.201433,"line":1,"station_id":"SUDB","is_transit":false,"distance":471,"transit":false,"time":1,"station_name":"Sudirman Baru","i_long":106.819881},{"is_transit":false,"transit":false,"station_id":"SUD","i_lat":-6.202263,"station_name":"Sudirman","time":1,"distance":280,"i_long":106.822649,"line":1},{"station_id":"MRI","time":4,"i_long":106.84912,"transit":true,"distance":3186,"station_name":"Manggarai","is_transit":true,"i_lat":-6.209883,"line":2},{"is_transit":false,"i_lat":-6.198556,"time":4,"transit":false,"station_id":"CKI","distance":1590,"station_name":"Cikini","i_long":106.840169,"line":2}],[{"station_name":"Grogol","transit":false,"time":0,"distance":0,"i_long":106.788277,"is_transit":false,"station_id":"GGL","line":5,"i_lat":-6.162021},{"time":3,"station_name":"Duri","station_id":"DU","distance":1700,"transit":true,"i_long":106.800832,"is_transit":true,"line":1,"i_lat":-6.155215},{"distance":1230,"line":1,"transit":false,"station_name":"Angke","is_transit":false,"time":4,"station_id":"AK","i_long":106.79867,"i_lat":-6.144674},{"time":9,"transit":true,"i_long":106.826365,"station_name":"Kampung Bandan","distance":4102,"i_lat":-6.132549,"is_transit":true,"station_id":"KPB","line":4},{"station_name":"Jakarta Kota","station_id":"JAKK","i_lat":-6.137569,"transit":true,"time":3,"i_long":106.812439,"line":2,"distance":1364,"is_transit":true},{"is_transit":false,"transit":false,"station_name":"Jayakarta","distance":1264,"station_id":"JAY","i_lat":-6.141205,"time":4,"i_long":106.820901,"line":2},{"i_lat":-6.149769,"station_id":"MGB","distance":1080,"i_long":106.82482,"is_transit":false,"line":2,"time":2,"station_name":"Manggabesar","transit":false},{"time":2,"i_long":106.827103,"line":2,"is_transit":false,"distance":906,"station_id":"SW","transit":false,"station_name":"Sawah Besar","i_lat":-6.160725},{"station_name":"Juanda","i_lat":-6.166716,"line":2,"time":2,"is_transit":false,"station_id":"JUA","transit":false,"distance":1149,"i_long":106.828284},{"is_transit":false,"i_lat":-6.186295,"line":2,"station_name":"Gondangdia","station_id":"GDD","distance":2015,"transit":false,"time":4,"i_long":106.832183},{"i_long":106.840169,"station_name":"Cikini","is_transit":false,"line":2,"station_id":"CKI","time":3,"transit":false,"distance":1750,"i_lat":-6.198556}],[{"time":0,"line":5,"station_id":"GGL","distance":0,"i_long":106.788277,"is_transit":false,"i_lat":-6.162021,"transit":false,"station_name":"Grogol"},{"station_name":"Duri","line":1,"transit":true,"is_transit":true,"time":3,"distance":1700,"i_lat":-6.155215,"station_id":"DU","i_long":106.800832},{"distance":1230,"line":1,"time":4,"transit":false,"station_name":"Angke","i_lat":-6.144674,"i_long":106.79867,"station_id":"AK","is_transit":false},{"i_lat":-6.132549,"distance":4102,"line":4,"time":9,"station_id":"KPB","station_name":"Kampung Bandan","transit":true,"is_transit":true,"i_long":106.826365},{"is_transit":false,"line":11,"transit":false,"time":3,"station_name":"Rajawali","i_lat":-6.14505,"distance":1444,"station_id":"RJW","i_long":106.836569},{"i_lat":-6.161728,"station_id":"KMO","is_transit":false,"station_name":"Kemayoran","distance":1901,"line":11,"transit":false,"i_long":106.839204,"time":5},{"i_lat":-6.174784,"is_transit":false,"station_id":"PSE","time":4,"station_name":"Pasar Senen","transit":false,"distance":1436,"line":11,"i_long":106.84368},{"station_id":"GST","i_lat":-6.185975,"distance":1567,"i_long":106.850107,"line":11,"transit":false,"station_name":"Gang Sentiong","is_transit":false,"time":8},{"distance":973,"i_long":106.855437,"line":11,"station_name":"Kramat","transit":false,"time":1,"station_id":"KMT","i_lat":-6.193792,"is_transit":false},{"transit":false,"distance":1829,"station_name":"Pondok Jati","time":2,"i_long":106.861737,"line":11,"is_transit":false,"station_id":"POK","i_lat":-6.209188},{"is_transit":true,"time":9,"transit":true,"station_name":"Jatinegara","line":1,"i_long":106.86807400000001,"distance":1236,"station_id":"JNG","i_lat":-6.215091},{"i_lat":-6.212485,"transit":false,"station_id":"MTR","time":2,"distance":1377,"line":1,"station_name":"Matraman","is_transit":false,"i_long":106.858896},{"time":2,"transit":true,"station_name":"Manggarai","station_id":"MRI","i_lat":-6.209883,"distance":1275,"i_long":106.84912,"line":2,"is_transit":true},{"transit":false,"time":4,"i_long":106.840169,"station_name":"Cikini","station_id":"CKI","is_transit":false,"distance":1590,"i_lat":-6.198556,"line":2}],[{"transit":false,"time":0,"distance":0,"is_transit":false,"i_long":106.788277,"station_name":"Grogol","station_id":"GGL","i_lat":-6.162021,"line":5},{"line":1,"is_transit":true,"station_name":"Duri","distance":1700,"transit":true,"station_id":"DU","time":3,"i_lat":-6.155215,"i_long":106.800832},{"i_long":106.811091,"transit":false,"is_transit":false,"time":8,"station_name":"Tanah Abang","station_id":"THB","line":1,"distance":3632,"i_lat":-6.185545},{"i_lat":-6.20132,"line":1,"station_id":"KAT","i_long":106.816351,"is_transit":false,"distance":2029,"time":5,"transit":false,"station_name":"Karet"},{"time":1,"transit":false,"is_transit":false,"i_lat":-6.201433,"station_name":"Sudirman Baru","station_id":"SUDB","line":1,"i_long":106.819881,"distance":471},{"station_id":"SUD","time":1,"distance":280,"i_lat":-6.202263,"transit":false,"i_long":106.822649,"line":1,"is_transit":false,"station_name":"Sudirman"},{"line":2,"station_id":"MRI","time":4,"transit":false,"distance":3186,"station_name":"Manggarai","is_transit":false,"i_lat":-6.209883,"i_long":106.84912},{"station_name":"Matraman","transit":false,"distance":1275,"i_long":106.858896,"is_transit":false,"i_lat":-6.212485,"station_id":"MTR","time":2,"line":1},{"i_lat":-6.215091,"station_name":"Jatinegara","station_id":"JNG","i_long":106.86807400000001,"is_transit":true,"time":8,"line":1,"transit":true,"distance":1377},{"time":2,"transit":false,"distance":1236,"i_long":106.861737,"line":11,"station_name":"Pondok Jati","i_lat":-6.209188,"station_id":"POK","is_transit":false},{"time":2,"distance":1829,"i_lat":-6.193792,"i_long":106.855437,"transit":false,"station_name":"Kramat","line":11,"station_id":"KMT","is_transit":false},{"station_id":"GST","i_lat":-6.185975,"station_name":"Gang Sentiong","distance":973,"time":1,"transit":false,"line":11,"is_transit":false,"i_long":106.850107},{"is_transit":false,"station_name":"Pasar Senen","transit":false,"station_id":"PSE","i_long":106.84368,"line":11,"time":8,"distance":1567,"i_lat":-6.174784},{"line":11,"transit":false,"time":4,"i_lat":-6.161728,"is_transit":false,"station_id":"KMO","distance":1436,"i_long":106.839204,"station_name":"Kemayoran"},{"station_id":"RJW","i_lat":-6.14505,"station_name":"Rajawali","is_transit":false,"time":5,"distance":1901,"i_long":106.836569,"line":11,"transit":false},{"station_id":"KPB","i_lat":-6.132549,"i_long":106.826365,"station_name":"Kampung Bandan","transit":true,"distance":1444,"line":4,"is_transit":true,"time":3},{"transit":true,"station_id":"JAKK","station_name":"Jakarta Kota","i_lat":-6.137569,"i_long":106.812439,"time":3,"is_transit":true,"distance":1364,"line":2},{"i_long":106.820901,"line":2,"is_transit":false,"station_name":"Jayakarta","transit":false,"station_id":"JAY","time":4,"distance":1264,"i_lat":-6.141205},{"station_id":"MGB","line":2,"distance":1080,"i_long":106.82482,"station_name":"Manggabesar","time":2,"is_transit":false,"transit":false,"i_lat":-6.149769},{"station_name":"Sawah Besar","i_long":106.827103,"line":2,"time":2,"station_id":"SW","is_transit":false,"i_lat":-6.160725,"transit":false,"distance":906},{"station_name":"Juanda","line":2,"time":2,"transit":false,"is_transit":false,"distance":1149,"i_lat":-6.166716,"i_long":106.828284,"station_id":"JUA"},{"time":4,"distance":2015,"i_long":106.832183,"station_name":"Gondangdia","station_id":"GDD","i_lat":-6.186295,"transit":false,"line":2,"is_transit":false},{"station_name":"Cikini","i_lat":-6.198556,"transit":false,"distance":1750,"i_long":106.840169,"line":2,"time":3,"station_id":"CKI","is_transit":false}]]}