{"data":[[{"station_id":"GGL","distance":0,"line":5,"i_long":106.788277,"is_transit":false,"transit":false,"time":0,"i_lat":-6.162021,"station_name":"Grogol"},{"i_lat":-6.155215,"i_long":106.800832,"station_name":"Duri","station_id":"DU","line":1,"transit":true,"is_transit":true,"distance":1700,"time":3},{"station_id":"THB","transit":false,"is_transit":false,"distance":3632,"i_lat":-6.185545,"i_long":106.811091,"time":8,"line":1,"station_name":"Tanah Abang"},{"station_name":"Karet","station_id":"KAT","time":5,"distance":2029,"i_lat":-6.20132,"transit":false,"i_long":106.816351,"line":1,"is_transit":false},{"time":1,"is_transit":false,"i_lat":-6.201433,"transit":false,"distance":471,"station_name":"Sudirman Baru","i_long":106.819881,"line":1,"station_id":"SUDB"},{"station_id":"SUD","line":1,"i_long":106.822649,"transit":false,"time":1,"station_name":"Sudirman","distance":280,"i_lat":-6.202263,"is_transit":false},{"station_name":"Manggarai","station_id":"MRI","distance":3186,"is_transit":true,"transit":true,"time":4,"i_lat":-6.209883,"i_long":106.84912,"line":2},{"station_name":"Tebet","i_long":106.857948,"distance":2610,"line":2,"transit":false,"is_transit":false,"i_lat":-6.226659,"station_id":"TEB","time":4},{"i_long":106.856607,"i_lat":-6.242512,"transit":false,"station_name":"Cawang","line":2,"time":2,"station_id":"CW","is_transit":false,"distance":1230},{"distance":1546,"station_name":"Duren Kalibata","line":2,"is_transit":false,"i_long":106.85449,"i_lat":-6.255332,"transit":false,"station_id":"DRN","time":3},{"time":2,"transit":false,"distance":824,"station_name":"Pasar Minggu Baru","station_id":"PSMB","i_lat":-6.263214,"i_long":106.851577,"line":2,"is_transit":false},{"i_lat":-6.2842400000000005,"station_id":"PSM","distance":2380,"station_name":"Pasar Minggu","is_transit":false,"i_long":106.843999,"time":2,"line":2,"transit":false},{"line":2,"i_lat":-6.3080680000000005,"station_id":"TNT","is_transit":false,"transit":false,"i_long":106.838896,"distance":2820,"station_name":"Tanjung Barat","time":4},{"time":3,"distance":2671,"station_name":"Lenteng Agung","is_transit":false,"i_lat":-6.330363,"i_long":106.832616,"transit":false,"line":2,"station_id":"LNA"},{"distance":1029,"time":2,"transit":false,"station_id":"UP","line":2,"i_lat":-6.339291,"station_name":"Univ. Pancasila","i_long":106.834175,"is_transit":false},{"is_transit":false,"i_long":106.831474,"line":2,"transit":false,"station_name":"Univ. Indonesia","station_id":"UI","time":3,"i_lat":-6.360749,"distance":2264}],[{"transit":false,"i_lat":-6.162021,"i_long":106.788277,"is_transit":false,"station_name":"Grogol","time":0,"distance":0,"station_id":"GGL","line":5},{"i_lat":-6.155215,"station_id":"DU","i_long":106.800832,"distance":1700,"time":3,"line":1,"transit":true,"station_name":"Duri","is_transit":true},{"is_transit":false,"i_long":106.79867,"station_id":"AK","distance":1230,"line":1,"time":4,"i_lat":-6.144674,"transit":false,"station_name":"Angke"},{"distance":4102,"i_long":106.826365,"time":9,"i_lat":-6.132549,"station_name":"Kampung Bandan","is_transit":true,"station_id":"KPB","transit":true,"line":4},{"station_id":"JAKK","i_lat":-6.137569,"i_long":106.812439,"line":2,"station_name":"Jakarta Kota","time":3,"transit":true,"is_transit":true,"distance":1364},{"transit":false,"distance":1264,"station_id":"JAY","is_transit":false,"time":4,"line":2,"i_lat":-6.141205,"station_name":"Jayakarta","i_long":106.820901},{"station_name":"Manggabesar","station_id":"MGB","is_transit":false,"i_lat":-6.149769,"i_long":106.82482,"distance":1080,"transit":false,"line":2,"time":2},{"station_id":"SW","line":2,"i_long":106.827103,"is_transit":false,"transit":false,"distance":906,"station_name":"Sawah Besar","time":2,"i_lat":-6.160725},{"i_lat":-6.166716,"station_name":"Juanda","i_long":106.828284,"line":2,"is_transit":false,"distance":1149,"transit":false,"station_id":"JUA","time":2},{"transit":false,"distance":2015,"time":4,"station_name":"Gondangdia","i_lat":-6.186295,"i_long":106.832183,"station_id":"GDD","line":2,"is_transit":false},{"line":2,"time":3,"station_name":"Cikini","is_transit":false,"i_long":106.840169,"station_id":"CKI","i_lat":-6.198556,"distance":1750,"transit":false},{"station_id":"MRI","line":2,"station_name":"Manggarai","distance":1590,"transit":false,"is_transit":false,"time":4,"i_lat":-6.209883,"i_long":106.84912},{"line":2,"i_long":106.857948,"i_lat":-6.226659,"transit":false,"station_name":"Tebet","station_id":"TEB","is_transit":false,"distance":2610,"time":4},{"time":2,"distance":1230,"i_long":106.856607,"line":2,"is_transit":false,"transit":false,"i_lat":-6.242512,"station_id":"CW","station_name":"Cawang"},{"is_transit":false,"i_lat":-6.255332,"station_id":"DRN","time":3,"transit":false,"station_name":"Duren Kalibata","i_long":106.85449,"distance":1546,"line":2},{"station_name":"Pasar Minggu Baru","is_transit":false,"i_lat":-6.263214,"station_id":"PSMB","i_long":106.851577,"transit":false,"line":2,"distance":824,"time":2},{"transit":false,"station_id":"PSM","i_lat":-6.2842400000000005,"line":2,"distance":2380,"station_name":"Pasar Minggu","i_long":106.843999,"is_transit":false,"time":2},{"is_transit":false,"i_lat":-6.3080680000000005,"station_id":"TNT","time":4,"transit":false,"i_long":106.838896,"distance":2820,"line":2,"station_name":"Tanjung Barat"},{"station_name":"Lenteng Agung","transit":false,"line":2,"time":3,"is_transit":false,"i_lat":-6.330363,"distance":2671,"i_long":106.832616,"station_id":"LNA"},{"i_lat":-6.339291,"distance":1029,"is_transit":false,"line":2,"i_long":106.834175,"transit":false,"station_name":"Univ. Pancasila","station_id":"UP","time":2},{"station_name":"Univ. Indonesia","line":2,"time":3,"distance":2264,"station_id":"UI","is_transit":false,"i_long":106.831474,"transit":false,"i_lat":-6.360749}],[{"line":5,"transit":false,"i_lat":-6.162021,"time":0,"i_long":106.788277,"station_name":"Grogol","station_id":"GGL","is_transit":false,"distance":0},{"is_transit":true,"time":3,"i_long":106.800832,"transit":true,"station_name":"Duri","line":1,"station_id":"DU","i_lat":-6.155215,"distance":1700},{"transit":false,"station_id":"AK","is_transit":false,"station_name":"Angke","time":4,"i_long":106.79867,"i_lat":-6.144674,"line":1,"distance":1230},{"is_transit":true,"i_long":106.826365,"time":9,"station_id":"KPB","i_lat":-6.132549,"line":4,"distance":4102,"station_name":"Kampung Bandan","transit":true},{"station_name":"Rajawali","i_lat":-6.14505,"is_transit":false,"i_long":106.836569,"transit":false,"station_id":"RJW","line":11,"time":3,"distance":1444},{"line":11,"distance":1901,"station_id":"KMO","station_name":"Kemayoran","i_lat":-6.161728,"transit":false,"is_transit":false,"time":5,"i_long":106.839204},{"time":4,"transit":false,"i_lat":-6.174784,"station_name":"Pasar Senen","line":11,"i_long":106.84368,"station_id":"PSE","distance":1436,"is_transit":false},{"distance":1567,"line":11,"time":8,"station_name":"Gang Sentiong","station_id":"GST","is_transit":false,"i_long":106.850107,"transit":false,"i_lat":-6.185975},{"i_long":106.855437,"line":11,"distance":973,"station_id":"KMT","is_transit":false,"i_lat":-6.193792,"transit":false,"time":1,"station_name":"Kramat"},{"i_lat":-6.209188,"i_long":106.861737,"station_name":"Pondok Jati","line":11,"is_transit":false,"time":2,"transit":false,"distance":1829,"station_id":"POK"},{"station_id":"JNG","i_lat":-6.215091,"i_long":106.86807400000001,"line":1,"transit":true,"station_name":"Jatinegara","is_transit":true,"distance":1236,"time":9},{"is_transit":false,"line":1,"i_long":106.858896,"transit":false,"distance":1377,"i_lat":-6.212485,"station_name":"Matraman","time":2,"station_id":"MTR"},{"i_lat":-6.209883,"station_id":"MRI","line":2,"is_transit":true,"time":2,"i_long":106.84912,"transit":true,"distance":1275,"station_name":"Manggarai"},{"is_transit":false,"transit":false,"distance":2610,"station_id":"TEB","i_lat":-6.226659,"i_long":106.857948,"time":4,"line":2,"station_name":"Tebet"},{"time":2,"i_long":106.856607,"distance":1230,"station_name":"Cawang","transit":false,"is_transit":false,"station_id":"CW","i_lat":-6.242512,"line":2},{"station_id":"DRN","distance":1546,"is_transit":false,"transit":false,"i_long":106.85449,"station_name":"Duren Kalibata","time":3,"line":2,"i_lat":-6.255332},{"station_id":"PSMB","transit":false,"line":2,"distance":824,"time":2,"station_name":"Pasar Minggu Baru","i_lat":-6.263214,"i_long":106.851577,"is_transit":false},{"time":2,"i_lat":-6.2842400000000005,"station_name":"Pasar Minggu","i_long":106.843999,"line":2,"station_id":"PSM","transit":false,"distance":2380,"is_transit":false},{"station_name":"Tanjung Barat","time":4,"i_lat":-6.3080680000000005,"i_long":106.838896,"line":2,"station_id":"TNT","is_transit":false,"transit":false,"distance":2820},{"i_lat":-6.330363,"line":2,"i_long":106.832616,"station_name":"Lenteng Agung","station_id":"LNA","is_transit":false,"transit":false,"time":3,"distance":2671},{"station_name":"Univ. Pancasila","station_id":"UP","is_transit":false,"time":2,"line":2,"transit":false,"i_long":106.834175,"distance":1029,"i_lat":-6.339291},{"distance":2264,"station_id":"UI","is_transit":false,"i_lat":-6.360749,"i_long":106.831474,"station_name":"Univ. Indonesia","time":3,"line":2,"transit":false}]]}