{"data":[[{"distance":0,"station_id":"GGL","i_lat":-6.162021,"i_long":106.788277,"transit":false,"is_transit":false,"time":0,"station_name":"Grogol","line":5},{"transit":true,"distance":1700,"station_name":"Duri","station_id":"DU","is_transit":true,"line":1,"i_lat":-6.155215,"i_long":106.800832,"time":3},{"i_lat":-6.185545,"i_long":106.811091,"station_id":"THB","station_name":"Tanah Abang","time":8,"line":1,"is_transit":true,"distance":3632,"transit":false},{"distance":2029,"station_name":"Karet","station_id":"KAT","is_transit":false,"line":1,"i_lat":-6.20132,"time":5,"transit":false,"i_long":106.816351},{"transit":false,"station_id":"SUDB","distance":471,"i_long":106.819881,"station_name":"Sudirman Baru","i_lat":-6.201433,"line":1,"time":1,"is_transit":false},{"line":1,"transit":false,"i_lat":-6.202263,"station_id":"SUD","station_name":"Sudirman","distance":280,"time":1,"i_long":106.822649,"is_transit":false},{"i_long":106.84912,"transit":true,"i_lat":-6.209883,"line":0,"station_id":"MRI","distance":3186,"station_name":"Manggarai","time":4,"is_transit":true},{"i_lat":-6.226659,"i_long":106.857948,"station_id":"TEB","time":4,"is_transit":false,"distance":2610,"transit":false,"line":2,"station_name":"Tebet"}],[{"i_long":106.788277,"time":0,"station_id":"GGL","i_lat":-6.162021,"is_transit":false,"transit":false,"station_name":"Grogol","distance":0,"line":5},{"distance":1700,"i_lat":-6.155215,"i_long":106.800832,"time":3,"station_id":"DU","transit":true,"station_name":"Duri","line":1,"is_transit":true},{"is_transit":false,"station_name":"Angke","time":4,"i_lat":-6.144674,"distance":1230,"station_id":"AK","i_long":106.79867,"transit":false,"line":0},{"is_transit":true,"distance":4102,"transit":false,"station_id":"KPB","time":9,"line":0,"station_name":"Kampung Bandan","i_long":106.826365,"i_lat":-6.132549},{"is_transit":true,"station_name":"Jakarta Kota","i_lat":-6.137569,"transit":true,"i_long":106.812439,"distance":1364,"time":3,"line":0,"station_id":"JAKK"},{"station_id":"JAY","distance":1264,"station_name":"Jayakarta","transit":false,"is_transit":false,"i_lat":-6.141205,"i_long":106.820901,"time":4,"line":7},{"station_id":"MGB","transit":false,"i_long":106.82482,"distance":1080,"is_transit":false,"time":2,"i_lat":-6.149769,"line":2,"station_name":"Manggabesar"},{"distance":906,"transit":false,"time":2,"i_long":106.827103,"station_name":"Sawah Besar","i_lat":-6.160725,"station_id":"SW","line":2,"is_transit":false},{"station_name":"Juanda","line":2,"distance":1149,"station_id":"JUA","transit":false,"i_long":106.828284,"is_transit":false,"time":2,"i_lat":-6.166716},{"distance":2015,"station_id":"GDD","i_lat":-6.186295,"time":4,"station_name":"Gondangdia","i_long":106.832183,"transit":false,"is_transit":false,"line":2},{"station_id":"CKI","i_long":106.840169,"line":0,"i_lat":-6.198556,"station_name":"Cikini","is_transit":false,"transit":false,"distance":1750,"time":3},{"transit":true,"i_lat":-6.209883,"time":4,"i_long":106.84912,"line":0,"station_id":"MRI","is_transit":true,"station_name":"Manggarai","distance":1590},{"time":4,"station_id":"TEB","transit":false,"station_name":"Tebet","is_transit":false,"i_lat":-6.226659,"distance":2610,"i_long":106.857948,"line":2}],[{"time":0,"i_long":106.788277,"station_id":"GGL","line":5,"station_name":"Grogol","is_transit":false,"i_lat":-6.162021,"transit":false,"distance":0},{"i_lat":-6.155215,"transit":true,"time":3,"i_long":106.800832,"distance":1700,"station_name":"Duri","is_transit":true,"station_id":"DU","line":1},{"time":4,"i_lat":-6.144674,"i_long":106.79867,"transit":false,"station_name":"Angke","line":0,"station_id":"AK","is_transit":false,"distance":1230},{"is_transit":true,"line":0,"i_lat":-6.132549,"transit":true,"distance":4102,"station_name":"Kampung Bandan","i_long":106.826365,"station_id":"KPB","time":9},{"time":3,"i_long":106.836569,"is_transit":false,"line":11,"distance":1444,"i_lat":-6.14505,"station_id":"RJW","transit":false,"station_name":"Rajawali"},{"station_name":"Kemayoran","station_id":"KMO","i_long":106.839204,"line":11,"transit":false,"is_transit":false,"time":5,"i_lat":-6.161728,"distance":1901},{"time":4,"i_lat":-6.174784,"station_name":"Pasar Senen","line":11,"is_transit":false,"station_id":"PSE","distance":1436,"transit":false,"i_long":106.84368},{"is_transit":false,"i_lat":-6.185975,"time":8,"i_long":106.850107,"transit":false,"station_id":"GST","line":11,"distance":1567,"station_name":"Gang Sentiong"},{"i_long":106.855437,"line":11,"station_name":"Kramat","i_lat":-6.193792,"distance":973,"time":1,"is_transit":false,"transit":false,"station_id":"KMT"},{"i_lat":-6.209188,"station_name":"Pondok Jati","i_long":106.861737,"is_transit":false,"line":11,"time":2,"transit":false,"station_id":"POK","distance":1829},{"i_lat":-6.215091,"i_long":106.86807400000001,"line":0,"distance":1236,"transit":true,"is_transit":true,"station_id":"JNG","time":9,"station_name":"Jatinegara"},{"station_name":"Matraman","time":2,"distance":1377,"station_id":"MTR","transit":false,"i_long":106.858896,"line":1,"is_transit":false,"i_lat":-6.212485},{"time":2,"line":0,"distance":1275,"i_lat":-6.209883,"is_transit":true,"station_id":"MRI","transit":true,"i_long":106.84912,"station_name":"Manggarai"},{"time":4,"transit":false,"line":2,"i_long":106.857948,"is_transit":false,"station_name":"Tebet","station_id":"TEB","i_lat":-6.226659,"distance":2610}]]}