{"data":[[{"is_transit":false,"i_long":106.788277,"time":0,"distance":0,"station_id":"GGL","station_name":"Grogol","transit":false,"i_lat":-6.162021,"line":5},{"i_lat":-6.155215,"line":1,"station_id":"DU","station_name":"Duri","is_transit":true,"i_long":106.800832,"distance":1700,"transit":true,"time":3},{"transit":true,"i_long":106.811091,"station_name":"Tanah Abang","i_lat":-6.185545,"line":1,"station_id":"THB","is_transit":true,"time":8,"distance":3632},{"time":6,"i_long":106.79689,"station_name":"Palmerah","station_id":"PLM","is_transit":false,"distance":3191,"line":6,"transit":false,"i_lat":-6.207404},{"transit":false,"time":7,"distance":3737,"line":6,"i_lat":-6.237242,"station_name":"Kebayoran","is_transit":false,"i_long":106.780334,"station_id":"KBY"},{"station_id":"PDJ","i_long":106.74273,"transit":false,"is_transit":false,"time":8,"distance":6218,"i_lat":-6.276362,"line":6,"station_name":"Pondokranji"},{"line":6,"station_id":"JMU","station_name":"Jurangmangu","time":3,"distance":2179,"transit":false,"is_transit":false,"i_lat":-6.288927,"i_long":106.728916},{"time":4,"is_transit":false,"station_name":"Sudimara","transit":false,"i_lat":-6.296963,"station_id":"SDM","distance":1994,"i_long":106.712277,"line":6},{"distance":4566,"transit":false,"is_transit":false,"station_id":"RU","i_long":106.675475,"station_name":"Rawa Buntu","line":6,"time":6,"i_lat":-6.314823},{"distance":2413,"transit":false,"station_name":"Serpong","time":4,"is_transit":false,"station_id":"SRP","i_lat":-6.319871,"i_long":106.66566,"line":6}],[{"time":0,"i_lat":-6.162021,"station_name":"Grogol","station_id":"GGL","transit":false,"i_long":106.788277,"is_transit":false,"line":5,"distance":0},{"transit":true,"station_name":"Duri","distance":1700,"line":1,"time":3,"i_long":106.800832,"station_id":"DU","is_transit":true,"i_lat":-6.155215},{"station_name":"Angke","transit":false,"station_id":"AK","time":4,"distance":1230,"i_long":106.79867,"i_lat":-6.144674,"line":1,"is_transit":false},{"line":4,"i_lat":-6.132549,"station_id":"KPB","is_transit":true,"time":9,"i_long":106.826365,"distance":4102,"station_name":"Kampung Bandan","transit":true},{"station_name":"Jakarta Kota","distance":1364,"i_lat":-6.137569,"i_long":106.812439,"time":3,"transit":true,"line":2,"station_id":"JAKK","is_transit":true},{"transit":false,"station_name":"Jayakarta","is_transit":false,"station_id":"JAY","line":2,"distance":1264,"i_lat":-6.141205,"time":4,"i_long":106.820901},{"station_name":"Manggabesar","is_transit":false,"time":2,"distance":1080,"i_lat":-6.149769,"i_long":106.82482,"station_id":"MGB","line":2,"transit":false},{"i_long":106.827103,"station_name":"Sawah Besar","is_transit":false,"transit":false,"station_id":"SW","line":2,"time":2,"i_lat":-6.160725,"distance":906},{"station_id":"JUA","line":2,"station_name":"Juanda","transit":false,"i_long":106.828284,"time":2,"i_lat":-6.166716,"is_transit":false,"distance":1149},{"i_long":106.832183,"station_id":"GDD","i_lat":-6.186295,"is_transit":false,"transit":false,"time":4,"distance":2015,"station_name":"Gondangdia","line":2},{"time":3,"station_name":"Cikini","station_id":"CKI","i_lat":-6.198556,"i_long":106.840169,"transit":false,"is_transit":false,"line":2,"distance":1750},{"station_id":"MRI","line":2,"i_lat":-6.209883,"station_name":"Manggarai","time":4,"is_transit":true,"distance":1590,"transit":true,"i_long":106.84912},{"station_id":"SUD","i_lat":-6.202263,"transit":false,"line":1,"i_long":106.822649,"time":4,"is_transit":false,"station_name":"Sudirman","distance":3186},{"line":1,"distance":280,"station_id":"SUDB","i_long":106.819881,"is_transit":false,"time":1,"station_name":"Sudirman Baru","i_lat":-6.201433,"transit":false},{"is_transit":false,"time":1,"distance":471,"station_id":"KAT","transit":false,"line":1,"station_name":"Karet","i_long":106.816351,"i_lat":-6.20132},{"distance":2029,"is_transit":true,"station_id":"THB","line":1,"time":5,"transit":true,"i_lat":-6.185545,"station_name":"Tanah Abang","i_long":106.811091},{"station_name":"Palmerah","is_transit":false,"transit":false,"time":6,"distance":3191,"i_lat":-6.207404,"i_long":106.79689,"line":6,"station_id":"PLM"},{"transit":false,"station_id":"KBY","i_lat":-6.237242,"line":6,"time":7,"distance":3737,"station_name":"Kebayoran","is_transit":false,"i_long":106.780334},{"station_name":"Pondokranji","transit":false,"i_long":106.74273,"is_transit":false,"station_id":"PDJ","line":6,"i_lat":-6.276362,"time":8,"distance":6218},{"distance":2179,"is_transit":false,"i_long":106.728916,"line":6,"time":3,"i_lat":-6.288927,"station_name":"Jurangmangu","transit":false,"station_id":"JMU"},{"station_id":"SDM","i_lat":-6.296963,"distance":1994,"station_name":"Sudimara","transit":false,"time":4,"is_transit":false,"i_long":106.712277,"line":6},{"station_id":"RU","is_transit":false,"i_lat":-6.314823,"line":6,"distance":4566,"transit":false,"time":6,"station_name":"Rawa Buntu","i_long":106.675475},{"station_name":"Serpong","time":4,"i_lat":-6.319871,"line":6,"distance":2413,"transit":false,"i_long":106.66566,"is_transit":false,"station_id":"SRP"}],[{"station_id":"GGL","i_long":106.788277,"line":5,"i_lat":-6.162021,"time":0,"is_transit":false,"station_name":"Grogol","transit":false,"distance":0},{"station_id":"DU","i_lat":-6.155215,"time":3,"transit":true,"is_transit":true,"line":1,"distance":1700,"i_long":106.800832,"station_name":"Duri"},{"i_lat":-6.144674,"time":4,"transit":false,"distance":1230,"station_name":"Angke","is_transit":false,"i_long":106.79867,"line":1,"station_id":"AK"},{"line":4,"station_id":"KPB","is_transit":true,"i_long":106.826365,"station_name":"Kampung Bandan","distance":4102,"time":9,"transit":true,"i_lat":-6.132549},{"station_id":"RJW","i_lat":-6.14505,"distance":1444,"time":3,"is_transit":false,"i_long":106.836569,"transit":false,"line":11,"station_name":"Rajawali"},{"distance":1901,"time":5,"i_lat":-6.161728,"i_long":106.839204,"is_transit":false,"station_name":"Kemayoran","station_id":"KMO","transit":false,"line":11},{"station_name":"Pasar Senen","distance":1436,"transit":false,"time":4,"station_id":"PSE","i_lat":-6.174784,"is_transit":false,"i_long":106.84368,"line":11},{"i_long":106.850107,"station_name":"Gang Sentiong","is_transit":false,"line":11,"station_id":"GST","i_lat":-6.185975,"transit":false,"distance":1567,"time":8},{"distance":973,"transit":false,"line":11,"station_name":"Kramat","i_lat":-6.193792,"time":1,"i_long":106.855437,"is_transit":false,"station_id":"KMT"},{"is_transit":false,"i_long":106.861737,"time":2,"station_name":"Pondok Jati","station_id":"POK","transit":false,"distance":1829,"i_lat":-6.209188,"line":11},{"time":9,"transit":true,"is_transit":true,"i_long":106.86807400000001,"station_name":"Jatinegara","line":1,"distance":1236,"i_lat":-6.215091,"station_id":"JNG"},{"i_lat":-6.212485,"station_name":"Matraman","time":2,"i_long":106.858896,"distance":1377,"transit":false,"is_transit":false,"station_id":"MTR","line":1},{"i_lat":-6.209883,"distance":1275,"transit":false,"time":2,"line":2,"is_transit":false,"station_name":"Manggarai","station_id":"MRI","i_long":106.84912},{"distance":3186,"i_lat":-6.202263,"time":4,"transit":false,"station_name":"Sudirman","is_transit":false,"station_id":"SUD","line":1,"i_long":106.822649},{"station_name":"Sudirman Baru","transit":false,"station_id":"SUDB","i_lat":-6.201433,"i_long":106.819881,"time":1,"distance":280,"line":1,"is_transit":false},{"i_long":106.816351,"line":1,"is_transit":false,"time":1,"transit":false,"station_id":"KAT","station_name":"Karet","i_lat":-6.20132,"distance":471},{"time":5,"station_id":"THB","i_long":106.811091,"i_lat":-6.185545,"line":1,"is_transit":true,"distance":2029,"transit":true,"station_name":"Tanah Abang"},{"i_lat":-6.207404,"station_id":"PLM","distance":3191,"time":6,"station_name":"Palmerah","is_transit":false,"i_long":106.79689,"line":6,"transit":false},{"distance":3737,"i_lat":-6.237242,"transit":false,"i_long":106.780334,"line":6,"is_transit":false,"time":7,"station_id":"KBY","station_name":"Kebayoran"},{"i_lat":-6.276362,"distance":6218,"transit":false,"i_long":106.74273,"station_name":"Pondokranji","time":8,"is_transit":false,"line":6,"station_id":"PDJ"},{"distance":2179,"i_long":106.728916,"station_name":"Jurangmangu","station_id":"JMU","transit":false,"line":6,"is_transit":false,"i_lat":-6.288927,"time":3},{"transit":false,"i_long":106.712277,"line":6,"is_transit":false,"station_id":"SDM","distance":1994,"time":4,"i_lat":-6.296963,"station_name":"Sudimara"},{"station_id":"RU","i_long":106.675475,"line":6,"station_name":"Rawa Buntu","is_transit":false,"i_lat":-6.314823,"time":6,"distance":4566,"transit":false},{"time":4,"station_id":"SRP","distance":2413,"is_transit":false,"transit":false,"i_lat":-6.319871,"i_long":106.66566,"line":6,"station_name":"Serpong"}]]}