{"data":[[{"distance":0,"is_transit":false,"line":5,"time":0,"i_lat":-6.162021,"station_name":"Grogol","i_long":106.788277,"station_id":"GGL","transit":false},{"transit":true,"i_lat":-6.155215,"i_long":106.800832,"line":1,"time":3,"distance":1700,"station_name":"Duri","station_id":"DU","is_transit":true},{"i_lat":-6.185545,"time":8,"transit":false,"i_long":106.811091,"distance":3632,"station_id":"THB","line":1,"station_name":"Tanah Abang","is_transit":false},{"transit":false,"i_long":106.816351,"line":1,"station_id":"KAT","distance":2029,"time":5,"station_name":"Karet","is_transit":false,"i_lat":-6.20132},{"station_id":"SUDB","time":1,"distance":471,"transit":false,"i_lat":-6.201433,"station_name":"Sudirman Baru","i_long":106.819881,"line":1,"is_transit":false},{"station_id":"SUD","is_transit":false,"station_name":"Sudirman","i_lat":-6.202263,"line":1,"i_long":106.822649,"time":1,"distance":280,"transit":false},{"is_transit":true,"i_long":106.84912,"station_id":"MRI","line":2,"transit":true,"i_lat":-6.209883,"station_name":"Manggarai","distance":3186,"time":4},{"distance":2610,"time":4,"i_long":106.857948,"line":2,"transit":false,"station_name":"Tebet","is_transit":false,"i_lat":-6.226659,"station_id":"TEB"},{"station_id":"CW","is_transit":false,"distance":1230,"station_name":"Cawang","transit":false,"i_lat":-6.242512,"line":2,"time":2,"i_long":106.856607},{"i_long":106.85449,"is_transit":false,"i_lat":-6.255332,"line":2,"time":3,"transit":false,"station_name":"Duren Kalibata","distance":1546,"station_id":"DRN"},{"station_name":"Pasar Minggu Baru","time":2,"station_id":"PSMB","transit":false,"distance":824,"i_long":106.851577,"line":2,"is_transit":false,"i_lat":-6.263214},{"i_lat":-6.2842400000000005,"line":2,"time":2,"transit":false,"i_long":106.843999,"is_transit":false,"distance":2380,"station_id":"PSM","station_name":"Pasar Minggu"}],[{"i_lat":-6.162021,"station_id":"GGL","is_transit":false,"distance":0,"time":0,"station_name":"Grogol","transit":false,"i_long":106.788277,"line":5},{"i_lat":-6.155215,"time":3,"distance":1700,"line":1,"station_id":"DU","is_transit":true,"transit":true,"i_long":106.800832,"station_name":"Duri"},{"time":4,"i_lat":-6.144674,"station_name":"Angke","station_id":"AK","is_transit":false,"transit":false,"line":1,"i_long":106.79867,"distance":1230},{"station_id":"KPB","distance":4102,"station_name":"Kampung Bandan","i_lat":-6.132549,"line":4,"time":9,"is_transit":true,"transit":true,"i_long":106.826365},{"line":2,"station_id":"JAKK","station_name":"Jakarta Kota","time":3,"is_transit":true,"transit":true,"i_long":106.812439,"i_lat":-6.137569,"distance":1364},{"i_long":106.820901,"distance":1264,"transit":false,"station_name":"Jayakarta","i_lat":-6.141205,"station_id":"JAY","is_transit":false,"line":2,"time":4},{"is_transit":false,"station_name":"Manggabesar","i_lat":-6.149769,"line":2,"time":2,"station_id":"MGB","distance":1080,"transit":false,"i_long":106.82482},{"distance":906,"station_name":"Sawah Besar","is_transit":false,"station_id":"SW","i_long":106.827103,"line":2,"time":2,"transit":false,"i_lat":-6.160725},{"i_lat":-6.166716,"is_transit":false,"transit":false,"line":2,"time":2,"station_id":"JUA","distance":1149,"station_name":"Juanda","i_long":106.828284},{"distance":2015,"is_transit":false,"line":2,"time":4,"transit":false,"station_name":"Gondangdia","station_id":"GDD","i_lat":-6.186295,"i_long":106.832183},{"station_name":"Cikini","transit":false,"i_lat":-6.198556,"i_long":106.840169,"station_id":"CKI","distance":1750,"is_transit":false,"line":2,"time":3},{"line":2,"i_lat":-6.209883,"transit":false,"is_transit":false,"time":4,"i_long":106.84912,"station_name":"Manggarai","station_id":"MRI","distance":1590},{"time":4,"is_transit":false,"station_id":"TEB","transit":false,"i_lat":-6.226659,"line":2,"station_name":"Tebet","distance":2610,"i_long":106.857948},{"distance":1230,"i_long":106.856607,"is_transit":false,"station_id":"CW","transit":false,"i_lat":-6.242512,"station_name":"Cawang","line":2,"time":2},{"station_id":"DRN","transit":false,"i_long":106.85449,"station_name":"Duren Kalibata","distance":1546,"i_lat":-6.255332,"line":2,"is_transit":false,"time":3},{"line":2,"station_id":"PSMB","station_name":"Pasar Minggu Baru","transit":false,"i_lat":-6.263214,"distance":824,"i_long":106.851577,"time":2,"is_transit":false},{"distance":2380,"station_name":"Pasar Minggu","is_transit":false,"i_long":106.843999,"line":2,"time":2,"station_id":"PSM","transit":false,"i_lat":-6.2842400000000005}],[{"station_id":"GGL","i_long":106.788277,"line":5,"i_lat":-6.162021,"is_transit":false,"station_name":"Grogol","transit":false,"time":0,"distance":0},{"time":3,"i_lat":-6.155215,"is_transit":true,"station_name":"Duri","station_id":"DU","transit":true,"line":1,"i_long":106.800832,"distance":1700},{"transit":false,"station_name":"Angke","time":4,"distance":1230,"station_id":"AK","is_transit":false,"i_lat":-6.144674,"i_long":106.79867,"line":1},{"station_name":"Kampung Bandan","distance":4102,"i_lat":-6.132549,"time":9,"station_id":"KPB","line":4,"is_transit":true,"i_long":106.826365,"transit":true},{"time":3,"i_lat":-6.14505,"is_transit":false,"station_id":"RJW","station_name":"Rajawali","transit":false,"i_long":106.836569,"line":11,"distance":1444},{"transit":false,"line":11,"time":5,"is_transit":false,"station_id":"KMO","station_name":"Kemayoran","distance":1901,"i_lat":-6.161728,"i_long":106.839204},{"distance":1436,"transit":false,"is_transit":false,"time":4,"i_long":106.84368,"i_lat":-6.174784,"line":11,"station_id":"PSE","station_name":"Pasar Senen"},{"i_lat":-6.185975,"i_long":106.850107,"line":11,"station_name":"Gang Sentiong","time":8,"station_id":"GST","is_transit":false,"distance":1567,"transit":false},{"time":1,"transit":false,"i_lat":-6.193792,"station_name":"Kramat","i_long":106.855437,"station_id":"KMT","line":11,"distance":973,"is_transit":false},{"i_long":106.861737,"distance":1829,"line":11,"is_transit":false,"station_id":"POK","time":2,"transit":false,"i_lat":-6.209188,"station_name":"Pondok Jati"},{"station_id":"JNG","i_long":106.86807400000001,"line":1,"i_lat":-6.215091,"transit":true,"time":9,"is_transit":true,"station_name":"Jatinegara","distance":1236},{"i_long":106.858896,"line":1,"distance":1377,"station_name":"Matraman","station_id":"MTR","time":2,"i_lat":-6.212485,"transit":false,"is_transit":false},{"i_long":106.84912,"transit":true,"line":2,"station_id":"MRI","is_transit":true,"time":2,"i_lat":-6.209883,"station_name":"Manggarai","distance":1275},{"line":2,"transit":false,"is_transit":false,"i_lat":-6.226659,"station_id":"TEB","distance":2610,"station_name":"Tebet","time":4,"i_long":106.857948},{"line":2,"time":2,"station_name":"Cawang","i_lat":-6.242512,"transit":false,"i_long":106.856607,"station_id":"CW","is_transit":false,"distance":1230},{"transit":false,"i_long":106.85449,"distance":1546,"is_transit":false,"i_lat":-6.255332,"line":2,"time":3,"station_name":"Duren Kalibata","station_id":"DRN"},{"transit":false,"i_lat":-6.263214,"station_id":"PSMB","station_name":"Pasar Minggu Baru","time":2,"distance":824,"is_transit":false,"i_long":106.851577,"line":2},{"i_long":106.843999,"transit":false,"is_transit":false,"distance":2380,"time":2,"station_name":"Pasar Minggu","station_id":"PSM","i_lat":-6.2842400000000005,"line":2}]]}