{"data":[[{"station_name":"Grogol","i_long":106.788277,"time":0,"distance":0,"i_lat":-6.162021,"transit":false,"is_transit":false,"station_id":"GGL","line":5},{"transit":true,"is_transit":true,"line":1,"station_name":"Duri","time":3,"distance":1700,"i_long":106.800832,"i_lat":-6.155215,"station_id":"DU"},{"station_name":"Tanah Abang","transit":false,"distance":3632,"i_long":106.811091,"station_id":"THB","is_transit":false,"time":8,"i_lat":-6.185545,"line":1},{"distance":2029,"station_id":"KAT","line":1,"transit":false,"i_lat":-6.20132,"is_transit":false,"time":5,"i_long":106.816351,"station_name":"Karet"},{"distance":471,"transit":false,"i_lat":-6.201433,"i_long":106.819881,"station_name":"Sudirman Baru","station_id":"SUDB","line":1,"is_transit":false,"time":1},{"station_name":"Sudirman","line":1,"time":1,"is_transit":false,"transit":false,"station_id":"SUD","i_lat":-6.202263,"distance":280,"i_long":106.822649},{"station_id":"MRI","station_name":"Manggarai","transit":true,"time":4,"i_long":106.84912,"distance":3186,"line":2,"i_lat":-6.209883,"is_transit":true},{"time":4,"distance":2610,"line":2,"i_lat":-6.226659,"transit":false,"station_id":"TEB","i_long":106.857948,"station_name":"Tebet","is_transit":false},{"line":2,"is_transit":false,"distance":1230,"transit":false,"i_long":106.856607,"i_lat":-6.242512,"time":2,"station_id":"CW","station_name":"Cawang"},{"station_id":"DRN","time":3,"distance":1546,"i_lat":-6.255332,"transit":false,"line":2,"station_name":"Duren Kalibata","i_long":106.85449,"is_transit":false},{"time":2,"i_lat":-6.263214,"i_long":106.851577,"is_transit":false,"line":2,"station_id":"PSMB","distance":824,"station_name":"Pasar Minggu Baru","transit":false}],[{"distance":0,"is_transit":false,"station_id":"GGL","line":5,"time":0,"station_name":"Grogol","transit":false,"i_long":106.788277,"i_lat":-6.162021},{"is_transit":true,"station_id":"DU","station_name":"Duri","line":1,"transit":true,"distance":1700,"i_lat":-6.155215,"i_long":106.800832,"time":3},{"is_transit":false,"station_name":"Angke","transit":false,"i_long":106.79867,"i_lat":-6.144674,"time":4,"distance":1230,"station_id":"AK","line":1},{"time":9,"transit":true,"is_transit":true,"distance":4102,"station_name":"Kampung Bandan","station_id":"KPB","i_lat":-6.132549,"i_long":106.826365,"line":4},{"i_lat":-6.137569,"transit":true,"station_name":"Jakarta Kota","line":2,"distance":1364,"time":3,"i_long":106.812439,"station_id":"JAKK","is_transit":true},{"i_long":106.820901,"i_lat":-6.141205,"transit":false,"station_id":"JAY","is_transit":false,"distance":1264,"line":2,"station_name":"Jayakarta","time":4},{"transit":false,"i_long":106.82482,"line":2,"is_transit":false,"time":2,"i_lat":-6.149769,"distance":1080,"station_name":"Manggabesar","station_id":"MGB"},{"is_transit":false,"station_name":"Sawah Besar","time":2,"distance":906,"transit":false,"station_id":"SW","i_lat":-6.160725,"i_long":106.827103,"line":2},{"station_id":"JUA","is_transit":false,"distance":1149,"station_name":"Juanda","transit":false,"time":2,"i_lat":-6.166716,"i_long":106.828284,"line":2},{"i_lat":-6.186295,"station_name":"Gondangdia","time":4,"i_long":106.832183,"is_transit":false,"transit":false,"distance":2015,"station_id":"GDD","line":2},{"time":3,"station_name":"Cikini","i_lat":-6.198556,"is_transit":false,"transit":false,"i_long":106.840169,"station_id":"CKI","line":2,"distance":1750},{"i_lat":-6.209883,"i_long":106.84912,"station_id":"MRI","time":4,"station_name":"Manggarai","line":2,"transit":false,"is_transit":false,"distance":1590},{"line":2,"station_name":"Tebet","time":4,"station_id":"TEB","i_lat":-6.226659,"distance":2610,"transit":false,"i_long":106.857948,"is_transit":false},{"distance":1230,"i_lat":-6.242512,"time":2,"transit":false,"station_id":"CW","line":2,"i_long":106.856607,"is_transit":false,"station_name":"Cawang"},{"i_lat":-6.255332,"distance":1546,"line":2,"is_transit":false,"station_id":"DRN","i_long":106.85449,"station_name":"Duren Kalibata","time":3,"transit":false},{"transit":false,"i_long":106.851577,"line":2,"is_transit":false,"station_name":"Pasar Minggu Baru","time":2,"station_id":"PSMB","distance":824,"i_lat":-6.263214}],[{"transit":false,"station_name":"Grogol","is_transit":false,"time":0,"distance":0,"i_long":106.788277,"line":5,"i_lat":-6.162021,"station_id":"GGL"},{"time":3,"station_name":"Duri","distance":1700,"i_lat":-6.155215,"i_long":106.800832,"line":1,"is_transit":true,"station_id":"DU","transit":true},{"is_transit":false,"distance":1230,"station_name":"Angke","time":4,"i_long":106.79867,"station_id":"AK","transit":false,"line":1,"i_lat":-6.144674},{"station_name":"Kampung Bandan","station_id":"KPB","transit":true,"i_long":106.826365,"distance":4102,"i_lat":-6.132549,"line":4,"time":9,"is_transit":true},{"is_transit":false,"time":3,"i_long":106.836569,"transit":false,"i_lat":-6.14505,"station_name":"Rajawali","line":11,"distance":1444,"station_id":"RJW"},{"distance":1901,"i_lat":-6.161728,"i_long":106.839204,"line":11,"transit":false,"is_transit":false,"station_name":"Kemayoran","time":5,"station_id":"KMO"},{"i_lat":-6.174784,"station_id":"PSE","station_name":"Pasar Senen","i_long":106.84368,"line":11,"is_transit":false,"distance":1436,"transit":false,"time":4},{"transit":false,"is_transit":false,"time":8,"i_lat":-6.185975,"distance":1567,"i_long":106.850107,"line":11,"station_name":"Gang Sentiong","station_id":"GST"},{"transit":false,"i_lat":-6.193792,"station_id":"KMT","time":1,"station_name":"Kramat","is_transit":false,"line":11,"distance":973,"i_long":106.855437},{"station_id":"POK","i_lat":-6.209188,"time":2,"is_transit":false,"transit":false,"distance":1829,"station_name":"Pondok Jati","i_long":106.861737,"line":11},{"transit":true,"time":9,"i_long":106.86807400000001,"line":1,"distance":1236,"station_id":"JNG","is_transit":true,"i_lat":-6.215091,"station_name":"Jatinegara"},{"distance":1377,"is_transit":false,"transit":false,"i_lat":-6.212485,"time":2,"station_name":"Matraman","i_long":106.858896,"station_id":"MTR","line":1},{"station_name":"Manggarai","i_long":106.84912,"station_id":"MRI","time":2,"is_transit":true,"distance":1275,"transit":true,"i_lat":-6.209883,"line":2},{"station_name":"Tebet","i_long":106.857948,"transit":false,"time":4,"station_id":"TEB","is_transit":false,"distance":2610,"i_lat":-6.226659,"line":2},{"i_lat":-6.242512,"station_name":"Cawang","line":2,"station_id":"CW","is_transit":false,"transit":false,"i_long":106.856607,"distance":1230,"time":2},{"station_name":"Duren Kalibata","i_lat":-6.255332,"station_id":"DRN","is_transit":false,"time":3,"distance":1546,"i_long":106.85449,"line":2,"transit":false},{"i_long":106.851577,"is_transit":false,"distance":824,"i_lat":-6.263214,"line":2,"station_id":"PSMB","station_name":"Pasar Minggu Baru","time":2,"transit":false}]]}