{"data":[[{"station_name":"Grogol","is_transit":false,"i_lat":-6.162021,"time":0,"station_id":"GGL","line":5,"transit":false,"distance":0,"i_long":106.788277},{"i_lat":-6.155215,"line":1,"time":3,"is_transit":true,"distance":1700,"station_name":"Duri","station_id":"DU","transit":true,"i_long":106.800832},{"time":8,"i_lat":-6.185545,"distance":3632,"is_transit":false,"station_name":"Tanah Abang","transit":false,"station_id":"THB","i_long":106.811091,"line":1},{"is_transit":false,"i_long":106.816351,"transit":false,"i_lat":-6.20132,"station_name":"Karet","distance":2029,"station_id":"KAT","line":1,"time":5},{"transit":false,"i_long":106.819881,"i_lat":-6.201433,"distance":471,"station_name":"Sudirman Baru","station_id":"SUDB","is_transit":false,"line":1,"time":1},{"i_lat":-6.202263,"transit":false,"i_long":106.822649,"line":1,"distance":280,"time":1,"station_name":"Sudirman","station_id":"SUD","is_transit":false},{"i_lat":-6.209883,"time":4,"distance":3186,"station_name":"Manggarai","transit":true,"line":2,"station_id":"MRI","is_transit":true,"i_long":106.84912},{"i_long":106.857948,"time":4,"station_name":"Tebet","distance":2610,"is_transit":false,"station_id":"TEB","transit":false,"line":2,"i_lat":-6.226659},{"is_transit":false,"distance":1230,"station_id":"CW","transit":false,"line":2,"i_lat":-6.242512,"station_name":"Cawang","i_long":106.856607,"time":2},{"station_id":"DRN","transit":false,"is_transit":false,"distance":1546,"station_name":"Duren Kalibata","line":2,"time":3,"i_long":106.85449,"i_lat":-6.255332},{"line":2,"station_id":"PSMB","station_name":"Pasar Minggu Baru","i_long":106.851577,"i_lat":-6.263214,"is_transit":false,"transit":false,"distance":824,"time":2},{"station_id":"PSM","is_transit":false,"time":2,"station_name":"Pasar Minggu","transit":false,"i_lat":-6.2842400000000005,"i_long":106.843999,"line":2,"distance":2380},{"is_transit":false,"transit":false,"station_id":"TNT","i_long":106.838896,"line":2,"time":4,"station_name":"Tanjung Barat","i_lat":-6.3080680000000005,"distance":2820},{"transit":false,"is_transit":false,"i_lat":-6.330363,"i_long":106.832616,"line":2,"time":3,"station_name":"Lenteng Agung","station_id":"LNA","distance":2671},{"time":2,"transit":false,"line":2,"is_transit":false,"i_long":106.834175,"distance":1029,"station_id":"UP","station_name":"Univ. Pancasila","i_lat":-6.339291},{"transit":false,"station_id":"UI","distance":2264,"is_transit":false,"i_lat":-6.360749,"i_long":106.831474,"time":3,"line":2,"station_name":"Univ. Indonesia"},{"line":2,"i_long":106.831114,"is_transit":false,"transit":false,"time":2,"distance":1109,"station_id":"POC","station_name":"Pondok Cina","i_lat":-6.369073},{"line":2,"station_id":"DPB","distance":2727,"is_transit":false,"station_name":"Depokbaru","time":4,"i_lat":-6.391065,"i_long":106.819451,"transit":false},{"time":3,"transit":false,"i_lat":-6.405256,"station_name":"Depok","distance":1584,"line":2,"is_transit":false,"i_long":106.816926,"station_id":"DP"},{"distance":5084,"transit":true,"line":2,"i_long":106.800298,"station_name":"Citayam","i_lat":-6.448811,"is_transit":true,"station_id":"CTA","time":6},{"station_id":"PDRG","station_name":"Pondok Rajeg","is_transit":false,"distance":0,"time":0,"i_long":106.824374,"transit":false,"line":21,"i_lat":-6.460735},{"station_id":"CBN","distance":0,"i_long":106.851978,"station_name":"Cibinong","i_lat":-6.46424,"time":0,"transit":false,"is_transit":false,"line":21}],[{"station_id":"GGL","station_name":"Grogol","distance":0,"time":0,"i_lat":-6.162021,"transit":false,"is_transit":false,"line":5,"i_long":106.788277},{"is_transit":true,"line":1,"i_long":106.800832,"station_name":"Duri","time":3,"i_lat":-6.155215,"station_id":"DU","distance":1700,"transit":true},{"station_name":"Angke","is_transit":false,"i_lat":-6.144674,"transit":false,"i_long":106.79867,"line":1,"station_id":"AK","time":4,"distance":1230},{"is_transit":true,"station_name":"Kampung Bandan","time":9,"transit":true,"line":4,"i_lat":-6.132549,"station_id":"KPB","i_long":106.826365,"distance":4102},{"time":3,"i_long":106.812439,"is_transit":true,"distance":1364,"line":2,"station_id":"JAKK","i_lat":-6.137569,"station_name":"Jakarta Kota","transit":true},{"i_lat":-6.141205,"station_name":"Jayakarta","time":4,"transit":false,"distance":1264,"is_transit":false,"i_long":106.820901,"station_id":"JAY","line":2},{"station_name":"Manggabesar","i_lat":-6.149769,"line":2,"station_id":"MGB","distance":1080,"is_transit":false,"time":2,"transit":false,"i_long":106.82482},{"station_id":"SW","distance":906,"station_name":"Sawah Besar","is_transit":false,"i_long":106.827103,"transit":false,"i_lat":-6.160725,"line":2,"time":2},{"station_id":"JUA","distance":1149,"line":2,"i_lat":-6.166716,"is_transit":false,"time":2,"i_long":106.828284,"transit":false,"station_name":"Juanda"},{"line":2,"station_id":"GDD","is_transit":false,"distance":2015,"time":4,"transit":false,"station_name":"Gondangdia","i_lat":-6.186295,"i_long":106.832183},{"i_long":106.840169,"distance":1750,"station_name":"Cikini","station_id":"CKI","is_transit":false,"line":2,"transit":false,"time":3,"i_lat":-6.198556},{"transit":false,"i_long":106.84912,"time":4,"i_lat":-6.209883,"station_id":"MRI","line":2,"station_name":"Manggarai","is_transit":false,"distance":1590},{"station_name":"Tebet","distance":2610,"i_long":106.857948,"is_transit":false,"i_lat":-6.226659,"station_id":"TEB","transit":false,"line":2,"time":4},{"is_transit":false,"i_lat":-6.242512,"line":2,"distance":1230,"transit":false,"time":2,"station_id":"CW","i_long":106.856607,"station_name":"Cawang"},{"transit":false,"distance":1546,"time":3,"line":2,"i_long":106.85449,"station_id":"DRN","is_transit":false,"station_name":"Duren Kalibata","i_lat":-6.255332},{"line":2,"station_id":"PSMB","station_name":"Pasar Minggu Baru","time":2,"is_transit":false,"i_lat":-6.263214,"distance":824,"i_long":106.851577,"transit":false},{"transit":false,"distance":2380,"line":2,"is_transit":false,"station_name":"Pasar Minggu","time":2,"i_long":106.843999,"station_id":"PSM","i_lat":-6.2842400000000005},{"transit":false,"station_name":"Tanjung Barat","distance":2820,"i_long":106.838896,"station_id":"TNT","time":4,"is_transit":false,"i_lat":-6.3080680000000005,"line":2},{"transit":false,"station_id":"LNA","i_lat":-6.330363,"i_long":106.832616,"distance":2671,"line":2,"is_transit":false,"time":3,"station_name":"Lenteng Agung"},{"distance":1029,"station_name":"Univ. Pancasila","time":2,"i_long":106.834175,"i_lat":-6.339291,"station_id":"UP","is_transit":false,"transit":false,"line":2},{"i_long":106.831474,"transit":false,"line":2,"i_lat":-6.360749,"time":3,"station_id":"UI","distance":2264,"station_name":"Univ. Indonesia","is_transit":false},{"distance":1109,"line":2,"station_name":"Pondok Cina","is_transit":false,"i_long":106.831114,"transit":false,"time":2,"station_id":"POC","i_lat":-6.369073},{"distance":2727,"i_lat":-6.391065,"is_transit":false,"transit":false,"time":4,"station_id":"DPB","station_name":"Depokbaru","i_long":106.819451,"line":2},{"is_transit":false,"i_lat":-6.405256,"station_name":"Depok","time":3,"line":2,"transit":false,"distance":1584,"i_long":106.816926,"station_id":"DP"},{"distance":5084,"i_long":106.800298,"station_id":"CTA","is_transit":true,"station_name":"Citayam","i_lat":-6.448811,"time":6,"transit":true,"line":2},{"transit":false,"i_long":106.824374,"is_transit":false,"line":21,"distance":0,"i_lat":-6.460735,"station_id":"PDRG","station_name":"Pondok Rajeg","time":0},{"time":0,"station_name":"Cibinong","line":21,"distance":0,"i_long":106.851978,"transit":false,"i_lat":-6.46424,"station_id":"CBN","is_transit":false}],[{"distance":0,"i_long":106.788277,"i_lat":-6.162021,"line":5,"is_transit":false,"time":0,"station_id":"GGL","station_name":"Grogol","transit":false},{"i_long":106.800832,"transit":true,"station_id":"DU","is_transit":true,"line":1,"time":3,"i_lat":-6.155215,"station_name":"Duri","distance":1700},{"distance":1230,"transit":false,"i_long":106.79867,"is_transit":false,"i_lat":-6.144674,"line":1,"time":4,"station_name":"Angke","station_id":"AK"},{"is_transit":true,"time":9,"i_long":106.826365,"i_lat":-6.132549,"station_name":"Kampung Bandan","line":4,"station_id":"KPB","transit":true,"distance":4102},{"line":11,"station_id":"RJW","distance":1444,"i_long":106.836569,"transit":false,"i_lat":-6.14505,"is_transit":false,"station_name":"Rajawali","time":3},{"i_lat":-6.161728,"time":5,"transit":false,"line":11,"is_transit":false,"i_long":106.839204,"station_name":"Kemayoran","station_id":"KMO","distance":1901},{"is_transit":false,"station_id":"PSE","distance":1436,"transit":false,"i_long":106.84368,"time":4,"i_lat":-6.174784,"station_name":"Pasar Senen","line":11},{"i_lat":-6.185975,"station_name":"Gang Sentiong","time":8,"line":11,"station_id":"GST","transit":false,"i_long":106.850107,"is_transit":false,"distance":1567},{"transit":false,"distance":973,"station_id":"KMT","station_name":"Kramat","i_long":106.855437,"time":1,"i_lat":-6.193792,"is_transit":false,"line":11},{"i_long":106.861737,"distance":1829,"station_id":"POK","i_lat":-6.209188,"station_name":"Pondok Jati","line":11,"transit":false,"is_transit":false,"time":2},{"station_id":"JNG","i_long":106.86807400000001,"is_transit":true,"time":9,"line":1,"transit":true,"i_lat":-6.215091,"station_name":"Jatinegara","distance":1236},{"transit":false,"i_long":106.858896,"line":1,"station_name":"Matraman","station_id":"MTR","i_lat":-6.212485,"distance":1377,"is_transit":false,"time":2},{"distance":1275,"line":2,"time":2,"station_name":"Manggarai","i_long":106.84912,"transit":true,"is_transit":true,"i_lat":-6.209883,"station_id":"MRI"},{"i_lat":-6.226659,"is_transit":false,"station_name":"Tebet","i_long":106.857948,"time":4,"transit":false,"line":2,"station_id":"TEB","distance":2610},{"time":2,"is_transit":false,"station_id":"CW","station_name":"Cawang","transit":false,"distance":1230,"i_long":106.856607,"line":2,"i_lat":-6.242512},{"transit":false,"line":2,"i_lat":-6.255332,"time":3,"i_long":106.85449,"station_name":"Duren Kalibata","is_transit":false,"station_id":"DRN","distance":1546},{"is_transit":false,"station_id":"PSMB","station_name":"Pasar Minggu Baru","i_lat":-6.263214,"time":2,"distance":824,"transit":false,"i_long":106.851577,"line":2},{"station_name":"Pasar Minggu","distance":2380,"is_transit":false,"transit":false,"time":2,"i_lat":-6.2842400000000005,"station_id":"PSM","line":2,"i_long":106.843999},{"transit":false,"station_name":"Tanjung Barat","is_transit":false,"i_long":106.838896,"line":2,"i_lat":-6.3080680000000005,"station_id":"TNT","time":4,"distance":2820},{"i_long":106.832616,"station_name":"Lenteng Agung","i_lat":-6.330363,"time":3,"distance":2671,"is_transit":false,"transit":false,"line":2,"station_id":"LNA"},{"time":2,"is_transit":false,"distance":1029,"transit":false,"i_long":106.834175,"station_id":"UP","i_lat":-6.339291,"line":2,"station_name":"Univ. Pancasila"},{"station_name":"Univ. Indonesia","i_lat":-6.360749,"i_long":106.831474,"station_id":"UI","line":2,"time":3,"distance":2264,"is_transit":false,"transit":false},{"transit":false,"is_transit":false,"line":2,"time":2,"distance":1109,"station_id":"POC","station_name":"Pondok Cina","i_lat":-6.369073,"i_long":106.831114},{"transit":false,"station_name":"Depokbaru","line":2,"station_id":"DPB","is_transit":false,"distance":2727,"time":4,"i_lat":-6.391065,"i_long":106.819451},{"i_lat":-6.405256,"transit":false,"is_transit":false,"time":3,"i_long":106.816926,"line":2,"station_id":"DP","station_name":"Depok","distance":1584},{"is_transit":true,"i_lat":-6.448811,"time":6,"station_id":"CTA","i_long":106.800298,"line":2,"station_name":"Citayam","transit":true,"distance":5084},{"i_long":106.824374,"is_transit":false,"station_id":"PDRG","distance":0,"transit":false,"line":21,"time":0,"station_name":"Pondok Rajeg","i_lat":-6.460735},{"i_lat":-6.46424,"transit":false,"station_id":"CBN","is_transit":false,"station_name":"Cibinong","distance":0,"i_long":106.851978,"line":21,"time":0}]]}