{"data":[[{"distance":0,"is_transit":false,"station_name":"Grogol","i_long":106.788277,"time":0,"transit":false,"i_lat":-6.162021,"station_id":"GGL","line":5},{"i_long":106.800832,"transit":true,"is_transit":true,"time":3,"station_id":"DU","i_lat":-6.155215,"line":1,"distance":1700,"station_name":"Duri"},{"station_id":"THB","time":8,"i_long":106.811091,"station_name":"Tanah Abang","is_transit":false,"transit":false,"distance":3632,"line":1,"i_lat":-6.185545},{"distance":2029,"time":5,"station_id":"KAT","i_lat":-6.20132,"line":1,"transit":false,"station_name":"Karet","i_long":106.816351,"is_transit":false},{"line":1,"transit":false,"station_name":"Sudirman Baru","i_lat":-6.201433,"station_id":"SUDB","time":1,"i_long":106.819881,"is_transit":false,"distance":471},{"station_id":"SUD","distance":280,"transit":false,"time":1,"station_name":"Sudirman","is_transit":false,"i_lat":-6.202263,"i_long":106.822649,"line":1},{"line":2,"i_long":106.84912,"transit":true,"distance":3186,"station_name":"Manggarai","station_id":"MRI","is_transit":true,"time":4,"i_lat":-6.209883},{"line":2,"distance":2610,"i_lat":-6.226659,"time":4,"is_transit":false,"i_long":106.857948,"station_name":"Tebet","station_id":"TEB","transit":false},{"i_lat":-6.242512,"line":2,"is_transit":false,"transit":false,"station_name":"Cawang","time":2,"distance":1230,"station_id":"CW","i_long":106.856607},{"transit":false,"distance":1546,"is_transit":false,"i_lat":-6.255332,"station_id":"DRN","i_long":106.85449,"line":2,"station_name":"Duren Kalibata","time":3},{"i_long":106.851577,"i_lat":-6.263214,"distance":824,"station_id":"PSMB","time":2,"is_transit":false,"line":2,"transit":false,"station_name":"Pasar Minggu Baru"},{"i_lat":-6.2842400000000005,"station_name":"Pasar Minggu","time":2,"station_id":"PSM","distance":2380,"is_transit":false,"transit":false,"line":2,"i_long":106.843999},{"i_lat":-6.3080680000000005,"i_long":106.838896,"distance":2820,"station_name":"Tanjung Barat","transit":false,"station_id":"TNT","is_transit":false,"line":2,"time":4},{"i_lat":-6.330363,"i_long":106.832616,"distance":2671,"is_transit":false,"station_name":"Lenteng Agung","line":2,"station_id":"LNA","transit":false,"time":3},{"is_transit":false,"distance":1029,"time":2,"line":2,"station_name":"Univ. Pancasila","station_id":"UP","transit":false,"i_lat":-6.339291,"i_long":106.834175},{"distance":2264,"time":3,"transit":false,"is_transit":false,"station_name":"Univ. Indonesia","i_long":106.831474,"line":2,"i_lat":-6.360749,"station_id":"UI"},{"time":2,"is_transit":false,"distance":1109,"station_id":"POC","i_lat":-6.369073,"i_long":106.831114,"station_name":"Pondok Cina","line":2,"transit":false},{"i_long":106.819451,"time":4,"station_id":"DPB","transit":false,"station_name":"Depokbaru","distance":2727,"is_transit":false,"i_lat":-6.391065,"line":2},{"distance":1584,"is_transit":false,"transit":false,"i_lat":-6.405256,"line":2,"i_long":106.816926,"station_id":"DP","time":3,"station_name":"Depok"},{"transit":true,"station_name":"Citayam","i_lat":-6.448811,"is_transit":true,"i_long":106.800298,"distance":5084,"time":6,"station_id":"CTA","line":2},{"i_lat":-6.460735,"i_long":106.824374,"station_name":"Pondok Rajeg","station_id":"PDRG","distance":0,"transit":false,"line":21,"is_transit":false,"time":0},{"transit":false,"time":0,"station_name":"Cibinong","i_lat":-6.46424,"line":21,"station_id":"CBN","i_long":106.851978,"distance":0,"is_transit":false}],[{"time":0,"is_transit":false,"distance":0,"i_long":106.788277,"transit":false,"line":5,"station_name":"Grogol","station_id":"GGL","i_lat":-6.162021},{"transit":true,"station_id":"DU","line":1,"distance":1700,"i_lat":-6.155215,"station_name":"Duri","i_long":106.800832,"is_transit":true,"time":3},{"transit":false,"station_name":"Angke","i_long":106.79867,"station_id":"AK","i_lat":-6.144674,"distance":1230,"line":1,"time":4,"is_transit":false},{"i_long":106.826365,"station_name":"Kampung Bandan","transit":true,"time":9,"distance":4102,"line":4,"station_id":"KPB","is_transit":true,"i_lat":-6.132549},{"line":2,"station_name":"Jakarta Kota","i_long":106.812439,"i_lat":-6.137569,"transit":true,"station_id":"JAKK","is_transit":true,"time":3,"distance":1364},{"station_name":"Jayakarta","time":4,"station_id":"JAY","i_long":106.820901,"line":2,"distance":1264,"i_lat":-6.141205,"transit":false,"is_transit":false},{"is_transit":false,"distance":1080,"transit":false,"station_name":"Manggabesar","time":2,"i_lat":-6.149769,"line":2,"station_id":"MGB","i_long":106.82482},{"transit":false,"is_transit":false,"i_long":106.827103,"station_name":"Sawah Besar","station_id":"SW","i_lat":-6.160725,"line":2,"distance":906,"time":2},{"distance":1149,"station_name":"Juanda","i_long":106.828284,"line":2,"time":2,"i_lat":-6.166716,"transit":false,"is_transit":false,"station_id":"JUA"},{"is_transit":false,"line":2,"transit":false,"distance":2015,"i_long":106.832183,"station_name":"Gondangdia","time":4,"station_id":"GDD","i_lat":-6.186295},{"distance":1750,"is_transit":false,"i_lat":-6.198556,"station_id":"CKI","i_long":106.840169,"line":2,"transit":false,"station_name":"Cikini","time":3},{"i_lat":-6.209883,"time":4,"i_long":106.84912,"line":2,"station_name":"Manggarai","station_id":"MRI","is_transit":false,"distance":1590,"transit":false},{"time":4,"i_long":106.857948,"distance":2610,"station_id":"TEB","station_name":"Tebet","is_transit":false,"line":2,"transit":false,"i_lat":-6.226659},{"is_transit":false,"time":2,"station_id":"CW","station_name":"Cawang","i_long":106.856607,"line":2,"i_lat":-6.242512,"transit":false,"distance":1230},{"distance":1546,"i_lat":-6.255332,"time":3,"station_id":"DRN","is_transit":false,"line":2,"station_name":"Duren Kalibata","i_long":106.85449,"transit":false},{"i_long":106.851577,"station_id":"PSMB","time":2,"is_transit":false,"transit":false,"station_name":"Pasar Minggu Baru","line":2,"i_lat":-6.263214,"distance":824},{"distance":2380,"station_name":"Pasar Minggu","transit":false,"station_id":"PSM","time":2,"i_long":106.843999,"i_lat":-6.2842400000000005,"line":2,"is_transit":false},{"i_long":106.838896,"line":2,"station_name":"Tanjung Barat","i_lat":-6.3080680000000005,"station_id":"TNT","is_transit":false,"transit":false,"distance":2820,"time":4},{"distance":2671,"station_name":"Lenteng Agung","time":3,"station_id":"LNA","transit":false,"i_lat":-6.330363,"is_transit":false,"i_long":106.832616,"line":2},{"station_id":"UP","time":2,"distance":1029,"station_name":"Univ. Pancasila","is_transit":false,"i_long":106.834175,"transit":false,"line":2,"i_lat":-6.339291},{"distance":2264,"station_id":"UI","i_long":106.831474,"station_name":"Univ. Indonesia","i_lat":-6.360749,"line":2,"time":3,"transit":false,"is_transit":false},{"distance":1109,"station_id":"POC","i_lat":-6.369073,"station_name":"Pondok Cina","is_transit":false,"transit":false,"i_long":106.831114,"line":2,"time":2},{"i_long":106.819451,"distance":2727,"time":4,"line":2,"is_transit":false,"i_lat":-6.391065,"station_id":"DPB","transit":false,"station_name":"Depokbaru"},{"time":3,"station_name":"Depok","i_lat":-6.405256,"transit":false,"line":2,"station_id":"DP","is_transit":false,"distance":1584,"i_long":106.816926},{"line":2,"station_name":"Citayam","i_lat":-6.448811,"transit":true,"is_transit":true,"distance":5084,"i_long":106.800298,"time":6,"station_id":"CTA"},{"transit":false,"station_id":"PDRG","distance":0,"time":0,"is_transit":false,"i_long":106.824374,"line":21,"station_name":"Pondok Rajeg","i_lat":-6.460735},{"transit":false,"i_long":106.851978,"distance":0,"station_id":"CBN","i_lat":-6.46424,"station_name":"Cibinong","is_transit":false,"line":21,"time":0}],[{"station_name":"Grogol","station_id":"GGL","line":5,"transit":false,"time":0,"distance":0,"i_lat":-6.162021,"is_transit":false,"i_long":106.788277},{"i_lat":-6.155215,"i_long":106.800832,"station_id":"DU","line":1,"station_name":"Duri","time":3,"distance":1700,"is_transit":true,"transit":true},{"line":1,"station_id":"AK","i_lat":-6.144674,"is_transit":false,"i_long":106.79867,"time":4,"transit":false,"distance":1230,"station_name":"Angke"},{"line":4,"time":9,"distance":4102,"station_name":"Kampung Bandan","i_lat":-6.132549,"transit":true,"station_id":"KPB","i_long":106.826365,"is_transit":true},{"i_lat":-6.14505,"time":3,"station_id":"RJW","station_name":"Rajawali","transit":false,"i_long":106.836569,"line":11,"is_transit":false,"distance":1444},{"distance":1901,"line":11,"station_name":"Kemayoran","i_lat":-6.161728,"transit":false,"station_id":"KMO","is_transit":false,"time":5,"i_long":106.839204},{"transit":false,"i_lat":-6.174784,"line":11,"station_name":"Pasar Senen","is_transit":false,"station_id":"PSE","distance":1436,"time":4,"i_long":106.84368},{"station_name":"Gang Sentiong","transit":false,"i_lat":-6.185975,"time":8,"station_id":"GST","line":11,"is_transit":false,"distance":1567,"i_long":106.850107},{"station_name":"Kramat","i_long":106.855437,"distance":973,"i_lat":-6.193792,"time":1,"transit":false,"is_transit":false,"station_id":"KMT","line":11},{"is_transit":false,"station_name":"Pondok Jati","i_long":106.861737,"i_lat":-6.209188,"transit":false,"line":11,"time":2,"distance":1829,"station_id":"POK"},{"line":1,"transit":true,"i_lat":-6.215091,"i_long":106.86807400000001,"is_transit":true,"distance":1236,"station_name":"Jatinegara","time":9,"station_id":"JNG"},{"transit":false,"distance":1377,"i_lat":-6.212485,"is_transit":false,"station_id":"MTR","i_long":106.858896,"time":2,"line":1,"station_name":"Matraman"},{"transit":true,"i_long":106.84912,"time":2,"is_transit":true,"distance":1275,"station_name":"Manggarai","station_id":"MRI","i_lat":-6.209883,"line":2},{"station_id":"TEB","time":4,"i_lat":-6.226659,"i_long":106.857948,"station_name":"Tebet","line":2,"distance":2610,"is_transit":false,"transit":false},{"time":2,"station_id":"CW","i_lat":-6.242512,"line":2,"transit":false,"is_transit":false,"distance":1230,"i_long":106.856607,"station_name":"Cawang"},{"i_long":106.85449,"station_name":"Duren Kalibata","transit":false,"time":3,"i_lat":-6.255332,"is_transit":false,"distance":1546,"line":2,"station_id":"DRN"},{"transit":false,"station_name":"Pasar Minggu Baru","time":2,"i_lat":-6.263214,"i_long":106.851577,"line":2,"station_id":"PSMB","distance":824,"is_transit":false},{"transit":false,"is_transit":false,"station_name":"Pasar Minggu","i_lat":-6.2842400000000005,"line":2,"distance":2380,"i_long":106.843999,"station_id":"PSM","time":2},{"i_long":106.838896,"station_name":"Tanjung Barat","distance":2820,"transit":false,"is_transit":false,"time":4,"station_id":"TNT","i_lat":-6.3080680000000005,"line":2},{"line":2,"i_long":106.832616,"i_lat":-6.330363,"distance":2671,"station_id":"LNA","station_name":"Lenteng Agung","transit":false,"time":3,"is_transit":false},{"i_long":106.834175,"station_name":"Univ. Pancasila","i_lat":-6.339291,"transit":false,"time":2,"distance":1029,"is_transit":false,"station_id":"UP","line":2},{"is_transit":false,"i_lat":-6.360749,"station_id":"UI","i_long":106.831474,"station_name":"Univ. Indonesia","time":3,"distance":2264,"transit":false,"line":2},{"i_lat":-6.369073,"distance":1109,"transit":false,"i_long":106.831114,"station_name":"Pondok Cina","is_transit":false,"time":2,"station_id":"POC","line":2},{"transit":false,"i_lat":-6.391065,"station_id":"DPB","distance":2727,"is_transit":false,"time":4,"line":2,"i_long":106.819451,"station_name":"Depokbaru"},{"line":2,"transit":false,"time":3,"is_transit":false,"i_long":106.816926,"i_lat":-6.405256,"distance":1584,"station_name":"Depok","station_id":"DP"},{"station_name":"Citayam","distance":5084,"i_long":106.800298,"time":6,"i_lat":-6.448811,"is_transit":true,"line":2,"station_id":"CTA","transit":true},{"station_id":"PDRG","i_lat":-6.460735,"distance":0,"i_long":106.824374,"line":21,"is_transit":false,"station_name":"Pondok Rajeg","transit":false,"time":0},{"transit":false,"distance":0,"i_lat":-6.46424,"line":21,"i_long":106.851978,"time":0,"station_name":"Cibinong","station_id":"CBN","is_transit":false}]]}