{"data":[[{"distance":0,"is_transit":false,"station_id":"GGL","i_long":106.788277,"station_name":"Grogol","time":0,"transit":false,"i_lat":-6.162021,"line":5},{"i_lat":-6.155215,"time":3,"distance":1700,"station_id":"DU","line":1,"is_transit":true,"i_long":106.800832,"station_name":"Duri","transit":true},{"line":1,"is_transit":false,"transit":false,"time":4,"station_name":"Angke","i_long":106.79867,"distance":1230,"i_lat":-6.144674,"station_id":"AK"}],[{"transit":false,"station_name":"Grogol","is_transit":false,"distance":0,"station_id":"GGL","time":0,"i_lat":-6.162021,"line":5,"i_long":106.788277},{"is_transit":true,"time":3,"i_lat":-6.155215,"station_id":"DU","transit":true,"distance":1700,"station_name":"Duri","i_long":106.800832,"line":1},{"line":1,"distance":3632,"station_name":"Tanah Abang","time":8,"transit":false,"i_long":106.811091,"i_lat":-6.185545,"is_transit":false,"station_id":"THB"},{"time":5,"station_id":"KAT","distance":2029,"station_name":"Karet","transit":false,"line":1,"i_lat":-6.20132,"i_long":106.816351,"is_transit":false},{"i_long":106.819881,"line":1,"distance":471,"station_id":"SUDB","transit":false,"is_transit":false,"time":1,"station_name":"Sudirman Baru","i_lat":-6.201433},{"i_lat":-6.202263,"time":1,"transit":false,"station_name":"Sudirman","is_transit":false,"line":1,"distance":280,"station_id":"SUD","i_long":106.822649},{"station_id":"MRI","transit":true,"i_long":106.84912,"line":2,"is_transit":true,"station_name":"Manggarai","i_lat":-6.209883,"time":4,"distance":3186},{"station_name":"Cikini","station_id":"CKI","is_transit":false,"transit":false,"distance":1590,"i_long":106.840169,"line":2,"time":4,"i_lat":-6.198556},{"station_name":"Gondangdia","transit":false,"line":2,"time":3,"station_id":"GDD","is_transit":false,"i_long":106.832183,"i_lat":-6.186295,"distance":1750},{"is_transit":false,"i_long":106.828284,"distance":2015,"line":2,"time":4,"station_id":"JUA","station_name":"Juanda","i_lat":-6.166716,"transit":false},{"station_name":"Sawah Besar","i_lat":-6.160725,"station_id":"SW","distance":1149,"time":2,"transit":false,"i_long":106.827103,"line":2,"is_transit":false},{"time":2,"station_id":"MGB","i_lat":-6.149769,"line":2,"distance":906,"is_transit":false,"transit":false,"station_name":"Manggabesar","i_long":106.82482},{"is_transit":false,"line":2,"i_long":106.820901,"i_lat":-6.141205,"transit":false,"station_name":"Jayakarta","distance":1080,"station_id":"JAY","time":2},{"time":4,"line":2,"i_long":106.812439,"station_name":"Jakarta Kota","is_transit":true,"i_lat":-6.137569,"transit":true,"station_id":"JAKK","distance":1264},{"is_transit":true,"transit":true,"i_lat":-6.132549,"distance":1364,"i_long":106.826365,"time":3,"station_name":"Kampung Bandan","station_id":"KPB","line":4},{"is_transit":false,"i_lat":-6.144674,"i_long":106.79867,"distance":4102,"line":1,"station_id":"AK","station_name":"Angke","transit":false,"time":9}],[{"i_long":106.788277,"transit":false,"time":0,"is_transit":false,"station_id":"GGL","station_name":"Grogol","i_lat":-6.162021,"distance":0,"line":5},{"line":1,"transit":true,"station_name":"Duri","time":3,"station_id":"DU","distance":1700,"is_transit":true,"i_lat":-6.155215,"i_long":106.800832},{"is_transit":false,"station_name":"Tanah Abang","distance":3632,"station_id":"THB","i_long":106.811091,"i_lat":-6.185545,"line":1,"transit":false,"time":8},{"station_id":"KAT","time":5,"line":1,"is_transit":false,"i_lat":-6.20132,"distance":2029,"transit":false,"i_long":106.816351,"station_name":"Karet"},{"i_long":106.819881,"station_name":"Sudirman Baru","is_transit":false,"distance":471,"line":1,"station_id":"SUDB","time":1,"transit":false,"i_lat":-6.201433},{"i_long":106.822649,"line":1,"transit":false,"station_name":"Sudirman","i_lat":-6.202263,"distance":280,"time":1,"station_id":"SUD","is_transit":false},{"line":2,"station_name":"Manggarai","i_long":106.84912,"is_transit":false,"transit":false,"station_id":"MRI","i_lat":-6.209883,"time":4,"distance":3186},{"transit":false,"time":2,"line":1,"i_long":106.858896,"distance":1275,"station_id":"MTR","is_transit":false,"station_name":"Matraman","i_lat":-6.212485},{"line":1,"i_long":106.86807400000001,"station_name":"Jatinegara","station_id":"JNG","is_transit":true,"distance":1377,"time":8,"transit":true,"i_lat":-6.215091},{"i_lat":-6.209188,"time":2,"transit":false,"line":11,"station_name":"Pondok Jati","station_id":"POK","i_long":106.861737,"is_transit":false,"distance":1236},{"time":2,"i_long":106.855437,"i_lat":-6.193792,"is_transit":false,"line":11,"transit":false,"distance":1829,"station_name":"Kramat","station_id":"KMT"},{"line":11,"station_id":"GST","time":1,"distance":973,"station_name":"Gang Sentiong","is_transit":false,"i_lat":-6.185975,"i_long":106.850107,"transit":false},{"time":8,"transit":false,"i_lat":-6.174784,"distance":1567,"station_name":"Pasar Senen","line":11,"is_transit":false,"i_long":106.84368,"station_id":"PSE"},{"distance":1436,"transit":false,"line":11,"i_long":106.839204,"station_name":"Kemayoran","i_lat":-6.161728,"is_transit":false,"time":4,"station_id":"KMO"},{"station_id":"RJW","station_name":"Rajawali","time":5,"distance":1901,"is_transit":false,"i_long":106.836569,"transit":false,"line":11,"i_lat":-6.14505},{"station_id":"KPB","distance":1444,"i_long":106.826365,"station_name":"Kampung Bandan","i_lat":-6.132549,"time":3,"transit":true,"is_transit":true,"line":4},{"time":9,"distance":4102,"station_id":"AK","station_name":"Angke","i_lat":-6.144674,"transit":false,"is_transit":false,"line":1,"i_long":106.79867}]]}