{"data":[[{"is_transit":false,"i_lat":-6.162021,"distance":0,"i_long":106.788277,"time":0,"station_id":"GGL","line":5,"transit":false,"station_name":"Grogol"},{"transit":true,"line":1,"station_name":"Duri","time":3,"station_id":"DU","i_lat":-6.155215,"i_long":106.800832,"is_transit":true,"distance":1700},{"station_id":"THB","is_transit":false,"transit":false,"line":1,"i_lat":-6.185545,"station_name":"Tanah Abang","i_long":106.811091,"distance":3632,"time":8},{"station_name":"Karet","is_transit":false,"station_id":"KAT","i_lat":-6.20132,"line":1,"distance":2029,"transit":false,"time":5,"i_long":106.816351},{"transit":false,"i_long":106.819881,"time":1,"station_id":"SUDB","station_name":"Sudirman Baru","i_lat":-6.201433,"distance":471,"is_transit":false,"line":1},{"line":1,"station_id":"SUD","station_name":"Sudirman","transit":false,"time":1,"distance":280,"is_transit":false,"i_lat":-6.202263,"i_long":106.822649},{"station_name":"Manggarai","is_transit":false,"distance":3186,"transit":false,"time":4,"i_long":106.84912,"station_id":"MRI","i_lat":-6.209883,"line":2},{"distance":1275,"time":2,"station_id":"MTR","is_transit":false,"i_lat":-6.212485,"station_name":"Matraman","i_long":106.858896,"transit":false,"line":1},{"distance":1377,"is_transit":false,"time":8,"station_name":"Jatinegara","transit":false,"i_lat":-6.215091,"line":1,"station_id":"JNG","i_long":106.86807400000001},{"distance":3395,"station_id":"KLD","station_name":"Klender","i_long":106.899548,"i_lat":-6.2135,"line":1,"is_transit":false,"time":3,"transit":false},{"time":2,"station_name":"Buaran","station_id":"BUA","line":1,"i_long":106.922662,"distance":3100,"transit":false,"i_lat":-6.215568,"is_transit":false},{"line":1,"distance":1305,"station_id":"KLDB","i_long":106.939679,"time":1,"is_transit":false,"i_lat":-6.217455,"transit":false,"station_name":"Klenderbaru"}],[{"distance":0,"i_long":106.788277,"i_lat":-6.162021,"line":5,"time":0,"station_name":"Grogol","transit":false,"station_id":"GGL","is_transit":false},{"i_long":106.800832,"i_lat":-6.155215,"is_transit":true,"distance":1700,"station_id":"DU","line":1,"transit":true,"station_name":"Duri","time":3},{"transit":false,"station_id":"AK","station_name":"Angke","is_transit":false,"i_lat":-6.144674,"time":4,"distance":1230,"line":1,"i_long":106.79867},{"transit":true,"line":4,"time":9,"station_name":"Kampung Bandan","i_lat":-6.132549,"distance":4102,"i_long":106.826365,"station_id":"KPB","is_transit":true},{"station_id":"RJW","i_long":106.836569,"time":3,"i_lat":-6.14505,"is_transit":false,"line":11,"transit":false,"distance":1444,"station_name":"Rajawali"},{"transit":false,"is_transit":false,"time":5,"station_id":"KMO","i_long":106.839204,"line":11,"distance":1901,"station_name":"Kemayoran","i_lat":-6.161728},{"is_transit":false,"line":11,"station_name":"Pasar Senen","station_id":"PSE","distance":1436,"transit":false,"time":4,"i_lat":-6.174784,"i_long":106.84368},{"distance":1567,"time":8,"i_long":106.850107,"i_lat":-6.185975,"line":11,"transit":false,"station_name":"Gang Sentiong","is_transit":false,"station_id":"GST"},{"i_lat":-6.193792,"i_long":106.855437,"transit":false,"line":11,"time":1,"station_name":"Kramat","is_transit":false,"distance":973,"station_id":"KMT"},{"station_id":"POK","i_long":106.861737,"time":2,"i_lat":-6.209188,"is_transit":false,"distance":1829,"transit":false,"station_name":"Pondok Jati","line":11},{"transit":true,"station_id":"JNG","i_long":106.86807400000001,"i_lat":-6.215091,"line":1,"station_name":"Jatinegara","time":9,"distance":1236,"is_transit":true},{"distance":3395,"station_id":"KLD","i_lat":-6.2135,"transit":false,"station_name":"Klender","time":3,"line":1,"i_long":106.899548,"is_transit":false},{"i_long":106.922662,"transit":false,"distance":3100,"i_lat":-6.215568,"line":1,"station_name":"Buaran","time":2,"is_transit":false,"station_id":"BUA"},{"station_id":"KLDB","time":1,"i_lat":-6.217455,"distance":1305,"line":1,"transit":false,"station_name":"Klenderbaru","is_transit":false,"i_long":106.939679}],[{"distance":0,"i_lat":-6.162021,"line":5,"time":0,"station_name":"Grogol","station_id":"GGL","transit":false,"i_long":106.788277,"is_transit":false},{"station_id":"DU","line":1,"is_transit":true,"i_lat":-6.155215,"time":3,"transit":true,"i_long":106.800832,"station_name":"Duri","distance":1700},{"transit":false,"is_transit":false,"distance":1230,"time":4,"station_id":"AK","station_name":"Angke","i_lat":-6.144674,"line":1,"i_long":106.79867},{"station_id":"KPB","line":4,"time":9,"distance":4102,"station_name":"Kampung Bandan","i_long":106.826365,"i_lat":-6.132549,"is_transit":true,"transit":true},{"is_transit":true,"i_long":106.812439,"station_name":"Jakarta Kota","transit":true,"time":3,"line":2,"station_id":"JAKK","i_lat":-6.137569,"distance":1364},{"station_id":"JAY","distance":1264,"line":2,"i_long":106.820901,"time":4,"i_lat":-6.141205,"station_name":"Jayakarta","is_transit":false,"transit":false},{"i_long":106.82482,"line":2,"time":2,"distance":1080,"transit":false,"station_id":"MGB","station_name":"Manggabesar","i_lat":-6.149769,"is_transit":false},{"time":2,"station_id":"SW","i_long":106.827103,"station_name":"Sawah Besar","line":2,"distance":906,"is_transit":false,"i_lat":-6.160725,"transit":false},{"i_lat":-6.166716,"distance":1149,"is_transit":false,"station_id":"JUA","station_name":"Juanda","time":2,"transit":false,"i_long":106.828284,"line":2},{"transit":false,"i_lat":-6.186295,"i_long":106.832183,"station_id":"GDD","time":4,"is_transit":false,"station_name":"Gondangdia","line":2,"distance":2015},{"line":2,"station_id":"CKI","transit":false,"distance":1750,"is_transit":false,"station_name":"Cikini","i_long":106.840169,"i_lat":-6.198556,"time":3},{"distance":1590,"station_name":"Manggarai","line":2,"is_transit":true,"station_id":"MRI","time":4,"i_long":106.84912,"i_lat":-6.209883,"transit":true},{"time":2,"station_name":"Matraman","i_lat":-6.212485,"line":1,"distance":1275,"transit":false,"station_id":"MTR","i_long":106.858896,"is_transit":false},{"i_long":106.86807400000001,"time":8,"station_name":"Jatinegara","i_lat":-6.215091,"is_transit":false,"distance":1377,"transit":false,"station_id":"JNG","line":1},{"transit":false,"line":1,"station_id":"KLD","is_transit":false,"distance":3395,"time":3,"station_name":"Klender","i_long":106.899548,"i_lat":-6.2135},{"is_transit":false,"i_long":106.922662,"line":1,"transit":false,"i_lat":-6.215568,"distance":3100,"station_name":"Buaran","station_id":"BUA","time":2},{"time":1,"i_long":106.939679,"i_lat":-6.217455,"station_name":"Klenderbaru","distance":1305,"transit":false,"station_id":"KLDB","is_transit":false,"line":1}],[{"distance":0,"station_id":"GGL","i_long":106.788277,"line":5,"station_name":"Grogol","is_transit":false,"time":0,"transit":false,"i_lat":-6.162021},{"station_name":"Duri","i_long":106.800832,"distance":1700,"station_id":"DU","transit":true,"i_lat":-6.155215,"is_transit":true,"line":1,"time":3},{"i_long":106.811091,"is_transit":false,"transit":false,"station_id":"THB","distance":3632,"time":8,"station_name":"Tanah Abang","i_lat":-6.185545,"line":1},{"line":1,"transit":false,"station_name":"Karet","time":5,"is_transit":false,"distance":2029,"station_id":"KAT","i_long":106.816351,"i_lat":-6.20132},{"transit":false,"i_lat":-6.201433,"station_id":"SUDB","distance":471,"i_long":106.819881,"line":1,"time":1,"station_name":"Sudirman Baru","is_transit":false},{"station_id":"SUD","time":1,"is_transit":false,"distance":280,"i_long":106.822649,"transit":false,"station_name":"Sudirman","i_lat":-6.202263,"line":1},{"is_transit":true,"station_name":"Manggarai","i_lat":-6.209883,"station_id":"MRI","line":2,"transit":true,"time":4,"i_long":106.84912,"distance":3186},{"transit":false,"station_name":"Cikini","distance":1590,"time":4,"is_transit":false,"station_id":"CKI","i_lat":-6.198556,"i_long":106.840169,"line":2},{"is_transit":false,"i_long":106.832183,"i_lat":-6.186295,"distance":1750,"station_id":"GDD","station_name":"Gondangdia","line":2,"transit":false,"time":3},{"transit":false,"station_id":"JUA","station_name":"Juanda","is_transit":false,"distance":2015,"time":4,"line":2,"i_long":106.828284,"i_lat":-6.166716},{"is_transit":false,"distance":1149,"station_name":"Sawah Besar","transit":false,"i_lat":-6.160725,"station_id":"SW","time":2,"line":2,"i_long":106.827103},{"i_lat":-6.149769,"is_transit":false,"distance":906,"transit":false,"time":2,"line":2,"station_id":"MGB","station_name":"Manggabesar","i_long":106.82482},{"line":2,"distance":1080,"station_name":"Jayakarta","i_lat":-6.141205,"time":2,"is_transit":false,"transit":false,"i_long":106.820901,"station_id":"JAY"},{"line":2,"i_lat":-6.137569,"transit":true,"distance":1264,"station_name":"Jakarta Kota","i_long":106.812439,"is_transit":true,"station_id":"JAKK","time":4},{"distance":1364,"is_transit":true,"i_lat":-6.132549,"line":4,"station_name":"Kampung Bandan","time":3,"station_id":"KPB","i_long":106.826365,"transit":true},{"transit":false,"i_lat":-6.14505,"distance":1444,"is_transit":false,"i_long":106.836569,"time":3,"station_id":"RJW","station_name":"Rajawali","line":11},{"station_name":"Kemayoran","i_long":106.839204,"is_transit":false,"i_lat":-6.161728,"line":11,"station_id":"KMO","time":5,"distance":1901,"transit":false},{"station_name":"Pasar Senen","transit":false,"time":4,"i_lat":-6.174784,"station_id":"PSE","is_transit":false,"distance":1436,"line":11,"i_long":106.84368},{"station_name":"Gang Sentiong","time":8,"distance":1567,"is_transit":false,"line":11,"transit":false,"station_id":"GST","i_long":106.850107,"i_lat":-6.185975},{"time":1,"station_id":"KMT","distance":973,"is_transit":false,"transit":false,"station_name":"Kramat","i_lat":-6.193792,"line":11,"i_long":106.855437},{"distance":1829,"transit":false,"i_lat":-6.209188,"i_long":106.861737,"line":11,"time":2,"station_name":"Pondok Jati","station_id":"POK","is_transit":false},{"is_transit":true,"time":9,"i_long":106.86807400000001,"line":1,"station_name":"Jatinegara","station_id":"JNG","distance":1236,"i_lat":-6.215091,"transit":true},{"transit":false,"i_long":106.899548,"distance":3395,"line":1,"station_name":"Klender","is_transit":false,"time":3,"station_id":"KLD","i_lat":-6.2135},{"transit":false,"station_id":"BUA","i_lat":-6.215568,"is_transit":false,"distance":3100,"station_name":"Buaran","time":2,"i_long":106.922662,"line":1},{"is_transit":false,"transit":false,"station_name":"Klenderbaru","distance":1305,"time":1,"station_id":"KLDB","i_lat":-6.217455,"i_long":106.939679,"line":1}]]}