{"data":[[{"station_id":"GRG","station_name":"Grogol","transit":false,"i_lat":-6.162021,"time":0,"distance":0,"i_long":106.788277,"is_transit":false,"line":5},{"station_name":"Duri","distance":1700,"i_lat":-6.155215,"time":3,"station_id":"DU","line":1,"is_transit":true,"i_long":106.800832,"transit":true},{"time":8,"line":1,"distance":3632,"station_name":"Tanah Abang","is_transit":true,"i_lat":-6.185545,"transit":true,"i_long":106.811091,"station_id":"THB"},{"i_long":106.79689,"time":6,"station_name":"Palmerah","distance":3191,"is_transit":false,"station_id":"PLM","transit":false,"line":6,"i_lat":-6.207404},{"time":7,"transit":false,"i_lat":-6.237242,"i_long":106.780334,"distance":3737,"line":6,"station_id":"KBY","is_transit":false,"station_name":"Kebayoran"},{"time":8,"distance":6218,"is_transit":false,"i_long":106.74273,"station_id":"PDJ","i_lat":-6.276362,"line":6,"station_name":"Pondokranji","transit":false},{"distance":2179,"transit":false,"time":3,"station_id":"JMU","i_lat":-6.288927,"i_long":106.728916,"is_transit":false,"station_name":"Jurangmangu","line":6},{"i_long":106.712277,"i_lat":-6.296963,"distance":1994,"line":6,"time":4,"station_id":"SDM","is_transit":false,"station_name":"Sudimara","transit":false}],[{"i_lat":-6.162021,"station_id":"GRG","i_long":106.788277,"transit":false,"distance":0,"time":0,"line":5,"station_name":"Grogol","is_transit":false},{"time":3,"line":1,"i_lat":-6.155215,"distance":1700,"station_name":"Duri","transit":true,"i_long":106.800832,"station_id":"DU","is_transit":true},{"time":4,"i_lat":-6.144674,"line":1,"station_name":"Angke","is_transit":false,"i_long":106.79867,"distance":1230,"station_id":"AK","transit":false},{"i_lat":-6.132549,"station_name":"Kampung Bandan","line":4,"station_id":"KPB","is_transit":true,"transit":true,"i_long":106.826365,"time":9,"distance":4102},{"time":3,"station_id":"JAKK","transit":true,"i_long":106.812439,"line":2,"station_name":"Jakarta Kota","distance":1364,"i_lat":-6.137569,"is_transit":true},{"time":4,"line":2,"station_name":"Jayakarta","station_id":"JAY","transit":false,"i_long":106.820901,"is_transit":false,"i_lat":-6.141205,"distance":1264},{"i_lat":-6.149769,"i_long":106.82482,"transit":false,"distance":1080,"line":2,"station_name":"Manggabesar","is_transit":false,"station_id":"MGB","time":2},{"transit":false,"line":2,"station_name":"Sawah Besar","distance":906,"station_id":"SW","i_long":106.827103,"time":2,"i_lat":-6.160725,"is_transit":false},{"time":2,"transit":false,"is_transit":false,"line":2,"station_id":"JUA","distance":1149,"station_name":"Juanda","i_lat":-6.166716,"i_long":106.828284},{"station_id":"GDD","distance":2015,"station_name":"Gondangdia","is_transit":false,"i_long":106.832183,"line":2,"transit":false,"i_lat":-6.186295,"time":4},{"station_id":"CKI","station_name":"Cikini","is_transit":false,"transit":false,"line":2,"time":3,"i_long":106.840169,"i_lat":-6.198556,"distance":1750},{"station_name":"Manggarai","time":4,"distance":1590,"transit":true,"i_long":106.84912,"is_transit":true,"i_lat":-6.209883,"line":2,"station_id":"MRI"},{"transit":false,"line":1,"i_long":106.822649,"station_name":"Sudirman","is_transit":false,"distance":3186,"time":4,"station_id":"SUD","i_lat":-6.202263},{"line":1,"distance":280,"station_name":"Sudirman Baru","i_lat":-6.201433,"station_id":"SUDB","is_transit":false,"time":1,"transit":false,"i_long":106.819881},{"i_long":106.816351,"distance":471,"station_id":"KAT","station_name":"Karet","is_transit":false,"time":1,"transit":false,"line":1,"i_lat":-6.20132},{"distance":2029,"station_name":"Tanah Abang","is_transit":true,"i_lat":-6.185545,"time":5,"line":1,"i_long":106.811091,"station_id":"THB","transit":true},{"time":6,"is_transit":false,"distance":3191,"i_long":106.79689,"transit":false,"i_lat":-6.207404,"line":6,"station_name":"Palmerah","station_id":"PLM"},{"i_long":106.780334,"time":7,"station_name":"Kebayoran","line":6,"is_transit":false,"distance":3737,"station_id":"KBY","transit":false,"i_lat":-6.237242},{"i_long":106.74273,"station_name":"Pondokranji","line":6,"station_id":"PDJ","distance":6218,"time":8,"is_transit":false,"i_lat":-6.276362,"transit":false},{"i_lat":-6.288927,"station_name":"Jurangmangu","transit":false,"i_long":106.728916,"is_transit":false,"line":6,"distance":2179,"station_id":"JMU","time":3},{"time":4,"transit":false,"line":6,"is_transit":false,"i_lat":-6.296963,"station_name":"Sudimara","i_long":106.712277,"distance":1994,"station_id":"SDM"}],[{"time":0,"station_name":"Grogol","distance":0,"transit":false,"station_id":"GRG","is_transit":false,"i_long":106.788277,"line":5,"i_lat":-6.162021},{"transit":true,"station_name":"Duri","is_transit":true,"distance":1700,"station_id":"DU","i_lat":-6.155215,"time":3,"i_long":106.800832,"line":1},{"station_name":"Angke","line":1,"distance":1230,"i_long":106.79867,"station_id":"AK","time":4,"i_lat":-6.144674,"transit":false,"is_transit":false},{"time":9,"i_lat":-6.132549,"i_long":106.826365,"line":4,"transit":true,"station_name":"Kampung Bandan","distance":4102,"station_id":"KPB","is_transit":true},{"line":11,"station_id":"RJW","transit":false,"is_transit":false,"time":3,"i_lat":-6.14505,"station_name":"Rajawali","distance":1444,"i_long":106.836569},{"i_long":106.839204,"distance":1901,"i_lat":-6.161728,"station_name":"Kemayoran","line":11,"station_id":"KMO","is_transit":false,"transit":false,"time":5},{"station_id":"PSE","station_name":"Pasar Senen","time":4,"i_lat":-6.174784,"i_long":106.84368,"is_transit":false,"distance":1436,"line":11,"transit":false},{"station_id":"GST","transit":false,"time":8,"line":11,"distance":1567,"i_long":106.850107,"is_transit":false,"station_name":"Gang Sentiong","i_lat":-6.185975},{"station_id":"KMT","i_lat":-6.193792,"i_long":106.855437,"time":1,"line":11,"distance":973,"is_transit":false,"transit":false,"station_name":"Kramat"},{"time":2,"i_long":106.861737,"distance":1829,"transit":false,"station_id":"POK","station_name":"Pondok Jati","is_transit":false,"line":11,"i_lat":-6.209188},{"time":9,"i_lat":-6.215091,"station_id":"JNG","distance":1236,"transit":true,"line":1,"i_long":106.86807400000001,"is_transit":true,"station_name":"Jatinegara"},{"transit":false,"i_lat":-6.212485,"i_long":106.858896,"distance":1377,"station_name":"Matraman","station_id":"MTR","is_transit":false,"line":1,"time":2},{"distance":1275,"station_id":"MRI","i_lat":-6.209883,"i_long":106.84912,"line":2,"transit":false,"is_transit":false,"time":2,"station_name":"Manggarai"},{"time":4,"station_name":"Sudirman","is_transit":false,"distance":3186,"transit":false,"i_lat":-6.202263,"i_long":106.822649,"line":1,"station_id":"SUD"},{"is_transit":false,"i_lat":-6.201433,"i_long":106.819881,"station_name":"Sudirman Baru","distance":280,"station_id":"SUDB","transit":false,"time":1,"line":1},{"i_long":106.816351,"transit":false,"station_name":"Karet","time":1,"line":1,"is_transit":false,"distance":471,"i_lat":-6.20132,"station_id":"KAT"},{"distance":2029,"i_long":106.811091,"is_transit":true,"time":5,"i_lat":-6.185545,"station_id":"THB","line":1,"station_name":"Tanah Abang","transit":true},{"i_lat":-6.207404,"line":6,"distance":3191,"time":6,"transit":false,"station_id":"PLM","is_transit":false,"station_name":"Palmerah","i_long":106.79689},{"time":7,"transit":false,"i_long":106.780334,"station_name":"Kebayoran","is_transit":false,"distance":3737,"i_lat":-6.237242,"station_id":"KBY","line":6},{"i_lat":-6.276362,"station_name":"Pondokranji","transit":false,"station_id":"PDJ","i_long":106.74273,"distance":6218,"time":8,"line":6,"is_transit":false},{"distance":2179,"time":3,"station_name":"Jurangmangu","line":6,"is_transit":false,"i_lat":-6.288927,"i_long":106.728916,"station_id":"JMU","transit":false},{"station_id":"SDM","transit":false,"time":4,"line":6,"is_transit":false,"station_name":"Sudimara","i_lat":-6.296963,"i_long":106.712277,"distance":1994}]]}