{"data":[[{"time":0,"i_long":106.788277,"station_id":"GRG","transit":false,"i_lat":-6.162021,"is_transit":false,"line":5,"station_name":"Grogol","distance":0},{"i_long":106.800832,"is_transit":true,"station_name":"Duri","i_lat":-6.155215,"transit":true,"distance":1700,"line":1,"station_id":"DU","time":3},{"is_transit":false,"distance":3632,"i_lat":-6.185545,"time":8,"i_long":106.811091,"station_name":"Tanah Abang","station_id":"THB","transit":false,"line":1},{"i_lat":-6.20132,"line":1,"i_long":106.816351,"is_transit":false,"station_name":"Karet","time":5,"transit":false,"station_id":"KAT","distance":2029},{"i_long":106.819881,"transit":false,"time":1,"station_name":"Sudirman Baru","line":1,"distance":471,"is_transit":false,"station_id":"SUDB","i_lat":-6.201433},{"distance":280,"station_name":"Sudirman","i_lat":-6.202263,"station_id":"SUD","line":1,"time":1,"i_long":106.822649,"is_transit":false,"transit":false},{"time":4,"i_long":106.84912,"station_id":"MRI","station_name":"Manggarai","is_transit":false,"transit":false,"line":2,"distance":3186,"i_lat":-6.209883},{"is_transit":false,"i_lat":-6.212485,"station_id":"MTR","distance":1275,"time":2,"station_name":"Matraman","line":1,"transit":false,"i_long":106.858896},{"station_name":"Jatinegara","distance":1377,"transit":false,"i_long":106.86807400000001,"is_transit":false,"line":1,"i_lat":-6.215091,"station_id":"JNG","time":8},{"line":1,"distance":3395,"is_transit":false,"time":3,"i_lat":-6.2135,"i_long":106.899548,"station_id":"KLD","station_name":"Klender","transit":false},{"station_name":"Buaran","distance":3100,"is_transit":false,"time":2,"transit":false,"line":1,"i_lat":-6.215568,"station_id":"BUA","i_long":106.922662},{"i_lat":-6.217455,"line":1,"station_id":"KLDB","distance":1305,"time":1,"i_long":106.939679,"station_name":"Klenderbaru","is_transit":false,"transit":false}],[{"station_id":"GRG","line":5,"time":0,"transit":false,"i_long":106.788277,"distance":0,"is_transit":false,"i_lat":-6.162021,"station_name":"Grogol"},{"station_id":"DU","time":3,"distance":1700,"transit":true,"is_transit":true,"i_lat":-6.155215,"line":1,"station_name":"Duri","i_long":106.800832},{"is_transit":false,"i_long":106.79867,"transit":false,"time":4,"station_name":"Angke","distance":1230,"station_id":"AK","line":1,"i_lat":-6.144674},{"i_long":106.826365,"station_id":"KPB","is_transit":true,"i_lat":-6.132549,"distance":4102,"station_name":"Kampung Bandan","time":9,"transit":true,"line":4},{"station_name":"Rajawali","distance":1444,"transit":false,"i_long":106.836569,"is_transit":false,"line":11,"i_lat":-6.14505,"time":3,"station_id":"RJW"},{"station_id":"KMO","is_transit":false,"transit":false,"distance":1901,"line":11,"station_name":"Kemayoran","time":5,"i_lat":-6.161728,"i_long":106.839204},{"i_long":106.84368,"transit":false,"line":11,"station_id":"PSE","station_name":"Pasar Senen","i_lat":-6.174784,"time":4,"is_transit":false,"distance":1436},{"is_transit":false,"i_lat":-6.185975,"time":8,"station_id":"GST","i_long":106.850107,"distance":1567,"transit":false,"station_name":"Gang Sentiong","line":11},{"is_transit":false,"line":11,"distance":973,"i_lat":-6.193792,"time":1,"station_id":"KMT","transit":false,"station_name":"Kramat","i_long":106.855437},{"time":2,"i_lat":-6.209188,"is_transit":false,"distance":1829,"line":11,"station_id":"POK","i_long":106.861737,"station_name":"Pondok Jati","transit":false},{"i_long":106.86807400000001,"i_lat":-6.215091,"line":1,"station_id":"JNG","distance":1236,"is_transit":true,"transit":true,"station_name":"Jatinegara","time":9},{"time":3,"transit":false,"i_long":106.899548,"is_transit":false,"i_lat":-6.2135,"distance":3395,"station_name":"Klender","line":1,"station_id":"KLD"},{"line":1,"i_lat":-6.215568,"station_name":"Buaran","time":2,"i_long":106.922662,"distance":3100,"is_transit":false,"station_id":"BUA","transit":false},{"transit":false,"time":1,"i_long":106.939679,"line":1,"is_transit":false,"station_name":"Klenderbaru","station_id":"KLDB","distance":1305,"i_lat":-6.217455}],[{"i_lat":-6.162021,"i_long":106.788277,"time":0,"station_id":"GRG","distance":0,"is_transit":false,"station_name":"Grogol","line":5,"transit":false},{"station_id":"DU","i_lat":-6.155215,"line":1,"distance":1700,"time":3,"station_name":"Duri","transit":true,"i_long":106.800832,"is_transit":true},{"line":1,"time":4,"i_lat":-6.144674,"station_id":"AK","distance":1230,"transit":false,"is_transit":false,"i_long":106.79867,"station_name":"Angke"},{"transit":true,"time":9,"station_name":"Kampung Bandan","station_id":"KPB","i_lat":-6.132549,"distance":4102,"i_long":106.826365,"is_transit":true,"line":4},{"distance":1364,"station_id":"JAKK","time":3,"station_name":"Jakarta Kota","line":2,"transit":true,"is_transit":true,"i_long":106.812439,"i_lat":-6.137569},{"transit":false,"is_transit":false,"time":4,"station_name":"Jayakarta","i_lat":-6.141205,"i_long":106.820901,"distance":1264,"station_id":"JAY","line":2},{"line":2,"transit":false,"station_name":"Manggabesar","i_long":106.82482,"is_transit":false,"i_lat":-6.149769,"distance":1080,"station_id":"MGB","time":2},{"station_name":"Sawah Besar","time":2,"distance":906,"station_id":"SW","i_lat":-6.160725,"i_long":106.827103,"transit":false,"line":2,"is_transit":false},{"i_long":106.828284,"i_lat":-6.166716,"line":2,"time":2,"station_id":"JUA","distance":1149,"station_name":"Juanda","transit":false,"is_transit":false},{"line":2,"distance":2015,"time":4,"is_transit":false,"station_name":"Gondangdia","station_id":"GDD","transit":false,"i_long":106.832183,"i_lat":-6.186295},{"i_long":106.840169,"is_transit":false,"station_id":"CKI","transit":false,"i_lat":-6.198556,"station_name":"Cikini","distance":1750,"line":2,"time":3},{"time":4,"is_transit":true,"line":2,"station_id":"MRI","i_lat":-6.209883,"i_long":106.84912,"distance":1590,"transit":true,"station_name":"Manggarai"},{"is_transit":false,"distance":1275,"station_id":"MTR","transit":false,"time":2,"i_lat":-6.212485,"line":1,"i_long":106.858896,"station_name":"Matraman"},{"i_lat":-6.215091,"is_transit":false,"line":1,"station_id":"JNG","distance":1377,"station_name":"Jatinegara","i_long":106.86807400000001,"transit":false,"time":8},{"station_id":"KLD","transit":false,"i_lat":-6.2135,"station_name":"Klender","time":3,"distance":3395,"i_long":106.899548,"is_transit":false,"line":1},{"time":2,"station_id":"BUA","i_lat":-6.215568,"transit":false,"is_transit":false,"i_long":106.922662,"line":1,"distance":3100,"station_name":"Buaran"},{"time":1,"i_lat":-6.217455,"i_long":106.939679,"transit":false,"station_id":"KLDB","station_name":"Klenderbaru","is_transit":false,"distance":1305,"line":1}],[{"i_long":106.788277,"time":0,"transit":false,"is_transit":false,"i_lat":-6.162021,"station_id":"GRG","distance":0,"station_name":"Grogol","line":5},{"line":1,"station_id":"DU","time":3,"transit":true,"i_long":106.800832,"i_lat":-6.155215,"station_name":"Duri","distance":1700,"is_transit":true},{"station_name":"Tanah Abang","distance":3632,"is_transit":false,"i_long":106.811091,"time":8,"i_lat":-6.185545,"transit":false,"line":1,"station_id":"THB"},{"line":1,"station_name":"Karet","time":5,"distance":2029,"transit":false,"is_transit":false,"station_id":"KAT","i_lat":-6.20132,"i_long":106.816351},{"station_name":"Sudirman Baru","transit":false,"is_transit":false,"i_long":106.819881,"time":1,"line":1,"i_lat":-6.201433,"station_id":"SUDB","distance":471},{"time":1,"distance":280,"station_id":"SUD","i_lat":-6.202263,"is_transit":false,"i_long":106.822649,"line":1,"transit":false,"station_name":"Sudirman"},{"transit":true,"station_name":"Manggarai","time":4,"is_transit":true,"i_lat":-6.209883,"i_long":106.84912,"station_id":"MRI","line":2,"distance":3186},{"transit":false,"is_transit":false,"i_lat":-6.198556,"i_long":106.840169,"line":2,"station_name":"Cikini","distance":1590,"station_id":"CKI","time":4},{"i_long":106.832183,"distance":1750,"transit":false,"line":2,"station_name":"Gondangdia","station_id":"GDD","is_transit":false,"time":3,"i_lat":-6.186295},{"i_lat":-6.166716,"station_id":"JUA","is_transit":false,"line":2,"i_long":106.828284,"transit":false,"time":4,"station_name":"Juanda","distance":2015},{"is_transit":false,"time":2,"station_id":"SW","station_name":"Sawah Besar","i_lat":-6.160725,"transit":false,"i_long":106.827103,"line":2,"distance":1149},{"time":2,"i_long":106.82482,"line":2,"station_id":"MGB","distance":906,"transit":false,"is_transit":false,"station_name":"Manggabesar","i_lat":-6.149769},{"station_name":"Jayakarta","time":2,"i_long":106.820901,"is_transit":false,"line":2,"distance":1080,"i_lat":-6.141205,"station_id":"JAY","transit":false},{"i_long":106.812439,"time":4,"line":2,"i_lat":-6.137569,"station_name":"Jakarta Kota","distance":1264,"station_id":"JAKK","transit":true,"is_transit":true},{"station_id":"KPB","line":4,"i_long":106.826365,"is_transit":true,"distance":1364,"i_lat":-6.132549,"time":3,"station_name":"Kampung Bandan","transit":true},{"time":3,"station_name":"Rajawali","is_transit":false,"i_lat":-6.14505,"station_id":"RJW","transit":false,"distance":1444,"i_long":106.836569,"line":11},{"time":5,"station_name":"Kemayoran","i_long":106.839204,"is_transit":false,"station_id":"KMO","distance":1901,"transit":false,"line":11,"i_lat":-6.161728},{"line":11,"i_long":106.84368,"distance":1436,"transit":false,"is_transit":false,"station_name":"Pasar Senen","station_id":"PSE","i_lat":-6.174784,"time":4},{"is_transit":false,"station_id":"GST","i_lat":-6.185975,"time":8,"distance":1567,"i_long":106.850107,"transit":false,"line":11,"station_name":"Gang Sentiong"},{"station_id":"KMT","i_long":106.855437,"is_transit":false,"transit":false,"station_name":"Kramat","i_lat":-6.193792,"time":1,"distance":973,"line":11},{"line":11,"i_long":106.861737,"station_id":"POK","time":2,"transit":false,"i_lat":-6.209188,"distance":1829,"station_name":"Pondok Jati","is_transit":false},{"station_name":"Jatinegara","time":9,"line":1,"distance":1236,"station_id":"JNG","transit":true,"is_transit":true,"i_long":106.86807400000001,"i_lat":-6.215091},{"distance":3395,"is_transit":false,"i_long":106.899548,"time":3,"station_id":"KLD","station_name":"Klender","i_lat":-6.2135,"transit":false,"line":1},{"i_lat":-6.215568,"time":2,"is_transit":false,"i_long":106.922662,"distance":3100,"station_name":"Buaran","station_id":"BUA","line":1,"transit":false},{"distance":1305,"line":1,"station_name":"Klenderbaru","transit":false,"is_transit":false,"i_long":106.939679,"i_lat":-6.217455,"time":1,"station_id":"KLDB"}]]}