{"data":[[{"transit":false,"time":0,"station_name":"Grogol","i_lat":-6.162021,"is_transit":false,"station_id":"GRG","distance":0,"line":5,"i_long":106.788277},{"line":5,"distance":2036,"is_transit":false,"station_name":"Pesing","station_id":"PSG","time":2,"transit":false,"i_lat":-6.161433,"i_long":106.771379},{"line":5,"station_id":"TKO","is_transit":false,"i_lat":-6.1587309999999995,"station_name":"Taman Kota","transit":false,"time":2,"distance":1614,"i_long":106.756522},{"station_id":"BOI","station_name":"Bojongindah","is_transit":false,"time":2,"distance":2334,"transit":false,"i_long":106.737035,"line":5,"i_lat":-6.159876},{"time":4,"line":5,"transit":false,"is_transit":false,"i_lat":-6.162758,"station_id":"RW","station_name":"Rawa Buaya","distance":1152,"i_long":106.723064},{"is_transit":false,"station_id":"KDS","i_long":106.701612,"station_name":"Kalideres","transit":false,"line":5,"time":3,"i_lat":-6.166068,"distance":2504},{"line":5,"distance":2548,"i_long":106.679458,"station_id":"PI","time":3,"station_name":"Poris","is_transit":false,"transit":false,"i_lat":-6.169933}]]}