{"data":[[{"i_long":106.788277,"time":0,"station_name":"Grogol","transit":false,"is_transit":false,"distance":0,"i_lat":-6.162021,"line":5,"station_id":"GRG"},{"station_name":"Duri","i_lat":-6.155215,"is_transit":true,"line":1,"distance":1700,"time":3,"i_long":106.800832,"transit":true,"station_id":"DU"},{"station_name":"Tanah Abang","is_transit":false,"distance":3632,"i_lat":-6.185545,"time":8,"i_long":106.811091,"line":1,"transit":false,"station_id":"THB"},{"line":1,"station_id":"KAT","is_transit":false,"station_name":"Karet","i_long":106.816351,"time":5,"distance":2029,"transit":false,"i_lat":-6.20132},{"distance":471,"station_id":"SUDB","i_lat":-6.201433,"i_long":106.819881,"time":1,"station_name":"Sudirman Baru","is_transit":false,"line":1,"transit":false},{"i_long":106.822649,"is_transit":false,"distance":280,"line":1,"time":1,"station_id":"SUD","i_lat":-6.202263,"station_name":"Sudirman","transit":false},{"i_lat":-6.209883,"transit":false,"station_id":"MRI","i_long":106.84912,"time":4,"line":2,"station_name":"Manggarai","distance":3186,"is_transit":false},{"i_long":106.858896,"station_name":"Matraman","transit":false,"i_lat":-6.212485,"distance":1275,"station_id":"MTR","time":2,"is_transit":false,"line":1},{"is_transit":false,"transit":false,"station_id":"JNG","station_name":"Jatinegara","distance":1377,"i_long":106.86807400000001,"line":1,"time":8,"i_lat":-6.215091},{"time":3,"distance":3395,"transit":false,"station_id":"KLD","i_lat":-6.2135,"station_name":"Klender","is_transit":false,"i_long":106.899548,"line":1},{"time":2,"i_lat":-6.215568,"distance":3100,"station_id":"BUA","is_transit":false,"line":1,"transit":false,"station_name":"Buaran","i_long":106.922662},{"time":1,"transit":false,"i_lat":-6.217455,"distance":1305,"is_transit":false,"station_name":"Klenderbaru","station_id":"KLDB","i_long":106.939679,"line":1},{"i_long":106.951283,"time":8,"station_id":"CUK","is_transit":false,"station_name":"Cakung","distance":1385,"i_lat":-6.219053,"transit":false,"line":1},{"station_name":"Kranji","transit":false,"is_transit":false,"i_long":106.977657,"i_lat":-6.224515,"line":1,"time":3,"station_id":"KRI","distance":3097},{"line":1,"is_transit":false,"i_long":106.997013,"station_id":"BKS","station_name":"Bekasi","distance":2520,"time":4,"transit":false,"i_lat":-6.236616},{"time":2,"i_lat":-6.248029,"i_long":107.016735,"is_transit":false,"transit":false,"station_name":"Bekasi Timur","distance":2368,"station_id":"BKST","line":1},{"station_name":"Tambun","is_transit":false,"i_lat":-6.258864,"distance":4460,"time":7,"station_id":"TB","transit":false,"i_long":107.055722,"line":1},{"distance":3420,"i_long":107.083084,"i_lat":-6.261877,"line":1,"station_id":"CIT","transit":false,"station_name":"Cibitung","is_transit":false,"time":3}],[{"line":5,"station_id":"GRG","station_name":"Grogol","is_transit":false,"i_lat":-6.162021,"transit":false,"time":0,"distance":0,"i_long":106.788277},{"i_long":106.800832,"distance":1700,"station_id":"DU","station_name":"Duri","is_transit":true,"transit":true,"i_lat":-6.155215,"time":3,"line":1},{"transit":false,"station_name":"Angke","is_transit":false,"time":4,"i_long":106.79867,"distance":1230,"station_id":"AK","i_lat":-6.144674,"line":1},{"distance":4102,"transit":true,"i_lat":-6.132549,"station_id":"KPB","time":9,"i_long":106.826365,"is_transit":true,"line":4,"station_name":"Kampung Bandan"},{"i_lat":-6.14505,"transit":false,"is_transit":false,"time":3,"i_long":106.836569,"line":11,"station_name":"Rajawali","station_id":"RJW","distance":1444},{"i_lat":-6.161728,"i_long":106.839204,"transit":false,"station_id":"KMO","distance":1901,"line":11,"station_name":"Kemayoran","is_transit":false,"time":5},{"line":11,"station_name":"Pasar Senen","i_lat":-6.174784,"transit":false,"is_transit":false,"distance":1436,"time":4,"i_long":106.84368,"station_id":"PSE"},{"i_lat":-6.185975,"transit":false,"time":8,"distance":1567,"station_name":"Gang Sentiong","station_id":"GST","is_transit":false,"i_long":106.850107,"line":11},{"transit":false,"is_transit":false,"i_long":106.855437,"distance":973,"i_lat":-6.193792,"time":1,"line":11,"station_name":"Kramat","station_id":"KMT"},{"i_lat":-6.209188,"transit":false,"i_long":106.861737,"line":11,"distance":1829,"station_name":"Pondok Jati","is_transit":false,"time":2,"station_id":"POK"},{"transit":true,"station_name":"Jatinegara","i_lat":-6.215091,"is_transit":true,"time":9,"station_id":"JNG","distance":1236,"line":1,"i_long":106.86807400000001},{"is_transit":false,"time":3,"line":1,"i_long":106.899548,"distance":3395,"transit":false,"station_id":"KLD","station_name":"Klender","i_lat":-6.2135},{"station_id":"BUA","time":2,"i_lat":-6.215568,"i_long":106.922662,"station_name":"Buaran","line":1,"transit":false,"distance":3100,"is_transit":false},{"i_long":106.939679,"is_transit":false,"distance":1305,"station_name":"Klenderbaru","time":1,"line":1,"transit":false,"i_lat":-6.217455,"station_id":"KLDB"},{"i_long":106.951283,"line":1,"station_name":"Cakung","distance":1385,"time":8,"station_id":"CUK","transit":false,"i_lat":-6.219053,"is_transit":false},{"time":3,"distance":3097,"i_long":106.977657,"i_lat":-6.224515,"station_name":"Kranji","station_id":"KRI","transit":false,"line":1,"is_transit":false},{"distance":2520,"i_long":106.997013,"line":1,"i_lat":-6.236616,"station_name":"Bekasi","transit":false,"station_id":"BKS","is_transit":false,"time":4},{"i_lat":-6.248029,"transit":false,"station_id":"BKST","is_transit":false,"line":1,"time":2,"station_name":"Bekasi Timur","i_long":107.016735,"distance":2368},{"i_long":107.055722,"time":7,"line":1,"distance":4460,"station_id":"TB","is_transit":false,"i_lat":-6.258864,"transit":false,"station_name":"Tambun"},{"station_id":"CIT","i_lat":-6.261877,"station_name":"Cibitung","distance":3420,"time":3,"is_transit":false,"line":1,"transit":false,"i_long":107.083084}],[{"is_transit":false,"i_long":106.788277,"time":0,"line":5,"station_id":"GRG","station_name":"Grogol","distance":0,"transit":false,"i_lat":-6.162021},{"transit":true,"line":1,"station_id":"DU","i_long":106.800832,"i_lat":-6.155215,"time":3,"is_transit":true,"distance":1700,"station_name":"Duri"},{"i_long":106.79867,"line":1,"station_id":"AK","is_transit":false,"i_lat":-6.144674,"distance":1230,"transit":false,"time":4,"station_name":"Angke"},{"line":4,"transit":true,"distance":4102,"station_name":"Kampung Bandan","station_id":"KPB","is_transit":true,"time":9,"i_lat":-6.132549,"i_long":106.826365},{"station_id":"JAKK","i_lat":-6.137569,"transit":true,"i_long":106.812439,"is_transit":true,"line":2,"time":3,"distance":1364,"station_name":"Jakarta Kota"},{"i_lat":-6.141205,"line":2,"transit":false,"station_id":"JAY","is_transit":false,"time":4,"distance":1264,"station_name":"Jayakarta","i_long":106.820901},{"i_long":106.82482,"station_name":"Manggabesar","transit":false,"distance":1080,"station_id":"MGB","line":2,"time":2,"is_transit":false,"i_lat":-6.149769},{"transit":false,"station_name":"Sawah Besar","i_lat":-6.160725,"i_long":106.827103,"distance":906,"station_id":"SW","is_transit":false,"line":2,"time":2},{"time":2,"station_id":"JUA","distance":1149,"station_name":"Juanda","line":2,"transit":false,"is_transit":false,"i_lat":-6.166716,"i_long":106.828284},{"time":4,"i_long":106.832183,"station_id":"GDD","transit":false,"i_lat":-6.186295,"line":2,"station_name":"Gondangdia","distance":2015,"is_transit":false},{"i_lat":-6.198556,"transit":false,"i_long":106.840169,"station_id":"CKI","line":2,"station_name":"Cikini","time":3,"distance":1750,"is_transit":false},{"is_transit":true,"time":4,"i_long":106.84912,"station_id":"MRI","i_lat":-6.209883,"transit":true,"distance":1590,"line":2,"station_name":"Manggarai"},{"line":1,"station_name":"Matraman","i_lat":-6.212485,"transit":false,"is_transit":false,"time":2,"i_long":106.858896,"distance":1275,"station_id":"MTR"},{"time":8,"line":1,"station_id":"JNG","transit":false,"is_transit":false,"distance":1377,"i_lat":-6.215091,"station_name":"Jatinegara","i_long":106.86807400000001},{"transit":false,"time":3,"i_lat":-6.2135,"i_long":106.899548,"station_name":"Klender","line":1,"station_id":"KLD","distance":3395,"is_transit":false},{"line":1,"transit":false,"is_transit":false,"station_name":"Buaran","i_lat":-6.215568,"time":2,"station_id":"BUA","i_long":106.922662,"distance":3100},{"transit":false,"i_long":106.939679,"station_id":"KLDB","line":1,"time":1,"distance":1305,"i_lat":-6.217455,"station_name":"Klenderbaru","is_transit":false},{"i_lat":-6.219053,"line":1,"time":8,"i_long":106.951283,"distance":1385,"transit":false,"is_transit":false,"station_id":"CUK","station_name":"Cakung"},{"line":1,"transit":false,"station_id":"KRI","is_transit":false,"i_long":106.977657,"station_name":"Kranji","i_lat":-6.224515,"time":3,"distance":3097},{"transit":false,"distance":2520,"is_transit":false,"i_lat":-6.236616,"station_name":"Bekasi","station_id":"BKS","i_long":106.997013,"time":4,"line":1},{"transit":false,"is_transit":false,"station_name":"Bekasi Timur","time":2,"distance":2368,"line":1,"station_id":"BKST","i_long":107.016735,"i_lat":-6.248029},{"distance":4460,"i_long":107.055722,"line":1,"transit":false,"time":7,"station_name":"Tambun","is_transit":false,"station_id":"TB","i_lat":-6.258864},{"is_transit":false,"station_name":"Cibitung","i_lat":-6.261877,"time":3,"i_long":107.083084,"line":1,"transit":false,"station_id":"CIT","distance":3420}],[{"transit":false,"station_id":"GRG","station_name":"Grogol","time":0,"distance":0,"i_lat":-6.162021,"line":5,"i_long":106.788277,"is_transit":false},{"station_name":"Duri","i_long":106.800832,"line":1,"i_lat":-6.155215,"is_transit":true,"distance":1700,"transit":true,"station_id":"DU","time":3},{"i_lat":-6.185545,"distance":3632,"is_transit":false,"time":8,"transit":false,"line":1,"station_name":"Tanah Abang","station_id":"THB","i_long":106.811091},{"distance":2029,"station_id":"KAT","time":5,"transit":false,"i_long":106.816351,"station_name":"Karet","line":1,"i_lat":-6.20132,"is_transit":false},{"station_name":"Sudirman Baru","distance":471,"transit":false,"line":1,"i_long":106.819881,"i_lat":-6.201433,"station_id":"SUDB","time":1,"is_transit":false},{"line":1,"time":1,"i_lat":-6.202263,"is_transit":false,"i_long":106.822649,"station_id":"SUD","distance":280,"station_name":"Sudirman","transit":false},{"line":2,"transit":true,"i_lat":-6.209883,"station_name":"Manggarai","is_transit":true,"distance":3186,"station_id":"MRI","i_long":106.84912,"time":4},{"time":4,"i_lat":-6.198556,"line":2,"station_name":"Cikini","transit":false,"distance":1590,"station_id":"CKI","is_transit":false,"i_long":106.840169},{"i_lat":-6.186295,"station_name":"Gondangdia","i_long":106.832183,"line":2,"transit":false,"station_id":"GDD","distance":1750,"is_transit":false,"time":3},{"is_transit":false,"i_long":106.828284,"transit":false,"station_id":"JUA","time":4,"distance":2015,"i_lat":-6.166716,"line":2,"station_name":"Juanda"},{"line":2,"i_long":106.827103,"station_id":"SW","station_name":"Sawah Besar","transit":false,"time":2,"i_lat":-6.160725,"distance":1149,"is_transit":false},{"transit":false,"station_id":"MGB","i_lat":-6.149769,"line":2,"is_transit":false,"distance":906,"i_long":106.82482,"station_name":"Manggabesar","time":2},{"station_id":"JAY","distance":1080,"i_lat":-6.141205,"time":2,"station_name":"Jayakarta","is_transit":false,"line":2,"i_long":106.820901,"transit":false},{"i_lat":-6.137569,"line":2,"station_id":"JAKK","time":4,"is_transit":true,"station_name":"Jakarta Kota","distance":1264,"i_long":106.812439,"transit":true},{"i_long":106.826365,"time":3,"i_lat":-6.132549,"station_name":"Kampung Bandan","transit":true,"is_transit":true,"line":4,"station_id":"KPB","distance":1364},{"time":3,"station_name":"Rajawali","i_lat":-6.14505,"is_transit":false,"line":11,"distance":1444,"station_id":"RJW","i_long":106.836569,"transit":false},{"station_id":"KMO","time":5,"distance":1901,"is_transit":false,"i_long":106.839204,"i_lat":-6.161728,"line":11,"station_name":"Kemayoran","transit":false},{"is_transit":false,"distance":1436,"station_id":"PSE","station_name":"Pasar Senen","time":4,"transit":false,"i_lat":-6.174784,"i_long":106.84368,"line":11},{"i_long":106.850107,"is_transit":false,"station_name":"Gang Sentiong","time":8,"distance":1567,"station_id":"GST","transit":false,"line":11,"i_lat":-6.185975},{"time":1,"transit":false,"i_lat":-6.193792,"i_long":106.855437,"distance":973,"line":11,"station_id":"KMT","is_transit":false,"station_name":"Kramat"},{"time":2,"is_transit":false,"distance":1829,"i_long":106.861737,"station_id":"POK","i_lat":-6.209188,"line":11,"transit":false,"station_name":"Pondok Jati"},{"transit":true,"distance":1236,"time":9,"station_id":"JNG","i_lat":-6.215091,"i_long":106.86807400000001,"is_transit":true,"station_name":"Jatinegara","line":1},{"i_long":106.899548,"i_lat":-6.2135,"distance":3395,"line":1,"time":3,"station_id":"KLD","is_transit":false,"station_name":"Klender","transit":false},{"i_lat":-6.215568,"station_id":"BUA","i_long":106.922662,"transit":false,"distance":3100,"time":2,"line":1,"station_name":"Buaran","is_transit":false},{"time":1,"line":1,"i_lat":-6.217455,"distance":1305,"transit":false,"station_name":"Klenderbaru","i_long":106.939679,"station_id":"KLDB","is_transit":false},{"time":8,"i_lat":-6.219053,"line":1,"station_name":"Cakung","is_transit":false,"i_long":106.951283,"distance":1385,"transit":false,"station_id":"CUK"},{"i_lat":-6.224515,"station_name":"Kranji","line":1,"station_id":"KRI","is_transit":false,"transit":false,"i_long":106.977657,"time":3,"distance":3097},{"transit":false,"station_id":"BKS","time":4,"i_long":106.997013,"line":1,"station_name":"Bekasi","distance":2520,"i_lat":-6.236616,"is_transit":false},{"time":2,"line":1,"station_name":"Bekasi Timur","transit":false,"station_id":"BKST","i_long":107.016735,"is_transit":false,"i_lat":-6.248029,"distance":2368},{"i_lat":-6.258864,"i_long":107.055722,"transit":false,"distance":4460,"line":1,"station_name":"Tambun","is_transit":false,"station_id":"TB","time":7},{"transit":false,"line":1,"station_name":"Cibitung","station_id":"CIT","distance":3420,"i_long":107.083084,"time":3,"i_lat":-6.261877,"is_transit":false}]]}