{"data":[[{"station_id":"GRG","time":0,"station_name":"Grogol","distance":0,"i_long":106.788277,"transit":false,"i_lat":-6.162021,"is_transit":false,"line":5},{"line":1,"station_id":"DU","station_name":"Duri","i_long":106.800832,"i_lat":-6.155215,"distance":1700,"time":3,"is_transit":true,"transit":true},{"distance":3632,"transit":true,"station_id":"THB","i_long":106.811091,"time":8,"is_transit":true,"line":1,"i_lat":-6.185545,"station_name":"Tanah Abang"},{"line":6,"i_long":106.79689,"distance":3191,"transit":false,"station_id":"PLM","time":6,"is_transit":false,"i_lat":-6.207404,"station_name":"Palmerah"},{"station_id":"KBY","station_name":"Kebayoran","is_transit":false,"distance":3737,"time":7,"i_lat":-6.237242,"i_long":106.780334,"transit":false,"line":6}],[{"transit":false,"station_name":"Grogol","line":5,"distance":0,"is_transit":false,"i_long":106.788277,"station_id":"GRG","i_lat":-6.162021,"time":0},{"time":3,"station_id":"DU","station_name":"Duri","line":1,"transit":true,"is_transit":true,"i_lat":-6.155215,"i_long":106.800832,"distance":1700},{"station_id":"AK","distance":1230,"is_transit":false,"transit":false,"i_lat":-6.144674,"line":1,"i_long":106.79867,"time":4,"station_name":"Angke"},{"station_name":"Kampung Bandan","is_transit":true,"distance":4102,"time":9,"i_long":106.826365,"i_lat":-6.132549,"line":4,"transit":true,"station_id":"KPB"},{"station_name":"Jakarta Kota","is_transit":true,"time":3,"distance":1364,"transit":true,"i_lat":-6.137569,"i_long":106.812439,"station_id":"JAKK","line":2},{"i_long":106.820901,"station_name":"Jayakarta","distance":1264,"line":2,"time":4,"station_id":"JAY","is_transit":false,"transit":false,"i_lat":-6.141205},{"time":2,"transit":false,"distance":1080,"station_id":"MGB","i_long":106.82482,"station_name":"Manggabesar","is_transit":false,"line":2,"i_lat":-6.149769},{"i_lat":-6.160725,"line":2,"distance":906,"station_id":"SW","station_name":"Sawah Besar","transit":false,"i_long":106.827103,"time":2,"is_transit":false},{"station_id":"JUA","is_transit":false,"transit":false,"line":2,"distance":1149,"station_name":"Juanda","i_lat":-6.166716,"i_long":106.828284,"time":2},{"distance":2015,"station_name":"Gondangdia","is_transit":false,"transit":false,"station_id":"GDD","line":2,"time":4,"i_long":106.832183,"i_lat":-6.186295},{"station_name":"Cikini","distance":1750,"station_id":"CKI","is_transit":false,"i_lat":-6.198556,"i_long":106.840169,"transit":false,"line":2,"time":3},{"station_name":"Manggarai","time":4,"station_id":"MRI","is_transit":true,"distance":1590,"i_long":106.84912,"line":2,"transit":true,"i_lat":-6.209883},{"time":4,"station_id":"SUD","is_transit":false,"transit":false,"station_name":"Sudirman","i_lat":-6.202263,"line":1,"distance":3186,"i_long":106.822649},{"distance":280,"station_id":"SUDB","is_transit":false,"line":1,"i_lat":-6.201433,"i_long":106.819881,"time":1,"station_name":"Sudirman Baru","transit":false},{"is_transit":false,"line":1,"time":1,"transit":false,"station_name":"Karet","i_lat":-6.20132,"i_long":106.816351,"distance":471,"station_id":"KAT"},{"i_long":106.811091,"station_id":"THB","distance":2029,"i_lat":-6.185545,"line":1,"transit":true,"time":5,"station_name":"Tanah Abang","is_transit":true},{"station_name":"Palmerah","time":6,"is_transit":false,"line":6,"i_long":106.79689,"transit":false,"station_id":"PLM","i_lat":-6.207404,"distance":3191},{"station_name":"Kebayoran","is_transit":false,"transit":false,"station_id":"KBY","time":7,"line":6,"distance":3737,"i_lat":-6.237242,"i_long":106.780334}],[{"station_id":"GRG","station_name":"Grogol","distance":0,"transit":false,"time":0,"i_lat":-6.162021,"is_transit":false,"i_long":106.788277,"line":5},{"i_lat":-6.155215,"is_transit":true,"i_long":106.800832,"station_name":"Duri","transit":true,"distance":1700,"line":1,"time":3,"station_id":"DU"},{"i_long":106.79867,"station_name":"Angke","is_transit":false,"station_id":"AK","distance":1230,"line":1,"transit":false,"time":4,"i_lat":-6.144674},{"distance":4102,"time":9,"i_long":106.826365,"i_lat":-6.132549,"line":4,"station_name":"Kampung Bandan","station_id":"KPB","transit":true,"is_transit":true},{"station_name":"Rajawali","transit":false,"station_id":"RJW","time":3,"i_lat":-6.14505,"distance":1444,"i_long":106.836569,"is_transit":false,"line":11},{"time":5,"is_transit":false,"i_lat":-6.161728,"transit":false,"station_id":"KMO","i_long":106.839204,"distance":1901,"line":11,"station_name":"Kemayoran"},{"i_long":106.84368,"station_id":"PSE","station_name":"Pasar Senen","is_transit":false,"time":4,"distance":1436,"i_lat":-6.174784,"line":11,"transit":false},{"station_name":"Gang Sentiong","distance":1567,"is_transit":false,"transit":false,"time":8,"i_lat":-6.185975,"station_id":"GST","line":11,"i_long":106.850107},{"transit":false,"station_name":"Kramat","is_transit":false,"i_long":106.855437,"line":11,"i_lat":-6.193792,"station_id":"KMT","time":1,"distance":973},{"i_long":106.861737,"station_name":"Pondok Jati","i_lat":-6.209188,"time":2,"distance":1829,"is_transit":false,"transit":false,"line":11,"station_id":"POK"},{"time":9,"is_transit":true,"distance":1236,"transit":true,"i_long":106.86807400000001,"station_id":"JNG","i_lat":-6.215091,"line":1,"station_name":"Jatinegara"},{"station_name":"Matraman","i_lat":-6.212485,"i_long":106.858896,"station_id":"MTR","line":1,"time":2,"is_transit":false,"distance":1377,"transit":false},{"transit":false,"is_transit":false,"line":2,"time":2,"distance":1275,"station_name":"Manggarai","station_id":"MRI","i_lat":-6.209883,"i_long":106.84912},{"transit":false,"station_name":"Sudirman","line":1,"is_transit":false,"station_id":"SUD","time":4,"distance":3186,"i_lat":-6.202263,"i_long":106.822649},{"i_lat":-6.201433,"transit":false,"is_transit":false,"time":1,"i_long":106.819881,"line":1,"station_name":"Sudirman Baru","station_id":"SUDB","distance":280},{"distance":471,"i_lat":-6.20132,"time":1,"station_id":"KAT","i_long":106.816351,"line":1,"station_name":"Karet","transit":false,"is_transit":false},{"i_long":106.811091,"is_transit":true,"station_id":"THB","transit":true,"distance":2029,"line":1,"time":5,"station_name":"Tanah Abang","i_lat":-6.185545},{"station_id":"PLM","i_lat":-6.207404,"line":6,"is_transit":false,"time":6,"i_long":106.79689,"station_name":"Palmerah","distance":3191,"transit":false},{"station_name":"Kebayoran","i_lat":-6.237242,"time":7,"transit":false,"i_long":106.780334,"is_transit":false,"distance":3737,"station_id":"KBY","line":6}]]}