{"data":[[{"transit":false,"station_name":"Grogol","line":5,"time":0,"distance":0,"i_long":106.788277,"is_transit":false,"i_lat":-6.162021,"station_id":"GRG"},{"distance":1700,"is_transit":true,"time":3,"line":1,"i_long":106.800832,"i_lat":-6.155215,"station_id":"DU","station_name":"Duri","transit":true},{"transit":false,"distance":3632,"i_lat":-6.185545,"line":1,"is_transit":false,"i_long":106.811091,"time":8,"station_name":"Tanah Abang","station_id":"THB"},{"transit":false,"time":5,"station_id":"KAT","station_name":"Karet","i_long":106.816351,"i_lat":-6.20132,"is_transit":false,"distance":2029,"line":1},{"station_id":"SUDB","time":1,"station_name":"Sudirman Baru","transit":false,"i_lat":-6.201433,"is_transit":false,"i_long":106.819881,"distance":471,"line":1},{"line":1,"i_long":106.822649,"time":1,"is_transit":false,"i_lat":-6.202263,"station_name":"Sudirman","station_id":"SUD","distance":280,"transit":false},{"time":4,"i_long":106.84912,"distance":3186,"transit":true,"line":2,"is_transit":true,"i_lat":-6.209883,"station_name":"Manggarai","station_id":"MRI"},{"i_lat":-6.226659,"station_name":"Tebet","distance":2610,"time":4,"is_transit":false,"transit":false,"i_long":106.857948,"line":2,"station_id":"TEB"},{"i_lat":-6.242512,"distance":1230,"station_name":"Cawang","transit":false,"time":2,"station_id":"CW","line":2,"i_long":106.856607,"is_transit":false},{"transit":false,"line":2,"is_transit":false,"station_id":"DRN","i_lat":-6.255332,"i_long":106.85449,"time":3,"station_name":"Duren Kalibata","distance":1546},{"station_name":"Pasar Minggu Baru","is_transit":false,"distance":824,"station_id":"PSMB","transit":false,"i_long":106.851577,"i_lat":-6.263214,"line":2,"time":2},{"station_name":"Pasar Minggu","is_transit":false,"distance":2380,"time":2,"i_lat":-6.2842400000000005,"transit":false,"i_long":106.843999,"line":2,"station_id":"PSM"},{"distance":2820,"is_transit":false,"i_lat":-6.3080680000000005,"station_name":"Tanjung Barat","transit":false,"i_long":106.838896,"line":2,"station_id":"TNT","time":4},{"time":3,"is_transit":false,"transit":false,"i_lat":-6.330363,"i_long":106.832616,"line":2,"station_id":"LNA","station_name":"Lenteng Agung","distance":2671}],[{"line":5,"distance":0,"station_name":"Grogol","i_lat":-6.162021,"station_id":"GRG","time":0,"is_transit":false,"transit":false,"i_long":106.788277},{"station_name":"Duri","i_lat":-6.155215,"station_id":"DU","line":1,"transit":true,"time":3,"distance":1700,"i_long":106.800832,"is_transit":true},{"time":4,"is_transit":false,"i_long":106.79867,"line":1,"transit":false,"i_lat":-6.144674,"station_name":"Angke","distance":1230,"station_id":"AK"},{"time":9,"is_transit":true,"station_name":"Kampung Bandan","transit":true,"i_long":106.826365,"i_lat":-6.132549,"station_id":"KPB","distance":4102,"line":4},{"is_transit":true,"transit":true,"time":3,"i_lat":-6.137569,"station_name":"Jakarta Kota","station_id":"JAKK","i_long":106.812439,"line":2,"distance":1364},{"i_lat":-6.141205,"line":2,"time":4,"i_long":106.820901,"station_id":"JAY","distance":1264,"station_name":"Jayakarta","is_transit":false,"transit":false},{"station_name":"Manggabesar","time":2,"line":2,"transit":false,"station_id":"MGB","i_long":106.82482,"distance":1080,"is_transit":false,"i_lat":-6.149769},{"transit":false,"line":2,"time":2,"station_name":"Sawah Besar","i_lat":-6.160725,"i_long":106.827103,"distance":906,"is_transit":false,"station_id":"SW"},{"station_id":"JUA","station_name":"Juanda","distance":1149,"i_lat":-6.166716,"time":2,"i_long":106.828284,"line":2,"transit":false,"is_transit":false},{"station_name":"Gondangdia","time":4,"is_transit":false,"i_lat":-6.186295,"i_long":106.832183,"line":2,"distance":2015,"transit":false,"station_id":"GDD"},{"distance":1750,"time":3,"is_transit":false,"i_long":106.840169,"line":2,"i_lat":-6.198556,"transit":false,"station_name":"Cikini","station_id":"CKI"},{"distance":1590,"station_name":"Manggarai","time":4,"station_id":"MRI","transit":false,"line":2,"is_transit":false,"i_long":106.84912,"i_lat":-6.209883},{"station_name":"Tebet","time":4,"distance":2610,"i_lat":-6.226659,"i_long":106.857948,"transit":false,"station_id":"TEB","is_transit":false,"line":2},{"station_name":"Cawang","line":2,"distance":1230,"station_id":"CW","i_lat":-6.242512,"is_transit":false,"time":2,"transit":false,"i_long":106.856607},{"time":3,"line":2,"i_long":106.85449,"station_id":"DRN","station_name":"Duren Kalibata","distance":1546,"is_transit":false,"transit":false,"i_lat":-6.255332},{"time":2,"distance":824,"station_id":"PSMB","is_transit":false,"transit":false,"station_name":"Pasar Minggu Baru","i_lat":-6.263214,"i_long":106.851577,"line":2},{"station_id":"PSM","station_name":"Pasar Minggu","is_transit":false,"transit":false,"time":2,"line":2,"distance":2380,"i_long":106.843999,"i_lat":-6.2842400000000005},{"is_transit":false,"station_name":"Tanjung Barat","line":2,"i_long":106.838896,"transit":false,"station_id":"TNT","time":4,"distance":2820,"i_lat":-6.3080680000000005},{"transit":false,"station_id":"LNA","line":2,"is_transit":false,"i_lat":-6.330363,"distance":2671,"i_long":106.832616,"station_name":"Lenteng Agung","time":3}],[{"transit":false,"station_name":"Grogol","station_id":"GRG","is_transit":false,"time":0,"i_lat":-6.162021,"distance":0,"i_long":106.788277,"line":5},{"distance":1700,"time":3,"transit":true,"is_transit":true,"i_lat":-6.155215,"station_id":"DU","station_name":"Duri","i_long":106.800832,"line":1},{"station_id":"AK","distance":1230,"station_name":"Angke","time":4,"is_transit":false,"i_lat":-6.144674,"i_long":106.79867,"line":1,"transit":false},{"is_transit":true,"distance":4102,"line":4,"transit":true,"station_name":"Kampung Bandan","time":9,"station_id":"KPB","i_lat":-6.132549,"i_long":106.826365},{"station_id":"RJW","i_long":106.836569,"distance":1444,"is_transit":false,"transit":false,"time":3,"i_lat":-6.14505,"line":11,"station_name":"Rajawali"},{"is_transit":false,"station_id":"KMO","i_long":106.839204,"distance":1901,"station_name":"Kemayoran","time":5,"transit":false,"i_lat":-6.161728,"line":11},{"is_transit":false,"time":4,"i_long":106.84368,"station_name":"Pasar Senen","i_lat":-6.174784,"station_id":"PSE","transit":false,"distance":1436,"line":11},{"i_long":106.850107,"i_lat":-6.185975,"line":11,"transit":false,"station_id":"GST","distance":1567,"time":8,"station_name":"Gang Sentiong","is_transit":false},{"distance":973,"time":1,"transit":false,"i_lat":-6.193792,"i_long":106.855437,"station_id":"KMT","station_name":"Kramat","is_transit":false,"line":11},{"time":2,"is_transit":false,"transit":false,"station_id":"POK","station_name":"Pondok Jati","i_long":106.861737,"distance":1829,"i_lat":-6.209188,"line":11},{"i_lat":-6.215091,"distance":1236,"time":9,"i_long":106.86807400000001,"station_id":"JNG","transit":true,"station_name":"Jatinegara","is_transit":true,"line":1},{"station_name":"Matraman","transit":false,"station_id":"MTR","i_lat":-6.212485,"i_long":106.858896,"distance":1377,"is_transit":false,"time":2,"line":1},{"time":2,"is_transit":true,"transit":true,"distance":1275,"station_name":"Manggarai","line":2,"station_id":"MRI","i_lat":-6.209883,"i_long":106.84912},{"transit":false,"time":4,"station_id":"TEB","i_long":106.857948,"i_lat":-6.226659,"distance":2610,"station_name":"Tebet","is_transit":false,"line":2},{"line":2,"i_lat":-6.242512,"time":2,"station_name":"Cawang","station_id":"CW","i_long":106.856607,"transit":false,"is_transit":false,"distance":1230},{"i_long":106.85449,"distance":1546,"transit":false,"time":3,"station_name":"Duren Kalibata","is_transit":false,"station_id":"DRN","i_lat":-6.255332,"line":2},{"distance":824,"i_lat":-6.263214,"line":2,"is_transit":false,"station_id":"PSMB","transit":false,"station_name":"Pasar Minggu Baru","time":2,"i_long":106.851577},{"is_transit":false,"i_lat":-6.2842400000000005,"station_name":"Pasar Minggu","time":2,"station_id":"PSM","i_long":106.843999,"line":2,"distance":2380,"transit":false},{"is_transit":false,"station_id":"TNT","transit":false,"distance":2820,"station_name":"Tanjung Barat","time":4,"i_lat":-6.3080680000000005,"i_long":106.838896,"line":2},{"time":3,"line":2,"station_id":"LNA","transit":false,"i_lat":-6.330363,"is_transit":false,"i_long":106.832616,"station_name":"Lenteng Agung","distance":2671}]]}