{"data":[[{"transit":false,"i_lat":-6.162021,"line":5,"distance":0,"station_id":"GRG","time":0,"station_name":"Grogol","is_transit":false,"i_long":106.788277},{"i_long":106.800832,"station_id":"DU","transit":true,"line":1,"time":3,"i_lat":-6.155215,"station_name":"Duri","distance":1700,"is_transit":true},{"transit":false,"i_lat":-6.185545,"is_transit":false,"i_long":106.811091,"line":1,"distance":3632,"station_id":"THB","station_name":"Tanah Abang","time":8},{"transit":false,"i_lat":-6.20132,"line":1,"time":5,"i_long":106.816351,"station_name":"Karet","distance":2029,"station_id":"KAT","is_transit":false},{"transit":false,"distance":471,"station_id":"SUDB","station_name":"Sudirman Baru","is_transit":false,"i_lat":-6.201433,"i_long":106.819881,"line":1,"time":1},{"distance":280,"i_long":106.822649,"i_lat":-6.202263,"is_transit":false,"transit":false,"station_id":"SUD","line":1,"time":1,"station_name":"Sudirman"},{"station_id":"MRI","time":4,"i_long":106.84912,"is_transit":true,"distance":3186,"transit":true,"i_lat":-6.209883,"station_name":"Manggarai","line":2},{"transit":false,"is_transit":false,"station_name":"Tebet","distance":2610,"station_id":"TEB","i_lat":-6.226659,"i_long":106.857948,"line":2,"time":4},{"is_transit":false,"i_lat":-6.242512,"i_long":106.856607,"time":2,"transit":false,"line":2,"distance":1230,"station_id":"CW","station_name":"Cawang"},{"transit":false,"i_lat":-6.255332,"distance":1546,"i_long":106.85449,"station_name":"Duren Kalibata","line":2,"time":3,"station_id":"DRN","is_transit":false}],[{"i_lat":-6.162021,"station_id":"GRG","station_name":"Grogol","line":5,"time":0,"transit":false,"is_transit":false,"i_long":106.788277,"distance":0},{"time":3,"distance":1700,"station_id":"DU","is_transit":true,"i_lat":-6.155215,"i_long":106.800832,"line":1,"station_name":"Duri","transit":true},{"i_long":106.79867,"i_lat":-6.144674,"line":1,"is_transit":false,"station_id":"AK","time":4,"distance":1230,"station_name":"Angke","transit":false},{"i_lat":-6.132549,"i_long":106.826365,"distance":4102,"station_id":"KPB","is_transit":true,"time":9,"transit":true,"line":4,"station_name":"Kampung Bandan"},{"is_transit":true,"transit":true,"i_long":106.812439,"distance":1364,"time":3,"station_name":"Jakarta Kota","i_lat":-6.137569,"line":2,"station_id":"JAKK"},{"i_lat":-6.141205,"i_long":106.820901,"distance":1264,"line":2,"station_id":"JAY","is_transit":false,"transit":false,"time":4,"station_name":"Jayakarta"},{"time":2,"station_id":"MGB","line":2,"i_lat":-6.149769,"station_name":"Manggabesar","transit":false,"is_transit":false,"distance":1080,"i_long":106.82482},{"line":2,"i_long":106.827103,"i_lat":-6.160725,"station_id":"SW","is_transit":false,"time":2,"transit":false,"station_name":"Sawah Besar","distance":906},{"i_long":106.828284,"line":2,"station_name":"Juanda","station_id":"JUA","is_transit":false,"time":2,"i_lat":-6.166716,"transit":false,"distance":1149},{"time":4,"i_lat":-6.186295,"transit":false,"distance":2015,"is_transit":false,"i_long":106.832183,"line":2,"station_id":"GDD","station_name":"Gondangdia"},{"transit":false,"i_lat":-6.198556,"distance":1750,"i_long":106.840169,"time":3,"station_id":"CKI","station_name":"Cikini","line":2,"is_transit":false},{"transit":false,"distance":1590,"i_lat":-6.209883,"station_name":"Manggarai","i_long":106.84912,"station_id":"MRI","time":4,"line":2,"is_transit":false},{"station_id":"TEB","line":2,"is_transit":false,"time":4,"i_lat":-6.226659,"station_name":"Tebet","distance":2610,"i_long":106.857948,"transit":false},{"station_name":"Cawang","line":2,"is_transit":false,"time":2,"distance":1230,"transit":false,"i_lat":-6.242512,"i_long":106.856607,"station_id":"CW"},{"station_id":"DRN","time":3,"transit":false,"station_name":"Duren Kalibata","i_lat":-6.255332,"i_long":106.85449,"distance":1546,"line":2,"is_transit":false}],[{"line":5,"time":0,"is_transit":false,"transit":false,"i_lat":-6.162021,"station_name":"Grogol","i_long":106.788277,"distance":0,"station_id":"GRG"},{"distance":1700,"station_id":"DU","is_transit":true,"i_long":106.800832,"line":1,"time":3,"station_name":"Duri","transit":true,"i_lat":-6.155215},{"i_lat":-6.144674,"is_transit":false,"transit":false,"distance":1230,"station_name":"Angke","line":1,"station_id":"AK","i_long":106.79867,"time":4},{"is_transit":true,"station_name":"Kampung Bandan","transit":true,"i_long":106.826365,"distance":4102,"i_lat":-6.132549,"time":9,"station_id":"KPB","line":4},{"i_long":106.836569,"line":11,"time":3,"is_transit":false,"transit":false,"distance":1444,"i_lat":-6.14505,"station_id":"RJW","station_name":"Rajawali"},{"distance":1901,"line":11,"time":5,"station_name":"Kemayoran","i_lat":-6.161728,"station_id":"KMO","transit":false,"i_long":106.839204,"is_transit":false},{"i_long":106.84368,"station_name":"Pasar Senen","is_transit":false,"distance":1436,"time":4,"station_id":"PSE","line":11,"transit":false,"i_lat":-6.174784},{"i_long":106.850107,"line":11,"transit":false,"is_transit":false,"time":8,"station_id":"GST","distance":1567,"station_name":"Gang Sentiong","i_lat":-6.185975},{"i_lat":-6.193792,"distance":973,"station_id":"KMT","is_transit":false,"station_name":"Kramat","i_long":106.855437,"time":1,"transit":false,"line":11},{"distance":1829,"i_long":106.861737,"station_name":"Pondok Jati","transit":false,"is_transit":false,"station_id":"POK","i_lat":-6.209188,"line":11,"time":2},{"is_transit":true,"i_long":106.86807400000001,"station_name":"Jatinegara","line":1,"distance":1236,"time":9,"station_id":"JNG","i_lat":-6.215091,"transit":true},{"station_name":"Matraman","time":2,"i_lat":-6.212485,"line":1,"station_id":"MTR","i_long":106.858896,"transit":false,"distance":1377,"is_transit":false},{"station_id":"MRI","time":2,"station_name":"Manggarai","distance":1275,"transit":true,"is_transit":true,"i_lat":-6.209883,"i_long":106.84912,"line":2},{"i_lat":-6.226659,"time":4,"transit":false,"station_id":"TEB","distance":2610,"i_long":106.857948,"station_name":"Tebet","line":2,"is_transit":false},{"station_id":"CW","i_long":106.856607,"station_name":"Cawang","i_lat":-6.242512,"time":2,"line":2,"is_transit":false,"transit":false,"distance":1230},{"line":2,"i_lat":-6.255332,"i_long":106.85449,"distance":1546,"station_name":"Duren Kalibata","time":3,"transit":false,"station_id":"DRN","is_transit":false}]]}