{"data":[[{"station_id":"GRG","station_name":"Grogol","transit":false,"is_transit":false,"i_long":106.788277,"time":0,"distance":0,"i_lat":-6.162021,"line":5},{"line":1,"i_long":106.800832,"distance":1700,"station_name":"Duri","time":3,"is_transit":true,"transit":true,"i_lat":-6.155215,"station_id":"DU"},{"distance":3632,"time":8,"is_transit":false,"station_name":"Tanah Abang","station_id":"THB","transit":false,"i_lat":-6.185545,"i_long":106.811091,"line":1},{"is_transit":false,"line":1,"transit":false,"i_lat":-6.20132,"station_id":"KAT","distance":2029,"i_long":106.816351,"station_name":"Karet","time":5},{"i_long":106.819881,"distance":471,"i_lat":-6.201433,"station_id":"SUDB","time":1,"transit":false,"line":1,"is_transit":false,"station_name":"Sudirman Baru"},{"i_lat":-6.202263,"line":1,"is_transit":false,"station_name":"Sudirman","distance":280,"time":1,"station_id":"SUD","transit":false,"i_long":106.822649},{"i_long":106.84912,"line":2,"time":4,"distance":3186,"station_id":"MRI","transit":false,"i_lat":-6.209883,"is_transit":false,"station_name":"Manggarai"},{"time":2,"is_transit":false,"distance":1275,"transit":false,"station_name":"Matraman","line":1,"i_lat":-6.212485,"station_id":"MTR","i_long":106.858896},{"i_long":106.86807400000001,"station_name":"Jatinegara","is_transit":false,"distance":1377,"transit":false,"i_lat":-6.215091,"line":1,"station_id":"JNG","time":8},{"time":3,"transit":false,"distance":3395,"i_lat":-6.2135,"line":1,"i_long":106.899548,"station_id":"KLD","station_name":"Klender","is_transit":false},{"i_long":106.922662,"distance":3100,"line":1,"station_id":"BUA","station_name":"Buaran","is_transit":false,"transit":false,"i_lat":-6.215568,"time":2},{"station_id":"KLDB","i_lat":-6.217455,"i_long":106.939679,"line":1,"station_name":"Klenderbaru","is_transit":false,"time":1,"transit":false,"distance":1305},{"station_name":"Cakung","i_lat":-6.219053,"distance":1385,"transit":false,"i_long":106.951283,"time":8,"line":1,"station_id":"CUK","is_transit":false},{"i_lat":-6.224515,"station_id":"KRI","line":1,"distance":3097,"transit":false,"i_long":106.977657,"station_name":"Kranji","is_transit":false,"time":3},{"transit":false,"distance":2520,"is_transit":false,"station_name":"Bekasi","i_long":106.997013,"line":1,"time":4,"station_id":"BKS","i_lat":-6.236616},{"distance":2368,"transit":false,"station_name":"Bekasi Timur","is_transit":false,"line":1,"station_id":"BKST","i_long":107.016735,"i_lat":-6.248029,"time":2},{"transit":false,"distance":4460,"i_long":107.055722,"station_id":"TB","i_lat":-6.258864,"line":1,"station_name":"Tambun","is_transit":false,"time":7}],[{"station_id":"GRG","i_lat":-6.162021,"is_transit":false,"transit":false,"distance":0,"i_long":106.788277,"line":5,"station_name":"Grogol","time":0},{"line":1,"time":3,"distance":1700,"i_lat":-6.155215,"is_transit":true,"station_id":"DU","transit":true,"station_name":"Duri","i_long":106.800832},{"station_id":"AK","station_name":"Angke","distance":1230,"i_lat":-6.144674,"time":4,"i_long":106.79867,"line":1,"is_transit":false,"transit":false},{"is_transit":true,"station_id":"KPB","i_long":106.826365,"time":9,"line":4,"i_lat":-6.132549,"transit":true,"station_name":"Kampung Bandan","distance":4102},{"distance":1444,"time":3,"line":11,"station_id":"RJW","transit":false,"i_lat":-6.14505,"is_transit":false,"station_name":"Rajawali","i_long":106.836569},{"i_long":106.839204,"station_id":"KMO","line":11,"time":5,"is_transit":false,"i_lat":-6.161728,"station_name":"Kemayoran","distance":1901,"transit":false},{"transit":false,"i_lat":-6.174784,"distance":1436,"is_transit":false,"station_id":"PSE","i_long":106.84368,"line":11,"time":4,"station_name":"Pasar Senen"},{"line":11,"distance":1567,"transit":false,"station_name":"Gang Sentiong","i_long":106.850107,"time":8,"i_lat":-6.185975,"is_transit":false,"station_id":"GST"},{"station_id":"KMT","i_lat":-6.193792,"i_long":106.855437,"line":11,"time":1,"transit":false,"distance":973,"station_name":"Kramat","is_transit":false},{"station_id":"POK","distance":1829,"i_lat":-6.209188,"time":2,"is_transit":false,"line":11,"station_name":"Pondok Jati","i_long":106.861737,"transit":false},{"time":9,"distance":1236,"station_id":"JNG","station_name":"Jatinegara","i_long":106.86807400000001,"i_lat":-6.215091,"line":1,"transit":true,"is_transit":true},{"transit":false,"is_transit":false,"station_name":"Klender","distance":3395,"i_long":106.899548,"i_lat":-6.2135,"line":1,"station_id":"KLD","time":3},{"distance":3100,"time":2,"transit":false,"is_transit":false,"station_name":"Buaran","station_id":"BUA","i_lat":-6.215568,"i_long":106.922662,"line":1},{"station_name":"Klenderbaru","time":1,"is_transit":false,"distance":1305,"station_id":"KLDB","i_lat":-6.217455,"i_long":106.939679,"line":1,"transit":false},{"station_name":"Cakung","line":1,"i_lat":-6.219053,"i_long":106.951283,"time":8,"transit":false,"is_transit":false,"station_id":"CUK","distance":1385},{"i_lat":-6.224515,"station_id":"KRI","station_name":"Kranji","line":1,"i_long":106.977657,"is_transit":false,"time":3,"transit":false,"distance":3097},{"station_name":"Bekasi","distance":2520,"is_transit":false,"station_id":"BKS","transit":false,"i_lat":-6.236616,"i_long":106.997013,"line":1,"time":4},{"i_long":107.016735,"time":2,"i_lat":-6.248029,"station_id":"BKST","station_name":"Bekasi Timur","distance":2368,"is_transit":false,"transit":false,"line":1},{"i_lat":-6.258864,"transit":false,"is_transit":false,"line":1,"station_name":"Tambun","i_long":107.055722,"distance":4460,"station_id":"TB","time":7}],[{"station_id":"GRG","station_name":"Grogol","is_transit":false,"time":0,"transit":false,"i_lat":-6.162021,"distance":0,"i_long":106.788277,"line":5},{"is_transit":true,"station_name":"Duri","i_long":106.800832,"line":1,"time":3,"station_id":"DU","transit":true,"i_lat":-6.155215,"distance":1700},{"station_id":"AK","i_lat":-6.144674,"station_name":"Angke","i_long":106.79867,"distance":1230,"transit":false,"line":1,"is_transit":false,"time":4},{"station_id":"KPB","transit":true,"time":9,"station_name":"Kampung Bandan","i_lat":-6.132549,"distance":4102,"line":4,"i_long":106.826365,"is_transit":true},{"i_long":106.812439,"station_id":"JAKK","time":3,"line":2,"station_name":"Jakarta Kota","transit":true,"is_transit":true,"distance":1364,"i_lat":-6.137569},{"distance":1264,"i_lat":-6.141205,"station_name":"Jayakarta","is_transit":false,"station_id":"JAY","line":2,"transit":false,"i_long":106.820901,"time":4},{"time":2,"line":2,"transit":false,"i_long":106.82482,"i_lat":-6.149769,"is_transit":false,"station_id":"MGB","station_name":"Manggabesar","distance":1080},{"line":2,"i_long":106.827103,"station_name":"Sawah Besar","time":2,"station_id":"SW","distance":906,"i_lat":-6.160725,"transit":false,"is_transit":false},{"is_transit":false,"time":2,"station_id":"JUA","transit":false,"i_long":106.828284,"distance":1149,"i_lat":-6.166716,"line":2,"station_name":"Juanda"},{"station_name":"Gondangdia","transit":false,"i_long":106.832183,"time":4,"line":2,"i_lat":-6.186295,"distance":2015,"is_transit":false,"station_id":"GDD"},{"distance":1750,"station_id":"CKI","time":3,"transit":false,"i_long":106.840169,"line":2,"is_transit":false,"i_lat":-6.198556,"station_name":"Cikini"},{"distance":1590,"transit":true,"is_transit":true,"line":2,"time":4,"i_lat":-6.209883,"station_id":"MRI","i_long":106.84912,"station_name":"Manggarai"},{"station_name":"Matraman","i_long":106.858896,"distance":1275,"transit":false,"i_lat":-6.212485,"time":2,"line":1,"is_transit":false,"station_id":"MTR"},{"is_transit":false,"time":8,"distance":1377,"i_lat":-6.215091,"i_long":106.86807400000001,"line":1,"station_name":"Jatinegara","station_id":"JNG","transit":false},{"i_long":106.899548,"line":1,"distance":3395,"i_lat":-6.2135,"station_id":"KLD","time":3,"station_name":"Klender","is_transit":false,"transit":false},{"station_id":"BUA","transit":false,"station_name":"Buaran","time":2,"line":1,"i_lat":-6.215568,"i_long":106.922662,"distance":3100,"is_transit":false},{"time":1,"transit":false,"line":1,"station_id":"KLDB","is_transit":false,"distance":1305,"station_name":"Klenderbaru","i_lat":-6.217455,"i_long":106.939679},{"i_long":106.951283,"distance":1385,"station_id":"CUK","station_name":"Cakung","line":1,"is_transit":false,"i_lat":-6.219053,"time":8,"transit":false},{"i_long":106.977657,"distance":3097,"transit":false,"station_id":"KRI","station_name":"Kranji","is_transit":false,"time":3,"i_lat":-6.224515,"line":1},{"line":1,"i_long":106.997013,"is_transit":false,"distance":2520,"station_id":"BKS","time":4,"station_name":"Bekasi","transit":false,"i_lat":-6.236616},{"transit":false,"time":2,"i_long":107.016735,"line":1,"distance":2368,"station_id":"BKST","i_lat":-6.248029,"station_name":"Bekasi Timur","is_transit":false},{"time":7,"is_transit":false,"station_id":"TB","i_lat":-6.258864,"station_name":"Tambun","i_long":107.055722,"line":1,"distance":4460,"transit":false}],[{"distance":0,"time":0,"i_lat":-6.162021,"line":5,"station_name":"Grogol","is_transit":false,"station_id":"GRG","transit":false,"i_long":106.788277},{"i_long":106.800832,"i_lat":-6.155215,"is_transit":true,"station_id":"DU","distance":1700,"line":1,"station_name":"Duri","transit":true,"time":3},{"transit":false,"line":1,"distance":3632,"i_lat":-6.185545,"is_transit":false,"station_id":"THB","i_long":106.811091,"station_name":"Tanah Abang","time":8},{"station_name":"Karet","distance":2029,"station_id":"KAT","transit":false,"i_lat":-6.20132,"i_long":106.816351,"is_transit":false,"time":5,"line":1},{"station_name":"Sudirman Baru","time":1,"i_lat":-6.201433,"station_id":"SUDB","i_long":106.819881,"distance":471,"is_transit":false,"transit":false,"line":1},{"distance":280,"line":1,"station_name":"Sudirman","i_long":106.822649,"time":1,"is_transit":false,"station_id":"SUD","transit":false,"i_lat":-6.202263},{"station_name":"Manggarai","is_transit":true,"i_lat":-6.209883,"station_id":"MRI","i_long":106.84912,"line":2,"time":4,"transit":true,"distance":3186},{"transit":false,"distance":1590,"i_long":106.840169,"line":2,"station_name":"Cikini","station_id":"CKI","i_lat":-6.198556,"is_transit":false,"time":4},{"is_transit":false,"distance":1750,"i_lat":-6.186295,"line":2,"time":3,"station_id":"GDD","station_name":"Gondangdia","transit":false,"i_long":106.832183},{"distance":2015,"i_long":106.828284,"i_lat":-6.166716,"station_name":"Juanda","is_transit":false,"station_id":"JUA","time":4,"line":2,"transit":false},{"time":2,"i_lat":-6.160725,"line":2,"station_id":"SW","distance":1149,"transit":false,"station_name":"Sawah Besar","i_long":106.827103,"is_transit":false},{"station_name":"Manggabesar","is_transit":false,"station_id":"MGB","line":2,"i_lat":-6.149769,"i_long":106.82482,"time":2,"transit":false,"distance":906},{"transit":false,"is_transit":false,"station_id":"JAY","i_long":106.820901,"time":2,"line":2,"i_lat":-6.141205,"station_name":"Jayakarta","distance":1080},{"is_transit":true,"time":4,"transit":true,"i_lat":-6.137569,"distance":1264,"line":2,"station_name":"Jakarta Kota","station_id":"JAKK","i_long":106.812439},{"is_transit":true,"station_name":"Kampung Bandan","time":3,"station_id":"KPB","i_lat":-6.132549,"transit":true,"distance":1364,"i_long":106.826365,"line":4},{"line":11,"i_long":106.836569,"transit":false,"distance":1444,"station_id":"RJW","station_name":"Rajawali","i_lat":-6.14505,"is_transit":false,"time":3},{"i_lat":-6.161728,"transit":false,"station_name":"Kemayoran","time":5,"is_transit":false,"i_long":106.839204,"station_id":"KMO","distance":1901,"line":11},{"i_lat":-6.174784,"time":4,"station_id":"PSE","distance":1436,"station_name":"Pasar Senen","line":11,"i_long":106.84368,"is_transit":false,"transit":false},{"i_lat":-6.185975,"time":8,"transit":false,"i_long":106.850107,"line":11,"station_name":"Gang Sentiong","distance":1567,"station_id":"GST","is_transit":false},{"transit":false,"distance":973,"time":1,"i_long":106.855437,"line":11,"station_name":"Kramat","i_lat":-6.193792,"station_id":"KMT","is_transit":false},{"is_transit":false,"time":2,"line":11,"transit":false,"station_id":"POK","i_lat":-6.209188,"i_long":106.861737,"station_name":"Pondok Jati","distance":1829},{"time":9,"line":1,"i_long":106.86807400000001,"i_lat":-6.215091,"distance":1236,"transit":true,"station_id":"JNG","station_name":"Jatinegara","is_transit":true},{"station_name":"Klender","distance":3395,"i_lat":-6.2135,"i_long":106.899548,"station_id":"KLD","line":1,"is_transit":false,"time":3,"transit":false},{"station_name":"Buaran","i_lat":-6.215568,"distance":3100,"transit":false,"time":2,"i_long":106.922662,"is_transit":false,"station_id":"BUA","line":1},{"is_transit":false,"time":1,"i_lat":-6.217455,"line":1,"station_id":"KLDB","station_name":"Klenderbaru","distance":1305,"transit":false,"i_long":106.939679},{"transit":false,"station_id":"CUK","station_name":"Cakung","line":1,"is_transit":false,"i_lat":-6.219053,"distance":1385,"time":8,"i_long":106.951283},{"station_name":"Kranji","i_long":106.977657,"line":1,"i_lat":-6.224515,"is_transit":false,"station_id":"KRI","distance":3097,"transit":false,"time":3},{"i_long":106.997013,"i_lat":-6.236616,"is_transit":false,"station_id":"BKS","distance":2520,"time":4,"station_name":"Bekasi","transit":false,"line":1},{"is_transit":false,"station_name":"Bekasi Timur","line":1,"transit":false,"distance":2368,"station_id":"BKST","time":2,"i_lat":-6.248029,"i_long":107.016735},{"time":7,"station_id":"TB","station_name":"Tambun","distance":4460,"transit":false,"i_lat":-6.258864,"is_transit":false,"line":1,"i_long":107.055722}]]}