{"data":[[{"is_transit":false,"i_long":106.788277,"station_name":"Grogol","transit":false,"station_id":"GRG","distance":0,"time":0,"line":5,"i_lat":-6.162021},{"line":5,"time":2,"station_name":"Pesing","i_long":106.771379,"transit":false,"i_lat":-6.161433,"distance":2036,"station_id":"PSG","is_transit":false},{"transit":false,"station_name":"Taman Kota","line":5,"time":2,"station_id":"TKO","is_transit":false,"i_lat":-6.1587309999999995,"distance":1614,"i_long":106.756522},{"distance":2334,"i_long":106.737035,"time":2,"line":5,"transit":false,"station_id":"BOI","is_transit":false,"i_lat":-6.159876,"station_name":"Bojongindah"},{"is_transit":false,"transit":false,"i_lat":-6.162758,"distance":1152,"time":4,"station_name":"Rawa Buaya","i_long":106.723064,"station_id":"RW","line":5},{"distance":2504,"i_lat":-6.166068,"line":5,"time":3,"station_name":"Kalideres","i_long":106.701612,"station_id":"KDS","transit":false,"is_transit":false},{"station_name":"Poris","is_transit":false,"time":3,"i_lat":-6.169933,"line":5,"distance":2548,"station_id":"PI","transit":false,"i_long":106.679458},{"transit":false,"time":3,"station_id":"BPR","i_lat":-6.171811,"is_transit":false,"i_long":106.665036,"line":5,"station_name":"Batuceper","distance":1834},{"distance":2028,"i_long":106.64657,"time":3,"station_id":"TTI","transit":false,"line":5,"i_lat":-6.17331,"is_transit":false,"station_name":"Tanah Tinggi"},{"i_lat":-6.176583,"line":5,"time":3,"i_long":106.632761,"distance":1547,"station_id":"TNG","is_transit":false,"station_name":"Tangerang","transit":false}]]}