{"data":[[{"line":11,"transit":false,"station_id":"GST","station_name":"Gang Sentiong","distance":0,"i_lat":-6.185975,"is_transit":false,"time":0,"i_long":106.850107},{"line":11,"distance":1567,"transit":false,"station_id":"PSE","is_transit":false,"time":8,"i_long":106.84368,"station_name":"Pasar Senen","i_lat":-6.174784},{"is_transit":false,"i_long":106.839204,"distance":1436,"transit":false,"line":11,"i_lat":-6.161728,"station_name":"Kemayoran","station_id":"KMO","time":4},{"station_id":"RJW","station_name":"Rajawali","line":11,"transit":false,"distance":1901,"i_lat":-6.14505,"i_long":106.836569,"time":5,"is_transit":false},{"transit":true,"station_id":"KPB","station_name":"Kampung Bandan","time":3,"distance":1444,"i_long":106.826365,"is_transit":true,"i_lat":-6.132549,"line":4},{"i_lat":-6.144674,"time":9,"distance":4102,"transit":false,"i_long":106.79867,"line":1,"station_id":"AK","station_name":"Angke","is_transit":false},{"station_name":"Duri","distance":1230,"station_id":"DU","is_transit":true,"i_lat":-6.155215,"i_long":106.800832,"transit":true,"time":4,"line":1},{"i_lat":-6.162021,"i_long":106.788277,"is_transit":false,"time":3,"station_id":"GGL","transit":false,"station_name":"Grogol","distance":1700,"line":5},{"transit":false,"i_lat":-6.161433,"time":2,"i_long":106.771379,"line":5,"is_transit":false,"station_id":"PSG","station_name":"Pesing","distance":2036},{"i_long":106.756522,"time":2,"station_name":"Taman Kota","is_transit":false,"line":5,"distance":1614,"transit":false,"station_id":"TKO","i_lat":-6.1587309999999995},{"station_name":"Bojongindah","time":2,"transit":false,"i_lat":-6.159876,"i_long":106.737035,"is_transit":false,"line":5,"distance":2334,"station_id":"BOI"},{"station_id":"RW","transit":false,"station_name":"Rawa Buaya","time":4,"i_lat":-6.162758,"i_long":106.723064,"is_transit":false,"distance":1152,"line":5},{"i_lat":-6.166068,"distance":2504,"time":3,"is_transit":false,"station_id":"KDS","transit":false,"station_name":"Kalideres","line":5,"i_long":106.701612},{"i_long":106.679458,"transit":false,"is_transit":false,"line":5,"time":3,"station_name":"Poris","distance":2548,"i_lat":-6.169933,"station_id":"PI"},{"station_id":"BPR","time":3,"i_lat":-6.171811,"station_name":"Batuceper","transit":false,"is_transit":false,"distance":1834,"i_long":106.665036,"line":5},{"i_lat":-6.17331,"i_long":106.64657,"transit":false,"line":5,"station_name":"Tanah Tinggi","station_id":"TTI","time":3,"distance":2028,"is_transit":false}],[{"station_id":"GST","station_name":"Gang Sentiong","transit":false,"is_transit":false,"distance":0,"i_lat":-6.185975,"i_long":106.850107,"line":11,"time":0},{"is_transit":false,"transit":false,"i_long":106.855437,"distance":973,"station_id":"KMT","station_name":"Kramat","i_lat":-6.193792,"time":1,"line":11},{"time":2,"distance":1829,"i_lat":-6.209188,"line":11,"station_name":"Pondok Jati","station_id":"POK","i_long":106.861737,"transit":false,"is_transit":false},{"line":1,"i_lat":-6.215091,"station_id":"JNG","time":9,"i_long":106.86807400000001,"transit":true,"station_name":"Jatinegara","distance":1236,"is_transit":true},{"i_lat":-6.212485,"station_name":"Matraman","line":1,"transit":false,"is_transit":false,"station_id":"MTR","time":2,"i_long":106.858896,"distance":1377},{"station_id":"MRI","station_name":"Manggarai","is_transit":false,"distance":1275,"i_lat":-6.209883,"i_long":106.84912,"line":2,"time":2,"transit":false},{"station_name":"Sudirman","station_id":"SUD","i_long":106.822649,"line":1,"transit":false,"distance":3186,"i_lat":-6.202263,"is_transit":false,"time":4},{"i_lat":-6.201433,"i_long":106.819881,"line":1,"distance":280,"transit":false,"time":1,"station_id":"SUDB","station_name":"Sudirman Baru","is_transit":false},{"station_id":"KAT","station_name":"Karet","i_lat":-6.20132,"transit":false,"is_transit":false,"i_long":106.816351,"line":1,"distance":471,"time":1},{"i_long":106.811091,"transit":false,"line":1,"time":5,"is_transit":false,"station_id":"THB","station_name":"Tanah Abang","distance":2029,"i_lat":-6.185545},{"station_name":"Duri","time":8,"distance":3632,"station_id":"DU","i_lat":-6.155215,"is_transit":true,"i_long":106.800832,"line":1,"transit":true},{"i_long":106.788277,"station_id":"GGL","line":5,"station_name":"Grogol","is_transit":false,"distance":1700,"transit":false,"time":3,"i_lat":-6.162021},{"station_id":"PSG","distance":2036,"transit":false,"time":2,"i_lat":-6.161433,"station_name":"Pesing","line":5,"is_transit":false,"i_long":106.771379},{"i_long":106.756522,"time":2,"station_name":"Taman Kota","distance":1614,"transit":false,"is_transit":false,"line":5,"station_id":"TKO","i_lat":-6.1587309999999995},{"station_id":"BOI","time":2,"distance":2334,"is_transit":false,"i_lat":-6.159876,"transit":false,"i_long":106.737035,"station_name":"Bojongindah","line":5},{"station_id":"RW","transit":false,"distance":1152,"station_name":"Rawa Buaya","i_lat":-6.162758,"i_long":106.723064,"is_transit":false,"line":5,"time":4},{"time":3,"i_lat":-6.166068,"line":5,"station_id":"KDS","station_name":"Kalideres","is_transit":false,"distance":2504,"transit":false,"i_long":106.701612},{"time":3,"station_name":"Poris","distance":2548,"line":5,"station_id":"PI","transit":false,"i_lat":-6.169933,"is_transit":false,"i_long":106.679458},{"distance":1834,"transit":false,"i_long":106.665036,"is_transit":false,"station_id":"BPR","i_lat":-6.171811,"station_name":"Batuceper","line":5,"time":3},{"station_name":"Tanah Tinggi","line":5,"is_transit":false,"time":3,"distance":2028,"station_id":"TTI","i_lat":-6.17331,"transit":false,"i_long":106.64657}],[{"time":0,"station_name":"Gang Sentiong","is_transit":false,"i_lat":-6.185975,"i_long":106.850107,"transit":false,"distance":0,"station_id":"GST","line":11},{"i_lat":-6.193792,"transit":false,"line":11,"station_id":"KMT","time":1,"i_long":106.855437,"is_transit":false,"station_name":"Kramat","distance":973},{"time":2,"i_long":106.861737,"transit":false,"station_name":"Pondok Jati","i_lat":-6.209188,"line":11,"distance":1829,"is_transit":false,"station_id":"POK"},{"i_lat":-6.215091,"station_id":"JNG","is_transit":true,"distance":1236,"time":9,"line":1,"i_long":106.86807400000001,"transit":true,"station_name":"Jatinegara"},{"i_lat":-6.212485,"station_name":"Matraman","station_id":"MTR","i_long":106.858896,"transit":false,"distance":1377,"line":1,"time":2,"is_transit":false},{"is_transit":true,"i_lat":-6.209883,"i_long":106.84912,"time":2,"distance":1275,"line":2,"station_name":"Manggarai","station_id":"MRI","transit":true},{"transit":false,"distance":1590,"i_long":106.840169,"is_transit":false,"i_lat":-6.198556,"station_name":"Cikini","time":4,"station_id":"CKI","line":2},{"time":3,"distance":1750,"line":2,"is_transit":false,"i_lat":-6.186295,"transit":false,"station_id":"GDD","station_name":"Gondangdia","i_long":106.832183},{"i_lat":-6.166716,"line":2,"station_name":"Juanda","transit":false,"station_id":"JUA","distance":2015,"time":4,"is_transit":false,"i_long":106.828284},{"transit":false,"i_long":106.827103,"line":2,"time":2,"i_lat":-6.160725,"station_name":"Sawah Besar","station_id":"SW","distance":1149,"is_transit":false},{"i_lat":-6.149769,"line":2,"station_name":"Manggabesar","time":2,"is_transit":false,"transit":false,"distance":906,"i_long":106.82482,"station_id":"MGB"},{"station_name":"Jayakarta","i_long":106.820901,"i_lat":-6.141205,"time":2,"is_transit":false,"station_id":"JAY","distance":1080,"transit":false,"line":2},{"line":2,"is_transit":true,"station_name":"Jakarta Kota","i_lat":-6.137569,"i_long":106.812439,"distance":1264,"station_id":"JAKK","time":4,"transit":true},{"distance":1364,"transit":true,"time":3,"station_name":"Kampung Bandan","station_id":"KPB","line":4,"is_transit":true,"i_lat":-6.132549,"i_long":106.826365},{"distance":4102,"station_name":"Angke","i_lat":-6.144674,"time":9,"line":1,"transit":false,"station_id":"AK","is_transit":false,"i_long":106.79867},{"is_transit":true,"i_long":106.800832,"line":1,"i_lat":-6.155215,"transit":true,"station_name":"Duri","time":4,"station_id":"DU","distance":1230},{"distance":1700,"line":5,"i_long":106.788277,"is_transit":false,"i_lat":-6.162021,"station_name":"Grogol","transit":false,"station_id":"GGL","time":3},{"i_long":106.771379,"i_lat":-6.161433,"station_id":"PSG","transit":false,"time":2,"line":5,"is_transit":false,"distance":2036,"station_name":"Pesing"},{"distance":1614,"i_lat":-6.1587309999999995,"is_transit":false,"time":2,"station_name":"Taman Kota","line":5,"transit":false,"i_long":106.756522,"station_id":"TKO"},{"distance":2334,"i_lat":-6.159876,"i_long":106.737035,"transit":false,"station_name":"Bojongindah","station_id":"BOI","line":5,"time":2,"is_transit":false},{"station_name":"Rawa Buaya","time":4,"station_id":"RW","transit":false,"is_transit":false,"distance":1152,"line":5,"i_long":106.723064,"i_lat":-6.162758},{"is_transit":false,"line":5,"station_name":"Kalideres","i_lat":-6.166068,"transit":false,"time":3,"distance":2504,"station_id":"KDS","i_long":106.701612},{"line":5,"time":3,"i_lat":-6.169933,"is_transit":false,"station_id":"PI","transit":false,"station_name":"Poris","distance":2548,"i_long":106.679458},{"distance":1834,"i_long":106.665036,"is_transit":false,"line":5,"station_id":"BPR","transit":false,"station_name":"Batuceper","i_lat":-6.171811,"time":3},{"line":5,"time":3,"station_id":"TTI","station_name":"Tanah Tinggi","is_transit":false,"distance":2028,"i_lat":-6.17331,"transit":false,"i_long":106.64657}],[{"time":0,"transit":false,"is_transit":false,"distance":0,"i_lat":-6.185975,"station_id":"GST","i_long":106.850107,"station_name":"Gang Sentiong","line":11},{"i_long":106.84368,"transit":false,"station_id":"PSE","is_transit":false,"time":8,"station_name":"Pasar Senen","distance":1567,"i_lat":-6.174784,"line":11},{"distance":1436,"time":4,"line":11,"is_transit":false,"i_lat":-6.161728,"i_long":106.839204,"station_name":"Kemayoran","station_id":"KMO","transit":false},{"line":11,"time":5,"station_name":"Rajawali","is_transit":false,"i_lat":-6.14505,"i_long":106.836569,"transit":false,"distance":1901,"station_id":"RJW"},{"i_lat":-6.132549,"station_name":"Kampung Bandan","i_long":106.826365,"is_transit":true,"distance":1444,"line":4,"time":3,"transit":true,"station_id":"KPB"},{"distance":1364,"time":3,"i_lat":-6.137569,"i_long":106.812439,"line":2,"transit":true,"station_id":"JAKK","station_name":"Jakarta Kota","is_transit":true},{"time":4,"station_name":"Jayakarta","i_long":106.820901,"is_transit":false,"distance":1264,"line":2,"transit":false,"station_id":"JAY","i_lat":-6.141205},{"station_name":"Manggabesar","station_id":"MGB","i_lat":-6.149769,"is_transit":false,"i_long":106.82482,"distance":1080,"transit":false,"time":2,"line":2},{"is_transit":false,"i_lat":-6.160725,"time":2,"station_id":"SW","i_long":106.827103,"transit":false,"station_name":"Sawah Besar","line":2,"distance":906},{"transit":false,"time":2,"is_transit":false,"station_name":"Juanda","i_lat":-6.166716,"line":2,"station_id":"JUA","i_long":106.828284,"distance":1149},{"i_lat":-6.186295,"time":4,"station_name":"Gondangdia","distance":2015,"i_long":106.832183,"line":2,"transit":false,"is_transit":false,"station_id":"GDD"},{"i_long":106.840169,"is_transit":false,"line":2,"time":3,"station_name":"Cikini","transit":false,"distance":1750,"i_lat":-6.198556,"station_id":"CKI"},{"station_name":"Manggarai","i_lat":-6.209883,"line":2,"station_id":"MRI","is_transit":true,"time":4,"distance":1590,"i_long":106.84912,"transit":true},{"distance":3186,"line":1,"i_long":106.822649,"is_transit":false,"i_lat":-6.202263,"station_id":"SUD","transit":false,"time":4,"station_name":"Sudirman"},{"distance":280,"i_long":106.819881,"i_lat":-6.201433,"line":1,"station_name":"Sudirman Baru","is_transit":false,"station_id":"SUDB","time":1,"transit":false},{"station_id":"KAT","station_name":"Karet","time":1,"i_long":106.816351,"transit":false,"line":1,"i_lat":-6.20132,"distance":471,"is_transit":false},{"time":5,"distance":2029,"i_long":106.811091,"line":1,"station_name":"Tanah Abang","i_lat":-6.185545,"station_id":"THB","is_transit":false,"transit":false},{"distance":3632,"line":1,"i_lat":-6.155215,"transit":true,"station_name":"Duri","station_id":"DU","is_transit":true,"i_long":106.800832,"time":8},{"is_transit":false,"line":5,"station_id":"GGL","transit":false,"time":3,"distance":1700,"i_long":106.788277,"i_lat":-6.162021,"station_name":"Grogol"},{"i_lat":-6.161433,"i_long":106.771379,"line":5,"is_transit":false,"transit":false,"station_id":"PSG","station_name":"Pesing","time":2,"distance":2036},{"station_id":"TKO","distance":1614,"station_name":"Taman Kota","line":5,"i_lat":-6.1587309999999995,"transit":false,"is_transit":false,"time":2,"i_long":106.756522},{"i_lat":-6.159876,"station_id":"BOI","station_name":"Bojongindah","distance":2334,"time":2,"line":5,"transit":false,"i_long":106.737035,"is_transit":false},{"line":5,"i_lat":-6.162758,"station_name":"Rawa Buaya","time":4,"distance":1152,"transit":false,"station_id":"RW","is_transit":false,"i_long":106.723064},{"i_long":106.701612,"station_name":"Kalideres","i_lat":-6.166068,"transit":false,"distance":2504,"line":5,"station_id":"KDS","is_transit":false,"time":3},{"station_name":"Poris","is_transit":false,"time":3,"line":5,"transit":false,"distance":2548,"i_lat":-6.169933,"i_long":106.679458,"station_id":"PI"},{"line":5,"station_name":"Batuceper","distance":1834,"is_transit":false,"i_lat":-6.171811,"time":3,"i_long":106.665036,"station_id":"BPR","transit":false},{"i_lat":-6.17331,"line":5,"time":3,"station_id":"TTI","i_long":106.64657,"is_transit":false,"transit":false,"station_name":"Tanah Tinggi","distance":2028}]]}