{"data":[[{"line":11,"transit":false,"time":0,"station_name":"Gang Sentiong","station_id":"GST","i_long":106.850107,"i_lat":-6.185975,"is_transit":false,"distance":0},{"i_lat":-6.193792,"i_long":106.855437,"time":1,"station_name":"Kramat","is_transit":false,"line":11,"distance":973,"station_id":"KMT","transit":false},{"is_transit":false,"station_id":"POK","station_name":"Pondok Jati","i_lat":-6.209188,"distance":1829,"i_long":106.861737,"time":2,"transit":false,"line":11},{"line":1,"is_transit":true,"time":9,"station_name":"Jatinegara","i_lat":-6.215091,"i_long":106.86807400000001,"station_id":"JNG","distance":1236,"transit":true},{"station_name":"Klender","line":1,"i_long":106.899548,"time":3,"is_transit":false,"i_lat":-6.2135,"distance":3395,"station_id":"KLD","transit":false},{"distance":3100,"time":2,"line":1,"transit":false,"i_lat":-6.215568,"is_transit":false,"station_id":"BUA","i_long":106.922662,"station_name":"Buaran"},{"transit":false,"line":1,"i_lat":-6.217455,"i_long":106.939679,"is_transit":false,"time":1,"station_name":"Klenderbaru","distance":1305,"station_id":"KLDB"},{"station_name":"Cakung","line":1,"transit":false,"station_id":"CUK","time":8,"is_transit":false,"i_long":106.951283,"i_lat":-6.219053,"distance":1385},{"line":1,"station_id":"KRI","i_long":106.977657,"distance":3097,"time":3,"is_transit":false,"transit":false,"station_name":"Kranji","i_lat":-6.224515}],[{"station_id":"GST","transit":false,"line":11,"i_long":106.850107,"station_name":"Gang Sentiong","time":0,"i_lat":-6.185975,"distance":0,"is_transit":false},{"is_transit":false,"station_id":"PSE","distance":1567,"time":8,"station_name":"Pasar Senen","transit":false,"line":11,"i_lat":-6.174784,"i_long":106.84368},{"transit":false,"i_lat":-6.161728,"is_transit":false,"station_name":"Kemayoran","distance":1436,"station_id":"KMO","line":11,"i_long":106.839204,"time":4},{"time":5,"is_transit":false,"station_name":"Rajawali","distance":1901,"transit":false,"i_lat":-6.14505,"i_long":106.836569,"station_id":"RJW","line":11},{"transit":true,"is_transit":true,"station_id":"KPB","station_name":"Kampung Bandan","distance":1444,"time":3,"i_lat":-6.132549,"i_long":106.826365,"line":4},{"transit":false,"i_lat":-6.144674,"line":1,"station_name":"Angke","i_long":106.79867,"distance":4102,"time":9,"station_id":"AK","is_transit":false},{"distance":1230,"station_id":"DU","transit":false,"i_lat":-6.155215,"is_transit":false,"time":4,"i_long":106.800832,"line":1,"station_name":"Duri"},{"time":8,"transit":false,"i_long":106.811091,"line":1,"station_id":"THB","i_lat":-6.185545,"distance":3632,"is_transit":false,"station_name":"Tanah Abang"},{"time":5,"line":1,"distance":2029,"transit":false,"i_lat":-6.20132,"i_long":106.816351,"station_id":"KAT","station_name":"Karet","is_transit":false},{"station_name":"Sudirman Baru","time":1,"transit":false,"i_lat":-6.201433,"is_transit":false,"i_long":106.819881,"station_id":"SUDB","distance":471,"line":1},{"i_lat":-6.202263,"distance":280,"i_long":106.822649,"line":1,"is_transit":false,"time":1,"station_name":"Sudirman","transit":false,"station_id":"SUD"},{"i_lat":-6.209883,"distance":3186,"station_id":"MRI","station_name":"Manggarai","transit":false,"i_long":106.84912,"time":4,"is_transit":false,"line":2},{"distance":1275,"station_id":"MTR","line":1,"station_name":"Matraman","i_lat":-6.212485,"transit":false,"is_transit":false,"i_long":106.858896,"time":2},{"station_name":"Jatinegara","transit":false,"i_long":106.86807400000001,"station_id":"JNG","distance":1377,"time":8,"i_lat":-6.215091,"is_transit":false,"line":1},{"station_name":"Klender","distance":3395,"time":3,"i_lat":-6.2135,"is_transit":false,"transit":false,"line":1,"station_id":"KLD","i_long":106.899548},{"time":2,"i_lat":-6.215568,"i_long":106.922662,"station_id":"BUA","line":1,"transit":false,"distance":3100,"is_transit":false,"station_name":"Buaran"},{"station_name":"Klenderbaru","time":1,"line":1,"is_transit":false,"transit":false,"station_id":"KLDB","distance":1305,"i_lat":-6.217455,"i_long":106.939679},{"time":8,"i_long":106.951283,"station_id":"CUK","is_transit":false,"station_name":"Cakung","distance":1385,"transit":false,"i_lat":-6.219053,"line":1},{"time":3,"is_transit":false,"station_name":"Kranji","distance":3097,"line":1,"station_id":"KRI","i_long":106.977657,"transit":false,"i_lat":-6.224515}],[{"is_transit":false,"i_lat":-6.185975,"i_long":106.850107,"line":11,"station_id":"GST","transit":false,"station_name":"Gang Sentiong","distance":0,"time":0},{"transit":false,"time":8,"station_name":"Pasar Senen","is_transit":false,"station_id":"PSE","i_lat":-6.174784,"i_long":106.84368,"distance":1567,"line":11},{"station_id":"KMO","time":4,"is_transit":false,"distance":1436,"transit":false,"i_lat":-6.161728,"i_long":106.839204,"line":11,"station_name":"Kemayoran"},{"station_name":"Rajawali","transit":false,"i_lat":-6.14505,"distance":1901,"is_transit":false,"station_id":"RJW","i_long":106.836569,"line":11,"time":5},{"station_name":"Kampung Bandan","i_lat":-6.132549,"i_long":106.826365,"transit":true,"is_transit":true,"time":3,"line":4,"distance":1444,"station_id":"KPB"},{"i_long":106.812439,"i_lat":-6.137569,"station_id":"JAKK","transit":true,"station_name":"Jakarta Kota","time":3,"distance":1364,"line":2,"is_transit":true},{"line":2,"station_id":"JAY","time":4,"i_lat":-6.141205,"station_name":"Jayakarta","i_long":106.820901,"is_transit":false,"transit":false,"distance":1264},{"transit":false,"is_transit":false,"i_long":106.82482,"station_name":"Manggabesar","station_id":"MGB","distance":1080,"i_lat":-6.149769,"time":2,"line":2},{"station_name":"Sawah Besar","distance":906,"line":2,"transit":false,"time":2,"i_lat":-6.160725,"station_id":"SW","i_long":106.827103,"is_transit":false},{"is_transit":false,"time":2,"distance":1149,"i_lat":-6.166716,"transit":false,"line":2,"i_long":106.828284,"station_name":"Juanda","station_id":"JUA"},{"i_long":106.832183,"time":4,"i_lat":-6.186295,"station_id":"GDD","is_transit":false,"station_name":"Gondangdia","line":2,"transit":false,"distance":2015},{"time":3,"i_long":106.840169,"i_lat":-6.198556,"station_name":"Cikini","is_transit":false,"transit":false,"distance":1750,"line":2,"station_id":"CKI"},{"distance":1590,"station_name":"Manggarai","station_id":"MRI","i_long":106.84912,"transit":true,"line":2,"is_transit":true,"i_lat":-6.209883,"time":4},{"station_name":"Matraman","time":2,"i_lat":-6.212485,"i_long":106.858896,"line":1,"distance":1275,"is_transit":false,"station_id":"MTR","transit":false},{"is_transit":false,"time":8,"station_id":"JNG","station_name":"Jatinegara","transit":false,"i_lat":-6.215091,"i_long":106.86807400000001,"distance":1377,"line":1},{"station_id":"KLD","station_name":"Klender","time":3,"i_long":106.899548,"transit":false,"is_transit":false,"distance":3395,"line":1,"i_lat":-6.2135},{"is_transit":false,"line":1,"time":2,"i_lat":-6.215568,"distance":3100,"i_long":106.922662,"station_name":"Buaran","transit":false,"station_id":"BUA"},{"transit":false,"is_transit":false,"station_name":"Klenderbaru","station_id":"KLDB","distance":1305,"time":1,"line":1,"i_lat":-6.217455,"i_long":106.939679},{"line":1,"time":8,"station_id":"CUK","is_transit":false,"i_lat":-6.219053,"station_name":"Cakung","distance":1385,"transit":false,"i_long":106.951283},{"station_name":"Kranji","distance":3097,"i_lat":-6.224515,"is_transit":false,"line":1,"transit":false,"time":3,"station_id":"KRI","i_long":106.977657}]]}