{"data":[[{"distance":0,"station_name":"Gang Sentiong","time":0,"station_id":"GST","i_long":106.850107,"i_lat":-6.185975,"transit":false,"line":11,"is_transit":false},{"is_transit":false,"i_long":106.84368,"time":8,"station_id":"PSE","line":11,"transit":false,"distance":1567,"i_lat":-6.174784,"station_name":"Pasar Senen"},{"is_transit":false,"i_lat":-6.161728,"line":11,"time":4,"transit":false,"distance":1436,"i_long":106.839204,"station_name":"Kemayoran","station_id":"KMO"},{"transit":false,"time":5,"is_transit":false,"i_lat":-6.14505,"line":11,"station_id":"RJW","station_name":"Rajawali","distance":1901,"i_long":106.836569},{"distance":1444,"is_transit":true,"i_long":106.826365,"time":3,"station_name":"Kampung Bandan","line":4,"i_lat":-6.132549,"station_id":"KPB","transit":true},{"time":9,"i_lat":-6.144674,"line":1,"station_name":"Angke","distance":4102,"is_transit":false,"station_id":"AK","i_long":106.79867,"transit":false},{"time":4,"line":1,"i_long":106.800832,"i_lat":-6.155215,"station_id":"DU","distance":1230,"station_name":"Duri","transit":false,"is_transit":false},{"i_long":106.811091,"line":1,"is_transit":true,"transit":true,"time":8,"distance":3632,"station_name":"Tanah Abang","i_lat":-6.185545,"station_id":"THB"},{"distance":3191,"is_transit":false,"time":6,"i_long":106.79689,"transit":false,"station_name":"Palmerah","station_id":"PLM","line":6,"i_lat":-6.207404},{"line":6,"distance":3737,"is_transit":false,"time":7,"station_id":"KBY","i_long":106.780334,"i_lat":-6.237242,"transit":false,"station_name":"Kebayoran"},{"time":8,"distance":6218,"station_name":"Pondokranji","line":6,"transit":false,"station_id":"PDJ","i_long":106.74273,"i_lat":-6.276362,"is_transit":false},{"is_transit":false,"distance":2179,"transit":false,"station_name":"Jurangmangu","station_id":"JMU","i_long":106.728916,"line":6,"i_lat":-6.288927,"time":3},{"transit":false,"time":4,"distance":1994,"station_id":"SDM","i_lat":-6.296963,"line":6,"is_transit":false,"i_long":106.712277,"station_name":"Sudimara"},{"transit":false,"line":6,"i_long":106.675475,"time":6,"is_transit":false,"station_name":"Rawa Buntu","distance":4566,"i_lat":-6.314823,"station_id":"RU"},{"distance":2413,"is_transit":false,"time":4,"station_id":"SRP","i_long":106.66566,"transit":false,"station_name":"Serpong","i_lat":-6.319871,"line":6},{"transit":false,"distance":1784,"line":3,"time":4,"i_lat":-6.32484,"is_transit":false,"i_long":106.640411,"station_name":"Cisauk","station_id":"CSK"},{"station_id":"CC","i_lat":-6.329547,"line":3,"time":4,"transit":false,"distance":2519,"is_transit":false,"i_long":106.617853,"station_name":"Cicayur"},{"distance":5968,"line":6,"transit":false,"time":8,"is_transit":false,"station_id":"PRP","i_lat":-6.3441410000000005,"i_long":106.568863,"station_name":"Parung Panjang"},{"is_transit":false,"i_long":106.508482,"i_lat":-6.354349,"transit":false,"station_name":"Cilejit","station_id":"CJT","line":3,"time":9,"distance":7025}],[{"i_lat":-6.185975,"line":11,"transit":false,"station_name":"Gang Sentiong","time":0,"station_id":"GST","is_transit":false,"distance":0,"i_long":106.850107},{"i_lat":-6.193792,"line":11,"distance":973,"transit":false,"i_long":106.855437,"station_id":"KMT","is_transit":false,"time":1,"station_name":"Kramat"},{"is_transit":false,"i_long":106.861737,"line":11,"i_lat":-6.209188,"distance":1829,"time":2,"station_name":"Pondok Jati","station_id":"POK","transit":false},{"i_lat":-6.215091,"station_id":"JNG","is_transit":true,"transit":true,"time":9,"distance":1236,"line":1,"station_name":"Jatinegara","i_long":106.86807400000001},{"is_transit":false,"station_name":"Matraman","i_lat":-6.212485,"i_long":106.858896,"transit":false,"line":1,"distance":1377,"time":2,"station_id":"MTR"},{"time":2,"station_name":"Manggarai","distance":1275,"is_transit":false,"station_id":"MRI","i_lat":-6.209883,"i_long":106.84912,"transit":false,"line":2},{"transit":false,"time":4,"is_transit":false,"station_id":"SUD","distance":3186,"i_lat":-6.202263,"station_name":"Sudirman","i_long":106.822649,"line":1},{"is_transit":false,"station_id":"SUDB","i_lat":-6.201433,"i_long":106.819881,"line":1,"time":1,"station_name":"Sudirman Baru","transit":false,"distance":280},{"time":1,"station_id":"KAT","is_transit":false,"station_name":"Karet","i_lat":-6.20132,"distance":471,"line":1,"transit":false,"i_long":106.816351},{"is_transit":true,"station_name":"Tanah Abang","i_long":106.811091,"transit":true,"line":1,"i_lat":-6.185545,"distance":2029,"station_id":"THB","time":5},{"line":6,"station_id":"PLM","distance":3191,"is_transit":false,"i_lat":-6.207404,"transit":false,"station_name":"Palmerah","time":6,"i_long":106.79689},{"i_lat":-6.237242,"distance":3737,"line":6,"transit":false,"station_id":"KBY","station_name":"Kebayoran","i_long":106.780334,"time":7,"is_transit":false},{"distance":6218,"i_lat":-6.276362,"i_long":106.74273,"station_id":"PDJ","is_transit":false,"station_name":"Pondokranji","transit":false,"line":6,"time":8},{"line":6,"time":3,"transit":false,"is_transit":false,"station_id":"JMU","station_name":"Jurangmangu","i_lat":-6.288927,"distance":2179,"i_long":106.728916},{"is_transit":false,"i_lat":-6.296963,"station_id":"SDM","i_long":106.712277,"transit":false,"distance":1994,"time":4,"station_name":"Sudimara","line":6},{"i_long":106.675475,"line":6,"distance":4566,"station_id":"RU","i_lat":-6.314823,"station_name":"Rawa Buntu","transit":false,"is_transit":false,"time":6},{"i_lat":-6.319871,"i_long":106.66566,"line":6,"transit":false,"station_id":"SRP","distance":2413,"station_name":"Serpong","is_transit":false,"time":4},{"is_transit":false,"station_id":"CSK","time":4,"distance":1784,"i_lat":-6.32484,"station_name":"Cisauk","line":3,"i_long":106.640411,"transit":false},{"time":4,"i_long":106.617853,"i_lat":-6.329547,"station_id":"CC","is_transit":false,"transit":false,"station_name":"Cicayur","distance":2519,"line":3},{"station_name":"Parung Panjang","time":8,"i_long":106.568863,"transit":false,"station_id":"PRP","i_lat":-6.3441410000000005,"is_transit":false,"line":6,"distance":5968},{"transit":false,"station_id":"CJT","i_long":106.508482,"line":3,"distance":7025,"station_name":"Cilejit","time":9,"is_transit":false,"i_lat":-6.354349}],[{"station_name":"Gang Sentiong","distance":0,"is_transit":false,"line":11,"transit":false,"time":0,"i_long":106.850107,"station_id":"GST","i_lat":-6.185975},{"transit":false,"i_lat":-6.193792,"i_long":106.855437,"is_transit":false,"station_name":"Kramat","time":1,"distance":973,"line":11,"station_id":"KMT"},{"transit":false,"station_id":"POK","i_lat":-6.209188,"is_transit":false,"time":2,"i_long":106.861737,"distance":1829,"line":11,"station_name":"Pondok Jati"},{"station_name":"Jatinegara","is_transit":true,"i_long":106.86807400000001,"distance":1236,"transit":true,"line":1,"i_lat":-6.215091,"time":9,"station_id":"JNG"},{"station_id":"MTR","station_name":"Matraman","is_transit":false,"line":1,"transit":false,"i_lat":-6.212485,"time":2,"distance":1377,"i_long":106.858896},{"station_id":"MRI","station_name":"Manggarai","line":2,"transit":true,"i_lat":-6.209883,"is_transit":true,"time":2,"i_long":106.84912,"distance":1275},{"transit":false,"i_long":106.840169,"station_id":"CKI","line":2,"is_transit":false,"i_lat":-6.198556,"station_name":"Cikini","distance":1590,"time":4},{"line":2,"i_long":106.832183,"distance":1750,"is_transit":false,"station_name":"Gondangdia","i_lat":-6.186295,"transit":false,"time":3,"station_id":"GDD"},{"i_lat":-6.166716,"station_id":"JUA","i_long":106.828284,"transit":false,"time":4,"line":2,"is_transit":false,"station_name":"Juanda","distance":2015},{"i_lat":-6.160725,"station_name":"Sawah Besar","time":2,"line":2,"distance":1149,"is_transit":false,"transit":false,"station_id":"SW","i_long":106.827103},{"is_transit":false,"i_long":106.82482,"time":2,"station_name":"Manggabesar","station_id":"MGB","line":2,"i_lat":-6.149769,"transit":false,"distance":906},{"station_id":"JAY","station_name":"Jayakarta","i_lat":-6.141205,"line":2,"time":2,"transit":false,"distance":1080,"is_transit":false,"i_long":106.820901},{"line":2,"i_lat":-6.137569,"distance":1264,"transit":true,"time":4,"is_transit":true,"station_name":"Jakarta Kota","i_long":106.812439,"station_id":"JAKK"},{"i_lat":-6.132549,"station_name":"Kampung Bandan","transit":true,"time":3,"station_id":"KPB","is_transit":true,"i_long":106.826365,"line":4,"distance":1364},{"i_long":106.79867,"line":1,"distance":4102,"i_lat":-6.144674,"transit":false,"time":9,"station_id":"AK","is_transit":false,"station_name":"Angke"},{"transit":false,"time":4,"distance":1230,"i_lat":-6.155215,"is_transit":false,"line":1,"station_id":"DU","station_name":"Duri","i_long":106.800832},{"station_name":"Tanah Abang","line":1,"transit":true,"i_lat":-6.185545,"time":8,"i_long":106.811091,"distance":3632,"is_transit":true,"station_id":"THB"},{"time":6,"i_lat":-6.207404,"station_id":"PLM","station_name":"Palmerah","is_transit":false,"i_long":106.79689,"line":6,"distance":3191,"transit":false},{"time":7,"distance":3737,"station_name":"Kebayoran","transit":false,"i_lat":-6.237242,"line":6,"is_transit":false,"i_long":106.780334,"station_id":"KBY"},{"station_id":"PDJ","transit":false,"i_lat":-6.276362,"station_name":"Pondokranji","i_long":106.74273,"distance":6218,"time":8,"is_transit":false,"line":6},{"transit":false,"distance":2179,"station_id":"JMU","i_lat":-6.288927,"i_long":106.728916,"time":3,"station_name":"Jurangmangu","is_transit":false,"line":6},{"station_id":"SDM","i_lat":-6.296963,"distance":1994,"i_long":106.712277,"time":4,"is_transit":false,"line":6,"station_name":"Sudimara","transit":false},{"time":6,"distance":4566,"station_name":"Rawa Buntu","i_lat":-6.314823,"line":6,"is_transit":false,"station_id":"RU","transit":false,"i_long":106.675475},{"station_name":"Serpong","i_lat":-6.319871,"is_transit":false,"time":4,"transit":false,"distance":2413,"i_long":106.66566,"line":6,"station_id":"SRP"},{"distance":1784,"i_lat":-6.32484,"time":4,"i_long":106.640411,"line":3,"station_id":"CSK","is_transit":false,"transit":false,"station_name":"Cisauk"},{"transit":false,"i_long":106.617853,"station_id":"CC","i_lat":-6.329547,"time":4,"distance":2519,"station_name":"Cicayur","line":3,"is_transit":false},{"is_transit":false,"time":8,"station_name":"Parung Panjang","i_lat":-6.3441410000000005,"transit":false,"station_id":"PRP","line":6,"distance":5968,"i_long":106.568863},{"i_long":106.508482,"line":3,"transit":false,"distance":7025,"time":9,"station_id":"CJT","is_transit":false,"station_name":"Cilejit","i_lat":-6.354349}],[{"line":11,"time":0,"i_lat":-6.185975,"is_transit":false,"station_id":"GST","station_name":"Gang Sentiong","transit":false,"distance":0,"i_long":106.850107},{"station_id":"PSE","distance":1567,"is_transit":false,"line":11,"i_long":106.84368,"i_lat":-6.174784,"station_name":"Pasar Senen","transit":false,"time":8},{"station_id":"KMO","is_transit":false,"i_lat":-6.161728,"i_long":106.839204,"distance":1436,"line":11,"transit":false,"time":4,"station_name":"Kemayoran"},{"transit":false,"is_transit":false,"line":11,"station_id":"RJW","distance":1901,"station_name":"Rajawali","i_lat":-6.14505,"i_long":106.836569,"time":5},{"transit":true,"distance":1444,"is_transit":true,"line":4,"i_lat":-6.132549,"i_long":106.826365,"station_id":"KPB","time":3,"station_name":"Kampung Bandan"},{"line":2,"station_id":"JAKK","distance":1364,"is_transit":true,"station_name":"Jakarta Kota","i_lat":-6.137569,"time":3,"i_long":106.812439,"transit":true},{"station_name":"Jayakarta","i_long":106.820901,"distance":1264,"transit":false,"is_transit":false,"time":4,"station_id":"JAY","i_lat":-6.141205,"line":2},{"distance":1080,"i_long":106.82482,"transit":false,"time":2,"station_id":"MGB","station_name":"Manggabesar","line":2,"i_lat":-6.149769,"is_transit":false},{"station_name":"Sawah Besar","i_long":106.827103,"line":2,"station_id":"SW","transit":false,"i_lat":-6.160725,"is_transit":false,"time":2,"distance":906},{"i_long":106.828284,"line":2,"i_lat":-6.166716,"is_transit":false,"station_name":"Juanda","transit":false,"distance":1149,"time":2,"station_id":"JUA"},{"distance":2015,"i_lat":-6.186295,"station_name":"Gondangdia","transit":false,"station_id":"GDD","is_transit":false,"i_long":106.832183,"line":2,"time":4},{"transit":false,"station_id":"CKI","station_name":"Cikini","line":2,"distance":1750,"is_transit":false,"i_long":106.840169,"time":3,"i_lat":-6.198556},{"transit":true,"distance":1590,"i_lat":-6.209883,"is_transit":true,"time":4,"station_name":"Manggarai","line":2,"i_long":106.84912,"station_id":"MRI"},{"station_id":"SUD","i_long":106.822649,"line":1,"station_name":"Sudirman","distance":3186,"transit":false,"i_lat":-6.202263,"is_transit":false,"time":4},{"transit":false,"distance":280,"station_name":"Sudirman Baru","i_lat":-6.201433,"i_long":106.819881,"time":1,"line":1,"is_transit":false,"station_id":"SUDB"},{"distance":471,"i_lat":-6.20132,"transit":false,"i_long":106.816351,"station_id":"KAT","line":1,"station_name":"Karet","time":1,"is_transit":false},{"i_long":106.811091,"transit":true,"i_lat":-6.185545,"time":5,"station_id":"THB","station_name":"Tanah Abang","distance":2029,"line":1,"is_transit":true},{"transit":false,"station_id":"PLM","is_transit":false,"station_name":"Palmerah","i_lat":-6.207404,"distance":3191,"i_long":106.79689,"line":6,"time":6},{"transit":false,"time":7,"i_long":106.780334,"line":6,"is_transit":false,"distance":3737,"station_name":"Kebayoran","station_id":"KBY","i_lat":-6.237242},{"transit":false,"is_transit":false,"i_lat":-6.276362,"station_name":"Pondokranji","i_long":106.74273,"station_id":"PDJ","line":6,"time":8,"distance":6218},{"time":3,"i_lat":-6.288927,"line":6,"station_name":"Jurangmangu","i_long":106.728916,"is_transit":false,"distance":2179,"transit":false,"station_id":"JMU"},{"transit":false,"distance":1994,"is_transit":false,"station_name":"Sudimara","station_id":"SDM","time":4,"i_long":106.712277,"line":6,"i_lat":-6.296963},{"distance":4566,"is_transit":false,"i_lat":-6.314823,"time":6,"station_id":"RU","i_long":106.675475,"transit":false,"station_name":"Rawa Buntu","line":6},{"distance":2413,"is_transit":false,"station_name":"Serpong","i_long":106.66566,"time":4,"station_id":"SRP","transit":false,"line":6,"i_lat":-6.319871},{"is_transit":false,"time":4,"station_id":"CSK","line":3,"distance":1784,"station_name":"Cisauk","i_long":106.640411,"transit":false,"i_lat":-6.32484},{"time":4,"distance":2519,"i_long":106.617853,"transit":false,"is_transit":false,"station_name":"Cicayur","i_lat":-6.329547,"station_id":"CC","line":3},{"distance":5968,"i_long":106.568863,"station_id":"PRP","station_name":"Parung Panjang","i_lat":-6.3441410000000005,"time":8,"is_transit":false,"transit":false,"line":6},{"i_lat":-6.354349,"station_id":"CJT","station_name":"Cilejit","i_long":106.508482,"transit":false,"is_transit":false,"time":9,"line":3,"distance":7025}]]}