{"data":[[{"transit":false,"i_long":106.850107,"station_name":"Gang Sentiong","distance":0,"is_transit":false,"i_lat":-6.185975,"station_id":"GST","time":0,"line":11},{"i_lat":-6.193792,"station_name":"Kramat","distance":973,"i_long":106.855437,"line":11,"time":1,"is_transit":false,"station_id":"KMT","transit":false},{"line":11,"i_long":106.861737,"is_transit":false,"i_lat":-6.209188,"distance":1829,"station_id":"POK","station_name":"Pondok Jati","transit":false,"time":2},{"i_lat":-6.215091,"distance":1236,"station_name":"Jatinegara","transit":true,"time":9,"is_transit":true,"station_id":"JNG","line":1,"i_long":106.86807400000001},{"distance":1377,"station_id":"MTR","station_name":"Matraman","time":2,"transit":false,"is_transit":false,"i_lat":-6.212485,"line":1,"i_long":106.858896},{"station_id":"MRI","i_long":106.84912,"line":2,"is_transit":true,"station_name":"Manggarai","distance":1275,"transit":true,"time":2,"i_lat":-6.209883},{"time":4,"i_long":106.857948,"station_id":"TEB","is_transit":false,"transit":false,"station_name":"Tebet","distance":2610,"line":2,"i_lat":-6.226659},{"i_long":106.856607,"station_id":"CW","line":2,"distance":1230,"i_lat":-6.242512,"transit":false,"time":2,"is_transit":false,"station_name":"Cawang"},{"is_transit":false,"station_name":"Duren Kalibata","i_long":106.85449,"transit":false,"distance":1546,"i_lat":-6.255332,"line":2,"station_id":"DRN","time":3},{"line":2,"station_id":"PSMB","time":2,"distance":824,"transit":false,"is_transit":false,"station_name":"Pasar Minggu Baru","i_lat":-6.263214,"i_long":106.851577},{"station_name":"Pasar Minggu","line":2,"distance":2380,"i_lat":-6.2842400000000005,"time":2,"i_long":106.843999,"station_id":"PSM","is_transit":false,"transit":false},{"station_id":"TNT","i_lat":-6.3080680000000005,"is_transit":false,"distance":2820,"i_long":106.838896,"line":2,"time":4,"station_name":"Tanjung Barat","transit":false},{"is_transit":false,"transit":false,"station_name":"Lenteng Agung","i_lat":-6.330363,"time":3,"line":2,"station_id":"LNA","distance":2671,"i_long":106.832616}],[{"distance":0,"station_name":"Gang Sentiong","i_long":106.850107,"i_lat":-6.185975,"line":11,"time":0,"station_id":"GST","is_transit":false,"transit":false},{"time":8,"line":11,"transit":false,"station_name":"Pasar Senen","i_lat":-6.174784,"is_transit":false,"i_long":106.84368,"distance":1567,"station_id":"PSE"},{"transit":false,"distance":1436,"i_lat":-6.161728,"station_id":"KMO","is_transit":false,"time":4,"station_name":"Kemayoran","i_long":106.839204,"line":11},{"time":5,"line":11,"is_transit":false,"i_long":106.836569,"distance":1901,"station_id":"RJW","transit":false,"station_name":"Rajawali","i_lat":-6.14505},{"distance":1444,"transit":true,"i_lat":-6.132549,"station_id":"KPB","i_long":106.826365,"line":4,"is_transit":true,"station_name":"Kampung Bandan","time":3},{"time":9,"transit":false,"line":1,"i_lat":-6.144674,"i_long":106.79867,"is_transit":false,"station_name":"Angke","station_id":"AK","distance":4102},{"time":4,"i_lat":-6.155215,"distance":1230,"station_name":"Duri","station_id":"DU","transit":false,"i_long":106.800832,"line":1,"is_transit":false},{"transit":false,"i_long":106.811091,"i_lat":-6.185545,"is_transit":false,"line":1,"station_id":"THB","station_name":"Tanah Abang","distance":3632,"time":8},{"transit":false,"i_lat":-6.20132,"is_transit":false,"i_long":106.816351,"line":1,"station_name":"Karet","time":5,"station_id":"KAT","distance":2029},{"i_long":106.819881,"is_transit":false,"distance":471,"station_id":"SUDB","transit":false,"i_lat":-6.201433,"station_name":"Sudirman Baru","time":1,"line":1},{"i_long":106.822649,"is_transit":false,"time":1,"line":1,"transit":false,"i_lat":-6.202263,"distance":280,"station_id":"SUD","station_name":"Sudirman"},{"time":4,"line":2,"transit":true,"i_lat":-6.209883,"station_name":"Manggarai","distance":3186,"station_id":"MRI","i_long":106.84912,"is_transit":true},{"transit":false,"station_id":"TEB","station_name":"Tebet","line":2,"time":4,"distance":2610,"i_lat":-6.226659,"is_transit":false,"i_long":106.857948},{"distance":1230,"i_long":106.856607,"station_name":"Cawang","is_transit":false,"station_id":"CW","transit":false,"i_lat":-6.242512,"time":2,"line":2},{"transit":false,"i_long":106.85449,"is_transit":false,"distance":1546,"i_lat":-6.255332,"station_name":"Duren Kalibata","line":2,"time":3,"station_id":"DRN"},{"station_id":"PSMB","line":2,"time":2,"distance":824,"transit":false,"i_lat":-6.263214,"station_name":"Pasar Minggu Baru","i_long":106.851577,"is_transit":false},{"transit":false,"is_transit":false,"station_name":"Pasar Minggu","i_lat":-6.2842400000000005,"distance":2380,"time":2,"station_id":"PSM","i_long":106.843999,"line":2},{"i_lat":-6.3080680000000005,"is_transit":false,"station_name":"Tanjung Barat","i_long":106.838896,"line":2,"transit":false,"time":4,"distance":2820,"station_id":"TNT"},{"station_id":"LNA","station_name":"Lenteng Agung","time":3,"is_transit":false,"i_long":106.832616,"line":2,"transit":false,"i_lat":-6.330363,"distance":2671}],[{"time":0,"distance":0,"i_long":106.850107,"is_transit":false,"station_name":"Gang Sentiong","i_lat":-6.185975,"station_id":"GST","line":11,"transit":false},{"line":11,"distance":1567,"is_transit":false,"i_long":106.84368,"station_id":"PSE","transit":false,"station_name":"Pasar Senen","i_lat":-6.174784,"time":8},{"time":4,"station_name":"Kemayoran","line":11,"i_lat":-6.161728,"station_id":"KMO","distance":1436,"i_long":106.839204,"transit":false,"is_transit":false},{"distance":1901,"station_id":"RJW","time":5,"transit":false,"i_lat":-6.14505,"station_name":"Rajawali","line":11,"is_transit":false,"i_long":106.836569},{"time":3,"i_lat":-6.132549,"is_transit":true,"transit":true,"line":4,"distance":1444,"i_long":106.826365,"station_id":"KPB","station_name":"Kampung Bandan"},{"transit":true,"i_lat":-6.137569,"i_long":106.812439,"station_name":"Jakarta Kota","line":2,"station_id":"JAKK","time":3,"distance":1364,"is_transit":true},{"station_name":"Jayakarta","i_lat":-6.141205,"i_long":106.820901,"line":2,"distance":1264,"station_id":"JAY","is_transit":false,"transit":false,"time":4},{"i_long":106.82482,"is_transit":false,"time":2,"i_lat":-6.149769,"transit":false,"station_name":"Manggabesar","line":2,"distance":1080,"station_id":"MGB"},{"distance":906,"station_name":"Sawah Besar","time":2,"i_lat":-6.160725,"is_transit":false,"i_long":106.827103,"station_id":"SW","transit":false,"line":2},{"distance":1149,"is_transit":false,"station_id":"JUA","line":2,"station_name":"Juanda","transit":false,"i_lat":-6.166716,"time":2,"i_long":106.828284},{"station_id":"GDD","is_transit":false,"time":4,"station_name":"Gondangdia","distance":2015,"i_lat":-6.186295,"i_long":106.832183,"transit":false,"line":2},{"line":2,"i_long":106.840169,"station_id":"CKI","i_lat":-6.198556,"transit":false,"is_transit":false,"station_name":"Cikini","distance":1750,"time":3},{"distance":1590,"time":4,"transit":false,"station_name":"Manggarai","station_id":"MRI","i_long":106.84912,"line":2,"i_lat":-6.209883,"is_transit":false},{"station_id":"TEB","distance":2610,"transit":false,"time":4,"station_name":"Tebet","is_transit":false,"i_long":106.857948,"line":2,"i_lat":-6.226659},{"i_long":106.856607,"distance":1230,"transit":false,"is_transit":false,"i_lat":-6.242512,"line":2,"time":2,"station_name":"Cawang","station_id":"CW"},{"i_lat":-6.255332,"i_long":106.85449,"distance":1546,"station_id":"DRN","station_name":"Duren Kalibata","is_transit":false,"transit":false,"line":2,"time":3},{"distance":824,"i_lat":-6.263214,"station_id":"PSMB","is_transit":false,"line":2,"i_long":106.851577,"transit":false,"station_name":"Pasar Minggu Baru","time":2},{"distance":2380,"i_lat":-6.2842400000000005,"time":2,"station_id":"PSM","is_transit":false,"transit":false,"station_name":"Pasar Minggu","i_long":106.843999,"line":2},{"station_id":"TNT","i_long":106.838896,"transit":false,"is_transit":false,"distance":2820,"line":2,"i_lat":-6.3080680000000005,"station_name":"Tanjung Barat","time":4},{"is_transit":false,"distance":2671,"line":2,"i_long":106.832616,"station_name":"Lenteng Agung","transit":false,"i_lat":-6.330363,"station_id":"LNA","time":3}]]}