{"data":[[{"station_id":"GST","line":11,"transit":false,"time":0,"is_transit":false,"station_name":"Gang Sentiong","distance":0,"i_lat":-6.185975,"i_long":106.850107},{"is_transit":false,"station_id":"PSE","station_name":"Pasar Senen","time":8,"line":11,"i_lat":-6.174784,"distance":1567,"transit":false,"i_long":106.84368},{"i_lat":-6.161728,"is_transit":false,"line":11,"i_long":106.839204,"station_name":"Kemayoran","distance":1436,"station_id":"KMO","time":4,"transit":false},{"station_id":"RJW","station_name":"Rajawali","time":5,"transit":false,"is_transit":false,"line":11,"i_long":106.836569,"distance":1901,"i_lat":-6.14505},{"station_name":"Kampung Bandan","station_id":"KPB","line":0,"time":3,"transit":true,"is_transit":true,"i_lat":-6.132549,"i_long":106.826365,"distance":1444},{"i_long":106.84464,"line":0,"station_name":"Ancol","time":4,"distance":2185,"is_transit":false,"transit":false,"station_id":"AC","i_lat":-6.128023}],[{"transit":false,"i_long":106.850107,"station_name":"Gang Sentiong","is_transit":false,"time":0,"i_lat":-6.185975,"line":11,"station_id":"GST","distance":0},{"line":11,"station_name":"Kramat","is_transit":false,"time":1,"i_lat":-6.193792,"i_long":106.855437,"transit":false,"distance":973,"station_id":"KMT"},{"line":11,"station_name":"Pondok Jati","distance":1829,"is_transit":false,"time":2,"transit":false,"i_lat":-6.209188,"station_id":"POK","i_long":106.861737},{"time":9,"station_id":"JNG","line":0,"is_transit":true,"distance":1236,"i_lat":-6.215091,"i_long":106.86807400000001,"station_name":"Jatinegara","transit":true},{"distance":1377,"station_name":"Matraman","is_transit":false,"transit":false,"line":1,"station_id":"MTR","i_lat":-6.212485,"i_long":106.858896,"time":2},{"is_transit":true,"i_long":106.84912,"transit":false,"line":0,"i_lat":-6.209883,"station_name":"Manggarai","time":2,"station_id":"MRI","distance":1275},{"i_lat":-6.202263,"i_long":106.822649,"line":1,"is_transit":false,"station_id":"SUD","station_name":"Sudirman","distance":3186,"time":4,"transit":false},{"i_long":106.819881,"station_id":"SUDB","time":1,"is_transit":false,"i_lat":-6.201433,"line":1,"station_name":"Sudirman Baru","distance":280,"transit":false},{"distance":471,"transit":false,"i_long":106.816351,"time":1,"is_transit":false,"i_lat":-6.20132,"station_id":"KAT","station_name":"Karet","line":1},{"time":5,"transit":false,"line":1,"station_name":"Tanah Abang","i_long":106.811091,"is_transit":true,"distance":2029,"i_lat":-6.185545,"station_id":"THB"},{"distance":3632,"i_lat":-6.155215,"i_long":106.800832,"station_id":"DU","line":1,"transit":true,"is_transit":true,"time":8,"station_name":"Duri"},{"is_transit":false,"time":4,"transit":false,"line":0,"i_long":106.79867,"i_lat":-6.144674,"distance":1230,"station_id":"AK","station_name":"Angke"},{"station_id":"KPB","distance":4102,"transit":false,"time":9,"i_lat":-6.132549,"i_long":106.826365,"station_name":"Kampung Bandan","line":0,"is_transit":true},{"station_id":"AC","is_transit":false,"line":0,"station_name":"Ancol","time":4,"distance":2185,"transit":false,"i_lat":-6.128023,"i_long":106.84464}],[{"is_transit":false,"station_name":"Gang Sentiong","transit":false,"i_long":106.850107,"distance":0,"i_lat":-6.185975,"line":11,"station_id":"GST","time":0},{"time":1,"i_lat":-6.193792,"distance":973,"is_transit":false,"station_name":"Kramat","transit":false,"i_long":106.855437,"station_id":"KMT","line":11},{"time":2,"i_lat":-6.209188,"line":11,"i_long":106.861737,"station_name":"Pondok Jati","station_id":"POK","is_transit":false,"transit":false,"distance":1829},{"time":9,"transit":true,"is_transit":true,"station_id":"JNG","station_name":"Jatinegara","i_long":106.86807400000001,"line":0,"i_lat":-6.215091,"distance":1236},{"station_name":"Matraman","distance":1377,"line":1,"i_long":106.858896,"station_id":"MTR","is_transit":false,"i_lat":-6.212485,"time":2,"transit":false},{"distance":1275,"line":0,"i_long":106.84912,"is_transit":true,"station_name":"Manggarai","i_lat":-6.209883,"station_id":"MRI","time":2,"transit":true},{"i_lat":-6.198556,"station_name":"Cikini","is_transit":false,"time":4,"distance":1590,"i_long":106.840169,"station_id":"CKI","line":0,"transit":false},{"i_long":106.832183,"transit":false,"station_id":"GDD","is_transit":false,"station_name":"Gondangdia","line":2,"time":3,"distance":1750,"i_lat":-6.186295},{"station_name":"Juanda","time":4,"distance":2015,"transit":false,"line":2,"i_long":106.828284,"i_lat":-6.166716,"station_id":"JUA","is_transit":false},{"transit":false,"distance":1149,"line":2,"station_id":"SW","i_lat":-6.160725,"i_long":106.827103,"station_name":"Sawah Besar","time":2,"is_transit":false},{"station_name":"Manggabesar","is_transit":false,"time":2,"i_long":106.82482,"distance":906,"line":2,"transit":false,"i_lat":-6.149769,"station_id":"MGB"},{"is_transit":false,"station_id":"JAY","time":2,"i_lat":-6.141205,"distance":1080,"line":7,"transit":false,"i_long":106.820901,"station_name":"Jayakarta"},{"distance":1264,"station_id":"JAKK","station_name":"Jakarta Kota","is_transit":true,"line":0,"time":4,"i_lat":-6.137569,"transit":true,"i_long":106.812439},{"i_lat":-6.132549,"is_transit":true,"station_id":"KPB","station_name":"Kampung Bandan","distance":1364,"i_long":106.826365,"line":0,"transit":false,"time":3},{"i_lat":-6.128023,"station_name":"Ancol","is_transit":false,"distance":2185,"transit":false,"i_long":106.84464,"station_id":"AC","time":4,"line":0}]]}