{"data":[[{"transit":false,"is_transit":false,"time":0,"station_name":"Gang Sentiong","line":11,"distance":0,"station_id":"GST","i_lat":-6.185975,"i_long":106.850107},{"distance":1567,"transit":false,"i_long":106.84368,"station_name":"Pasar Senen","time":8,"is_transit":false,"i_lat":-6.174784,"line":11,"station_id":"PSE"},{"distance":1436,"is_transit":false,"i_long":106.839204,"time":4,"transit":false,"station_name":"Kemayoran","line":11,"i_lat":-6.161728,"station_id":"KMO"},{"time":5,"transit":false,"is_transit":false,"distance":1901,"i_lat":-6.14505,"station_id":"RJW","i_long":106.836569,"line":11,"station_name":"Rajawali"},{"is_transit":true,"time":3,"line":4,"transit":true,"station_name":"Kampung Bandan","station_id":"KPB","i_lat":-6.132549,"i_long":106.826365,"distance":1444},{"is_transit":false,"i_lat":-6.144674,"transit":false,"station_name":"Angke","station_id":"AK","time":9,"line":1,"i_long":106.79867,"distance":4102},{"station_name":"Duri","is_transit":false,"distance":1230,"i_long":106.800832,"station_id":"DU","time":4,"line":1,"i_lat":-6.155215,"transit":false},{"station_name":"Tanah Abang","distance":3632,"is_transit":true,"station_id":"THB","i_long":106.811091,"transit":true,"line":1,"i_lat":-6.185545,"time":8},{"station_name":"Palmerah","i_lat":-6.207404,"time":6,"distance":3191,"station_id":"PLM","i_long":106.79689,"line":6,"transit":false,"is_transit":false},{"transit":false,"distance":3737,"station_id":"KBY","time":7,"station_name":"Kebayoran","is_transit":false,"i_lat":-6.237242,"i_long":106.780334,"line":6},{"i_long":106.74273,"station_name":"Pondokranji","time":8,"transit":false,"is_transit":false,"distance":6218,"line":6,"station_id":"PDJ","i_lat":-6.276362},{"station_name":"Jurangmangu","line":6,"transit":false,"i_long":106.728916,"station_id":"JMU","is_transit":false,"i_lat":-6.288927,"distance":2179,"time":3},{"transit":false,"line":6,"distance":1994,"station_name":"Sudimara","station_id":"SDM","i_long":106.712277,"i_lat":-6.296963,"is_transit":false,"time":4},{"line":6,"time":6,"i_lat":-6.314823,"i_long":106.675475,"station_id":"RU","is_transit":false,"transit":false,"station_name":"Rawa Buntu","distance":4566},{"i_lat":-6.319871,"i_long":106.66566,"transit":false,"distance":2413,"station_name":"Serpong","station_id":"SRP","time":4,"is_transit":false,"line":6},{"distance":1784,"i_long":106.640411,"time":4,"station_name":"Cisauk","station_id":"CSK","is_transit":false,"transit":false,"i_lat":-6.32484,"line":3},{"is_transit":false,"station_name":"Cicayur","station_id":"CC","time":4,"distance":2519,"i_lat":-6.329547,"line":3,"transit":false,"i_long":106.617853},{"is_transit":false,"i_long":106.568863,"station_name":"Parung Panjang","transit":false,"time":8,"line":6,"distance":5968,"i_lat":-6.3441410000000005,"station_id":"PRP"}],[{"station_id":"GST","i_long":106.850107,"line":11,"i_lat":-6.185975,"distance":0,"transit":false,"is_transit":false,"time":0,"station_name":"Gang Sentiong"},{"time":1,"transit":false,"distance":973,"i_lat":-6.193792,"is_transit":false,"station_name":"Kramat","line":11,"i_long":106.855437,"station_id":"KMT"},{"transit":false,"i_long":106.861737,"distance":1829,"i_lat":-6.209188,"time":2,"station_id":"POK","station_name":"Pondok Jati","line":11,"is_transit":false},{"is_transit":true,"transit":true,"time":9,"station_name":"Jatinegara","station_id":"JNG","i_lat":-6.215091,"distance":1236,"i_long":106.86807400000001,"line":1},{"i_long":106.858896,"line":1,"transit":false,"distance":1377,"station_id":"MTR","time":2,"i_lat":-6.212485,"station_name":"Matraman","is_transit":false},{"station_id":"MRI","time":2,"transit":false,"i_lat":-6.209883,"station_name":"Manggarai","is_transit":false,"distance":1275,"line":2,"i_long":106.84912},{"station_id":"SUD","is_transit":false,"station_name":"Sudirman","i_lat":-6.202263,"distance":3186,"line":1,"transit":false,"i_long":106.822649,"time":4},{"i_long":106.819881,"transit":false,"i_lat":-6.201433,"is_transit":false,"time":1,"line":1,"station_name":"Sudirman Baru","distance":280,"station_id":"SUDB"},{"line":1,"is_transit":false,"i_long":106.816351,"transit":false,"station_name":"Karet","distance":471,"time":1,"station_id":"KAT","i_lat":-6.20132},{"station_name":"Tanah Abang","is_transit":true,"i_long":106.811091,"station_id":"THB","distance":2029,"i_lat":-6.185545,"transit":true,"line":1,"time":5},{"is_transit":false,"time":6,"line":6,"distance":3191,"transit":false,"i_lat":-6.207404,"station_id":"PLM","i_long":106.79689,"station_name":"Palmerah"},{"is_transit":false,"line":6,"station_name":"Kebayoran","station_id":"KBY","time":7,"transit":false,"distance":3737,"i_lat":-6.237242,"i_long":106.780334},{"line":6,"station_name":"Pondokranji","i_lat":-6.276362,"time":8,"transit":false,"station_id":"PDJ","is_transit":false,"i_long":106.74273,"distance":6218},{"time":3,"is_transit":false,"transit":false,"i_long":106.728916,"line":6,"distance":2179,"i_lat":-6.288927,"station_name":"Jurangmangu","station_id":"JMU"},{"transit":false,"station_id":"SDM","is_transit":false,"station_name":"Sudimara","line":6,"i_long":106.712277,"time":4,"distance":1994,"i_lat":-6.296963},{"station_name":"Rawa Buntu","is_transit":false,"time":6,"i_lat":-6.314823,"i_long":106.675475,"distance":4566,"station_id":"RU","transit":false,"line":6},{"line":6,"i_long":106.66566,"station_name":"Serpong","distance":2413,"station_id":"SRP","time":4,"transit":false,"is_transit":false,"i_lat":-6.319871},{"i_lat":-6.32484,"station_id":"CSK","i_long":106.640411,"is_transit":false,"distance":1784,"line":3,"time":4,"station_name":"Cisauk","transit":false},{"station_id":"CC","is_transit":false,"transit":false,"i_lat":-6.329547,"station_name":"Cicayur","line":3,"distance":2519,"time":4,"i_long":106.617853},{"station_id":"PRP","is_transit":false,"line":6,"distance":5968,"i_lat":-6.3441410000000005,"i_long":106.568863,"time":8,"transit":false,"station_name":"Parung Panjang"}],[{"transit":false,"line":11,"i_lat":-6.185975,"i_long":106.850107,"distance":0,"station_id":"GST","station_name":"Gang Sentiong","is_transit":false,"time":0},{"i_lat":-6.193792,"time":1,"station_name":"Kramat","distance":973,"line":11,"station_id":"KMT","transit":false,"i_long":106.855437,"is_transit":false},{"station_id":"POK","time":2,"i_lat":-6.209188,"line":11,"transit":false,"station_name":"Pondok Jati","distance":1829,"i_long":106.861737,"is_transit":false},{"i_lat":-6.215091,"station_name":"Jatinegara","time":9,"station_id":"JNG","i_long":106.86807400000001,"line":1,"transit":true,"distance":1236,"is_transit":true},{"i_long":106.858896,"transit":false,"time":2,"station_name":"Matraman","is_transit":false,"station_id":"MTR","i_lat":-6.212485,"line":1,"distance":1377},{"line":2,"time":2,"is_transit":true,"distance":1275,"i_lat":-6.209883,"station_id":"MRI","transit":true,"station_name":"Manggarai","i_long":106.84912},{"station_name":"Cikini","distance":1590,"time":4,"line":2,"is_transit":false,"i_long":106.840169,"station_id":"CKI","transit":false,"i_lat":-6.198556},{"is_transit":false,"line":2,"station_name":"Gondangdia","i_long":106.832183,"station_id":"GDD","time":3,"transit":false,"distance":1750,"i_lat":-6.186295},{"station_id":"JUA","i_lat":-6.166716,"line":2,"is_transit":false,"time":4,"station_name":"Juanda","distance":2015,"transit":false,"i_long":106.828284},{"i_long":106.827103,"station_name":"Sawah Besar","distance":1149,"line":2,"station_id":"SW","time":2,"transit":false,"is_transit":false,"i_lat":-6.160725},{"i_long":106.82482,"transit":false,"station_id":"MGB","i_lat":-6.149769,"is_transit":false,"station_name":"Manggabesar","time":2,"line":2,"distance":906},{"distance":1080,"is_transit":false,"transit":false,"i_lat":-6.141205,"i_long":106.820901,"line":2,"station_id":"JAY","station_name":"Jayakarta","time":2},{"i_lat":-6.137569,"time":4,"station_name":"Jakarta Kota","station_id":"JAKK","is_transit":true,"i_long":106.812439,"transit":true,"line":2,"distance":1264},{"i_lat":-6.132549,"is_transit":true,"distance":1364,"station_id":"KPB","time":3,"station_name":"Kampung Bandan","line":4,"i_long":106.826365,"transit":true},{"distance":4102,"station_id":"AK","i_lat":-6.144674,"is_transit":false,"station_name":"Angke","transit":false,"time":9,"i_long":106.79867,"line":1},{"line":1,"time":4,"is_transit":false,"station_id":"DU","i_lat":-6.155215,"transit":false,"distance":1230,"i_long":106.800832,"station_name":"Duri"},{"transit":true,"station_name":"Tanah Abang","line":1,"station_id":"THB","i_long":106.811091,"i_lat":-6.185545,"distance":3632,"time":8,"is_transit":true},{"i_lat":-6.207404,"line":6,"distance":3191,"time":6,"station_id":"PLM","i_long":106.79689,"station_name":"Palmerah","transit":false,"is_transit":false},{"station_name":"Kebayoran","is_transit":false,"transit":false,"line":6,"time":7,"station_id":"KBY","i_lat":-6.237242,"distance":3737,"i_long":106.780334},{"transit":false,"line":6,"station_id":"PDJ","station_name":"Pondokranji","distance":6218,"time":8,"i_lat":-6.276362,"is_transit":false,"i_long":106.74273},{"station_id":"JMU","distance":2179,"transit":false,"line":6,"time":3,"i_long":106.728916,"i_lat":-6.288927,"station_name":"Jurangmangu","is_transit":false},{"line":6,"distance":1994,"transit":false,"station_name":"Sudimara","station_id":"SDM","time":4,"is_transit":false,"i_lat":-6.296963,"i_long":106.712277},{"time":6,"station_id":"RU","transit":false,"is_transit":false,"i_lat":-6.314823,"distance":4566,"line":6,"i_long":106.675475,"station_name":"Rawa Buntu"},{"station_id":"SRP","distance":2413,"is_transit":false,"time":4,"i_lat":-6.319871,"line":6,"transit":false,"i_long":106.66566,"station_name":"Serpong"},{"is_transit":false,"i_lat":-6.32484,"station_id":"CSK","i_long":106.640411,"time":4,"distance":1784,"line":3,"station_name":"Cisauk","transit":false},{"transit":false,"station_id":"CC","time":4,"station_name":"Cicayur","distance":2519,"i_lat":-6.329547,"line":3,"i_long":106.617853,"is_transit":false},{"is_transit":false,"station_id":"PRP","transit":false,"i_long":106.568863,"line":6,"i_lat":-6.3441410000000005,"station_name":"Parung Panjang","time":8,"distance":5968}],[{"time":0,"i_lat":-6.185975,"distance":0,"station_id":"GST","station_name":"Gang Sentiong","i_long":106.850107,"transit":false,"is_transit":false,"line":11},{"transit":false,"time":8,"i_lat":-6.174784,"distance":1567,"station_id":"PSE","is_transit":false,"station_name":"Pasar Senen","i_long":106.84368,"line":11},{"station_id":"KMO","line":11,"is_transit":false,"time":4,"distance":1436,"i_lat":-6.161728,"i_long":106.839204,"transit":false,"station_name":"Kemayoran"},{"line":11,"transit":false,"station_id":"RJW","station_name":"Rajawali","i_long":106.836569,"is_transit":false,"distance":1901,"time":5,"i_lat":-6.14505},{"i_lat":-6.132549,"time":3,"transit":true,"station_id":"KPB","is_transit":true,"distance":1444,"i_long":106.826365,"line":4,"station_name":"Kampung Bandan"},{"line":2,"i_long":106.812439,"is_transit":true,"distance":1364,"transit":true,"station_name":"Jakarta Kota","station_id":"JAKK","i_lat":-6.137569,"time":3},{"station_name":"Jayakarta","i_lat":-6.141205,"line":2,"time":4,"station_id":"JAY","distance":1264,"transit":false,"i_long":106.820901,"is_transit":false},{"is_transit":false,"station_name":"Manggabesar","distance":1080,"time":2,"i_lat":-6.149769,"transit":false,"i_long":106.82482,"line":2,"station_id":"MGB"},{"is_transit":false,"station_name":"Sawah Besar","i_long":106.827103,"line":2,"i_lat":-6.160725,"station_id":"SW","time":2,"transit":false,"distance":906},{"station_id":"JUA","station_name":"Juanda","is_transit":false,"i_long":106.828284,"i_lat":-6.166716,"distance":1149,"time":2,"line":2,"transit":false},{"line":2,"station_name":"Gondangdia","distance":2015,"time":4,"is_transit":false,"transit":false,"i_lat":-6.186295,"i_long":106.832183,"station_id":"GDD"},{"is_transit":false,"time":3,"i_long":106.840169,"i_lat":-6.198556,"station_id":"CKI","transit":false,"distance":1750,"line":2,"station_name":"Cikini"},{"i_lat":-6.209883,"is_transit":true,"line":2,"station_id":"MRI","time":4,"transit":true,"station_name":"Manggarai","distance":1590,"i_long":106.84912},{"station_name":"Sudirman","station_id":"SUD","line":1,"is_transit":false,"i_lat":-6.202263,"distance":3186,"i_long":106.822649,"time":4,"transit":false},{"transit":false,"time":1,"station_id":"SUDB","line":1,"station_name":"Sudirman Baru","i_lat":-6.201433,"i_long":106.819881,"is_transit":false,"distance":280},{"distance":471,"transit":false,"is_transit":false,"i_lat":-6.20132,"line":1,"station_id":"KAT","time":1,"station_name":"Karet","i_long":106.816351},{"distance":2029,"i_lat":-6.185545,"line":1,"time":5,"station_name":"Tanah Abang","i_long":106.811091,"station_id":"THB","is_transit":true,"transit":true},{"station_name":"Palmerah","station_id":"PLM","line":6,"i_lat":-6.207404,"is_transit":false,"i_long":106.79689,"time":6,"transit":false,"distance":3191},{"is_transit":false,"transit":false,"station_id":"KBY","i_long":106.780334,"i_lat":-6.237242,"line":6,"time":7,"distance":3737,"station_name":"Kebayoran"},{"i_lat":-6.276362,"distance":6218,"transit":false,"station_name":"Pondokranji","time":8,"is_transit":false,"line":6,"i_long":106.74273,"station_id":"PDJ"},{"i_lat":-6.288927,"time":3,"is_transit":false,"transit":false,"line":6,"distance":2179,"station_id":"JMU","i_long":106.728916,"station_name":"Jurangmangu"},{"transit":false,"station_name":"Sudimara","distance":1994,"station_id":"SDM","i_lat":-6.296963,"time":4,"i_long":106.712277,"is_transit":false,"line":6},{"transit":false,"time":6,"is_transit":false,"distance":4566,"i_lat":-6.314823,"line":6,"station_name":"Rawa Buntu","station_id":"RU","i_long":106.675475},{"i_long":106.66566,"time":4,"station_name":"Serpong","is_transit":false,"transit":false,"distance":2413,"i_lat":-6.319871,"station_id":"SRP","line":6},{"station_name":"Cisauk","line":3,"station_id":"CSK","i_long":106.640411,"is_transit":false,"time":4,"transit":false,"distance":1784,"i_lat":-6.32484},{"i_lat":-6.329547,"line":3,"time":4,"station_name":"Cicayur","transit":false,"station_id":"CC","i_long":106.617853,"distance":2519,"is_transit":false},{"i_long":106.568863,"transit":false,"distance":5968,"line":6,"is_transit":false,"time":8,"station_name":"Parung Panjang","station_id":"PRP","i_lat":-6.3441410000000005}]]}