{"data":[[{"i_long":106.850107,"transit":false,"is_transit":false,"distance":0,"line":11,"time":0,"station_id":"GST","station_name":"Gang Sentiong","i_lat":-6.185975},{"station_id":"KMT","transit":false,"distance":973,"i_lat":-6.193792,"time":1,"station_name":"Kramat","is_transit":false,"line":11,"i_long":106.855437},{"i_long":106.861737,"line":11,"distance":1829,"station_id":"POK","station_name":"Pondok Jati","transit":false,"time":2,"is_transit":false,"i_lat":-6.209188},{"time":9,"i_lat":-6.215091,"distance":1236,"station_id":"JNG","station_name":"Jatinegara","i_long":106.86807400000001,"line":1,"is_transit":true,"transit":true},{"i_long":106.858896,"line":1,"transit":false,"i_lat":-6.212485,"station_id":"MTR","distance":1377,"station_name":"Matraman","time":2,"is_transit":false},{"station_id":"MRI","i_long":106.84912,"distance":1275,"transit":true,"line":2,"is_transit":true,"i_lat":-6.209883,"station_name":"Manggarai","time":2},{"is_transit":false,"transit":false,"distance":2610,"i_long":106.857948,"time":4,"i_lat":-6.226659,"line":2,"station_id":"TEB","station_name":"Tebet"},{"i_lat":-6.242512,"is_transit":false,"i_long":106.856607,"line":2,"station_name":"Cawang","transit":false,"distance":1230,"station_id":"CW","time":2},{"is_transit":false,"distance":1546,"transit":false,"i_lat":-6.255332,"time":3,"station_id":"DRN","line":2,"station_name":"Duren Kalibata","i_long":106.85449},{"i_lat":-6.263214,"distance":824,"is_transit":false,"i_long":106.851577,"time":2,"line":2,"station_name":"Pasar Minggu Baru","transit":false,"station_id":"PSMB"},{"is_transit":false,"i_lat":-6.2842400000000005,"transit":false,"station_id":"PSM","distance":2380,"time":2,"i_long":106.843999,"line":2,"station_name":"Pasar Minggu"},{"is_transit":false,"station_id":"TNT","transit":false,"i_lat":-6.3080680000000005,"i_long":106.838896,"line":2,"station_name":"Tanjung Barat","time":4,"distance":2820},{"station_id":"LNA","station_name":"Lenteng Agung","i_lat":-6.330363,"transit":false,"i_long":106.832616,"time":3,"distance":2671,"line":2,"is_transit":false},{"station_id":"UP","line":2,"distance":1029,"transit":false,"time":2,"station_name":"Univ. Pancasila","is_transit":false,"i_long":106.834175,"i_lat":-6.339291},{"station_name":"Univ. Indonesia","station_id":"UI","line":2,"distance":2264,"transit":false,"is_transit":false,"i_lat":-6.360749,"i_long":106.831474,"time":3},{"distance":1109,"line":2,"i_lat":-6.369073,"time":2,"station_id":"POC","is_transit":false,"station_name":"Pondok Cina","transit":false,"i_long":106.831114},{"line":2,"station_name":"Depokbaru","distance":2727,"time":4,"is_transit":false,"station_id":"DPB","transit":false,"i_lat":-6.391065,"i_long":106.819451},{"transit":false,"station_id":"DP","i_lat":-6.405256,"station_name":"Depok","time":3,"distance":1584,"is_transit":false,"i_long":106.816926,"line":2},{"line":2,"is_transit":true,"transit":true,"distance":5084,"station_id":"CTA","i_lat":-6.448811,"i_long":106.800298,"time":6,"station_name":"Citayam"},{"is_transit":false,"time":0,"distance":0,"line":21,"station_id":"PDRG","i_lat":-6.460735,"transit":false,"i_long":106.824374,"station_name":"Pondok Rajeg"},{"transit":false,"distance":0,"i_long":106.851978,"is_transit":false,"time":0,"station_id":"CBN","i_lat":-6.46424,"line":21,"station_name":"Cibinong"},{"transit":false,"time":10,"line":21,"station_name":"Nambo","i_long":106.905196,"distance":6527,"station_id":"NMO","i_lat":-6.466285,"is_transit":false}],[{"distance":0,"station_name":"Gang Sentiong","transit":false,"station_id":"GST","line":11,"i_long":106.850107,"is_transit":false,"time":0,"i_lat":-6.185975},{"station_id":"PSE","time":8,"line":11,"station_name":"Pasar Senen","is_transit":false,"transit":false,"i_long":106.84368,"distance":1567,"i_lat":-6.174784},{"transit":false,"line":11,"is_transit":false,"station_id":"KMO","i_long":106.839204,"station_name":"Kemayoran","time":4,"distance":1436,"i_lat":-6.161728},{"station_id":"RJW","is_transit":false,"i_long":106.836569,"transit":false,"time":5,"i_lat":-6.14505,"line":11,"station_name":"Rajawali","distance":1901},{"is_transit":true,"station_id":"KPB","i_lat":-6.132549,"station_name":"Kampung Bandan","line":4,"i_long":106.826365,"time":3,"distance":1444,"transit":true},{"i_lat":-6.144674,"station_name":"Angke","i_long":106.79867,"distance":4102,"time":9,"transit":false,"line":1,"station_id":"AK","is_transit":false},{"distance":1230,"i_lat":-6.155215,"transit":false,"station_name":"Duri","line":1,"station_id":"DU","i_long":106.800832,"is_transit":false,"time":4},{"distance":3632,"i_lat":-6.185545,"line":1,"transit":false,"is_transit":false,"time":8,"i_long":106.811091,"station_id":"THB","station_name":"Tanah Abang"},{"time":5,"i_lat":-6.20132,"line":1,"distance":2029,"is_transit":false,"transit":false,"station_name":"Karet","i_long":106.816351,"station_id":"KAT"},{"distance":471,"transit":false,"station_name":"Sudirman Baru","is_transit":false,"i_lat":-6.201433,"station_id":"SUDB","i_long":106.819881,"line":1,"time":1},{"time":1,"i_long":106.822649,"transit":false,"station_id":"SUD","line":1,"distance":280,"i_lat":-6.202263,"station_name":"Sudirman","is_transit":false},{"i_long":106.84912,"transit":true,"distance":3186,"time":4,"is_transit":true,"station_name":"Manggarai","line":2,"i_lat":-6.209883,"station_id":"MRI"},{"station_id":"TEB","line":2,"i_lat":-6.226659,"transit":false,"i_long":106.857948,"station_name":"Tebet","time":4,"is_transit":false,"distance":2610},{"i_lat":-6.242512,"i_long":106.856607,"line":2,"station_name":"Cawang","transit":false,"is_transit":false,"distance":1230,"station_id":"CW","time":2},{"transit":false,"distance":1546,"i_lat":-6.255332,"line":2,"is_transit":false,"station_name":"Duren Kalibata","i_long":106.85449,"station_id":"DRN","time":3},{"distance":824,"station_name":"Pasar Minggu Baru","line":2,"i_lat":-6.263214,"transit":false,"i_long":106.851577,"station_id":"PSMB","is_transit":false,"time":2},{"time":2,"station_name":"Pasar Minggu","station_id":"PSM","i_long":106.843999,"line":2,"transit":false,"distance":2380,"is_transit":false,"i_lat":-6.2842400000000005},{"transit":false,"i_long":106.838896,"line":2,"time":4,"station_name":"Tanjung Barat","is_transit":false,"station_id":"TNT","i_lat":-6.3080680000000005,"distance":2820},{"station_name":"Lenteng Agung","is_transit":false,"time":3,"i_long":106.832616,"i_lat":-6.330363,"distance":2671,"station_id":"LNA","line":2,"transit":false},{"line":2,"i_long":106.834175,"distance":1029,"is_transit":false,"time":2,"station_name":"Univ. Pancasila","i_lat":-6.339291,"transit":false,"station_id":"UP"},{"time":3,"station_name":"Univ. Indonesia","i_long":106.831474,"transit":false,"is_transit":false,"station_id":"UI","distance":2264,"line":2,"i_lat":-6.360749},{"distance":1109,"i_lat":-6.369073,"line":2,"station_id":"POC","is_transit":false,"time":2,"i_long":106.831114,"transit":false,"station_name":"Pondok Cina"},{"i_lat":-6.391065,"transit":false,"line":2,"station_name":"Depokbaru","station_id":"DPB","is_transit":false,"i_long":106.819451,"distance":2727,"time":4},{"station_id":"DP","time":3,"transit":false,"line":2,"station_name":"Depok","is_transit":false,"i_lat":-6.405256,"i_long":106.816926,"distance":1584},{"time":6,"is_transit":true,"distance":5084,"station_name":"Citayam","i_long":106.800298,"station_id":"CTA","transit":true,"i_lat":-6.448811,"line":2},{"i_lat":-6.460735,"is_transit":false,"time":0,"station_id":"PDRG","station_name":"Pondok Rajeg","line":21,"transit":false,"distance":0,"i_long":106.824374},{"is_transit":false,"i_long":106.851978,"distance":0,"station_id":"CBN","line":21,"station_name":"Cibinong","transit":false,"i_lat":-6.46424,"time":0},{"time":10,"is_transit":false,"distance":6527,"station_id":"NMO","line":21,"station_name":"Nambo","i_long":106.905196,"i_lat":-6.466285,"transit":false}],[{"distance":0,"station_name":"Gang Sentiong","station_id":"GST","i_long":106.850107,"time":0,"transit":false,"i_lat":-6.185975,"is_transit":false,"line":11},{"time":8,"is_transit":false,"transit":false,"station_id":"PSE","i_long":106.84368,"distance":1567,"station_name":"Pasar Senen","i_lat":-6.174784,"line":11},{"is_transit":false,"time":4,"i_long":106.839204,"distance":1436,"line":11,"transit":false,"station_id":"KMO","i_lat":-6.161728,"station_name":"Kemayoran"},{"i_long":106.836569,"station_name":"Rajawali","transit":false,"i_lat":-6.14505,"is_transit":false,"line":11,"distance":1901,"station_id":"RJW","time":5},{"transit":true,"station_name":"Kampung Bandan","time":3,"i_lat":-6.132549,"distance":1444,"station_id":"KPB","line":4,"i_long":106.826365,"is_transit":true},{"transit":true,"time":3,"i_long":106.812439,"line":2,"station_id":"JAKK","distance":1364,"is_transit":true,"station_name":"Jakarta Kota","i_lat":-6.137569},{"i_lat":-6.141205,"line":2,"i_long":106.820901,"distance":1264,"is_transit":false,"station_id":"JAY","time":4,"transit":false,"station_name":"Jayakarta"},{"i_long":106.82482,"time":2,"station_id":"MGB","i_lat":-6.149769,"is_transit":false,"transit":false,"station_name":"Manggabesar","distance":1080,"line":2},{"station_id":"SW","distance":906,"i_lat":-6.160725,"line":2,"station_name":"Sawah Besar","i_long":106.827103,"time":2,"is_transit":false,"transit":false},{"is_transit":false,"station_name":"Juanda","station_id":"JUA","distance":1149,"transit":false,"line":2,"time":2,"i_long":106.828284,"i_lat":-6.166716},{"station_name":"Gondangdia","is_transit":false,"distance":2015,"i_lat":-6.186295,"i_long":106.832183,"line":2,"transit":false,"station_id":"GDD","time":4},{"station_name":"Cikini","i_long":106.840169,"transit":false,"time":3,"is_transit":false,"i_lat":-6.198556,"distance":1750,"station_id":"CKI","line":2},{"i_long":106.84912,"station_id":"MRI","distance":1590,"i_lat":-6.209883,"time":4,"station_name":"Manggarai","line":2,"is_transit":false,"transit":false},{"i_lat":-6.226659,"transit":false,"station_id":"TEB","line":2,"time":4,"i_long":106.857948,"station_name":"Tebet","is_transit":false,"distance":2610},{"station_id":"CW","distance":1230,"time":2,"transit":false,"i_long":106.856607,"station_name":"Cawang","is_transit":false,"line":2,"i_lat":-6.242512},{"transit":false,"is_transit":false,"station_name":"Duren Kalibata","i_lat":-6.255332,"line":2,"distance":1546,"station_id":"DRN","i_long":106.85449,"time":3},{"station_id":"PSMB","line":2,"station_name":"Pasar Minggu Baru","is_transit":false,"time":2,"distance":824,"transit":false,"i_lat":-6.263214,"i_long":106.851577},{"transit":false,"line":2,"station_name":"Pasar Minggu","station_id":"PSM","is_transit":false,"distance":2380,"i_lat":-6.2842400000000005,"i_long":106.843999,"time":2},{"i_lat":-6.3080680000000005,"i_long":106.838896,"time":4,"line":2,"transit":false,"station_name":"Tanjung Barat","is_transit":false,"distance":2820,"station_id":"TNT"},{"is_transit":false,"i_long":106.832616,"line":2,"time":3,"station_id":"LNA","station_name":"Lenteng Agung","i_lat":-6.330363,"distance":2671,"transit":false},{"transit":false,"time":2,"i_long":106.834175,"station_name":"Univ. Pancasila","line":2,"station_id":"UP","is_transit":false,"i_lat":-6.339291,"distance":1029},{"station_name":"Univ. Indonesia","transit":false,"distance":2264,"i_lat":-6.360749,"is_transit":false,"i_long":106.831474,"station_id":"UI","line":2,"time":3},{"i_lat":-6.369073,"is_transit":false,"time":2,"distance":1109,"transit":false,"station_id":"POC","station_name":"Pondok Cina","i_long":106.831114,"line":2},{"station_name":"Depokbaru","is_transit":false,"time":4,"distance":2727,"i_long":106.819451,"line":2,"transit":false,"i_lat":-6.391065,"station_id":"DPB"},{"is_transit":false,"line":2,"station_name":"Depok","station_id":"DP","i_lat":-6.405256,"time":3,"i_long":106.816926,"transit":false,"distance":1584},{"station_id":"CTA","i_lat":-6.448811,"is_transit":true,"line":2,"i_long":106.800298,"time":6,"transit":true,"station_name":"Citayam","distance":5084},{"i_long":106.824374,"distance":0,"transit":false,"station_id":"PDRG","line":21,"station_name":"Pondok Rajeg","time":0,"i_lat":-6.460735,"is_transit":false},{"is_transit":false,"station_id":"CBN","i_long":106.851978,"time":0,"distance":0,"station_name":"Cibinong","i_lat":-6.46424,"line":21,"transit":false},{"line":21,"distance":6527,"transit":false,"i_long":106.905196,"i_lat":-6.466285,"time":10,"is_transit":false,"station_name":"Nambo","station_id":"NMO"}]]}