{"data":[[{"transit":false,"line":11,"i_long":106.850107,"i_lat":-6.185975,"distance":0,"station_name":"Gang Sentiong","is_transit":false,"time":0,"station_id":"GST"},{"station_name":"Pasar Senen","transit":false,"i_lat":-6.174784,"time":8,"i_long":106.84368,"line":11,"station_id":"PSE","is_transit":false,"distance":1567},{"station_name":"Kemayoran","i_long":106.839204,"line":11,"station_id":"KMO","transit":false,"i_lat":-6.161728,"time":4,"distance":1436,"is_transit":false},{"station_name":"Rajawali","line":11,"station_id":"RJW","i_long":106.836569,"distance":1901,"time":5,"is_transit":false,"transit":false,"i_lat":-6.14505},{"i_lat":-6.132549,"i_long":106.826365,"is_transit":true,"distance":1444,"station_name":"Kampung Bandan","line":0,"station_id":"KPB","transit":true,"time":3},{"station_name":"Angke","i_lat":-6.144674,"time":9,"line":0,"transit":false,"i_long":106.79867,"distance":4102,"station_id":"AK","is_transit":false},{"distance":1230,"station_id":"DU","is_transit":true,"transit":true,"station_name":"Duri","line":1,"i_lat":-6.155215,"time":4,"i_long":106.800832},{"transit":true,"line":1,"station_name":"Tanah Abang","i_lat":-6.185545,"i_long":106.811091,"time":8,"distance":3632,"station_id":"THB","is_transit":true},{"time":6,"distance":3191,"i_long":106.79689,"station_id":"PLM","line":6,"i_lat":-6.207404,"station_name":"Palmerah","transit":false,"is_transit":false},{"station_id":"KBY","is_transit":false,"transit":false,"time":7,"i_lat":-6.237242,"i_long":106.780334,"distance":3737,"line":6,"station_name":"Kebayoran"},{"line":6,"transit":false,"i_long":106.74273,"is_transit":false,"distance":6218,"station_name":"Pondokranji","station_id":"PDJ","i_lat":-6.276362,"time":8},{"i_long":106.728916,"station_id":"JMU","distance":2179,"is_transit":false,"time":3,"station_name":"Jurangmangu","transit":false,"i_lat":-6.288927,"line":6},{"is_transit":false,"i_lat":-6.296963,"time":4,"line":6,"i_long":106.712277,"station_id":"SDM","distance":1994,"transit":false,"station_name":"Sudimara"},{"station_name":"Rawa Buntu","transit":false,"i_lat":-6.314823,"i_long":106.675475,"line":6,"station_id":"RU","is_transit":false,"time":6,"distance":4566},{"line":6,"station_name":"Serpong","station_id":"SRP","distance":2413,"transit":false,"i_lat":-6.319871,"time":4,"is_transit":false,"i_long":106.66566},{"i_lat":-6.32484,"line":0,"is_transit":false,"transit":false,"i_long":106.640411,"station_id":"CSK","station_name":"Cisauk","time":4,"distance":1784},{"i_long":106.617853,"transit":false,"time":4,"station_id":"CC","is_transit":false,"station_name":"Cicayur","line":0,"distance":2519,"i_lat":-6.329547},{"station_id":"PRP","time":8,"i_lat":-6.3441410000000005,"i_long":106.568863,"distance":5968,"line":6,"station_name":"Parung Panjang","transit":false,"is_transit":false},{"transit":false,"is_transit":false,"i_lat":-6.354349,"i_long":106.508482,"station_name":"Cilejit","time":9,"line":0,"station_id":"CJT","distance":7025},{"line":0,"time":6,"is_transit":false,"station_id":"DAR","i_long":106.491338,"transit":false,"i_lat":-6.338021,"station_name":"Daru","distance":2675},{"i_lat":-6.327251,"line":6,"station_name":"Tenjo","is_transit":false,"transit":false,"station_id":"TEJ","distance":3902,"i_long":106.460812,"time":5},{"i_long":106.425991,"distance":2974,"i_lat":-6.328533,"line":6,"is_transit":false,"transit":false,"time":5,"station_name":"Tigaraksa","station_id":"TGS"},{"station_name":"Cikoya","i_long":106.411216,"time":3,"station_id":"CKY","line":0,"is_transit":false,"distance":2651,"transit":false,"i_lat":-6.33561},{"i_lat":-6.332307,"transit":false,"line":6,"i_long":106.394373,"distance":1853,"time":4,"station_id":"MJ","station_name":"Maja","is_transit":false}],[{"station_id":"GST","transit":false,"is_transit":false,"station_name":"Gang Sentiong","line":11,"distance":0,"time":0,"i_lat":-6.185975,"i_long":106.850107},{"line":11,"distance":973,"transit":false,"is_transit":false,"i_long":106.855437,"station_name":"Kramat","time":1,"i_lat":-6.193792,"station_id":"KMT"},{"station_name":"Pondok Jati","distance":1829,"i_lat":-6.209188,"is_transit":false,"station_id":"POK","i_long":106.861737,"time":2,"transit":false,"line":11},{"i_lat":-6.215091,"line":0,"i_long":106.86807400000001,"station_id":"JNG","is_transit":true,"distance":1236,"time":9,"station_name":"Jatinegara","transit":true},{"is_transit":false,"i_lat":-6.212485,"distance":1377,"i_long":106.858896,"line":1,"station_name":"Matraman","transit":false,"time":2,"station_id":"MTR"},{"i_lat":-6.209883,"distance":1275,"station_id":"MRI","transit":false,"is_transit":true,"station_name":"Manggarai","time":2,"i_long":106.84912,"line":0},{"is_transit":false,"line":1,"distance":3186,"i_lat":-6.202263,"station_id":"SUD","time":4,"transit":false,"station_name":"Sudirman","i_long":106.822649},{"transit":false,"line":1,"station_id":"SUDB","i_lat":-6.201433,"i_long":106.819881,"distance":280,"station_name":"Sudirman Baru","time":1,"is_transit":false},{"distance":471,"transit":false,"i_long":106.816351,"line":1,"station_name":"Karet","time":1,"station_id":"KAT","is_transit":false,"i_lat":-6.20132},{"is_transit":true,"station_name":"Tanah Abang","distance":2029,"station_id":"THB","transit":true,"i_lat":-6.185545,"i_long":106.811091,"line":1,"time":5},{"i_long":106.79689,"is_transit":false,"distance":3191,"i_lat":-6.207404,"station_name":"Palmerah","station_id":"PLM","line":6,"transit":false,"time":6},{"line":6,"i_lat":-6.237242,"is_transit":false,"station_id":"KBY","distance":3737,"time":7,"i_long":106.780334,"station_name":"Kebayoran","transit":false},{"time":8,"i_long":106.74273,"station_id":"PDJ","station_name":"Pondokranji","line":6,"distance":6218,"i_lat":-6.276362,"is_transit":false,"transit":false},{"is_transit":false,"station_id":"JMU","i_lat":-6.288927,"i_long":106.728916,"line":6,"time":3,"station_name":"Jurangmangu","transit":false,"distance":2179},{"is_transit":false,"distance":1994,"time":4,"transit":false,"line":6,"i_lat":-6.296963,"i_long":106.712277,"station_id":"SDM","station_name":"Sudimara"},{"is_transit":false,"i_lat":-6.314823,"time":6,"transit":false,"i_long":106.675475,"station_id":"RU","line":6,"station_name":"Rawa Buntu","distance":4566},{"transit":false,"station_name":"Serpong","is_transit":false,"i_lat":-6.319871,"i_long":106.66566,"line":6,"station_id":"SRP","distance":2413,"time":4},{"distance":1784,"station_name":"Cisauk","transit":false,"line":0,"i_lat":-6.32484,"i_long":106.640411,"is_transit":false,"station_id":"CSK","time":4},{"station_id":"CC","is_transit":false,"time":4,"i_lat":-6.329547,"i_long":106.617853,"line":0,"station_name":"Cicayur","transit":false,"distance":2519},{"transit":false,"is_transit":false,"line":6,"station_id":"PRP","distance":5968,"i_lat":-6.3441410000000005,"i_long":106.568863,"station_name":"Parung Panjang","time":8},{"time":9,"station_name":"Cilejit","is_transit":false,"distance":7025,"transit":false,"i_long":106.508482,"station_id":"CJT","i_lat":-6.354349,"line":0},{"distance":2675,"station_id":"DAR","is_transit":false,"time":6,"station_name":"Daru","i_lat":-6.338021,"transit":false,"i_long":106.491338,"line":0},{"i_lat":-6.327251,"station_id":"TEJ","i_long":106.460812,"time":5,"distance":3902,"station_name":"Tenjo","transit":false,"line":6,"is_transit":false},{"line":6,"transit":false,"i_lat":-6.328533,"station_id":"TGS","is_transit":false,"i_long":106.425991,"time":5,"station_name":"Tigaraksa","distance":2974},{"distance":2651,"is_transit":false,"i_lat":-6.33561,"line":0,"i_long":106.411216,"station_name":"Cikoya","time":3,"station_id":"CKY","transit":false},{"station_id":"MJ","i_lat":-6.332307,"station_name":"Maja","is_transit":false,"time":4,"i_long":106.394373,"line":6,"transit":false,"distance":1853}],[{"distance":0,"transit":false,"line":11,"is_transit":false,"station_name":"Gang Sentiong","i_lat":-6.185975,"station_id":"GST","time":0,"i_long":106.850107},{"transit":false,"is_transit":false,"station_id":"KMT","line":11,"station_name":"Kramat","i_lat":-6.193792,"distance":973,"i_long":106.855437,"time":1},{"station_id":"POK","distance":1829,"time":2,"i_long":106.861737,"station_name":"Pondok Jati","transit":false,"i_lat":-6.209188,"line":11,"is_transit":false},{"time":9,"i_long":106.86807400000001,"distance":1236,"i_lat":-6.215091,"transit":true,"station_name":"Jatinegara","line":0,"station_id":"JNG","is_transit":true},{"station_id":"MTR","station_name":"Matraman","i_lat":-6.212485,"is_transit":false,"time":2,"i_long":106.858896,"distance":1377,"transit":false,"line":1},{"transit":true,"station_id":"MRI","time":2,"i_long":106.84912,"line":0,"distance":1275,"station_name":"Manggarai","i_lat":-6.209883,"is_transit":true},{"station_id":"CKI","i_lat":-6.198556,"transit":false,"i_long":106.840169,"distance":1590,"time":4,"is_transit":false,"line":0,"station_name":"Cikini"},{"distance":1750,"station_name":"Gondangdia","station_id":"GDD","is_transit":false,"transit":false,"i_lat":-6.186295,"i_long":106.832183,"time":3,"line":2},{"line":2,"i_long":106.828284,"distance":2015,"station_name":"Juanda","is_transit":false,"time":4,"transit":false,"i_lat":-6.166716,"station_id":"JUA"},{"station_name":"Sawah Besar","distance":1149,"time":2,"transit":false,"is_transit":false,"station_id":"SW","i_lat":-6.160725,"i_long":106.827103,"line":2},{"i_long":106.82482,"station_id":"MGB","time":2,"is_transit":false,"transit":false,"i_lat":-6.149769,"distance":906,"station_name":"Manggabesar","line":2},{"i_long":106.820901,"line":7,"transit":false,"time":2,"station_name":"Jayakarta","distance":1080,"i_lat":-6.141205,"station_id":"JAY","is_transit":false},{"i_long":106.812439,"is_transit":true,"i_lat":-6.137569,"station_id":"JAKK","time":4,"distance":1264,"line":0,"station_name":"Jakarta Kota","transit":true},{"transit":false,"station_id":"KPB","i_long":106.826365,"time":3,"line":0,"is_transit":true,"station_name":"Kampung Bandan","i_lat":-6.132549,"distance":1364},{"transit":false,"time":9,"station_id":"AK","i_lat":-6.144674,"i_long":106.79867,"line":0,"is_transit":false,"distance":4102,"station_name":"Angke"},{"station_name":"Duri","line":1,"is_transit":true,"time":4,"station_id":"DU","distance":1230,"transit":true,"i_long":106.800832,"i_lat":-6.155215},{"transit":true,"station_name":"Tanah Abang","station_id":"THB","is_transit":true,"i_lat":-6.185545,"i_long":106.811091,"distance":3632,"line":1,"time":8},{"i_lat":-6.207404,"line":6,"transit":false,"station_name":"Palmerah","distance":3191,"station_id":"PLM","is_transit":false,"time":6,"i_long":106.79689},{"line":6,"time":7,"station_id":"KBY","transit":false,"distance":3737,"i_lat":-6.237242,"station_name":"Kebayoran","i_long":106.780334,"is_transit":false},{"is_transit":false,"station_id":"PDJ","distance":6218,"station_name":"Pondokranji","i_long":106.74273,"line":6,"time":8,"transit":false,"i_lat":-6.276362},{"line":6,"transit":false,"is_transit":false,"station_name":"Jurangmangu","i_lat":-6.288927,"i_long":106.728916,"station_id":"JMU","time":3,"distance":2179},{"distance":1994,"time":4,"station_id":"SDM","transit":false,"i_long":106.712277,"line":6,"i_lat":-6.296963,"station_name":"Sudimara","is_transit":false},{"is_transit":false,"station_id":"RU","i_long":106.675475,"distance":4566,"station_name":"Rawa Buntu","line":6,"time":6,"transit":false,"i_lat":-6.314823},{"line":6,"distance":2413,"station_id":"SRP","is_transit":false,"i_lat":-6.319871,"i_long":106.66566,"station_name":"Serpong","transit":false,"time":4},{"station_id":"CSK","is_transit":false,"distance":1784,"transit":false,"i_lat":-6.32484,"station_name":"Cisauk","time":4,"line":0,"i_long":106.640411},{"line":0,"time":4,"station_id":"CC","station_name":"Cicayur","transit":false,"i_long":106.617853,"distance":2519,"i_lat":-6.329547,"is_transit":false},{"is_transit":false,"distance":5968,"station_id":"PRP","station_name":"Parung Panjang","transit":false,"line":6,"time":8,"i_lat":-6.3441410000000005,"i_long":106.568863},{"line":0,"i_lat":-6.354349,"time":9,"is_transit":false,"i_long":106.508482,"station_name":"Cilejit","station_id":"CJT","distance":7025,"transit":false},{"transit":false,"i_lat":-6.338021,"line":0,"time":6,"station_id":"DAR","i_long":106.491338,"is_transit":false,"distance":2675,"station_name":"Daru"},{"station_id":"TEJ","transit":false,"station_name":"Tenjo","distance":3902,"i_lat":-6.327251,"i_long":106.460812,"line":6,"time":5,"is_transit":false},{"line":6,"time":5,"station_name":"Tigaraksa","is_transit":false,"transit":false,"station_id":"TGS","i_lat":-6.328533,"distance":2974,"i_long":106.425991},{"i_long":106.411216,"station_id":"CKY","station_name":"Cikoya","i_lat":-6.33561,"transit":false,"line":0,"is_transit":false,"distance":2651,"time":3},{"line":6,"time":4,"station_id":"MJ","transit":false,"i_long":106.394373,"i_lat":-6.332307,"station_name":"Maja","distance":1853,"is_transit":false}],[{"station_id":"GST","transit":false,"time":0,"distance":0,"station_name":"Gang Sentiong","i_lat":-6.185975,"line":11,"i_long":106.850107,"is_transit":false},{"i_long":106.84368,"station_name":"Pasar Senen","i_lat":-6.174784,"station_id":"PSE","transit":false,"line":11,"time":8,"is_transit":false,"distance":1567},{"time":4,"is_transit":false,"transit":false,"distance":1436,"i_long":106.839204,"line":11,"station_id":"KMO","station_name":"Kemayoran","i_lat":-6.161728},{"i_long":106.836569,"station_name":"Rajawali","is_transit":false,"i_lat":-6.14505,"line":11,"transit":false,"station_id":"RJW","time":5,"distance":1901},{"is_transit":true,"distance":1444,"station_name":"Kampung Bandan","i_lat":-6.132549,"i_long":106.826365,"line":0,"station_id":"KPB","time":3,"transit":true},{"line":0,"station_id":"JAKK","station_name":"Jakarta Kota","i_lat":-6.137569,"transit":true,"distance":1364,"time":3,"is_transit":true,"i_long":106.812439},{"station_name":"Jayakarta","transit":false,"distance":1264,"is_transit":false,"line":7,"time":4,"i_lat":-6.141205,"station_id":"JAY","i_long":106.820901},{"i_long":106.82482,"is_transit":false,"time":2,"station_name":"Manggabesar","transit":false,"station_id":"MGB","i_lat":-6.149769,"line":2,"distance":1080},{"station_id":"SW","i_lat":-6.160725,"i_long":106.827103,"is_transit":false,"transit":false,"time":2,"line":2,"station_name":"Sawah Besar","distance":906},{"line":2,"station_id":"JUA","transit":false,"i_long":106.828284,"is_transit":false,"station_name":"Juanda","i_lat":-6.166716,"time":2,"distance":1149},{"station_id":"GDD","is_transit":false,"distance":2015,"transit":false,"i_lat":-6.186295,"station_name":"Gondangdia","time":4,"i_long":106.832183,"line":2},{"is_transit":false,"station_name":"Cikini","i_lat":-6.198556,"i_long":106.840169,"time":3,"transit":false,"station_id":"CKI","distance":1750,"line":0},{"distance":1590,"time":4,"station_id":"MRI","is_transit":true,"transit":true,"i_lat":-6.209883,"station_name":"Manggarai","line":0,"i_long":106.84912},{"distance":3186,"i_long":106.822649,"line":1,"station_name":"Sudirman","transit":false,"i_lat":-6.202263,"station_id":"SUD","is_transit":false,"time":4},{"time":1,"station_id":"SUDB","distance":280,"transit":false,"i_lat":-6.201433,"is_transit":false,"i_long":106.819881,"station_name":"Sudirman Baru","line":1},{"i_long":106.816351,"station_id":"KAT","distance":471,"transit":false,"i_lat":-6.20132,"station_name":"Karet","line":1,"is_transit":false,"time":1},{"station_name":"Tanah Abang","time":5,"is_transit":true,"distance":2029,"station_id":"THB","i_lat":-6.185545,"transit":true,"i_long":106.811091,"line":1},{"i_long":106.79689,"time":6,"station_name":"Palmerah","transit":false,"i_lat":-6.207404,"line":6,"distance":3191,"is_transit":false,"station_id":"PLM"},{"is_transit":false,"station_name":"Kebayoran","time":7,"line":6,"transit":false,"i_long":106.780334,"i_lat":-6.237242,"station_id":"KBY","distance":3737},{"transit":false,"time":8,"line":6,"i_long":106.74273,"distance":6218,"i_lat":-6.276362,"is_transit":false,"station_id":"PDJ","station_name":"Pondokranji"},{"i_long":106.728916,"station_name":"Jurangmangu","line":6,"station_id":"JMU","distance":2179,"time":3,"is_transit":false,"transit":false,"i_lat":-6.288927},{"i_lat":-6.296963,"is_transit":false,"time":4,"station_id":"SDM","distance":1994,"line":6,"transit":false,"i_long":106.712277,"station_name":"Sudimara"},{"transit":false,"station_id":"RU","is_transit":false,"station_name":"Rawa Buntu","i_long":106.675475,"i_lat":-6.314823,"distance":4566,"line":6,"time":6},{"is_transit":false,"distance":2413,"station_id":"SRP","transit":false,"i_long":106.66566,"time":4,"station_name":"Serpong","i_lat":-6.319871,"line":6},{"station_id":"CSK","time":4,"is_transit":false,"distance":1784,"i_lat":-6.32484,"i_long":106.640411,"line":0,"transit":false,"station_name":"Cisauk"},{"is_transit":false,"station_name":"Cicayur","transit":false,"time":4,"station_id":"CC","line":0,"i_long":106.617853,"i_lat":-6.329547,"distance":2519},{"transit":false,"i_long":106.568863,"distance":5968,"station_name":"Parung Panjang","time":8,"is_transit":false,"i_lat":-6.3441410000000005,"station_id":"PRP","line":6},{"time":9,"transit":false,"station_name":"Cilejit","line":0,"i_lat":-6.354349,"i_long":106.508482,"station_id":"CJT","distance":7025,"is_transit":false},{"time":6,"i_long":106.491338,"i_lat":-6.338021,"line":0,"transit":false,"station_name":"Daru","station_id":"DAR","is_transit":false,"distance":2675},{"i_long":106.460812,"line":6,"transit":false,"i_lat":-6.327251,"distance":3902,"station_id":"TEJ","time":5,"is_transit":false,"station_name":"Tenjo"},{"is_transit":false,"i_long":106.425991,"station_id":"TGS","time":5,"transit":false,"station_name":"Tigaraksa","line":6,"i_lat":-6.328533,"distance":2974},{"time":3,"distance":2651,"i_lat":-6.33561,"station_name":"Cikoya","transit":false,"station_id":"CKY","i_long":106.411216,"line":0,"is_transit":false},{"i_lat":-6.332307,"station_name":"Maja","transit":false,"line":6,"is_transit":false,"time":4,"station_id":"MJ","distance":1853,"i_long":106.394373}]]}