{"data":[[{"is_transit":false,"i_long":106.850107,"i_lat":-6.185975,"line":11,"transit":false,"distance":0,"station_id":"GST","station_name":"Gang Sentiong","time":0},{"transit":false,"is_transit":false,"station_name":"Kramat","station_id":"KMT","distance":973,"i_lat":-6.193792,"i_long":106.855437,"line":11,"time":1},{"transit":false,"line":11,"time":2,"station_name":"Pondok Jati","i_long":106.861737,"is_transit":false,"i_lat":-6.209188,"station_id":"POK","distance":1829},{"distance":1236,"is_transit":true,"i_long":106.86807400000001,"station_name":"Jatinegara","line":0,"i_lat":-6.215091,"time":9,"transit":true,"station_id":"JNG"},{"distance":3395,"station_name":"Klender","i_lat":-6.2135,"station_id":"KLD","is_transit":false,"time":3,"line":1,"transit":false,"i_long":106.899548},{"time":2,"is_transit":false,"i_lat":-6.215568,"line":0,"station_name":"Buaran","i_long":106.922662,"transit":false,"distance":3100,"station_id":"BUA"},{"transit":false,"line":1,"i_lat":-6.217455,"distance":1305,"station_name":"Klenderbaru","time":1,"i_long":106.939679,"is_transit":false,"station_id":"KLDB"},{"station_id":"CUK","time":8,"i_long":106.951283,"line":0,"is_transit":false,"distance":1385,"station_name":"Cakung","i_lat":-6.219053,"transit":false},{"line":1,"station_id":"KRI","transit":false,"station_name":"Kranji","distance":3097,"is_transit":false,"i_long":106.977657,"i_lat":-6.224515,"time":3}],[{"distance":0,"station_name":"Gang Sentiong","line":11,"station_id":"GST","time":0,"i_long":106.850107,"i_lat":-6.185975,"transit":false,"is_transit":false},{"distance":1567,"station_id":"PSE","is_transit":false,"i_lat":-6.174784,"i_long":106.84368,"line":11,"transit":false,"time":8,"station_name":"Pasar Senen"},{"is_transit":false,"transit":false,"line":11,"time":4,"distance":1436,"station_name":"Kemayoran","station_id":"KMO","i_lat":-6.161728,"i_long":106.839204},{"distance":1901,"station_id":"RJW","transit":false,"line":11,"station_name":"Rajawali","is_transit":false,"i_lat":-6.14505,"i_long":106.836569,"time":5},{"is_transit":true,"i_lat":-6.132549,"station_id":"KPB","line":0,"i_long":106.826365,"station_name":"Kampung Bandan","transit":true,"time":3,"distance":1444},{"transit":false,"line":0,"i_long":106.79867,"i_lat":-6.144674,"is_transit":false,"distance":4102,"time":9,"station_name":"Angke","station_id":"AK"},{"station_name":"Duri","line":1,"distance":1230,"station_id":"DU","transit":true,"i_lat":-6.155215,"i_long":106.800832,"time":4,"is_transit":true},{"is_transit":true,"station_id":"THB","transit":false,"time":8,"distance":3632,"station_name":"Tanah Abang","i_lat":-6.185545,"i_long":106.811091,"line":1},{"distance":2029,"time":5,"line":1,"station_id":"KAT","station_name":"Karet","transit":false,"i_lat":-6.20132,"is_transit":false,"i_long":106.816351},{"i_long":106.819881,"transit":false,"line":1,"distance":471,"i_lat":-6.201433,"station_id":"SUDB","is_transit":false,"time":1,"station_name":"Sudirman Baru"},{"station_name":"Sudirman","i_lat":-6.202263,"i_long":106.822649,"line":1,"distance":280,"time":1,"station_id":"SUD","is_transit":false,"transit":false},{"i_long":106.84912,"i_lat":-6.209883,"line":0,"is_transit":true,"distance":3186,"station_name":"Manggarai","station_id":"MRI","transit":false,"time":4},{"station_name":"Matraman","line":1,"is_transit":false,"time":2,"i_lat":-6.212485,"distance":1275,"transit":false,"i_long":106.858896,"station_id":"MTR"},{"line":0,"is_transit":true,"time":8,"distance":1377,"station_name":"Jatinegara","i_lat":-6.215091,"station_id":"JNG","transit":false,"i_long":106.86807400000001},{"i_long":106.899548,"line":1,"station_name":"Klender","station_id":"KLD","i_lat":-6.2135,"time":3,"distance":3395,"transit":false,"is_transit":false},{"station_name":"Buaran","line":0,"transit":false,"i_lat":-6.215568,"distance":3100,"is_transit":false,"station_id":"BUA","time":2,"i_long":106.922662},{"transit":false,"station_id":"KLDB","i_lat":-6.217455,"time":1,"is_transit":false,"station_name":"Klenderbaru","line":1,"distance":1305,"i_long":106.939679},{"station_id":"CUK","i_lat":-6.219053,"time":8,"line":0,"is_transit":false,"distance":1385,"station_name":"Cakung","transit":false,"i_long":106.951283},{"station_id":"KRI","transit":false,"i_lat":-6.224515,"is_transit":false,"distance":3097,"i_long":106.977657,"station_name":"Kranji","time":3,"line":1}],[{"station_name":"Gang Sentiong","i_lat":-6.185975,"line":11,"distance":0,"i_long":106.850107,"transit":false,"time":0,"station_id":"GST","is_transit":false},{"i_long":106.84368,"distance":1567,"station_name":"Pasar Senen","transit":false,"station_id":"PSE","i_lat":-6.174784,"line":11,"time":8,"is_transit":false},{"station_name":"Kemayoran","is_transit":false,"i_lat":-6.161728,"station_id":"KMO","i_long":106.839204,"distance":1436,"time":4,"transit":false,"line":11},{"i_long":106.836569,"station_id":"RJW","is_transit":false,"distance":1901,"station_name":"Rajawali","transit":false,"i_lat":-6.14505,"time":5,"line":11},{"line":0,"i_long":106.826365,"station_id":"KPB","is_transit":true,"time":3,"distance":1444,"i_lat":-6.132549,"transit":true,"station_name":"Kampung Bandan"},{"is_transit":true,"time":3,"i_long":106.812439,"line":0,"distance":1364,"station_name":"Jakarta Kota","station_id":"JAKK","transit":true,"i_lat":-6.137569},{"i_lat":-6.141205,"station_id":"JAY","transit":false,"distance":1264,"is_transit":false,"i_long":106.820901,"station_name":"Jayakarta","line":7,"time":4},{"i_lat":-6.149769,"station_name":"Manggabesar","i_long":106.82482,"transit":false,"is_transit":false,"time":2,"distance":1080,"line":2,"station_id":"MGB"},{"station_name":"Sawah Besar","time":2,"transit":false,"station_id":"SW","i_long":106.827103,"distance":906,"is_transit":false,"i_lat":-6.160725,"line":2},{"i_lat":-6.166716,"time":2,"station_name":"Juanda","line":2,"i_long":106.828284,"distance":1149,"is_transit":false,"station_id":"JUA","transit":false},{"distance":2015,"line":2,"station_id":"GDD","station_name":"Gondangdia","time":4,"transit":false,"is_transit":false,"i_long":106.832183,"i_lat":-6.186295},{"is_transit":false,"time":3,"line":0,"station_id":"CKI","station_name":"Cikini","distance":1750,"i_long":106.840169,"transit":false,"i_lat":-6.198556},{"transit":true,"distance":1590,"station_name":"Manggarai","time":4,"is_transit":true,"station_id":"MRI","i_long":106.84912,"line":0,"i_lat":-6.209883},{"station_id":"MTR","transit":false,"distance":1275,"time":2,"i_lat":-6.212485,"line":1,"station_name":"Matraman","is_transit":false,"i_long":106.858896},{"is_transit":true,"i_lat":-6.215091,"station_id":"JNG","transit":false,"i_long":106.86807400000001,"line":0,"distance":1377,"station_name":"Jatinegara","time":8},{"station_name":"Klender","line":1,"station_id":"KLD","i_lat":-6.2135,"is_transit":false,"time":3,"distance":3395,"i_long":106.899548,"transit":false},{"i_lat":-6.215568,"station_id":"BUA","distance":3100,"time":2,"i_long":106.922662,"station_name":"Buaran","is_transit":false,"line":0,"transit":false},{"line":1,"i_long":106.939679,"time":1,"station_id":"KLDB","station_name":"Klenderbaru","transit":false,"i_lat":-6.217455,"is_transit":false,"distance":1305},{"transit":false,"distance":1385,"station_name":"Cakung","i_lat":-6.219053,"station_id":"CUK","line":0,"time":8,"is_transit":false,"i_long":106.951283},{"distance":3097,"station_name":"Kranji","is_transit":false,"station_id":"KRI","i_lat":-6.224515,"i_long":106.977657,"time":3,"transit":false,"line":1}]]}