{"data":[[{"i_lat":-6.185975,"i_long":106.850107,"station_id":"GST","transit":false,"station_name":"Gang Sentiong","distance":0,"time":0,"is_transit":false,"line":11},{"distance":973,"i_lat":-6.193792,"station_name":"Kramat","station_id":"KMT","i_long":106.855437,"line":11,"time":1,"is_transit":false,"transit":false},{"time":2,"line":11,"station_id":"POK","is_transit":false,"i_long":106.861737,"transit":false,"i_lat":-6.209188,"distance":1829,"station_name":"Pondok Jati"},{"station_name":"Jatinegara","station_id":"JNG","transit":true,"distance":1236,"i_long":106.86807400000001,"is_transit":true,"line":1,"time":9,"i_lat":-6.215091},{"i_long":106.858896,"is_transit":false,"transit":false,"station_name":"Matraman","station_id":"MTR","line":1,"distance":1377,"time":2,"i_lat":-6.212485},{"station_name":"Manggarai","time":2,"transit":true,"is_transit":true,"i_lat":-6.209883,"distance":1275,"line":2,"station_id":"MRI","i_long":106.84912},{"time":4,"line":2,"transit":false,"is_transit":false,"i_long":106.857948,"station_name":"Tebet","distance":2610,"station_id":"TEB","i_lat":-6.226659},{"line":2,"time":2,"transit":false,"distance":1230,"station_name":"Cawang","is_transit":false,"i_lat":-6.242512,"station_id":"CW","i_long":106.856607},{"i_lat":-6.255332,"station_id":"DRN","i_long":106.85449,"line":2,"transit":false,"time":3,"distance":1546,"station_name":"Duren Kalibata","is_transit":false},{"station_name":"Pasar Minggu Baru","i_long":106.851577,"line":2,"station_id":"PSMB","time":2,"transit":false,"distance":824,"is_transit":false,"i_lat":-6.263214},{"station_id":"PSM","i_long":106.843999,"distance":2380,"station_name":"Pasar Minggu","is_transit":false,"transit":false,"i_lat":-6.2842400000000005,"time":2,"line":2},{"time":4,"station_name":"Tanjung Barat","station_id":"TNT","distance":2820,"i_long":106.838896,"line":2,"transit":false,"is_transit":false,"i_lat":-6.3080680000000005},{"is_transit":false,"i_lat":-6.330363,"distance":2671,"transit":false,"time":3,"station_id":"LNA","station_name":"Lenteng Agung","i_long":106.832616,"line":2},{"station_id":"UP","distance":1029,"time":2,"transit":false,"station_name":"Univ. Pancasila","is_transit":false,"i_long":106.834175,"i_lat":-6.339291,"line":2},{"i_long":106.831474,"transit":false,"line":2,"i_lat":-6.360749,"station_id":"UI","distance":2264,"time":3,"station_name":"Univ. Indonesia","is_transit":false},{"distance":1109,"transit":false,"is_transit":false,"time":2,"station_id":"POC","station_name":"Pondok Cina","i_long":106.831114,"line":2,"i_lat":-6.369073},{"distance":2727,"station_id":"DPB","station_name":"Depokbaru","time":4,"is_transit":false,"i_lat":-6.391065,"i_long":106.819451,"transit":false,"line":2},{"i_lat":-6.405256,"time":3,"station_name":"Depok","line":2,"distance":1584,"is_transit":false,"transit":false,"i_long":106.816926,"station_id":"DP"},{"time":6,"transit":true,"station_id":"CTA","distance":5084,"i_lat":-6.448811,"station_name":"Citayam","i_long":106.800298,"is_transit":true,"line":2},{"station_name":"Pondok Rajeg","time":0,"transit":false,"distance":0,"i_lat":-6.460735,"is_transit":false,"i_long":106.824374,"line":21,"station_id":"PDRG"}],[{"transit":false,"station_id":"GST","station_name":"Gang Sentiong","i_lat":-6.185975,"distance":0,"i_long":106.850107,"is_transit":false,"line":11,"time":0},{"transit":false,"is_transit":false,"station_id":"PSE","time":8,"distance":1567,"station_name":"Pasar Senen","i_long":106.84368,"i_lat":-6.174784,"line":11},{"line":11,"station_name":"Kemayoran","i_lat":-6.161728,"distance":1436,"time":4,"i_long":106.839204,"is_transit":false,"station_id":"KMO","transit":false},{"time":5,"station_id":"RJW","transit":false,"station_name":"Rajawali","i_lat":-6.14505,"distance":1901,"is_transit":false,"line":11,"i_long":106.836569},{"distance":1444,"i_lat":-6.132549,"i_long":106.826365,"transit":true,"is_transit":true,"time":3,"station_id":"KPB","station_name":"Kampung Bandan","line":4},{"i_lat":-6.144674,"line":1,"station_id":"AK","distance":4102,"time":9,"station_name":"Angke","is_transit":false,"transit":false,"i_long":106.79867},{"line":1,"time":4,"station_name":"Duri","distance":1230,"transit":false,"is_transit":false,"i_lat":-6.155215,"i_long":106.800832,"station_id":"DU"},{"time":8,"station_name":"Tanah Abang","is_transit":false,"i_long":106.811091,"station_id":"THB","line":1,"distance":3632,"i_lat":-6.185545,"transit":false},{"station_id":"KAT","i_lat":-6.20132,"time":5,"line":1,"i_long":106.816351,"station_name":"Karet","distance":2029,"transit":false,"is_transit":false},{"transit":false,"time":1,"line":1,"distance":471,"i_lat":-6.201433,"station_name":"Sudirman Baru","station_id":"SUDB","is_transit":false,"i_long":106.819881},{"time":1,"station_name":"Sudirman","is_transit":false,"line":1,"station_id":"SUD","transit":false,"i_lat":-6.202263,"distance":280,"i_long":106.822649},{"i_long":106.84912,"time":4,"distance":3186,"transit":true,"station_name":"Manggarai","i_lat":-6.209883,"is_transit":true,"station_id":"MRI","line":2},{"transit":false,"i_lat":-6.226659,"station_id":"TEB","station_name":"Tebet","time":4,"line":2,"is_transit":false,"distance":2610,"i_long":106.857948},{"time":2,"station_id":"CW","i_long":106.856607,"distance":1230,"station_name":"Cawang","transit":false,"is_transit":false,"i_lat":-6.242512,"line":2},{"transit":false,"time":3,"station_id":"DRN","distance":1546,"i_lat":-6.255332,"is_transit":false,"i_long":106.85449,"line":2,"station_name":"Duren Kalibata"},{"transit":false,"i_lat":-6.263214,"line":2,"is_transit":false,"distance":824,"i_long":106.851577,"station_id":"PSMB","station_name":"Pasar Minggu Baru","time":2},{"distance":2380,"station_name":"Pasar Minggu","i_long":106.843999,"transit":false,"station_id":"PSM","time":2,"i_lat":-6.2842400000000005,"is_transit":false,"line":2},{"transit":false,"i_lat":-6.3080680000000005,"station_id":"TNT","station_name":"Tanjung Barat","time":4,"distance":2820,"is_transit":false,"i_long":106.838896,"line":2},{"is_transit":false,"i_lat":-6.330363,"time":3,"transit":false,"station_name":"Lenteng Agung","distance":2671,"i_long":106.832616,"line":2,"station_id":"LNA"},{"station_id":"UP","transit":false,"distance":1029,"is_transit":false,"time":2,"station_name":"Univ. Pancasila","i_long":106.834175,"line":2,"i_lat":-6.339291},{"distance":2264,"station_id":"UI","transit":false,"time":3,"station_name":"Univ. Indonesia","i_long":106.831474,"i_lat":-6.360749,"is_transit":false,"line":2},{"line":2,"is_transit":false,"station_id":"POC","station_name":"Pondok Cina","i_lat":-6.369073,"transit":false,"i_long":106.831114,"distance":1109,"time":2},{"station_name":"Depokbaru","station_id":"DPB","distance":2727,"is_transit":false,"line":2,"time":4,"transit":false,"i_lat":-6.391065,"i_long":106.819451},{"station_name":"Depok","time":3,"station_id":"DP","is_transit":false,"i_lat":-6.405256,"i_long":106.816926,"line":2,"distance":1584,"transit":false},{"station_id":"CTA","i_long":106.800298,"line":2,"distance":5084,"is_transit":true,"i_lat":-6.448811,"transit":true,"station_name":"Citayam","time":6},{"time":0,"line":21,"transit":false,"station_name":"Pondok Rajeg","i_long":106.824374,"is_transit":false,"i_lat":-6.460735,"distance":0,"station_id":"PDRG"}],[{"i_long":106.850107,"is_transit":false,"distance":0,"line":11,"station_name":"Gang Sentiong","transit":false,"i_lat":-6.185975,"time":0,"station_id":"GST"},{"is_transit":false,"i_long":106.84368,"line":11,"time":8,"i_lat":-6.174784,"distance":1567,"transit":false,"station_name":"Pasar Senen","station_id":"PSE"},{"time":4,"station_id":"KMO","distance":1436,"i_lat":-6.161728,"i_long":106.839204,"line":11,"station_name":"Kemayoran","is_transit":false,"transit":false},{"i_long":106.836569,"is_transit":false,"i_lat":-6.14505,"time":5,"transit":false,"station_name":"Rajawali","line":11,"station_id":"RJW","distance":1901},{"i_long":106.826365,"i_lat":-6.132549,"line":4,"time":3,"station_id":"KPB","transit":true,"distance":1444,"station_name":"Kampung Bandan","is_transit":true},{"i_lat":-6.137569,"i_long":106.812439,"time":3,"transit":true,"station_id":"JAKK","station_name":"Jakarta Kota","distance":1364,"is_transit":true,"line":2},{"i_long":106.820901,"time":4,"line":2,"station_name":"Jayakarta","transit":false,"distance":1264,"i_lat":-6.141205,"is_transit":false,"station_id":"JAY"},{"line":2,"station_id":"MGB","time":2,"distance":1080,"i_long":106.82482,"station_name":"Manggabesar","transit":false,"is_transit":false,"i_lat":-6.149769},{"station_id":"SW","time":2,"transit":false,"distance":906,"is_transit":false,"i_lat":-6.160725,"i_long":106.827103,"line":2,"station_name":"Sawah Besar"},{"transit":false,"station_name":"Juanda","i_long":106.828284,"line":2,"station_id":"JUA","distance":1149,"time":2,"is_transit":false,"i_lat":-6.166716},{"distance":2015,"is_transit":false,"line":2,"i_lat":-6.186295,"i_long":106.832183,"time":4,"transit":false,"station_name":"Gondangdia","station_id":"GDD"},{"i_long":106.840169,"i_lat":-6.198556,"transit":false,"line":2,"distance":1750,"station_id":"CKI","station_name":"Cikini","time":3,"is_transit":false},{"i_lat":-6.209883,"station_name":"Manggarai","is_transit":false,"line":2,"time":4,"transit":false,"i_long":106.84912,"distance":1590,"station_id":"MRI"},{"is_transit":false,"transit":false,"i_long":106.857948,"station_id":"TEB","line":2,"time":4,"i_lat":-6.226659,"distance":2610,"station_name":"Tebet"},{"i_lat":-6.242512,"time":2,"distance":1230,"line":2,"station_name":"Cawang","is_transit":false,"i_long":106.856607,"station_id":"CW","transit":false},{"line":2,"i_lat":-6.255332,"is_transit":false,"time":3,"transit":false,"distance":1546,"station_name":"Duren Kalibata","i_long":106.85449,"station_id":"DRN"},{"time":2,"transit":false,"distance":824,"is_transit":false,"station_name":"Pasar Minggu Baru","line":2,"i_long":106.851577,"station_id":"PSMB","i_lat":-6.263214},{"line":2,"time":2,"station_name":"Pasar Minggu","transit":false,"i_long":106.843999,"distance":2380,"i_lat":-6.2842400000000005,"station_id":"PSM","is_transit":false},{"is_transit":false,"time":4,"transit":false,"distance":2820,"i_lat":-6.3080680000000005,"station_name":"Tanjung Barat","i_long":106.838896,"station_id":"TNT","line":2},{"time":3,"i_long":106.832616,"line":2,"station_id":"LNA","transit":false,"distance":2671,"is_transit":false,"station_name":"Lenteng Agung","i_lat":-6.330363},{"time":2,"is_transit":false,"distance":1029,"line":2,"transit":false,"station_name":"Univ. Pancasila","station_id":"UP","i_lat":-6.339291,"i_long":106.834175},{"station_id":"UI","station_name":"Univ. Indonesia","i_long":106.831474,"is_transit":false,"line":2,"transit":false,"time":3,"distance":2264,"i_lat":-6.360749},{"time":2,"i_lat":-6.369073,"is_transit":false,"transit":false,"station_name":"Pondok Cina","station_id":"POC","i_long":106.831114,"distance":1109,"line":2},{"is_transit":false,"station_id":"DPB","station_name":"Depokbaru","i_lat":-6.391065,"line":2,"transit":false,"i_long":106.819451,"time":4,"distance":2727},{"line":2,"station_name":"Depok","distance":1584,"transit":false,"station_id":"DP","time":3,"is_transit":false,"i_long":106.816926,"i_lat":-6.405256},{"station_name":"Citayam","i_long":106.800298,"time":6,"transit":true,"is_transit":true,"i_lat":-6.448811,"line":2,"station_id":"CTA","distance":5084},{"line":21,"station_name":"Pondok Rajeg","is_transit":false,"station_id":"PDRG","i_lat":-6.460735,"i_long":106.824374,"transit":false,"distance":0,"time":0}]]}