{"data":[[{"transit":false,"i_lat":-6.185975,"is_transit":false,"line":11,"station_name":"Gang Sentiong","i_long":106.850107,"station_id":"GST","distance":0,"time":0},{"time":1,"distance":973,"line":11,"i_long":106.855437,"station_name":"Kramat","station_id":"KMT","is_transit":false,"transit":false,"i_lat":-6.193792},{"line":11,"i_long":106.861737,"station_id":"POK","time":2,"i_lat":-6.209188,"is_transit":false,"transit":false,"station_name":"Pondok Jati","distance":1829},{"station_name":"Jatinegara","transit":true,"time":9,"i_lat":-6.215091,"i_long":106.86807400000001,"is_transit":true,"distance":1236,"line":1,"station_id":"JNG"},{"i_lat":-6.2135,"station_name":"Klender","time":3,"i_long":106.899548,"station_id":"KLD","transit":false,"line":1,"distance":3395,"is_transit":false},{"station_id":"BUA","transit":false,"station_name":"Buaran","is_transit":false,"time":2,"i_long":106.922662,"line":1,"i_lat":-6.215568,"distance":3100}],[{"line":11,"transit":false,"distance":0,"station_name":"Gang Sentiong","station_id":"GST","is_transit":false,"time":0,"i_lat":-6.185975,"i_long":106.850107},{"station_id":"PSE","station_name":"Pasar Senen","line":11,"is_transit":false,"i_lat":-6.174784,"i_long":106.84368,"time":8,"distance":1567,"transit":false},{"i_lat":-6.161728,"transit":false,"station_id":"KMO","line":11,"time":4,"i_long":106.839204,"is_transit":false,"station_name":"Kemayoran","distance":1436},{"i_long":106.836569,"i_lat":-6.14505,"station_id":"RJW","station_name":"Rajawali","transit":false,"distance":1901,"line":11,"is_transit":false,"time":5},{"station_name":"Kampung Bandan","station_id":"KPB","time":3,"i_long":106.826365,"i_lat":-6.132549,"transit":true,"is_transit":true,"distance":1444,"line":4},{"transit":false,"is_transit":false,"station_name":"Angke","station_id":"AK","distance":4102,"i_lat":-6.144674,"i_long":106.79867,"line":1,"time":9},{"time":4,"station_id":"DU","is_transit":false,"station_name":"Duri","distance":1230,"i_long":106.800832,"line":1,"transit":false,"i_lat":-6.155215},{"station_name":"Tanah Abang","time":8,"distance":3632,"i_long":106.811091,"i_lat":-6.185545,"is_transit":false,"station_id":"THB","line":1,"transit":false},{"line":1,"is_transit":false,"distance":2029,"station_id":"KAT","i_lat":-6.20132,"i_long":106.816351,"transit":false,"station_name":"Karet","time":5},{"station_id":"SUDB","transit":false,"is_transit":false,"distance":471,"i_lat":-6.201433,"time":1,"station_name":"Sudirman Baru","line":1,"i_long":106.819881},{"station_name":"Sudirman","i_long":106.822649,"line":1,"transit":false,"station_id":"SUD","distance":280,"i_lat":-6.202263,"time":1,"is_transit":false},{"i_lat":-6.209883,"time":4,"transit":false,"station_name":"Manggarai","i_long":106.84912,"distance":3186,"line":2,"station_id":"MRI","is_transit":false},{"distance":1275,"station_name":"Matraman","time":2,"i_long":106.858896,"station_id":"MTR","is_transit":false,"transit":false,"line":1,"i_lat":-6.212485},{"is_transit":false,"i_long":106.86807400000001,"station_id":"JNG","line":1,"station_name":"Jatinegara","transit":false,"time":8,"i_lat":-6.215091,"distance":1377},{"i_long":106.899548,"is_transit":false,"station_id":"KLD","station_name":"Klender","distance":3395,"time":3,"line":1,"transit":false,"i_lat":-6.2135},{"transit":false,"time":2,"i_lat":-6.215568,"line":1,"is_transit":false,"i_long":106.922662,"station_id":"BUA","distance":3100,"station_name":"Buaran"}],[{"transit":false,"station_name":"Gang Sentiong","i_long":106.850107,"is_transit":false,"time":0,"distance":0,"i_lat":-6.185975,"line":11,"station_id":"GST"},{"is_transit":false,"station_id":"PSE","station_name":"Pasar Senen","transit":false,"i_lat":-6.174784,"i_long":106.84368,"time":8,"distance":1567,"line":11},{"i_long":106.839204,"distance":1436,"transit":false,"is_transit":false,"station_id":"KMO","station_name":"Kemayoran","time":4,"i_lat":-6.161728,"line":11},{"distance":1901,"station_name":"Rajawali","i_lat":-6.14505,"station_id":"RJW","line":11,"transit":false,"is_transit":false,"time":5,"i_long":106.836569},{"is_transit":true,"time":3,"station_name":"Kampung Bandan","i_lat":-6.132549,"transit":true,"station_id":"KPB","line":4,"i_long":106.826365,"distance":1444},{"i_long":106.812439,"station_id":"JAKK","line":2,"transit":true,"time":3,"i_lat":-6.137569,"is_transit":true,"station_name":"Jakarta Kota","distance":1364},{"transit":false,"is_transit":false,"distance":1264,"line":2,"station_id":"JAY","i_long":106.820901,"station_name":"Jayakarta","time":4,"i_lat":-6.141205},{"i_lat":-6.149769,"is_transit":false,"station_id":"MGB","time":2,"i_long":106.82482,"transit":false,"station_name":"Manggabesar","distance":1080,"line":2},{"distance":906,"i_lat":-6.160725,"transit":false,"i_long":106.827103,"station_id":"SW","time":2,"station_name":"Sawah Besar","is_transit":false,"line":2},{"i_long":106.828284,"line":2,"time":2,"transit":false,"station_name":"Juanda","distance":1149,"is_transit":false,"station_id":"JUA","i_lat":-6.166716},{"transit":false,"station_name":"Gondangdia","time":4,"distance":2015,"i_long":106.832183,"i_lat":-6.186295,"line":2,"station_id":"GDD","is_transit":false},{"i_lat":-6.198556,"station_name":"Cikini","i_long":106.840169,"is_transit":false,"station_id":"CKI","line":2,"time":3,"transit":false,"distance":1750},{"time":4,"station_name":"Manggarai","distance":1590,"i_lat":-6.209883,"i_long":106.84912,"is_transit":true,"station_id":"MRI","transit":true,"line":2},{"distance":1275,"i_long":106.858896,"station_id":"MTR","station_name":"Matraman","i_lat":-6.212485,"time":2,"line":1,"transit":false,"is_transit":false},{"is_transit":false,"line":1,"station_id":"JNG","transit":false,"station_name":"Jatinegara","time":8,"i_lat":-6.215091,"distance":1377,"i_long":106.86807400000001},{"distance":3395,"i_lat":-6.2135,"i_long":106.899548,"is_transit":false,"station_name":"Klender","time":3,"transit":false,"station_id":"KLD","line":1},{"distance":3100,"line":1,"is_transit":false,"i_lat":-6.215568,"transit":false,"i_long":106.922662,"station_name":"Buaran","time":2,"station_id":"BUA"}]]}