{"data":[[{"is_transit":false,"i_lat":-6.185975,"station_id":"GST","i_long":106.850107,"distance":0,"transit":false,"time":0,"station_name":"Gang Sentiong","line":11},{"i_long":106.84368,"line":11,"distance":1567,"station_id":"PSE","i_lat":-6.174784,"station_name":"Pasar Senen","transit":false,"is_transit":false,"time":8},{"i_lat":-6.161728,"i_long":106.839204,"line":11,"transit":false,"station_id":"KMO","distance":1436,"station_name":"Kemayoran","is_transit":false,"time":4},{"station_id":"RJW","line":11,"distance":1901,"time":5,"is_transit":false,"transit":false,"station_name":"Rajawali","i_long":106.836569,"i_lat":-6.14505},{"station_name":"Kampung Bandan","i_lat":-6.132549,"line":4,"time":3,"distance":1444,"transit":true,"station_id":"KPB","i_long":106.826365,"is_transit":true},{"i_long":106.79867,"time":9,"line":1,"distance":4102,"transit":false,"is_transit":false,"station_name":"Angke","station_id":"AK","i_lat":-6.144674},{"distance":1230,"i_long":106.800832,"i_lat":-6.155215,"time":4,"station_name":"Duri","is_transit":false,"transit":false,"line":1,"station_id":"DU"},{"is_transit":true,"station_id":"THB","transit":true,"time":8,"line":1,"i_lat":-6.185545,"station_name":"Tanah Abang","i_long":106.811091,"distance":3632},{"i_lat":-6.207404,"distance":3191,"station_id":"PLM","line":6,"is_transit":false,"i_long":106.79689,"time":6,"transit":false,"station_name":"Palmerah"},{"transit":false,"time":7,"line":6,"distance":3737,"i_long":106.780334,"station_id":"KBY","is_transit":false,"station_name":"Kebayoran","i_lat":-6.237242},{"station_name":"Pondokranji","i_long":106.74273,"station_id":"PDJ","is_transit":false,"time":8,"transit":false,"i_lat":-6.276362,"distance":6218,"line":6},{"line":6,"station_name":"Jurangmangu","time":3,"i_long":106.728916,"is_transit":false,"transit":false,"distance":2179,"station_id":"JMU","i_lat":-6.288927},{"i_long":106.712277,"time":4,"station_name":"Sudimara","i_lat":-6.296963,"is_transit":false,"station_id":"SDM","distance":1994,"line":6,"transit":false},{"time":6,"transit":false,"distance":4566,"station_id":"RU","line":6,"station_name":"Rawa Buntu","is_transit":false,"i_lat":-6.314823,"i_long":106.675475},{"line":6,"is_transit":false,"station_name":"Serpong","transit":false,"time":4,"i_long":106.66566,"distance":2413,"station_id":"SRP","i_lat":-6.319871},{"time":4,"is_transit":false,"station_id":"CSK","line":3,"i_lat":-6.32484,"station_name":"Cisauk","i_long":106.640411,"distance":1784,"transit":false},{"i_lat":-6.329547,"i_long":106.617853,"transit":false,"line":3,"station_name":"Cicayur","is_transit":false,"time":4,"distance":2519,"station_id":"CC"},{"is_transit":false,"i_long":106.568863,"time":8,"station_name":"Parung Panjang","station_id":"PRP","line":6,"i_lat":-6.3441410000000005,"distance":5968,"transit":false},{"station_name":"Cilejit","station_id":"CJT","i_lat":-6.354349,"line":3,"time":9,"transit":false,"distance":7025,"is_transit":false,"i_long":106.508482},{"line":0,"i_lat":-6.338021,"distance":2675,"time":6,"transit":false,"station_name":"Daru","is_transit":false,"i_long":106.491338,"station_id":"DAR"},{"i_lat":-6.327251,"station_name":"Tenjo","time":5,"transit":false,"station_id":"TEJ","is_transit":false,"i_long":106.460812,"line":6,"distance":3902},{"i_long":106.425991,"line":6,"distance":2974,"i_lat":-6.328533,"transit":false,"time":5,"station_id":"TGS","is_transit":false,"station_name":"Tigaraksa"},{"time":3,"transit":false,"distance":2651,"i_lat":-6.33561,"is_transit":false,"line":3,"station_id":"CKY","station_name":"Cikoya","i_long":106.411216},{"station_id":"MJ","line":6,"transit":false,"i_lat":-6.332307,"time":4,"i_long":106.394373,"distance":1853,"is_transit":false,"station_name":"Maja"}],[{"station_name":"Gang Sentiong","is_transit":false,"transit":false,"i_lat":-6.185975,"line":11,"time":0,"distance":0,"station_id":"GST","i_long":106.850107},{"distance":973,"transit":false,"station_id":"KMT","i_lat":-6.193792,"i_long":106.855437,"line":11,"time":1,"station_name":"Kramat","is_transit":false},{"station_name":"Pondok Jati","i_lat":-6.209188,"i_long":106.861737,"time":2,"is_transit":false,"distance":1829,"transit":false,"line":11,"station_id":"POK"},{"i_lat":-6.215091,"distance":1236,"transit":true,"is_transit":true,"station_id":"JNG","i_long":106.86807400000001,"time":9,"line":1,"station_name":"Jatinegara"},{"time":2,"line":1,"station_name":"Matraman","is_transit":false,"station_id":"MTR","i_lat":-6.212485,"i_long":106.858896,"distance":1377,"transit":false},{"station_name":"Manggarai","station_id":"MRI","i_lat":-6.209883,"time":2,"is_transit":false,"line":2,"distance":1275,"i_long":106.84912,"transit":false},{"station_id":"SUD","station_name":"Sudirman","i_long":106.822649,"transit":false,"time":4,"distance":3186,"is_transit":false,"i_lat":-6.202263,"line":1},{"i_lat":-6.201433,"time":1,"is_transit":false,"transit":false,"i_long":106.819881,"line":1,"station_name":"Sudirman Baru","station_id":"SUDB","distance":280},{"time":1,"transit":false,"is_transit":false,"station_id":"KAT","station_name":"Karet","i_lat":-6.20132,"i_long":106.816351,"line":1,"distance":471},{"i_long":106.811091,"is_transit":true,"i_lat":-6.185545,"station_name":"Tanah Abang","time":5,"distance":2029,"station_id":"THB","transit":true,"line":1},{"transit":false,"distance":3191,"station_name":"Palmerah","is_transit":false,"i_long":106.79689,"i_lat":-6.207404,"station_id":"PLM","line":6,"time":6},{"i_long":106.780334,"station_id":"KBY","line":6,"time":7,"i_lat":-6.237242,"distance":3737,"station_name":"Kebayoran","is_transit":false,"transit":false},{"i_lat":-6.276362,"time":8,"distance":6218,"station_name":"Pondokranji","is_transit":false,"transit":false,"i_long":106.74273,"line":6,"station_id":"PDJ"},{"time":3,"distance":2179,"i_lat":-6.288927,"line":6,"is_transit":false,"station_id":"JMU","transit":false,"station_name":"Jurangmangu","i_long":106.728916},{"distance":1994,"time":4,"i_long":106.712277,"line":6,"transit":false,"station_name":"Sudimara","station_id":"SDM","i_lat":-6.296963,"is_transit":false},{"is_transit":false,"i_long":106.675475,"station_name":"Rawa Buntu","distance":4566,"station_id":"RU","i_lat":-6.314823,"line":6,"time":6,"transit":false},{"transit":false,"station_id":"SRP","station_name":"Serpong","time":4,"is_transit":false,"distance":2413,"i_long":106.66566,"i_lat":-6.319871,"line":6},{"station_name":"Cisauk","i_long":106.640411,"distance":1784,"transit":false,"is_transit":false,"time":4,"station_id":"CSK","i_lat":-6.32484,"line":3},{"distance":2519,"i_long":106.617853,"transit":false,"time":4,"station_name":"Cicayur","station_id":"CC","line":3,"i_lat":-6.329547,"is_transit":false},{"station_name":"Parung Panjang","i_long":106.568863,"line":6,"station_id":"PRP","transit":false,"i_lat":-6.3441410000000005,"is_transit":false,"time":8,"distance":5968},{"i_long":106.508482,"line":3,"i_lat":-6.354349,"station_name":"Cilejit","is_transit":false,"transit":false,"distance":7025,"time":9,"station_id":"CJT"},{"distance":2675,"i_lat":-6.338021,"station_name":"Daru","transit":false,"station_id":"DAR","is_transit":false,"i_long":106.491338,"line":0,"time":6},{"transit":false,"station_name":"Tenjo","station_id":"TEJ","line":6,"distance":3902,"is_transit":false,"i_long":106.460812,"time":5,"i_lat":-6.327251},{"transit":false,"station_id":"TGS","i_lat":-6.328533,"is_transit":false,"time":5,"station_name":"Tigaraksa","line":6,"i_long":106.425991,"distance":2974},{"station_id":"CKY","i_long":106.411216,"line":3,"station_name":"Cikoya","distance":2651,"transit":false,"i_lat":-6.33561,"is_transit":false,"time":3},{"distance":1853,"transit":false,"station_id":"MJ","i_lat":-6.332307,"i_long":106.394373,"time":4,"line":6,"is_transit":false,"station_name":"Maja"}],[{"distance":0,"i_lat":-6.185975,"transit":false,"i_long":106.850107,"station_id":"GST","line":11,"station_name":"Gang Sentiong","time":0,"is_transit":false},{"i_long":106.855437,"transit":false,"i_lat":-6.193792,"time":1,"station_name":"Kramat","station_id":"KMT","distance":973,"line":11,"is_transit":false},{"i_lat":-6.209188,"station_name":"Pondok Jati","time":2,"transit":false,"station_id":"POK","line":11,"distance":1829,"is_transit":false,"i_long":106.861737},{"line":1,"station_id":"JNG","station_name":"Jatinegara","is_transit":true,"i_long":106.86807400000001,"distance":1236,"transit":true,"time":9,"i_lat":-6.215091},{"is_transit":false,"i_lat":-6.212485,"distance":1377,"transit":false,"station_name":"Matraman","i_long":106.858896,"station_id":"MTR","line":1,"time":2},{"i_lat":-6.209883,"time":2,"is_transit":true,"distance":1275,"station_name":"Manggarai","i_long":106.84912,"station_id":"MRI","line":2,"transit":true},{"i_long":106.840169,"transit":false,"time":4,"i_lat":-6.198556,"distance":1590,"station_id":"CKI","is_transit":false,"line":2,"station_name":"Cikini"},{"is_transit":false,"station_id":"GDD","line":2,"i_lat":-6.186295,"station_name":"Gondangdia","distance":1750,"i_long":106.832183,"time":3,"transit":false},{"i_lat":-6.166716,"transit":false,"i_long":106.828284,"time":4,"line":2,"is_transit":false,"station_id":"JUA","distance":2015,"station_name":"Juanda"},{"distance":1149,"transit":false,"i_long":106.827103,"station_name":"Sawah Besar","station_id":"SW","time":2,"is_transit":false,"i_lat":-6.160725,"line":2},{"i_long":106.82482,"is_transit":false,"line":2,"station_name":"Manggabesar","transit":false,"station_id":"MGB","time":2,"i_lat":-6.149769,"distance":906},{"distance":1080,"i_long":106.820901,"transit":false,"station_name":"Jayakarta","is_transit":false,"i_lat":-6.141205,"line":2,"time":2,"station_id":"JAY"},{"is_transit":true,"station_id":"JAKK","transit":true,"distance":1264,"i_long":106.812439,"time":4,"line":2,"i_lat":-6.137569,"station_name":"Jakarta Kota"},{"distance":1364,"station_name":"Kampung Bandan","station_id":"KPB","i_lat":-6.132549,"time":3,"is_transit":true,"line":4,"i_long":106.826365,"transit":true},{"is_transit":false,"station_id":"AK","station_name":"Angke","line":1,"time":9,"i_lat":-6.144674,"i_long":106.79867,"distance":4102,"transit":false},{"distance":1230,"transit":false,"station_name":"Duri","i_lat":-6.155215,"time":4,"i_long":106.800832,"line":1,"is_transit":false,"station_id":"DU"},{"transit":true,"time":8,"station_id":"THB","i_lat":-6.185545,"distance":3632,"station_name":"Tanah Abang","i_long":106.811091,"is_transit":true,"line":1},{"distance":3191,"line":6,"i_lat":-6.207404,"i_long":106.79689,"is_transit":false,"time":6,"station_id":"PLM","transit":false,"station_name":"Palmerah"},{"i_long":106.780334,"station_id":"KBY","i_lat":-6.237242,"is_transit":false,"time":7,"line":6,"station_name":"Kebayoran","distance":3737,"transit":false},{"station_name":"Pondokranji","station_id":"PDJ","time":8,"is_transit":false,"distance":6218,"i_long":106.74273,"i_lat":-6.276362,"line":6,"transit":false},{"transit":false,"is_transit":false,"line":6,"station_id":"JMU","time":3,"distance":2179,"station_name":"Jurangmangu","i_lat":-6.288927,"i_long":106.728916},{"transit":false,"distance":1994,"i_long":106.712277,"station_name":"Sudimara","station_id":"SDM","line":6,"time":4,"is_transit":false,"i_lat":-6.296963},{"station_name":"Rawa Buntu","is_transit":false,"line":6,"time":6,"distance":4566,"transit":false,"station_id":"RU","i_lat":-6.314823,"i_long":106.675475},{"station_name":"Serpong","is_transit":false,"station_id":"SRP","i_long":106.66566,"transit":false,"time":4,"distance":2413,"i_lat":-6.319871,"line":6},{"transit":false,"time":4,"distance":1784,"station_name":"Cisauk","is_transit":false,"station_id":"CSK","i_lat":-6.32484,"i_long":106.640411,"line":3},{"i_lat":-6.329547,"is_transit":false,"station_id":"CC","station_name":"Cicayur","i_long":106.617853,"line":3,"transit":false,"distance":2519,"time":4},{"line":6,"time":8,"is_transit":false,"i_long":106.568863,"distance":5968,"station_name":"Parung Panjang","i_lat":-6.3441410000000005,"transit":false,"station_id":"PRP"},{"is_transit":false,"i_lat":-6.354349,"time":9,"line":3,"station_id":"CJT","i_long":106.508482,"distance":7025,"station_name":"Cilejit","transit":false},{"station_id":"DAR","transit":false,"line":0,"is_transit":false,"time":6,"distance":2675,"i_lat":-6.338021,"station_name":"Daru","i_long":106.491338},{"distance":3902,"is_transit":false,"station_id":"TEJ","i_lat":-6.327251,"i_long":106.460812,"line":6,"time":5,"transit":false,"station_name":"Tenjo"},{"is_transit":false,"transit":false,"station_id":"TGS","i_lat":-6.328533,"i_long":106.425991,"distance":2974,"line":6,"time":5,"station_name":"Tigaraksa"},{"station_id":"CKY","time":3,"transit":false,"is_transit":false,"i_lat":-6.33561,"i_long":106.411216,"line":3,"distance":2651,"station_name":"Cikoya"},{"station_id":"MJ","i_lat":-6.332307,"distance":1853,"station_name":"Maja","is_transit":false,"transit":false,"time":4,"i_long":106.394373,"line":6}],[{"transit":false,"line":11,"station_name":"Gang Sentiong","time":0,"is_transit":false,"station_id":"GST","i_long":106.850107,"distance":0,"i_lat":-6.185975},{"station_name":"Pasar Senen","line":11,"i_long":106.84368,"distance":1567,"time":8,"transit":false,"i_lat":-6.174784,"station_id":"PSE","is_transit":false},{"i_long":106.839204,"time":4,"i_lat":-6.161728,"transit":false,"station_id":"KMO","station_name":"Kemayoran","is_transit":false,"line":11,"distance":1436},{"i_long":106.836569,"line":11,"transit":false,"station_id":"RJW","time":5,"is_transit":false,"i_lat":-6.14505,"distance":1901,"station_name":"Rajawali"},{"time":3,"station_name":"Kampung Bandan","i_long":106.826365,"transit":true,"is_transit":true,"i_lat":-6.132549,"station_id":"KPB","distance":1444,"line":4},{"transit":true,"is_transit":true,"i_lat":-6.137569,"time":3,"distance":1364,"line":2,"station_name":"Jakarta Kota","station_id":"JAKK","i_long":106.812439},{"is_transit":false,"distance":1264,"i_long":106.820901,"station_name":"Jayakarta","station_id":"JAY","time":4,"i_lat":-6.141205,"line":2,"transit":false},{"station_name":"Manggabesar","i_lat":-6.149769,"is_transit":false,"station_id":"MGB","line":2,"distance":1080,"transit":false,"i_long":106.82482,"time":2},{"distance":906,"transit":false,"time":2,"is_transit":false,"i_long":106.827103,"i_lat":-6.160725,"station_id":"SW","line":2,"station_name":"Sawah Besar"},{"station_name":"Juanda","is_transit":false,"distance":1149,"station_id":"JUA","i_lat":-6.166716,"transit":false,"time":2,"line":2,"i_long":106.828284},{"time":4,"i_long":106.832183,"station_name":"Gondangdia","transit":false,"line":2,"distance":2015,"is_transit":false,"station_id":"GDD","i_lat":-6.186295},{"station_name":"Cikini","time":3,"distance":1750,"i_lat":-6.198556,"line":2,"station_id":"CKI","is_transit":false,"i_long":106.840169,"transit":false},{"i_long":106.84912,"distance":1590,"i_lat":-6.209883,"line":2,"is_transit":true,"station_id":"MRI","transit":true,"station_name":"Manggarai","time":4},{"line":1,"i_lat":-6.202263,"time":4,"transit":false,"station_name":"Sudirman","is_transit":false,"i_long":106.822649,"distance":3186,"station_id":"SUD"},{"station_name":"Sudirman Baru","is_transit":false,"i_lat":-6.201433,"station_id":"SUDB","time":1,"distance":280,"line":1,"i_long":106.819881,"transit":false},{"distance":471,"transit":false,"station_id":"KAT","i_long":106.816351,"line":1,"time":1,"is_transit":false,"station_name":"Karet","i_lat":-6.20132},{"distance":2029,"station_id":"THB","is_transit":true,"transit":true,"i_lat":-6.185545,"line":1,"station_name":"Tanah Abang","time":5,"i_long":106.811091},{"i_lat":-6.207404,"time":6,"is_transit":false,"i_long":106.79689,"transit":false,"station_name":"Palmerah","distance":3191,"station_id":"PLM","line":6},{"i_lat":-6.237242,"distance":3737,"line":6,"is_transit":false,"transit":false,"i_long":106.780334,"station_name":"Kebayoran","time":7,"station_id":"KBY"},{"time":8,"transit":false,"is_transit":false,"i_lat":-6.276362,"i_long":106.74273,"distance":6218,"line":6,"station_name":"Pondokranji","station_id":"PDJ"},{"i_lat":-6.288927,"station_id":"JMU","distance":2179,"transit":false,"is_transit":false,"i_long":106.728916,"line":6,"station_name":"Jurangmangu","time":3},{"i_lat":-6.296963,"line":6,"is_transit":false,"time":4,"transit":false,"i_long":106.712277,"station_name":"Sudimara","station_id":"SDM","distance":1994},{"distance":4566,"i_long":106.675475,"station_name":"Rawa Buntu","station_id":"RU","i_lat":-6.314823,"transit":false,"is_transit":false,"line":6,"time":6},{"station_id":"SRP","i_lat":-6.319871,"i_long":106.66566,"time":4,"line":6,"station_name":"Serpong","distance":2413,"transit":false,"is_transit":false},{"is_transit":false,"i_lat":-6.32484,"station_name":"Cisauk","station_id":"CSK","transit":false,"distance":1784,"i_long":106.640411,"time":4,"line":3},{"transit":false,"distance":2519,"is_transit":false,"i_lat":-6.329547,"i_long":106.617853,"station_id":"CC","time":4,"line":3,"station_name":"Cicayur"},{"line":6,"distance":5968,"station_name":"Parung Panjang","is_transit":false,"i_lat":-6.3441410000000005,"time":8,"i_long":106.568863,"station_id":"PRP","transit":false},{"i_lat":-6.354349,"line":3,"time":9,"station_id":"CJT","i_long":106.508482,"is_transit":false,"distance":7025,"transit":false,"station_name":"Cilejit"},{"distance":2675,"station_name":"Daru","is_transit":false,"time":6,"transit":false,"i_long":106.491338,"station_id":"DAR","i_lat":-6.338021,"line":0},{"i_long":106.460812,"station_name":"Tenjo","station_id":"TEJ","line":6,"distance":3902,"time":5,"transit":false,"is_transit":false,"i_lat":-6.327251},{"station_id":"TGS","time":5,"line":6,"station_name":"Tigaraksa","is_transit":false,"i_long":106.425991,"distance":2974,"transit":false,"i_lat":-6.328533},{"station_name":"Cikoya","is_transit":false,"line":3,"distance":2651,"i_lat":-6.33561,"i_long":106.411216,"station_id":"CKY","time":3,"transit":false},{"i_lat":-6.332307,"i_long":106.394373,"station_id":"MJ","is_transit":false,"line":6,"transit":false,"distance":1853,"station_name":"Maja","time":4}]]}