{"data":[[{"time":0,"i_long":106.850107,"station_id":"GST","line":11,"station_name":"Gang Sentiong","distance":0,"is_transit":false,"i_lat":-6.185975,"transit":false},{"is_transit":false,"station_id":"PSE","transit":false,"i_lat":-6.174784,"station_name":"Pasar Senen","distance":1567,"i_long":106.84368,"line":11,"time":8},{"transit":false,"i_lat":-6.161728,"is_transit":false,"i_long":106.839204,"station_id":"KMO","distance":1436,"station_name":"Kemayoran","line":11,"time":4},{"i_long":106.836569,"station_id":"RJW","is_transit":false,"transit":false,"line":11,"time":5,"station_name":"Rajawali","distance":1901,"i_lat":-6.14505},{"distance":1444,"i_lat":-6.132549,"line":0,"station_name":"Kampung Bandan","station_id":"KPB","time":3,"is_transit":true,"transit":true,"i_long":106.826365},{"is_transit":false,"i_long":106.79867,"i_lat":-6.144674,"station_id":"AK","line":0,"time":9,"distance":4102,"station_name":"Angke","transit":false},{"distance":1230,"is_transit":true,"station_id":"DU","line":1,"station_name":"Duri","time":4,"transit":true,"i_lat":-6.155215,"i_long":106.800832},{"line":1,"transit":true,"i_lat":-6.185545,"distance":3632,"i_long":106.811091,"time":8,"is_transit":true,"station_id":"THB","station_name":"Tanah Abang"},{"is_transit":false,"i_lat":-6.207404,"station_id":"PLM","distance":3191,"station_name":"Palmerah","i_long":106.79689,"transit":false,"time":6,"line":6},{"i_long":106.780334,"line":6,"i_lat":-6.237242,"is_transit":false,"distance":3737,"transit":false,"station_id":"KBY","time":7,"station_name":"Kebayoran"},{"is_transit":false,"i_long":106.74273,"i_lat":-6.276362,"transit":false,"time":8,"station_name":"Pondokranji","station_id":"PDJ","distance":6218,"line":6},{"station_name":"Jurangmangu","station_id":"JMU","line":6,"transit":false,"distance":2179,"time":3,"is_transit":false,"i_lat":-6.288927,"i_long":106.728916},{"station_id":"SDM","is_transit":false,"i_lat":-6.296963,"time":4,"station_name":"Sudimara","transit":false,"distance":1994,"i_long":106.712277,"line":6}],[{"distance":0,"is_transit":false,"time":0,"i_long":106.850107,"line":11,"i_lat":-6.185975,"transit":false,"station_id":"GST","station_name":"Gang Sentiong"},{"station_id":"KMT","distance":973,"i_lat":-6.193792,"i_long":106.855437,"station_name":"Kramat","is_transit":false,"transit":false,"time":1,"line":11},{"station_name":"Pondok Jati","line":11,"station_id":"POK","i_long":106.861737,"is_transit":false,"i_lat":-6.209188,"time":2,"transit":false,"distance":1829},{"i_long":106.86807400000001,"time":9,"transit":true,"line":0,"station_name":"Jatinegara","station_id":"JNG","is_transit":true,"distance":1236,"i_lat":-6.215091},{"station_id":"MTR","station_name":"Matraman","i_lat":-6.212485,"line":1,"distance":1377,"time":2,"i_long":106.858896,"transit":false,"is_transit":false},{"i_lat":-6.209883,"line":0,"station_name":"Manggarai","distance":1275,"i_long":106.84912,"is_transit":true,"time":2,"station_id":"MRI","transit":false},{"line":1,"transit":false,"time":4,"distance":3186,"i_lat":-6.202263,"station_id":"SUD","is_transit":false,"station_name":"Sudirman","i_long":106.822649},{"i_long":106.819881,"distance":280,"transit":false,"i_lat":-6.201433,"time":1,"station_name":"Sudirman Baru","station_id":"SUDB","is_transit":false,"line":1},{"line":1,"distance":471,"station_id":"KAT","is_transit":false,"i_lat":-6.20132,"i_long":106.816351,"station_name":"Karet","time":1,"transit":false},{"line":1,"is_transit":true,"time":5,"distance":2029,"transit":true,"i_long":106.811091,"i_lat":-6.185545,"station_id":"THB","station_name":"Tanah Abang"},{"transit":false,"station_id":"PLM","i_lat":-6.207404,"time":6,"station_name":"Palmerah","i_long":106.79689,"is_transit":false,"distance":3191,"line":6},{"i_lat":-6.237242,"line":6,"transit":false,"station_id":"KBY","time":7,"is_transit":false,"distance":3737,"station_name":"Kebayoran","i_long":106.780334},{"station_id":"PDJ","time":8,"i_lat":-6.276362,"station_name":"Pondokranji","transit":false,"line":6,"distance":6218,"i_long":106.74273,"is_transit":false},{"is_transit":false,"station_name":"Jurangmangu","transit":false,"line":6,"time":3,"station_id":"JMU","i_lat":-6.288927,"i_long":106.728916,"distance":2179},{"is_transit":false,"time":4,"station_name":"Sudimara","i_long":106.712277,"distance":1994,"station_id":"SDM","transit":false,"i_lat":-6.296963,"line":6}],[{"transit":false,"time":0,"station_name":"Gang Sentiong","i_lat":-6.185975,"line":11,"i_long":106.850107,"distance":0,"station_id":"GST","is_transit":false},{"distance":973,"i_lat":-6.193792,"is_transit":false,"i_long":106.855437,"station_id":"KMT","time":1,"station_name":"Kramat","line":11,"transit":false},{"is_transit":false,"line":11,"transit":false,"i_long":106.861737,"station_id":"POK","time":2,"distance":1829,"i_lat":-6.209188,"station_name":"Pondok Jati"},{"transit":true,"i_long":106.86807400000001,"distance":1236,"is_transit":true,"time":9,"station_id":"JNG","station_name":"Jatinegara","line":0,"i_lat":-6.215091},{"i_long":106.858896,"station_id":"MTR","transit":false,"is_transit":false,"time":2,"station_name":"Matraman","i_lat":-6.212485,"line":1,"distance":1377},{"station_id":"MRI","time":2,"station_name":"Manggarai","distance":1275,"line":0,"transit":true,"is_transit":true,"i_long":106.84912,"i_lat":-6.209883},{"line":0,"station_name":"Cikini","i_lat":-6.198556,"time":4,"transit":false,"station_id":"CKI","distance":1590,"is_transit":false,"i_long":106.840169},{"time":3,"transit":false,"station_id":"GDD","i_lat":-6.186295,"distance":1750,"station_name":"Gondangdia","is_transit":false,"line":2,"i_long":106.832183},{"is_transit":false,"i_lat":-6.166716,"station_id":"JUA","distance":2015,"i_long":106.828284,"station_name":"Juanda","line":2,"time":4,"transit":false},{"line":2,"i_lat":-6.160725,"i_long":106.827103,"distance":1149,"time":2,"is_transit":false,"station_name":"Sawah Besar","station_id":"SW","transit":false},{"i_lat":-6.149769,"time":2,"station_name":"Manggabesar","transit":false,"i_long":106.82482,"is_transit":false,"line":2,"station_id":"MGB","distance":906},{"line":7,"is_transit":false,"time":2,"transit":false,"distance":1080,"i_long":106.820901,"station_name":"Jayakarta","station_id":"JAY","i_lat":-6.141205},{"is_transit":true,"station_id":"JAKK","distance":1264,"i_lat":-6.137569,"time":4,"i_long":106.812439,"line":0,"station_name":"Jakarta Kota","transit":true},{"transit":false,"i_lat":-6.132549,"line":0,"is_transit":true,"station_name":"Kampung Bandan","i_long":106.826365,"time":3,"station_id":"KPB","distance":1364},{"station_id":"AK","i_lat":-6.144674,"is_transit":false,"i_long":106.79867,"line":0,"time":9,"transit":false,"station_name":"Angke","distance":4102},{"time":4,"distance":1230,"is_transit":true,"station_id":"DU","station_name":"Duri","transit":true,"i_long":106.800832,"line":1,"i_lat":-6.155215},{"is_transit":true,"transit":true,"i_lat":-6.185545,"i_long":106.811091,"station_id":"THB","station_name":"Tanah Abang","distance":3632,"time":8,"line":1},{"distance":3191,"i_long":106.79689,"i_lat":-6.207404,"time":6,"transit":false,"line":6,"is_transit":false,"station_id":"PLM","station_name":"Palmerah"},{"i_lat":-6.237242,"time":7,"station_name":"Kebayoran","i_long":106.780334,"station_id":"KBY","distance":3737,"is_transit":false,"transit":false,"line":6},{"i_lat":-6.276362,"transit":false,"station_name":"Pondokranji","station_id":"PDJ","distance":6218,"i_long":106.74273,"line":6,"is_transit":false,"time":8},{"station_name":"Jurangmangu","time":3,"distance":2179,"is_transit":false,"i_lat":-6.288927,"line":6,"station_id":"JMU","i_long":106.728916,"transit":false},{"station_name":"Sudimara","transit":false,"is_transit":false,"i_lat":-6.296963,"line":6,"time":4,"i_long":106.712277,"station_id":"SDM","distance":1994}],[{"line":11,"time":0,"transit":false,"i_lat":-6.185975,"is_transit":false,"station_name":"Gang Sentiong","distance":0,"i_long":106.850107,"station_id":"GST"},{"i_long":106.84368,"station_id":"PSE","is_transit":false,"time":8,"i_lat":-6.174784,"station_name":"Pasar Senen","distance":1567,"line":11,"transit":false},{"transit":false,"i_long":106.839204,"station_id":"KMO","station_name":"Kemayoran","i_lat":-6.161728,"is_transit":false,"distance":1436,"line":11,"time":4},{"time":5,"distance":1901,"is_transit":false,"station_name":"Rajawali","i_lat":-6.14505,"station_id":"RJW","line":11,"transit":false,"i_long":106.836569},{"line":0,"time":3,"transit":true,"distance":1444,"station_name":"Kampung Bandan","i_lat":-6.132549,"i_long":106.826365,"station_id":"KPB","is_transit":true},{"i_long":106.812439,"transit":true,"line":0,"station_id":"JAKK","station_name":"Jakarta Kota","is_transit":true,"i_lat":-6.137569,"distance":1364,"time":3},{"distance":1264,"station_name":"Jayakarta","transit":false,"is_transit":false,"time":4,"i_long":106.820901,"i_lat":-6.141205,"line":7,"station_id":"JAY"},{"time":2,"distance":1080,"station_id":"MGB","line":2,"is_transit":false,"i_long":106.82482,"transit":false,"i_lat":-6.149769,"station_name":"Manggabesar"},{"transit":false,"i_long":106.827103,"is_transit":false,"i_lat":-6.160725,"time":2,"distance":906,"station_id":"SW","station_name":"Sawah Besar","line":2},{"transit":false,"station_name":"Juanda","station_id":"JUA","is_transit":false,"line":2,"distance":1149,"i_long":106.828284,"time":2,"i_lat":-6.166716},{"line":2,"station_name":"Gondangdia","is_transit":false,"i_long":106.832183,"station_id":"GDD","time":4,"distance":2015,"i_lat":-6.186295,"transit":false},{"time":3,"transit":false,"station_name":"Cikini","distance":1750,"line":0,"i_lat":-6.198556,"station_id":"CKI","i_long":106.840169,"is_transit":false},{"i_long":106.84912,"i_lat":-6.209883,"line":0,"transit":true,"station_name":"Manggarai","station_id":"MRI","is_transit":true,"time":4,"distance":1590},{"distance":3186,"station_id":"SUD","transit":false,"i_lat":-6.202263,"line":1,"is_transit":false,"station_name":"Sudirman","time":4,"i_long":106.822649},{"line":1,"transit":false,"i_lat":-6.201433,"distance":280,"i_long":106.819881,"station_name":"Sudirman Baru","is_transit":false,"time":1,"station_id":"SUDB"},{"i_long":106.816351,"station_id":"KAT","time":1,"distance":471,"is_transit":false,"line":1,"transit":false,"station_name":"Karet","i_lat":-6.20132},{"i_lat":-6.185545,"station_id":"THB","station_name":"Tanah Abang","transit":true,"i_long":106.811091,"time":5,"is_transit":true,"distance":2029,"line":1},{"transit":false,"line":6,"station_id":"PLM","i_lat":-6.207404,"is_transit":false,"distance":3191,"time":6,"station_name":"Palmerah","i_long":106.79689},{"i_lat":-6.237242,"station_name":"Kebayoran","transit":false,"line":6,"i_long":106.780334,"distance":3737,"station_id":"KBY","time":7,"is_transit":false},{"line":6,"transit":false,"station_name":"Pondokranji","i_long":106.74273,"station_id":"PDJ","time":8,"is_transit":false,"distance":6218,"i_lat":-6.276362},{"time":3,"i_long":106.728916,"station_name":"Jurangmangu","i_lat":-6.288927,"is_transit":false,"distance":2179,"line":6,"station_id":"JMU","transit":false},{"i_lat":-6.296963,"i_long":106.712277,"distance":1994,"line":6,"time":4,"station_name":"Sudimara","is_transit":false,"station_id":"SDM","transit":false}]]}