{"data":[[{"station_name":"Gang Sentiong","distance":0,"i_long":106.850107,"is_transit":false,"i_lat":-6.185975,"time":0,"station_id":"GST","transit":false,"line":11},{"distance":1567,"is_transit":false,"transit":false,"station_id":"PSE","station_name":"Pasar Senen","i_long":106.84368,"time":8,"line":11,"i_lat":-6.174784},{"station_name":"Kemayoran","is_transit":false,"transit":false,"distance":1436,"i_lat":-6.161728,"line":11,"time":4,"i_long":106.839204,"station_id":"KMO"},{"is_transit":false,"i_lat":-6.14505,"i_long":106.836569,"transit":false,"line":11,"time":5,"distance":1901,"station_id":"RJW","station_name":"Rajawali"},{"is_transit":true,"time":3,"transit":true,"line":4,"i_lat":-6.132549,"distance":1444,"station_name":"Kampung Bandan","station_id":"KPB","i_long":106.826365},{"time":9,"station_id":"AK","station_name":"Angke","transit":false,"i_lat":-6.144674,"i_long":106.79867,"distance":4102,"line":1,"is_transit":false},{"station_name":"Duri","station_id":"DU","is_transit":false,"i_lat":-6.155215,"time":4,"i_long":106.800832,"distance":1230,"line":1,"transit":false},{"station_id":"THB","i_long":106.811091,"is_transit":true,"time":8,"distance":3632,"transit":true,"line":1,"i_lat":-6.185545,"station_name":"Tanah Abang"},{"line":6,"i_lat":-6.207404,"station_name":"Palmerah","i_long":106.79689,"distance":3191,"transit":false,"time":6,"station_id":"PLM","is_transit":false},{"transit":false,"i_lat":-6.237242,"line":6,"station_id":"KBY","station_name":"Kebayoran","time":7,"i_long":106.780334,"is_transit":false,"distance":3737},{"distance":6218,"station_name":"Pondokranji","is_transit":false,"i_long":106.74273,"station_id":"PDJ","line":6,"time":8,"transit":false,"i_lat":-6.276362},{"i_lat":-6.288927,"i_long":106.728916,"time":3,"station_name":"Jurangmangu","distance":2179,"is_transit":false,"transit":false,"station_id":"JMU","line":6},{"station_id":"SDM","is_transit":false,"transit":false,"station_name":"Sudimara","time":4,"distance":1994,"i_long":106.712277,"i_lat":-6.296963,"line":6},{"i_long":106.675475,"i_lat":-6.314823,"distance":4566,"time":6,"station_id":"RU","transit":false,"station_name":"Rawa Buntu","line":6,"is_transit":false},{"line":6,"i_long":106.66566,"station_id":"SRP","is_transit":false,"distance":2413,"station_name":"Serpong","time":4,"transit":false,"i_lat":-6.319871},{"station_name":"Cisauk","line":3,"i_long":106.640411,"distance":1784,"is_transit":false,"station_id":"CSK","transit":false,"i_lat":-6.32484,"time":4},{"is_transit":false,"i_lat":-6.329547,"line":3,"station_name":"Cicayur","distance":2519,"i_long":106.617853,"station_id":"CC","transit":false,"time":4},{"i_long":106.568863,"distance":5968,"station_id":"PRP","station_name":"Parung Panjang","line":6,"is_transit":false,"i_lat":-6.3441410000000005,"time":8,"transit":false},{"i_long":106.508482,"distance":7025,"transit":false,"time":9,"station_name":"Cilejit","is_transit":false,"station_id":"CJT","i_lat":-6.354349,"line":3}],[{"line":11,"i_long":106.850107,"time":0,"transit":false,"distance":0,"is_transit":false,"station_name":"Gang Sentiong","station_id":"GST","i_lat":-6.185975},{"is_transit":false,"time":1,"i_long":106.855437,"line":11,"distance":973,"station_id":"KMT","i_lat":-6.193792,"station_name":"Kramat","transit":false},{"time":2,"is_transit":false,"station_id":"POK","i_lat":-6.209188,"station_name":"Pondok Jati","i_long":106.861737,"line":11,"distance":1829,"transit":false},{"time":9,"distance":1236,"i_lat":-6.215091,"line":1,"station_name":"Jatinegara","is_transit":true,"transit":true,"station_id":"JNG","i_long":106.86807400000001},{"i_long":106.858896,"i_lat":-6.212485,"is_transit":false,"station_id":"MTR","distance":1377,"line":1,"station_name":"Matraman","transit":false,"time":2},{"transit":false,"line":2,"distance":1275,"i_lat":-6.209883,"is_transit":false,"station_id":"MRI","i_long":106.84912,"time":2,"station_name":"Manggarai"},{"transit":false,"station_name":"Sudirman","distance":3186,"station_id":"SUD","i_lat":-6.202263,"i_long":106.822649,"is_transit":false,"time":4,"line":1},{"station_name":"Sudirman Baru","time":1,"i_lat":-6.201433,"station_id":"SUDB","i_long":106.819881,"distance":280,"transit":false,"is_transit":false,"line":1},{"distance":471,"line":1,"station_name":"Karet","i_long":106.816351,"time":1,"is_transit":false,"transit":false,"station_id":"KAT","i_lat":-6.20132},{"station_name":"Tanah Abang","is_transit":true,"i_lat":-6.185545,"station_id":"THB","i_long":106.811091,"line":1,"time":5,"transit":true,"distance":2029},{"transit":false,"distance":3191,"i_long":106.79689,"line":6,"station_name":"Palmerah","station_id":"PLM","i_lat":-6.207404,"time":6,"is_transit":false},{"is_transit":false,"distance":3737,"i_lat":-6.237242,"line":6,"time":7,"station_id":"KBY","transit":false,"station_name":"Kebayoran","i_long":106.780334},{"distance":6218,"i_long":106.74273,"i_lat":-6.276362,"time":8,"station_name":"Pondokranji","is_transit":false,"station_id":"PDJ","line":6,"transit":false},{"is_transit":false,"i_lat":-6.288927,"line":6,"station_id":"JMU","transit":false,"distance":2179,"station_name":"Jurangmangu","i_long":106.728916,"time":3},{"station_name":"Sudimara","is_transit":false,"station_id":"SDM","line":6,"i_lat":-6.296963,"i_long":106.712277,"time":4,"transit":false,"distance":1994},{"transit":false,"is_transit":false,"station_id":"RU","i_long":106.675475,"time":6,"line":6,"i_lat":-6.314823,"station_name":"Rawa Buntu","distance":4566},{"is_transit":false,"time":4,"transit":false,"i_lat":-6.319871,"distance":2413,"line":6,"station_name":"Serpong","station_id":"SRP","i_long":106.66566},{"transit":false,"is_transit":false,"i_lat":-6.32484,"station_id":"CSK","i_long":106.640411,"line":3,"time":4,"station_name":"Cisauk","distance":1784},{"i_long":106.617853,"station_name":"Cicayur","is_transit":false,"line":3,"time":4,"distance":2519,"i_lat":-6.329547,"transit":false,"station_id":"CC"},{"is_transit":false,"time":8,"station_name":"Parung Panjang","station_id":"PRP","i_long":106.568863,"distance":5968,"transit":false,"i_lat":-6.3441410000000005,"line":6},{"i_lat":-6.354349,"time":9,"station_id":"CJT","distance":7025,"station_name":"Cilejit","line":3,"i_long":106.508482,"transit":false,"is_transit":false}],[{"i_lat":-6.185975,"time":0,"transit":false,"i_long":106.850107,"line":11,"station_name":"Gang Sentiong","distance":0,"station_id":"GST","is_transit":false},{"transit":false,"time":1,"distance":973,"i_long":106.855437,"line":11,"station_name":"Kramat","i_lat":-6.193792,"station_id":"KMT","is_transit":false},{"time":2,"is_transit":false,"line":11,"transit":false,"station_id":"POK","i_lat":-6.209188,"i_long":106.861737,"station_name":"Pondok Jati","distance":1829},{"is_transit":true,"line":1,"i_long":106.86807400000001,"i_lat":-6.215091,"distance":1236,"transit":true,"station_id":"JNG","station_name":"Jatinegara","time":9},{"station_name":"Matraman","distance":1377,"i_lat":-6.212485,"i_long":106.858896,"station_id":"MTR","line":1,"is_transit":false,"time":2,"transit":false},{"station_name":"Manggarai","i_lat":-6.209883,"transit":true,"distance":1275,"time":2,"i_long":106.84912,"is_transit":true,"station_id":"MRI","line":2},{"station_id":"CKI","is_transit":false,"distance":1590,"transit":false,"i_lat":-6.198556,"line":2,"i_long":106.840169,"station_name":"Cikini","time":4},{"i_lat":-6.186295,"i_long":106.832183,"is_transit":false,"time":3,"transit":false,"distance":1750,"station_name":"Gondangdia","station_id":"GDD","line":2},{"station_name":"Juanda","line":2,"is_transit":false,"transit":false,"station_id":"JUA","time":4,"distance":2015,"i_lat":-6.166716,"i_long":106.828284},{"line":2,"time":2,"distance":1149,"is_transit":false,"station_id":"SW","station_name":"Sawah Besar","i_long":106.827103,"transit":false,"i_lat":-6.160725},{"is_transit":false,"station_id":"MGB","time":2,"transit":false,"i_long":106.82482,"i_lat":-6.149769,"distance":906,"line":2,"station_name":"Manggabesar"},{"distance":1080,"is_transit":false,"line":2,"i_lat":-6.141205,"i_long":106.820901,"transit":false,"station_name":"Jayakarta","time":2,"station_id":"JAY"},{"is_transit":true,"station_name":"Jakarta Kota","distance":1264,"station_id":"JAKK","time":4,"line":2,"i_long":106.812439,"i_lat":-6.137569,"transit":true},{"time":3,"distance":1364,"transit":true,"i_lat":-6.132549,"line":4,"station_name":"Kampung Bandan","is_transit":true,"station_id":"KPB","i_long":106.826365},{"is_transit":false,"i_long":106.79867,"line":1,"station_id":"AK","station_name":"Angke","i_lat":-6.144674,"time":9,"transit":false,"distance":4102},{"station_name":"Duri","station_id":"DU","is_transit":false,"time":4,"distance":1230,"transit":false,"i_long":106.800832,"i_lat":-6.155215,"line":1},{"time":8,"station_name":"Tanah Abang","distance":3632,"station_id":"THB","i_long":106.811091,"line":1,"i_lat":-6.185545,"transit":true,"is_transit":true},{"i_long":106.79689,"line":6,"time":6,"distance":3191,"i_lat":-6.207404,"is_transit":false,"station_name":"Palmerah","transit":false,"station_id":"PLM"},{"transit":false,"is_transit":false,"station_id":"KBY","station_name":"Kebayoran","distance":3737,"line":6,"time":7,"i_long":106.780334,"i_lat":-6.237242},{"transit":false,"i_lat":-6.276362,"time":8,"distance":6218,"is_transit":false,"station_id":"PDJ","i_long":106.74273,"line":6,"station_name":"Pondokranji"},{"station_name":"Jurangmangu","distance":2179,"line":6,"i_long":106.728916,"is_transit":false,"transit":false,"i_lat":-6.288927,"time":3,"station_id":"JMU"},{"i_lat":-6.296963,"line":6,"station_id":"SDM","distance":1994,"transit":false,"i_long":106.712277,"time":4,"station_name":"Sudimara","is_transit":false},{"i_long":106.675475,"transit":false,"i_lat":-6.314823,"station_name":"Rawa Buntu","is_transit":false,"station_id":"RU","line":6,"distance":4566,"time":6},{"station_id":"SRP","transit":false,"station_name":"Serpong","is_transit":false,"i_lat":-6.319871,"i_long":106.66566,"line":6,"distance":2413,"time":4},{"line":3,"is_transit":false,"station_name":"Cisauk","time":4,"station_id":"CSK","i_lat":-6.32484,"transit":false,"distance":1784,"i_long":106.640411},{"station_id":"CC","time":4,"transit":false,"is_transit":false,"station_name":"Cicayur","i_long":106.617853,"i_lat":-6.329547,"line":3,"distance":2519},{"distance":5968,"line":6,"is_transit":false,"transit":false,"station_name":"Parung Panjang","i_long":106.568863,"time":8,"i_lat":-6.3441410000000005,"station_id":"PRP"},{"i_lat":-6.354349,"time":9,"station_name":"Cilejit","station_id":"CJT","line":3,"distance":7025,"transit":false,"is_transit":false,"i_long":106.508482}],[{"line":11,"i_lat":-6.185975,"time":0,"transit":false,"distance":0,"station_id":"GST","station_name":"Gang Sentiong","i_long":106.850107,"is_transit":false},{"station_name":"Pasar Senen","i_lat":-6.174784,"i_long":106.84368,"time":8,"station_id":"PSE","transit":false,"is_transit":false,"distance":1567,"line":11},{"station_id":"KMO","time":4,"is_transit":false,"line":11,"distance":1436,"i_lat":-6.161728,"station_name":"Kemayoran","i_long":106.839204,"transit":false},{"station_id":"RJW","station_name":"Rajawali","i_lat":-6.14505,"transit":false,"time":5,"is_transit":false,"i_long":106.836569,"line":11,"distance":1901},{"line":4,"distance":1444,"is_transit":true,"i_lat":-6.132549,"station_name":"Kampung Bandan","time":3,"transit":true,"i_long":106.826365,"station_id":"KPB"},{"is_transit":true,"i_lat":-6.137569,"line":2,"time":3,"distance":1364,"i_long":106.812439,"station_id":"JAKK","transit":true,"station_name":"Jakarta Kota"},{"distance":1264,"station_id":"JAY","station_name":"Jayakarta","i_lat":-6.141205,"line":2,"transit":false,"time":4,"i_long":106.820901,"is_transit":false},{"i_lat":-6.149769,"time":2,"station_name":"Manggabesar","distance":1080,"transit":false,"is_transit":false,"line":2,"station_id":"MGB","i_long":106.82482},{"time":2,"station_name":"Sawah Besar","station_id":"SW","i_long":106.827103,"i_lat":-6.160725,"distance":906,"transit":false,"line":2,"is_transit":false},{"is_transit":false,"i_long":106.828284,"time":2,"station_name":"Juanda","station_id":"JUA","line":2,"transit":false,"i_lat":-6.166716,"distance":1149},{"is_transit":false,"i_lat":-6.186295,"station_name":"Gondangdia","station_id":"GDD","distance":2015,"i_long":106.832183,"transit":false,"line":2,"time":4},{"i_lat":-6.198556,"is_transit":false,"i_long":106.840169,"line":2,"distance":1750,"time":3,"transit":false,"station_name":"Cikini","station_id":"CKI"},{"station_name":"Manggarai","is_transit":true,"i_lat":-6.209883,"time":4,"line":2,"transit":true,"station_id":"MRI","distance":1590,"i_long":106.84912},{"i_lat":-6.202263,"distance":3186,"transit":false,"station_id":"SUD","i_long":106.822649,"is_transit":false,"time":4,"line":1,"station_name":"Sudirman"},{"station_id":"SUDB","i_lat":-6.201433,"line":1,"transit":false,"distance":280,"i_long":106.819881,"time":1,"station_name":"Sudirman Baru","is_transit":false},{"station_name":"Karet","time":1,"distance":471,"transit":false,"is_transit":false,"station_id":"KAT","i_lat":-6.20132,"i_long":106.816351,"line":1},{"i_lat":-6.185545,"line":1,"station_id":"THB","i_long":106.811091,"is_transit":true,"transit":true,"station_name":"Tanah Abang","time":5,"distance":2029},{"transit":false,"station_name":"Palmerah","distance":3191,"is_transit":false,"i_lat":-6.207404,"station_id":"PLM","i_long":106.79689,"line":6,"time":6},{"time":7,"i_long":106.780334,"transit":false,"station_id":"KBY","line":6,"distance":3737,"i_lat":-6.237242,"station_name":"Kebayoran","is_transit":false},{"station_id":"PDJ","station_name":"Pondokranji","line":6,"transit":false,"time":8,"i_lat":-6.276362,"i_long":106.74273,"distance":6218,"is_transit":false},{"i_long":106.728916,"line":6,"distance":2179,"station_id":"JMU","time":3,"i_lat":-6.288927,"is_transit":false,"transit":false,"station_name":"Jurangmangu"},{"line":6,"station_name":"Sudimara","transit":false,"distance":1994,"is_transit":false,"i_long":106.712277,"time":4,"i_lat":-6.296963,"station_id":"SDM"},{"distance":4566,"transit":false,"i_lat":-6.314823,"i_long":106.675475,"line":6,"station_name":"Rawa Buntu","station_id":"RU","is_transit":false,"time":6},{"line":6,"distance":2413,"station_name":"Serpong","is_transit":false,"transit":false,"station_id":"SRP","time":4,"i_lat":-6.319871,"i_long":106.66566},{"station_id":"CSK","i_lat":-6.32484,"transit":false,"line":3,"distance":1784,"is_transit":false,"station_name":"Cisauk","i_long":106.640411,"time":4},{"i_lat":-6.329547,"station_id":"CC","transit":false,"line":3,"station_name":"Cicayur","distance":2519,"is_transit":false,"time":4,"i_long":106.617853},{"i_long":106.568863,"distance":5968,"is_transit":false,"i_lat":-6.3441410000000005,"time":8,"station_name":"Parung Panjang","station_id":"PRP","line":6,"transit":false},{"station_id":"CJT","station_name":"Cilejit","transit":false,"time":9,"distance":7025,"is_transit":false,"i_lat":-6.354349,"i_long":106.508482,"line":3}]]}