{"data":[[{"is_transit":false,"station_id":"GST","transit":false,"distance":0,"time":0,"station_name":"Gang Sentiong","i_lat":-6.185975,"i_long":106.850107,"line":11},{"distance":1567,"station_id":"PSE","line":11,"transit":false,"i_long":106.84368,"station_name":"Pasar Senen","is_transit":false,"i_lat":-6.174784,"time":8},{"distance":1436,"station_id":"KMO","line":11,"i_lat":-6.161728,"station_name":"Kemayoran","time":4,"i_long":106.839204,"is_transit":false,"transit":false},{"station_name":"Rajawali","line":11,"station_id":"RJW","transit":false,"is_transit":false,"time":5,"distance":1901,"i_lat":-6.14505,"i_long":106.836569},{"is_transit":true,"transit":true,"distance":1444,"station_id":"KPB","i_long":106.826365,"i_lat":-6.132549,"time":3,"station_name":"Kampung Bandan","line":4},{"station_name":"Ancol","distance":2185,"is_transit":false,"i_lat":-6.128023,"transit":false,"line":4,"time":4,"station_id":"AC","i_long":106.84464}],[{"station_name":"Gang Sentiong","time":0,"is_transit":false,"i_long":106.850107,"line":11,"distance":0,"transit":false,"i_lat":-6.185975,"station_id":"GST"},{"transit":false,"i_lat":-6.193792,"line":11,"time":1,"station_name":"Kramat","is_transit":false,"i_long":106.855437,"distance":973,"station_id":"KMT"},{"transit":false,"distance":1829,"i_lat":-6.209188,"i_long":106.861737,"line":11,"time":2,"station_name":"Pondok Jati","station_id":"POK","is_transit":false},{"time":9,"distance":1236,"station_id":"JNG","i_lat":-6.215091,"line":1,"i_long":106.86807400000001,"transit":true,"station_name":"Jatinegara","is_transit":true},{"station_name":"Matraman","is_transit":false,"i_lat":-6.212485,"transit":false,"distance":1377,"line":1,"time":2,"station_id":"MTR","i_long":106.858896},{"i_long":106.84912,"transit":false,"line":2,"distance":1275,"station_id":"MRI","station_name":"Manggarai","time":2,"i_lat":-6.209883,"is_transit":false},{"i_lat":-6.202263,"distance":3186,"i_long":106.822649,"line":1,"station_id":"SUD","station_name":"Sudirman","transit":false,"is_transit":false,"time":4},{"i_lat":-6.201433,"station_id":"SUDB","is_transit":false,"transit":false,"station_name":"Sudirman Baru","distance":280,"i_long":106.819881,"line":1,"time":1},{"station_id":"KAT","transit":false,"time":1,"i_lat":-6.20132,"i_long":106.816351,"line":1,"station_name":"Karet","distance":471,"is_transit":false},{"time":5,"line":1,"i_lat":-6.185545,"station_name":"Tanah Abang","transit":false,"distance":2029,"station_id":"THB","is_transit":false,"i_long":106.811091},{"distance":3632,"i_lat":-6.155215,"transit":false,"station_name":"Duri","i_long":106.800832,"time":8,"line":1,"is_transit":false,"station_id":"DU"},{"station_id":"AK","distance":1230,"is_transit":false,"station_name":"Angke","transit":false,"i_long":106.79867,"time":4,"i_lat":-6.144674,"line":1},{"distance":4102,"time":9,"transit":true,"is_transit":true,"station_id":"KPB","i_long":106.826365,"line":4,"station_name":"Kampung Bandan","i_lat":-6.132549},{"line":4,"time":4,"is_transit":false,"transit":false,"i_lat":-6.128023,"i_long":106.84464,"station_name":"Ancol","distance":2185,"station_id":"AC"}],[{"station_id":"GST","i_lat":-6.185975,"distance":0,"station_name":"Gang Sentiong","is_transit":false,"transit":false,"time":0,"i_long":106.850107,"line":11},{"is_transit":false,"line":11,"station_id":"KMT","distance":973,"i_lat":-6.193792,"transit":false,"station_name":"Kramat","i_long":106.855437,"time":1},{"distance":1829,"i_lat":-6.209188,"i_long":106.861737,"transit":false,"station_name":"Pondok Jati","line":11,"is_transit":false,"time":2,"station_id":"POK"},{"line":1,"distance":1236,"i_long":106.86807400000001,"time":9,"transit":true,"is_transit":true,"station_name":"Jatinegara","i_lat":-6.215091,"station_id":"JNG"},{"distance":1377,"is_transit":false,"transit":false,"time":2,"line":1,"station_name":"Matraman","i_long":106.858896,"station_id":"MTR","i_lat":-6.212485},{"station_name":"Manggarai","i_long":106.84912,"is_transit":true,"transit":true,"i_lat":-6.209883,"time":2,"station_id":"MRI","line":2,"distance":1275},{"time":4,"station_id":"CKI","transit":false,"i_lat":-6.198556,"distance":1590,"line":2,"station_name":"Cikini","is_transit":false,"i_long":106.840169},{"station_id":"GDD","i_long":106.832183,"is_transit":false,"i_lat":-6.186295,"line":2,"distance":1750,"station_name":"Gondangdia","time":3,"transit":false},{"distance":2015,"is_transit":false,"i_lat":-6.166716,"station_id":"JUA","station_name":"Juanda","line":2,"time":4,"i_long":106.828284,"transit":false},{"station_id":"SW","time":2,"station_name":"Sawah Besar","i_lat":-6.160725,"distance":1149,"i_long":106.827103,"transit":false,"line":2,"is_transit":false},{"i_long":106.82482,"distance":906,"station_id":"MGB","station_name":"Manggabesar","line":2,"is_transit":false,"i_lat":-6.149769,"time":2,"transit":false},{"i_long":106.820901,"distance":1080,"transit":false,"time":2,"station_id":"JAY","station_name":"Jayakarta","is_transit":false,"i_lat":-6.141205,"line":2},{"line":2,"i_long":106.812439,"time":4,"distance":1264,"station_id":"JAKK","is_transit":true,"station_name":"Jakarta Kota","transit":true,"i_lat":-6.137569},{"transit":true,"time":3,"i_long":106.826365,"line":4,"distance":1364,"station_id":"KPB","i_lat":-6.132549,"station_name":"Kampung Bandan","is_transit":true},{"time":4,"station_id":"AC","is_transit":false,"i_lat":-6.128023,"station_name":"Ancol","i_long":106.84464,"line":4,"distance":2185,"transit":false}]]}