{"data":[[{"is_transit":false,"transit":false,"line":11,"i_long":106.850107,"i_lat":-6.185975,"station_id":"GST","station_name":"Gang Sentiong","time":0,"distance":0},{"i_long":106.855437,"transit":false,"station_id":"KMT","is_transit":false,"i_lat":-6.193792,"distance":973,"station_name":"Kramat","line":11,"time":1},{"i_long":106.861737,"line":11,"station_id":"POK","distance":1829,"time":2,"transit":false,"i_lat":-6.209188,"is_transit":false,"station_name":"Pondok Jati"},{"transit":true,"line":1,"is_transit":true,"time":9,"station_name":"Jatinegara","i_long":106.86807400000001,"distance":1236,"station_id":"JNG","i_lat":-6.215091},{"transit":false,"i_long":106.858896,"i_lat":-6.212485,"distance":1377,"time":2,"is_transit":false,"line":1,"station_name":"Matraman","station_id":"MTR"},{"distance":1275,"station_id":"MRI","i_lat":-6.209883,"station_name":"Manggarai","time":2,"is_transit":true,"transit":true,"i_long":106.84912,"line":2},{"distance":2610,"station_name":"Tebet","station_id":"TEB","i_lat":-6.226659,"transit":false,"is_transit":false,"time":4,"line":2,"i_long":106.857948},{"i_long":106.856607,"i_lat":-6.242512,"line":2,"station_id":"CW","station_name":"Cawang","time":2,"distance":1230,"is_transit":false,"transit":false},{"is_transit":false,"time":3,"distance":1546,"line":2,"station_id":"DRN","transit":false,"i_long":106.85449,"station_name":"Duren Kalibata","i_lat":-6.255332},{"i_lat":-6.263214,"line":2,"time":2,"station_name":"Pasar Minggu Baru","transit":false,"i_long":106.851577,"distance":824,"station_id":"PSMB","is_transit":false},{"distance":2380,"i_lat":-6.2842400000000005,"i_long":106.843999,"station_id":"PSM","line":2,"station_name":"Pasar Minggu","time":2,"is_transit":false,"transit":false},{"transit":false,"distance":2820,"is_transit":false,"i_lat":-6.3080680000000005,"i_long":106.838896,"time":4,"line":2,"station_id":"TNT","station_name":"Tanjung Barat"},{"i_lat":-6.330363,"distance":2671,"is_transit":false,"i_long":106.832616,"time":3,"line":2,"station_name":"Lenteng Agung","station_id":"LNA","transit":false},{"line":2,"transit":false,"time":2,"is_transit":false,"i_lat":-6.339291,"distance":1029,"station_name":"Univ. Pancasila","i_long":106.834175,"station_id":"UP"},{"time":3,"distance":2264,"station_name":"Univ. Indonesia","is_transit":false,"transit":false,"station_id":"UI","i_long":106.831474,"i_lat":-6.360749,"line":2}],[{"station_id":"GST","line":11,"station_name":"Gang Sentiong","time":0,"is_transit":false,"transit":false,"distance":0,"i_lat":-6.185975,"i_long":106.850107},{"station_id":"PSE","transit":false,"line":11,"time":8,"distance":1567,"i_lat":-6.174784,"is_transit":false,"i_long":106.84368,"station_name":"Pasar Senen"},{"is_transit":false,"i_lat":-6.161728,"station_id":"KMO","time":4,"station_name":"Kemayoran","transit":false,"line":11,"distance":1436,"i_long":106.839204},{"station_id":"RJW","i_long":106.836569,"distance":1901,"i_lat":-6.14505,"time":5,"line":11,"transit":false,"station_name":"Rajawali","is_transit":false},{"i_lat":-6.132549,"distance":1444,"time":3,"transit":true,"station_name":"Kampung Bandan","station_id":"KPB","is_transit":true,"line":4,"i_long":106.826365},{"station_id":"AK","transit":false,"time":9,"i_long":106.79867,"distance":4102,"is_transit":false,"station_name":"Angke","i_lat":-6.144674,"line":1},{"station_name":"Duri","station_id":"DU","line":1,"distance":1230,"is_transit":false,"i_long":106.800832,"i_lat":-6.155215,"time":4,"transit":false},{"line":1,"is_transit":false,"distance":3632,"transit":false,"i_lat":-6.185545,"i_long":106.811091,"time":8,"station_name":"Tanah Abang","station_id":"THB"},{"station_name":"Karet","transit":false,"station_id":"KAT","i_lat":-6.20132,"time":5,"i_long":106.816351,"distance":2029,"line":1,"is_transit":false},{"time":1,"station_id":"SUDB","station_name":"Sudirman Baru","transit":false,"i_long":106.819881,"i_lat":-6.201433,"distance":471,"line":1,"is_transit":false},{"is_transit":false,"station_name":"Sudirman","station_id":"SUD","line":1,"time":1,"i_long":106.822649,"distance":280,"transit":false,"i_lat":-6.202263},{"station_id":"MRI","station_name":"Manggarai","time":4,"line":2,"is_transit":true,"i_long":106.84912,"distance":3186,"transit":true,"i_lat":-6.209883},{"station_name":"Tebet","transit":false,"i_long":106.857948,"i_lat":-6.226659,"time":4,"station_id":"TEB","is_transit":false,"line":2,"distance":2610},{"i_long":106.856607,"line":2,"transit":false,"station_id":"CW","i_lat":-6.242512,"distance":1230,"is_transit":false,"time":2,"station_name":"Cawang"},{"station_id":"DRN","line":2,"transit":false,"i_long":106.85449,"i_lat":-6.255332,"station_name":"Duren Kalibata","time":3,"distance":1546,"is_transit":false},{"station_name":"Pasar Minggu Baru","i_lat":-6.263214,"i_long":106.851577,"time":2,"transit":false,"distance":824,"is_transit":false,"line":2,"station_id":"PSMB"},{"distance":2380,"line":2,"transit":false,"time":2,"is_transit":false,"station_id":"PSM","i_lat":-6.2842400000000005,"station_name":"Pasar Minggu","i_long":106.843999},{"i_long":106.838896,"is_transit":false,"distance":2820,"transit":false,"line":2,"time":4,"station_id":"TNT","station_name":"Tanjung Barat","i_lat":-6.3080680000000005},{"i_long":106.832616,"station_name":"Lenteng Agung","is_transit":false,"station_id":"LNA","distance":2671,"transit":false,"i_lat":-6.330363,"line":2,"time":3},{"distance":1029,"line":2,"transit":false,"i_long":106.834175,"is_transit":false,"station_id":"UP","time":2,"i_lat":-6.339291,"station_name":"Univ. Pancasila"},{"is_transit":false,"transit":false,"station_name":"Univ. Indonesia","time":3,"distance":2264,"i_lat":-6.360749,"i_long":106.831474,"line":2,"station_id":"UI"}],[{"station_name":"Gang Sentiong","is_transit":false,"i_long":106.850107,"i_lat":-6.185975,"transit":false,"distance":0,"line":11,"station_id":"GST","time":0},{"is_transit":false,"transit":false,"distance":1567,"i_lat":-6.174784,"i_long":106.84368,"time":8,"station_name":"Pasar Senen","line":11,"station_id":"PSE"},{"transit":false,"distance":1436,"is_transit":false,"line":11,"i_lat":-6.161728,"station_name":"Kemayoran","station_id":"KMO","i_long":106.839204,"time":4},{"transit":false,"i_lat":-6.14505,"line":11,"is_transit":false,"time":5,"distance":1901,"station_id":"RJW","station_name":"Rajawali","i_long":106.836569},{"distance":1444,"time":3,"station_id":"KPB","is_transit":true,"i_lat":-6.132549,"station_name":"Kampung Bandan","line":4,"transit":true,"i_long":106.826365},{"i_lat":-6.137569,"station_id":"JAKK","transit":true,"time":3,"distance":1364,"i_long":106.812439,"line":2,"station_name":"Jakarta Kota","is_transit":true},{"station_id":"JAY","i_long":106.820901,"time":4,"transit":false,"distance":1264,"is_transit":false,"i_lat":-6.141205,"station_name":"Jayakarta","line":2},{"station_name":"Manggabesar","time":2,"transit":false,"is_transit":false,"distance":1080,"line":2,"i_long":106.82482,"station_id":"MGB","i_lat":-6.149769},{"time":2,"is_transit":false,"station_id":"SW","transit":false,"i_lat":-6.160725,"i_long":106.827103,"station_name":"Sawah Besar","distance":906,"line":2},{"time":2,"station_name":"Juanda","transit":false,"i_long":106.828284,"is_transit":false,"line":2,"station_id":"JUA","distance":1149,"i_lat":-6.166716},{"transit":false,"distance":2015,"i_long":106.832183,"line":2,"time":4,"station_id":"GDD","station_name":"Gondangdia","i_lat":-6.186295,"is_transit":false},{"station_id":"CKI","distance":1750,"is_transit":false,"time":3,"transit":false,"i_lat":-6.198556,"i_long":106.840169,"line":2,"station_name":"Cikini"},{"station_id":"MRI","line":2,"i_lat":-6.209883,"transit":false,"is_transit":false,"station_name":"Manggarai","distance":1590,"time":4,"i_long":106.84912},{"time":4,"line":2,"i_lat":-6.226659,"i_long":106.857948,"distance":2610,"station_name":"Tebet","is_transit":false,"transit":false,"station_id":"TEB"},{"line":2,"station_name":"Cawang","distance":1230,"transit":false,"station_id":"CW","i_long":106.856607,"i_lat":-6.242512,"time":2,"is_transit":false},{"station_name":"Duren Kalibata","transit":false,"station_id":"DRN","line":2,"i_lat":-6.255332,"time":3,"is_transit":false,"distance":1546,"i_long":106.85449},{"station_id":"PSMB","distance":824,"station_name":"Pasar Minggu Baru","transit":false,"time":2,"line":2,"i_long":106.851577,"i_lat":-6.263214,"is_transit":false},{"station_id":"PSM","i_long":106.843999,"transit":false,"is_transit":false,"time":2,"station_name":"Pasar Minggu","line":2,"distance":2380,"i_lat":-6.2842400000000005},{"transit":false,"distance":2820,"station_name":"Tanjung Barat","station_id":"TNT","time":4,"i_long":106.838896,"i_lat":-6.3080680000000005,"line":2,"is_transit":false},{"distance":2671,"station_name":"Lenteng Agung","station_id":"LNA","i_lat":-6.330363,"i_long":106.832616,"line":2,"transit":false,"is_transit":false,"time":3},{"i_lat":-6.339291,"is_transit":false,"i_long":106.834175,"line":2,"transit":false,"distance":1029,"time":2,"station_name":"Univ. Pancasila","station_id":"UP"},{"is_transit":false,"distance":2264,"transit":false,"i_long":106.831474,"time":3,"station_id":"UI","i_lat":-6.360749,"station_name":"Univ. Indonesia","line":2}]]}