{"data":[[{"time":0,"i_lat":-6.185975,"i_long":106.850107,"station_name":"Gang Sentiong","is_transit":false,"transit":false,"line":11,"distance":0,"station_id":"GST"},{"time":1,"distance":973,"i_lat":-6.193792,"i_long":106.855437,"transit":false,"is_transit":false,"station_name":"Kramat","line":11,"station_id":"KMT"},{"transit":false,"i_lat":-6.209188,"i_long":106.861737,"time":2,"line":11,"station_id":"POK","is_transit":false,"distance":1829,"station_name":"Pondok Jati"},{"station_id":"JNG","i_lat":-6.215091,"distance":1236,"i_long":106.86807400000001,"is_transit":true,"time":9,"station_name":"Jatinegara","transit":true,"line":0},{"i_lat":-6.2135,"time":3,"is_transit":false,"distance":3395,"line":1,"station_id":"KLD","i_long":106.899548,"station_name":"Klender","transit":false},{"station_id":"BUA","time":2,"line":0,"station_name":"Buaran","transit":false,"i_lat":-6.215568,"is_transit":false,"distance":3100,"i_long":106.922662}],[{"station_id":"GST","is_transit":false,"transit":false,"i_long":106.850107,"station_name":"Gang Sentiong","distance":0,"i_lat":-6.185975,"time":0,"line":11},{"station_name":"Pasar Senen","line":11,"station_id":"PSE","is_transit":false,"i_long":106.84368,"time":8,"distance":1567,"transit":false,"i_lat":-6.174784},{"i_long":106.839204,"i_lat":-6.161728,"time":4,"station_id":"KMO","transit":false,"distance":1436,"is_transit":false,"station_name":"Kemayoran","line":11},{"distance":1901,"station_name":"Rajawali","is_transit":false,"station_id":"RJW","i_long":106.836569,"i_lat":-6.14505,"line":11,"time":5,"transit":false},{"i_lat":-6.132549,"line":0,"station_id":"KPB","transit":true,"i_long":106.826365,"is_transit":true,"distance":1444,"time":3,"station_name":"Kampung Bandan"},{"is_transit":false,"i_lat":-6.144674,"station_id":"AK","transit":false,"i_long":106.79867,"time":9,"line":0,"distance":4102,"station_name":"Angke"},{"distance":1230,"station_name":"Duri","i_lat":-6.155215,"is_transit":true,"i_long":106.800832,"transit":true,"line":1,"time":4,"station_id":"DU"},{"distance":3632,"i_lat":-6.185545,"time":8,"station_name":"Tanah Abang","is_transit":true,"i_long":106.811091,"line":1,"station_id":"THB","transit":false},{"i_lat":-6.20132,"line":1,"distance":2029,"time":5,"station_name":"Karet","transit":false,"i_long":106.816351,"is_transit":false,"station_id":"KAT"},{"i_lat":-6.201433,"is_transit":false,"transit":false,"time":1,"distance":471,"station_name":"Sudirman Baru","station_id":"SUDB","i_long":106.819881,"line":1},{"distance":280,"is_transit":false,"station_name":"Sudirman","station_id":"SUD","transit":false,"line":1,"time":1,"i_lat":-6.202263,"i_long":106.822649},{"time":4,"is_transit":true,"distance":3186,"station_name":"Manggarai","transit":false,"i_lat":-6.209883,"i_long":106.84912,"line":0,"station_id":"MRI"},{"line":1,"i_long":106.858896,"transit":false,"i_lat":-6.212485,"is_transit":false,"station_id":"MTR","distance":1275,"time":2,"station_name":"Matraman"},{"time":8,"i_long":106.86807400000001,"distance":1377,"station_id":"JNG","is_transit":true,"transit":false,"station_name":"Jatinegara","i_lat":-6.215091,"line":0},{"time":3,"line":1,"transit":false,"is_transit":false,"station_id":"KLD","station_name":"Klender","i_long":106.899548,"i_lat":-6.2135,"distance":3395},{"is_transit":false,"distance":3100,"station_name":"Buaran","transit":false,"i_lat":-6.215568,"station_id":"BUA","time":2,"i_long":106.922662,"line":0}],[{"distance":0,"transit":false,"i_lat":-6.185975,"i_long":106.850107,"is_transit":false,"line":11,"station_name":"Gang Sentiong","station_id":"GST","time":0},{"time":8,"distance":1567,"is_transit":false,"line":11,"station_id":"PSE","i_long":106.84368,"station_name":"Pasar Senen","transit":false,"i_lat":-6.174784},{"distance":1436,"station_name":"Kemayoran","i_long":106.839204,"line":11,"is_transit":false,"transit":false,"i_lat":-6.161728,"time":4,"station_id":"KMO"},{"station_id":"RJW","is_transit":false,"transit":false,"time":5,"station_name":"Rajawali","distance":1901,"i_lat":-6.14505,"i_long":106.836569,"line":11},{"time":3,"i_lat":-6.132549,"i_long":106.826365,"is_transit":true,"transit":true,"line":0,"station_name":"Kampung Bandan","station_id":"KPB","distance":1444},{"station_name":"Jakarta Kota","transit":true,"distance":1364,"is_transit":true,"i_long":106.812439,"line":0,"station_id":"JAKK","i_lat":-6.137569,"time":3},{"station_id":"JAY","is_transit":false,"line":7,"time":4,"transit":false,"distance":1264,"i_lat":-6.141205,"station_name":"Jayakarta","i_long":106.820901},{"is_transit":false,"station_id":"MGB","time":2,"station_name":"Manggabesar","i_lat":-6.149769,"line":2,"transit":false,"i_long":106.82482,"distance":1080},{"distance":906,"i_long":106.827103,"station_id":"SW","i_lat":-6.160725,"station_name":"Sawah Besar","line":2,"is_transit":false,"time":2,"transit":false},{"station_id":"JUA","time":2,"station_name":"Juanda","i_lat":-6.166716,"i_long":106.828284,"distance":1149,"is_transit":false,"transit":false,"line":2},{"transit":false,"line":2,"station_id":"GDD","distance":2015,"station_name":"Gondangdia","i_lat":-6.186295,"time":4,"i_long":106.832183,"is_transit":false},{"i_long":106.840169,"i_lat":-6.198556,"station_name":"Cikini","line":0,"time":3,"station_id":"CKI","is_transit":false,"transit":false,"distance":1750},{"distance":1590,"line":0,"station_name":"Manggarai","transit":true,"is_transit":true,"i_lat":-6.209883,"i_long":106.84912,"station_id":"MRI","time":4},{"i_lat":-6.212485,"i_long":106.858896,"is_transit":false,"line":1,"time":2,"distance":1275,"station_name":"Matraman","station_id":"MTR","transit":false},{"station_name":"Jatinegara","time":8,"station_id":"JNG","distance":1377,"transit":false,"line":0,"is_transit":true,"i_lat":-6.215091,"i_long":106.86807400000001},{"i_long":106.899548,"is_transit":false,"time":3,"station_name":"Klender","transit":false,"station_id":"KLD","line":1,"i_lat":-6.2135,"distance":3395},{"i_long":106.922662,"i_lat":-6.215568,"transit":false,"distance":3100,"station_name":"Buaran","time":2,"line":0,"is_transit":false,"station_id":"BUA"}]]}