{"data":[[{"station_id":"GST","i_long":106.850107,"line":11,"transit":false,"is_transit":false,"time":0,"i_lat":-6.185975,"distance":0,"station_name":"Gang Sentiong"},{"line":11,"transit":false,"time":1,"station_id":"KMT","is_transit":false,"i_lat":-6.193792,"distance":973,"station_name":"Kramat","i_long":106.855437},{"station_name":"Pondok Jati","distance":1829,"station_id":"POK","transit":false,"is_transit":false,"line":11,"i_long":106.861737,"i_lat":-6.209188,"time":2},{"time":9,"i_lat":-6.215091,"i_long":106.86807400000001,"station_name":"Jatinegara","station_id":"JNG","line":1,"is_transit":true,"transit":true,"distance":1236},{"i_long":106.858896,"station_id":"MTR","line":1,"i_lat":-6.212485,"is_transit":false,"distance":1377,"station_name":"Matraman","transit":false,"time":2},{"i_long":106.84912,"distance":1275,"transit":true,"time":2,"station_id":"MRI","station_name":"Manggarai","i_lat":-6.209883,"is_transit":true,"line":2},{"i_long":106.840169,"station_name":"Cikini","i_lat":-6.198556,"time":4,"line":2,"is_transit":false,"distance":1590,"transit":false,"station_id":"CKI"},{"is_transit":false,"station_id":"GDD","i_long":106.832183,"distance":1750,"time":3,"i_lat":-6.186295,"transit":false,"station_name":"Gondangdia","line":2}],[{"time":0,"line":11,"distance":0,"transit":false,"i_lat":-6.185975,"station_name":"Gang Sentiong","is_transit":false,"i_long":106.850107,"station_id":"GST"},{"transit":false,"is_transit":false,"time":8,"i_lat":-6.174784,"line":11,"distance":1567,"station_id":"PSE","i_long":106.84368,"station_name":"Pasar Senen"},{"time":4,"station_id":"KMO","line":11,"station_name":"Kemayoran","is_transit":false,"distance":1436,"i_lat":-6.161728,"transit":false,"i_long":106.839204},{"distance":1901,"station_name":"Rajawali","station_id":"RJW","line":11,"is_transit":false,"time":5,"i_long":106.836569,"transit":false,"i_lat":-6.14505},{"line":4,"time":3,"station_name":"Kampung Bandan","distance":1444,"i_lat":-6.132549,"is_transit":true,"station_id":"KPB","transit":true,"i_long":106.826365},{"station_name":"Jakarta Kota","station_id":"JAKK","i_long":106.812439,"line":2,"transit":true,"is_transit":true,"time":3,"distance":1364,"i_lat":-6.137569},{"transit":false,"is_transit":false,"i_lat":-6.141205,"line":2,"station_id":"JAY","distance":1264,"time":4,"i_long":106.820901,"station_name":"Jayakarta"},{"is_transit":false,"station_id":"MGB","time":2,"station_name":"Manggabesar","distance":1080,"line":2,"transit":false,"i_long":106.82482,"i_lat":-6.149769},{"transit":false,"is_transit":false,"distance":906,"i_lat":-6.160725,"i_long":106.827103,"station_id":"SW","line":2,"station_name":"Sawah Besar","time":2},{"i_lat":-6.166716,"i_long":106.828284,"line":2,"is_transit":false,"station_name":"Juanda","transit":false,"distance":1149,"time":2,"station_id":"JUA"},{"station_id":"GDD","i_long":106.832183,"time":4,"line":2,"distance":2015,"i_lat":-6.186295,"is_transit":false,"station_name":"Gondangdia","transit":false}],[{"is_transit":false,"station_name":"Gang Sentiong","time":0,"station_id":"GST","i_lat":-6.185975,"line":11,"i_long":106.850107,"transit":false,"distance":0},{"i_long":106.84368,"line":11,"transit":false,"station_name":"Pasar Senen","is_transit":false,"time":8,"distance":1567,"station_id":"PSE","i_lat":-6.174784},{"distance":1436,"station_id":"KMO","i_lat":-6.161728,"is_transit":false,"i_long":106.839204,"line":11,"station_name":"Kemayoran","time":4,"transit":false},{"station_name":"Rajawali","i_lat":-6.14505,"station_id":"RJW","time":5,"i_long":106.836569,"line":11,"distance":1901,"transit":false,"is_transit":false},{"station_id":"KPB","transit":true,"is_transit":true,"time":3,"i_long":106.826365,"station_name":"Kampung Bandan","i_lat":-6.132549,"distance":1444,"line":4},{"line":1,"station_name":"Angke","distance":4102,"is_transit":false,"i_lat":-6.144674,"station_id":"AK","i_long":106.79867,"transit":false,"time":9},{"transit":false,"is_transit":false,"i_long":106.800832,"station_name":"Duri","distance":1230,"station_id":"DU","line":1,"time":4,"i_lat":-6.155215},{"i_lat":-6.185545,"i_long":106.811091,"is_transit":false,"distance":3632,"line":1,"station_id":"THB","station_name":"Tanah Abang","transit":false,"time":8},{"transit":false,"station_name":"Karet","station_id":"KAT","is_transit":false,"time":5,"line":1,"i_long":106.816351,"i_lat":-6.20132,"distance":2029},{"distance":471,"station_name":"Sudirman Baru","i_long":106.819881,"time":1,"transit":false,"is_transit":false,"station_id":"SUDB","i_lat":-6.201433,"line":1},{"i_lat":-6.202263,"distance":280,"time":1,"station_name":"Sudirman","i_long":106.822649,"is_transit":false,"line":1,"transit":false,"station_id":"SUD"},{"is_transit":true,"distance":3186,"i_lat":-6.209883,"i_long":106.84912,"time":4,"transit":true,"line":2,"station_name":"Manggarai","station_id":"MRI"},{"time":4,"station_id":"CKI","line":2,"transit":false,"distance":1590,"station_name":"Cikini","i_lat":-6.198556,"is_transit":false,"i_long":106.840169},{"distance":1750,"is_transit":false,"time":3,"station_id":"GDD","i_lat":-6.186295,"i_long":106.832183,"transit":false,"station_name":"Gondangdia","line":2}],[{"i_lat":-6.185975,"transit":false,"i_long":106.850107,"is_transit":false,"station_name":"Gang Sentiong","time":0,"station_id":"GST","line":11,"distance":0},{"station_name":"Kramat","time":1,"station_id":"KMT","i_lat":-6.193792,"i_long":106.855437,"transit":false,"distance":973,"is_transit":false,"line":11},{"time":2,"i_lat":-6.209188,"station_id":"POK","line":11,"transit":false,"i_long":106.861737,"station_name":"Pondok Jati","distance":1829,"is_transit":false},{"i_long":106.86807400000001,"i_lat":-6.215091,"station_name":"Jatinegara","transit":true,"is_transit":true,"distance":1236,"station_id":"JNG","line":1,"time":9},{"distance":1377,"i_lat":-6.212485,"i_long":106.858896,"station_id":"MTR","line":1,"station_name":"Matraman","is_transit":false,"transit":false,"time":2},{"station_id":"MRI","is_transit":false,"i_long":106.84912,"line":2,"distance":1275,"station_name":"Manggarai","time":2,"i_lat":-6.209883,"transit":false},{"i_long":106.822649,"i_lat":-6.202263,"time":4,"distance":3186,"transit":false,"station_name":"Sudirman","line":1,"station_id":"SUD","is_transit":false},{"i_long":106.819881,"transit":false,"station_name":"Sudirman Baru","station_id":"SUDB","i_lat":-6.201433,"is_transit":false,"time":1,"line":1,"distance":280},{"distance":471,"is_transit":false,"station_name":"Karet","i_lat":-6.20132,"time":1,"transit":false,"station_id":"KAT","i_long":106.816351,"line":1},{"station_name":"Tanah Abang","time":5,"station_id":"THB","is_transit":false,"i_long":106.811091,"transit":false,"i_lat":-6.185545,"line":1,"distance":2029},{"time":8,"station_id":"DU","i_long":106.800832,"station_name":"Duri","line":1,"distance":3632,"is_transit":false,"i_lat":-6.155215,"transit":false},{"distance":1230,"line":1,"is_transit":false,"station_id":"AK","i_lat":-6.144674,"i_long":106.79867,"transit":false,"station_name":"Angke","time":4},{"station_id":"KPB","transit":true,"distance":4102,"i_long":106.826365,"station_name":"Kampung Bandan","time":9,"i_lat":-6.132549,"line":4,"is_transit":true},{"i_lat":-6.137569,"station_name":"Jakarta Kota","distance":1364,"i_long":106.812439,"station_id":"JAKK","transit":true,"line":2,"is_transit":true,"time":3},{"station_name":"Jayakarta","is_transit":false,"line":2,"time":4,"i_lat":-6.141205,"transit":false,"distance":1264,"station_id":"JAY","i_long":106.820901},{"i_lat":-6.149769,"line":2,"time":2,"station_id":"MGB","station_name":"Manggabesar","i_long":106.82482,"transit":false,"is_transit":false,"distance":1080},{"is_transit":false,"distance":906,"i_long":106.827103,"transit":false,"i_lat":-6.160725,"time":2,"station_id":"SW","line":2,"station_name":"Sawah Besar"},{"station_id":"JUA","transit":false,"distance":1149,"time":2,"i_lat":-6.166716,"line":2,"is_transit":false,"i_long":106.828284,"station_name":"Juanda"},{"station_id":"GDD","i_lat":-6.186295,"transit":false,"time":4,"distance":2015,"station_name":"Gondangdia","i_long":106.832183,"line":2,"is_transit":false}]]}