{"data":[[{"i_long":106.850107,"is_transit":false,"i_lat":-6.185975,"distance":0,"station_name":"Gang Sentiong","transit":false,"line":11,"station_id":"GST","time":0},{"is_transit":false,"transit":false,"i_long":106.84368,"i_lat":-6.174784,"station_id":"PSE","time":8,"distance":1567,"line":11,"station_name":"Pasar Senen"},{"station_id":"KMO","transit":false,"i_lat":-6.161728,"line":11,"station_name":"Kemayoran","distance":1436,"time":4,"is_transit":false,"i_long":106.839204},{"line":11,"i_long":106.836569,"is_transit":false,"i_lat":-6.14505,"transit":false,"time":5,"distance":1901,"station_name":"Rajawali","station_id":"RJW"},{"line":0,"distance":1444,"i_lat":-6.132549,"station_id":"KPB","transit":true,"i_long":106.826365,"is_transit":true,"time":3,"station_name":"Kampung Bandan"},{"station_name":"Angke","time":9,"line":0,"is_transit":false,"distance":4102,"station_id":"AK","transit":false,"i_lat":-6.144674,"i_long":106.79867},{"distance":1230,"station_id":"DU","station_name":"Duri","is_transit":true,"transit":true,"time":4,"i_lat":-6.155215,"i_long":106.800832,"line":1},{"time":3,"i_long":106.788277,"transit":false,"distance":1700,"station_id":"GGL","i_lat":-6.162021,"station_name":"Grogol","is_transit":false,"line":5},{"i_lat":-6.161433,"is_transit":false,"transit":false,"line":5,"station_id":"PSG","i_long":106.771379,"distance":2036,"time":2,"station_name":"Pesing"},{"station_name":"Taman Kota","transit":false,"station_id":"TKO","i_long":106.756522,"line":5,"distance":1614,"time":2,"i_lat":-6.1587309999999995,"is_transit":false},{"station_id":"BOI","time":2,"is_transit":false,"station_name":"Bojongindah","i_lat":-6.159876,"i_long":106.737035,"transit":false,"line":0,"distance":2334},{"time":4,"station_id":"RW","transit":false,"station_name":"Rawa Buaya","i_long":106.723064,"line":5,"is_transit":false,"distance":1152,"i_lat":-6.162758},{"i_long":106.701612,"distance":2504,"transit":false,"line":5,"time":3,"station_name":"Kalideres","station_id":"KDS","i_lat":-6.166068,"is_transit":false},{"line":5,"distance":2548,"i_long":106.679458,"time":3,"station_id":"PI","i_lat":-6.169933,"transit":false,"station_name":"Poris","is_transit":false},{"station_name":"Batuceper","time":3,"is_transit":false,"i_long":106.665036,"station_id":"BPR","distance":1834,"transit":false,"i_lat":-6.171811,"line":0},{"station_id":"TTI","i_lat":-6.17331,"i_long":106.64657,"time":3,"line":5,"is_transit":false,"distance":2028,"transit":false,"station_name":"Tanah Tinggi"}],[{"i_long":106.850107,"distance":0,"transit":false,"time":0,"station_id":"GST","line":11,"station_name":"Gang Sentiong","is_transit":false,"i_lat":-6.185975},{"station_name":"Kramat","time":1,"is_transit":false,"station_id":"KMT","i_lat":-6.193792,"line":11,"distance":973,"transit":false,"i_long":106.855437},{"distance":1829,"is_transit":false,"station_name":"Pondok Jati","transit":false,"station_id":"POK","line":11,"time":2,"i_lat":-6.209188,"i_long":106.861737},{"i_long":106.86807400000001,"station_id":"JNG","time":9,"transit":true,"distance":1236,"station_name":"Jatinegara","is_transit":true,"i_lat":-6.215091,"line":0},{"line":1,"time":2,"station_name":"Matraman","station_id":"MTR","i_lat":-6.212485,"transit":false,"i_long":106.858896,"distance":1377,"is_transit":false},{"station_id":"MRI","i_long":106.84912,"line":0,"time":2,"i_lat":-6.209883,"transit":false,"station_name":"Manggarai","distance":1275,"is_transit":true},{"station_name":"Sudirman","line":1,"station_id":"SUD","transit":false,"time":4,"i_lat":-6.202263,"i_long":106.822649,"distance":3186,"is_transit":false},{"time":1,"is_transit":false,"i_lat":-6.201433,"i_long":106.819881,"distance":280,"transit":false,"line":1,"station_name":"Sudirman Baru","station_id":"SUDB"},{"station_id":"KAT","is_transit":false,"i_lat":-6.20132,"distance":471,"i_long":106.816351,"line":1,"time":1,"station_name":"Karet","transit":false},{"time":5,"is_transit":true,"i_long":106.811091,"distance":2029,"station_name":"Tanah Abang","line":1,"transit":false,"i_lat":-6.185545,"station_id":"THB"},{"station_id":"DU","time":8,"is_transit":true,"i_long":106.800832,"line":1,"station_name":"Duri","i_lat":-6.155215,"transit":true,"distance":3632},{"transit":false,"i_lat":-6.162021,"line":5,"station_id":"GGL","distance":1700,"time":3,"station_name":"Grogol","i_long":106.788277,"is_transit":false},{"time":2,"i_long":106.771379,"station_name":"Pesing","station_id":"PSG","is_transit":false,"transit":false,"i_lat":-6.161433,"line":5,"distance":2036},{"i_lat":-6.1587309999999995,"station_name":"Taman Kota","transit":false,"i_long":106.756522,"station_id":"TKO","is_transit":false,"distance":1614,"time":2,"line":5},{"transit":false,"i_lat":-6.159876,"time":2,"distance":2334,"station_name":"Bojongindah","is_transit":false,"station_id":"BOI","i_long":106.737035,"line":0},{"i_lat":-6.162758,"line":5,"transit":false,"time":4,"station_name":"Rawa Buaya","station_id":"RW","i_long":106.723064,"is_transit":false,"distance":1152},{"distance":2504,"station_name":"Kalideres","transit":false,"station_id":"KDS","is_transit":false,"time":3,"i_lat":-6.166068,"i_long":106.701612,"line":5},{"distance":2548,"station_name":"Poris","station_id":"PI","transit":false,"time":3,"line":5,"i_long":106.679458,"i_lat":-6.169933,"is_transit":false},{"i_lat":-6.171811,"i_long":106.665036,"station_name":"Batuceper","line":0,"is_transit":false,"transit":false,"time":3,"distance":1834,"station_id":"BPR"},{"station_id":"TTI","distance":2028,"is_transit":false,"i_lat":-6.17331,"station_name":"Tanah Tinggi","line":5,"transit":false,"time":3,"i_long":106.64657}],[{"distance":0,"is_transit":false,"station_id":"GST","i_lat":-6.185975,"i_long":106.850107,"station_name":"Gang Sentiong","line":11,"time":0,"transit":false},{"is_transit":false,"station_name":"Kramat","station_id":"KMT","i_long":106.855437,"time":1,"line":11,"transit":false,"distance":973,"i_lat":-6.193792},{"time":2,"i_lat":-6.209188,"i_long":106.861737,"distance":1829,"station_name":"Pondok Jati","is_transit":false,"station_id":"POK","transit":false,"line":11},{"i_lat":-6.215091,"i_long":106.86807400000001,"distance":1236,"station_id":"JNG","line":0,"is_transit":true,"transit":true,"station_name":"Jatinegara","time":9},{"line":1,"station_id":"MTR","station_name":"Matraman","is_transit":false,"transit":false,"time":2,"distance":1377,"i_long":106.858896,"i_lat":-6.212485},{"station_name":"Manggarai","station_id":"MRI","transit":true,"i_lat":-6.209883,"time":2,"i_long":106.84912,"distance":1275,"line":0,"is_transit":true},{"i_long":106.840169,"is_transit":false,"i_lat":-6.198556,"distance":1590,"transit":false,"time":4,"station_name":"Cikini","station_id":"CKI","line":0},{"transit":false,"i_long":106.832183,"station_name":"Gondangdia","distance":1750,"i_lat":-6.186295,"line":2,"time":3,"station_id":"GDD","is_transit":false},{"station_id":"JUA","time":4,"line":2,"i_lat":-6.166716,"station_name":"Juanda","is_transit":false,"distance":2015,"transit":false,"i_long":106.828284},{"station_name":"Sawah Besar","i_lat":-6.160725,"i_long":106.827103,"line":2,"distance":1149,"station_id":"SW","time":2,"transit":false,"is_transit":false},{"line":2,"station_id":"MGB","transit":false,"i_lat":-6.149769,"station_name":"Manggabesar","i_long":106.82482,"is_transit":false,"time":2,"distance":906},{"is_transit":false,"i_lat":-6.141205,"distance":1080,"i_long":106.820901,"line":7,"station_id":"JAY","station_name":"Jayakarta","time":2,"transit":false},{"distance":1264,"time":4,"line":0,"station_name":"Jakarta Kota","is_transit":true,"i_long":106.812439,"i_lat":-6.137569,"station_id":"JAKK","transit":true},{"time":3,"i_lat":-6.132549,"transit":false,"line":0,"station_id":"KPB","is_transit":true,"distance":1364,"station_name":"Kampung Bandan","i_long":106.826365},{"station_id":"AK","distance":4102,"transit":false,"i_long":106.79867,"is_transit":false,"i_lat":-6.144674,"line":0,"time":9,"station_name":"Angke"},{"distance":1230,"i_lat":-6.155215,"is_transit":true,"time":4,"station_name":"Duri","i_long":106.800832,"station_id":"DU","transit":true,"line":1},{"line":5,"station_name":"Grogol","distance":1700,"time":3,"i_long":106.788277,"transit":false,"station_id":"GGL","i_lat":-6.162021,"is_transit":false},{"time":2,"distance":2036,"station_name":"Pesing","is_transit":false,"transit":false,"station_id":"PSG","i_lat":-6.161433,"i_long":106.771379,"line":5},{"transit":false,"distance":1614,"time":2,"i_lat":-6.1587309999999995,"is_transit":false,"i_long":106.756522,"station_id":"TKO","station_name":"Taman Kota","line":5},{"is_transit":false,"i_long":106.737035,"line":0,"station_name":"Bojongindah","station_id":"BOI","i_lat":-6.159876,"transit":false,"time":2,"distance":2334},{"i_lat":-6.162758,"line":5,"distance":1152,"i_long":106.723064,"is_transit":false,"station_id":"RW","transit":false,"time":4,"station_name":"Rawa Buaya"},{"station_id":"KDS","i_long":106.701612,"time":3,"station_name":"Kalideres","line":5,"transit":false,"distance":2504,"i_lat":-6.166068,"is_transit":false},{"station_id":"PI","transit":false,"i_long":106.679458,"is_transit":false,"time":3,"line":5,"i_lat":-6.169933,"station_name":"Poris","distance":2548},{"station_id":"BPR","is_transit":false,"time":3,"station_name":"Batuceper","i_long":106.665036,"line":0,"distance":1834,"i_lat":-6.171811,"transit":false},{"i_lat":-6.17331,"time":3,"is_transit":false,"distance":2028,"station_name":"Tanah Tinggi","station_id":"TTI","i_long":106.64657,"transit":false,"line":5}],[{"time":0,"is_transit":false,"station_name":"Gang Sentiong","i_lat":-6.185975,"line":11,"station_id":"GST","transit":false,"distance":0,"i_long":106.850107},{"station_name":"Pasar Senen","distance":1567,"transit":false,"time":8,"station_id":"PSE","is_transit":false,"line":11,"i_lat":-6.174784,"i_long":106.84368},{"is_transit":false,"i_lat":-6.161728,"line":11,"i_long":106.839204,"transit":false,"distance":1436,"station_name":"Kemayoran","station_id":"KMO","time":4},{"i_lat":-6.14505,"i_long":106.836569,"distance":1901,"station_name":"Rajawali","station_id":"RJW","time":5,"line":11,"transit":false,"is_transit":false},{"i_lat":-6.132549,"station_name":"Kampung Bandan","distance":1444,"station_id":"KPB","transit":true,"time":3,"i_long":106.826365,"is_transit":true,"line":0},{"station_name":"Jakarta Kota","distance":1364,"station_id":"JAKK","is_transit":true,"time":3,"i_long":106.812439,"i_lat":-6.137569,"line":0,"transit":true},{"i_lat":-6.141205,"distance":1264,"transit":false,"i_long":106.820901,"station_name":"Jayakarta","is_transit":false,"station_id":"JAY","time":4,"line":7},{"transit":false,"distance":1080,"time":2,"station_name":"Manggabesar","station_id":"MGB","i_lat":-6.149769,"line":2,"i_long":106.82482,"is_transit":false},{"distance":906,"time":2,"i_lat":-6.160725,"station_name":"Sawah Besar","station_id":"SW","transit":false,"is_transit":false,"i_long":106.827103,"line":2},{"line":2,"distance":1149,"station_id":"JUA","i_lat":-6.166716,"is_transit":false,"transit":false,"station_name":"Juanda","i_long":106.828284,"time":2},{"is_transit":false,"line":2,"i_long":106.832183,"station_name":"Gondangdia","time":4,"distance":2015,"i_lat":-6.186295,"transit":false,"station_id":"GDD"},{"station_name":"Cikini","i_lat":-6.198556,"transit":false,"line":0,"station_id":"CKI","i_long":106.840169,"time":3,"is_transit":false,"distance":1750},{"time":4,"station_id":"MRI","is_transit":true,"distance":1590,"station_name":"Manggarai","i_lat":-6.209883,"i_long":106.84912,"line":0,"transit":true},{"i_lat":-6.202263,"i_long":106.822649,"line":1,"time":4,"is_transit":false,"distance":3186,"station_id":"SUD","transit":false,"station_name":"Sudirman"},{"time":1,"is_transit":false,"i_long":106.819881,"distance":280,"i_lat":-6.201433,"station_name":"Sudirman Baru","station_id":"SUDB","line":1,"transit":false},{"time":1,"transit":false,"i_lat":-6.20132,"is_transit":false,"line":1,"station_name":"Karet","i_long":106.816351,"distance":471,"station_id":"KAT"},{"transit":false,"i_long":106.811091,"station_id":"THB","i_lat":-6.185545,"is_transit":true,"distance":2029,"station_name":"Tanah Abang","line":1,"time":5},{"i_long":106.800832,"station_name":"Duri","is_transit":true,"transit":true,"time":8,"distance":3632,"i_lat":-6.155215,"station_id":"DU","line":1},{"time":3,"i_long":106.788277,"distance":1700,"is_transit":false,"station_name":"Grogol","transit":false,"station_id":"GGL","i_lat":-6.162021,"line":5},{"is_transit":false,"transit":false,"time":2,"station_id":"PSG","i_lat":-6.161433,"distance":2036,"line":5,"station_name":"Pesing","i_long":106.771379},{"station_id":"TKO","i_lat":-6.1587309999999995,"i_long":106.756522,"transit":false,"time":2,"is_transit":false,"line":5,"distance":1614,"station_name":"Taman Kota"},{"i_lat":-6.159876,"time":2,"transit":false,"distance":2334,"is_transit":false,"station_name":"Bojongindah","i_long":106.737035,"station_id":"BOI","line":0},{"station_id":"RW","time":4,"is_transit":false,"station_name":"Rawa Buaya","distance":1152,"i_lat":-6.162758,"line":5,"i_long":106.723064,"transit":false},{"i_lat":-6.166068,"distance":2504,"line":5,"is_transit":false,"station_name":"Kalideres","station_id":"KDS","time":3,"transit":false,"i_long":106.701612},{"distance":2548,"i_lat":-6.169933,"is_transit":false,"station_name":"Poris","transit":false,"station_id":"PI","i_long":106.679458,"time":3,"line":5},{"is_transit":false,"station_id":"BPR","distance":1834,"i_long":106.665036,"transit":false,"time":3,"line":0,"station_name":"Batuceper","i_lat":-6.171811},{"time":3,"line":5,"is_transit":false,"distance":2028,"station_id":"TTI","transit":false,"i_lat":-6.17331,"i_long":106.64657,"station_name":"Tanah Tinggi"}]]}