{"data":[[{"distance":0,"is_transit":false,"station_name":"Gang Sentiong","i_long":106.850107,"line":11,"time":0,"i_lat":-6.185975,"transit":false,"station_id":"GST"},{"distance":973,"i_lat":-6.193792,"station_name":"Kramat","station_id":"KMT","transit":false,"time":1,"line":11,"i_long":106.855437,"is_transit":false},{"station_name":"Pondok Jati","station_id":"POK","is_transit":false,"i_lat":-6.209188,"i_long":106.861737,"distance":1829,"time":2,"line":11,"transit":false},{"line":1,"i_long":106.86807400000001,"is_transit":true,"station_name":"Jatinegara","station_id":"JNG","transit":true,"time":9,"distance":1236,"i_lat":-6.215091},{"is_transit":false,"station_name":"Matraman","i_lat":-6.212485,"line":1,"distance":1377,"transit":false,"i_long":106.858896,"time":2,"station_id":"MTR"},{"i_long":106.84912,"line":2,"distance":1275,"i_lat":-6.209883,"is_transit":true,"time":2,"transit":true,"station_id":"MRI","station_name":"Manggarai"},{"time":4,"transit":false,"station_name":"Tebet","is_transit":false,"i_long":106.857948,"line":2,"distance":2610,"station_id":"TEB","i_lat":-6.226659},{"is_transit":false,"distance":1230,"i_long":106.856607,"station_id":"CW","transit":false,"line":2,"station_name":"Cawang","i_lat":-6.242512,"time":2},{"i_lat":-6.255332,"line":2,"is_transit":false,"transit":false,"i_long":106.85449,"distance":1546,"station_id":"DRN","time":3,"station_name":"Duren Kalibata"},{"station_name":"Pasar Minggu Baru","station_id":"PSMB","is_transit":false,"time":2,"distance":824,"line":2,"transit":false,"i_lat":-6.263214,"i_long":106.851577},{"station_name":"Pasar Minggu","i_long":106.843999,"station_id":"PSM","transit":false,"distance":2380,"time":2,"i_lat":-6.2842400000000005,"is_transit":false,"line":2},{"i_long":106.838896,"time":4,"distance":2820,"i_lat":-6.3080680000000005,"transit":false,"station_name":"Tanjung Barat","station_id":"TNT","is_transit":false,"line":2},{"i_long":106.832616,"time":3,"i_lat":-6.330363,"line":2,"station_id":"LNA","distance":2671,"station_name":"Lenteng Agung","is_transit":false,"transit":false},{"i_long":106.834175,"station_id":"UP","distance":1029,"transit":false,"line":2,"time":2,"station_name":"Univ. Pancasila","is_transit":false,"i_lat":-6.339291},{"station_name":"Univ. Indonesia","time":3,"i_lat":-6.360749,"distance":2264,"station_id":"UI","i_long":106.831474,"is_transit":false,"transit":false,"line":2},{"transit":false,"distance":1109,"i_lat":-6.369073,"station_id":"POC","is_transit":false,"station_name":"Pondok Cina","line":2,"i_long":106.831114,"time":2},{"station_name":"Depokbaru","transit":false,"is_transit":false,"time":4,"distance":2727,"i_long":106.819451,"line":2,"station_id":"DPB","i_lat":-6.391065},{"station_name":"Depok","distance":1584,"i_long":106.816926,"station_id":"DP","time":3,"line":2,"i_lat":-6.405256,"transit":false,"is_transit":false},{"distance":5084,"transit":true,"i_long":106.800298,"line":2,"i_lat":-6.448811,"station_id":"CTA","is_transit":true,"station_name":"Citayam","time":6},{"distance":0,"time":0,"i_lat":-6.460735,"station_id":"PDRG","line":21,"station_name":"Pondok Rajeg","transit":false,"i_long":106.824374,"is_transit":false},{"is_transit":false,"station_id":"CBN","i_long":106.851978,"line":21,"transit":false,"station_name":"Cibinong","i_lat":-6.46424,"time":0,"distance":0},{"distance":6527,"line":21,"station_id":"NMO","station_name":"Nambo","is_transit":false,"i_long":106.905196,"time":10,"i_lat":-6.466285,"transit":false}],[{"transit":false,"line":11,"i_lat":-6.185975,"time":0,"i_long":106.850107,"is_transit":false,"station_name":"Gang Sentiong","station_id":"GST","distance":0},{"i_lat":-6.174784,"transit":false,"station_id":"PSE","is_transit":false,"distance":1567,"line":11,"time":8,"i_long":106.84368,"station_name":"Pasar Senen"},{"transit":false,"station_id":"KMO","is_transit":false,"time":4,"i_lat":-6.161728,"i_long":106.839204,"line":11,"distance":1436,"station_name":"Kemayoran"},{"station_name":"Rajawali","is_transit":false,"distance":1901,"station_id":"RJW","time":5,"i_long":106.836569,"i_lat":-6.14505,"line":11,"transit":false},{"line":4,"time":3,"is_transit":true,"distance":1444,"i_lat":-6.132549,"i_long":106.826365,"station_id":"KPB","transit":true,"station_name":"Kampung Bandan"},{"time":9,"station_name":"Angke","distance":4102,"i_lat":-6.144674,"i_long":106.79867,"is_transit":false,"line":1,"transit":false,"station_id":"AK"},{"is_transit":false,"transit":false,"station_id":"DU","i_long":106.800832,"i_lat":-6.155215,"time":4,"line":1,"station_name":"Duri","distance":1230},{"i_lat":-6.185545,"time":8,"line":1,"transit":false,"is_transit":false,"station_name":"Tanah Abang","distance":3632,"i_long":106.811091,"station_id":"THB"},{"station_name":"Karet","transit":false,"i_long":106.816351,"station_id":"KAT","time":5,"i_lat":-6.20132,"is_transit":false,"line":1,"distance":2029},{"is_transit":false,"station_id":"SUDB","i_lat":-6.201433,"distance":471,"line":1,"i_long":106.819881,"station_name":"Sudirman Baru","time":1,"transit":false},{"station_id":"SUD","station_name":"Sudirman","i_long":106.822649,"distance":280,"i_lat":-6.202263,"line":1,"is_transit":false,"time":1,"transit":false},{"i_long":106.84912,"station_name":"Manggarai","time":4,"transit":true,"i_lat":-6.209883,"distance":3186,"line":2,"is_transit":true,"station_id":"MRI"},{"station_name":"Tebet","line":2,"transit":false,"distance":2610,"time":4,"is_transit":false,"station_id":"TEB","i_lat":-6.226659,"i_long":106.857948},{"is_transit":false,"distance":1230,"station_name":"Cawang","i_long":106.856607,"i_lat":-6.242512,"transit":false,"station_id":"CW","time":2,"line":2},{"time":3,"distance":1546,"transit":false,"is_transit":false,"i_long":106.85449,"station_name":"Duren Kalibata","line":2,"station_id":"DRN","i_lat":-6.255332},{"station_id":"PSMB","time":2,"station_name":"Pasar Minggu Baru","line":2,"transit":false,"is_transit":false,"i_lat":-6.263214,"i_long":106.851577,"distance":824},{"transit":false,"i_lat":-6.2842400000000005,"i_long":106.843999,"station_name":"Pasar Minggu","time":2,"distance":2380,"line":2,"is_transit":false,"station_id":"PSM"},{"station_id":"TNT","line":2,"time":4,"i_lat":-6.3080680000000005,"i_long":106.838896,"transit":false,"is_transit":false,"distance":2820,"station_name":"Tanjung Barat"},{"station_name":"Lenteng Agung","is_transit":false,"i_lat":-6.330363,"station_id":"LNA","i_long":106.832616,"transit":false,"time":3,"distance":2671,"line":2},{"station_name":"Univ. Pancasila","transit":false,"station_id":"UP","i_long":106.834175,"line":2,"is_transit":false,"distance":1029,"i_lat":-6.339291,"time":2},{"time":3,"i_long":106.831474,"i_lat":-6.360749,"distance":2264,"transit":false,"is_transit":false,"station_id":"UI","station_name":"Univ. Indonesia","line":2},{"station_id":"POC","distance":1109,"i_long":106.831114,"i_lat":-6.369073,"time":2,"station_name":"Pondok Cina","line":2,"transit":false,"is_transit":false},{"distance":2727,"station_id":"DPB","line":2,"time":4,"transit":false,"i_lat":-6.391065,"is_transit":false,"station_name":"Depokbaru","i_long":106.819451},{"station_id":"DP","i_long":106.816926,"time":3,"distance":1584,"line":2,"is_transit":false,"transit":false,"station_name":"Depok","i_lat":-6.405256},{"station_id":"CTA","is_transit":true,"transit":true,"station_name":"Citayam","i_long":106.800298,"distance":5084,"i_lat":-6.448811,"line":2,"time":6},{"distance":0,"station_id":"PDRG","is_transit":false,"time":0,"transit":false,"line":21,"i_long":106.824374,"station_name":"Pondok Rajeg","i_lat":-6.460735},{"time":0,"transit":false,"station_id":"CBN","line":21,"distance":0,"i_long":106.851978,"i_lat":-6.46424,"is_transit":false,"station_name":"Cibinong"},{"is_transit":false,"station_id":"NMO","distance":6527,"transit":false,"time":10,"line":21,"station_name":"Nambo","i_lat":-6.466285,"i_long":106.905196}],[{"distance":0,"i_long":106.850107,"transit":false,"is_transit":false,"station_name":"Gang Sentiong","time":0,"i_lat":-6.185975,"line":11,"station_id":"GST"},{"transit":false,"is_transit":false,"distance":1567,"time":8,"station_id":"PSE","i_lat":-6.174784,"station_name":"Pasar Senen","i_long":106.84368,"line":11},{"station_id":"KMO","i_long":106.839204,"time":4,"distance":1436,"i_lat":-6.161728,"station_name":"Kemayoran","is_transit":false,"line":11,"transit":false},{"time":5,"i_long":106.836569,"distance":1901,"i_lat":-6.14505,"line":11,"transit":false,"station_name":"Rajawali","station_id":"RJW","is_transit":false},{"transit":true,"is_transit":true,"time":3,"i_long":106.826365,"line":4,"i_lat":-6.132549,"station_name":"Kampung Bandan","distance":1444,"station_id":"KPB"},{"station_id":"JAKK","time":3,"distance":1364,"i_long":106.812439,"line":2,"i_lat":-6.137569,"station_name":"Jakarta Kota","transit":true,"is_transit":true},{"distance":1264,"i_lat":-6.141205,"i_long":106.820901,"time":4,"station_name":"Jayakarta","station_id":"JAY","is_transit":false,"transit":false,"line":2},{"line":2,"station_id":"MGB","i_lat":-6.149769,"i_long":106.82482,"station_name":"Manggabesar","time":2,"is_transit":false,"distance":1080,"transit":false},{"station_id":"SW","time":2,"i_lat":-6.160725,"distance":906,"i_long":106.827103,"station_name":"Sawah Besar","line":2,"transit":false,"is_transit":false},{"line":2,"station_id":"JUA","transit":false,"is_transit":false,"station_name":"Juanda","i_lat":-6.166716,"time":2,"distance":1149,"i_long":106.828284},{"distance":2015,"transit":false,"station_name":"Gondangdia","station_id":"GDD","is_transit":false,"line":2,"time":4,"i_lat":-6.186295,"i_long":106.832183},{"station_name":"Cikini","time":3,"transit":false,"station_id":"CKI","is_transit":false,"i_lat":-6.198556,"line":2,"distance":1750,"i_long":106.840169},{"i_lat":-6.209883,"station_name":"Manggarai","transit":false,"distance":1590,"i_long":106.84912,"is_transit":false,"time":4,"station_id":"MRI","line":2},{"distance":2610,"station_name":"Tebet","line":2,"is_transit":false,"i_lat":-6.226659,"i_long":106.857948,"transit":false,"station_id":"TEB","time":4},{"time":2,"i_long":106.856607,"i_lat":-6.242512,"distance":1230,"is_transit":false,"line":2,"station_id":"CW","transit":false,"station_name":"Cawang"},{"transit":false,"station_id":"DRN","is_transit":false,"station_name":"Duren Kalibata","i_long":106.85449,"distance":1546,"time":3,"i_lat":-6.255332,"line":2},{"i_long":106.851577,"is_transit":false,"distance":824,"station_name":"Pasar Minggu Baru","i_lat":-6.263214,"transit":false,"line":2,"time":2,"station_id":"PSMB"},{"time":2,"distance":2380,"station_name":"Pasar Minggu","i_lat":-6.2842400000000005,"line":2,"station_id":"PSM","i_long":106.843999,"is_transit":false,"transit":false},{"is_transit":false,"station_name":"Tanjung Barat","time":4,"distance":2820,"transit":false,"station_id":"TNT","i_lat":-6.3080680000000005,"i_long":106.838896,"line":2},{"station_id":"LNA","is_transit":false,"distance":2671,"i_long":106.832616,"station_name":"Lenteng Agung","time":3,"i_lat":-6.330363,"line":2,"transit":false},{"transit":false,"i_long":106.834175,"station_id":"UP","time":2,"distance":1029,"line":2,"station_name":"Univ. Pancasila","i_lat":-6.339291,"is_transit":false},{"i_lat":-6.360749,"time":3,"station_name":"Univ. Indonesia","station_id":"UI","transit":false,"distance":2264,"is_transit":false,"i_long":106.831474,"line":2},{"station_id":"POC","i_lat":-6.369073,"transit":false,"station_name":"Pondok Cina","time":2,"distance":1109,"is_transit":false,"i_long":106.831114,"line":2},{"is_transit":false,"i_lat":-6.391065,"transit":false,"station_id":"DPB","station_name":"Depokbaru","time":4,"i_long":106.819451,"line":2,"distance":2727},{"line":2,"i_long":106.816926,"i_lat":-6.405256,"time":3,"distance":1584,"station_name":"Depok","transit":false,"station_id":"DP","is_transit":false},{"station_name":"Citayam","distance":5084,"is_transit":true,"line":2,"i_long":106.800298,"i_lat":-6.448811,"transit":true,"station_id":"CTA","time":6},{"transit":false,"station_id":"PDRG","i_lat":-6.460735,"time":0,"station_name":"Pondok Rajeg","is_transit":false,"line":21,"i_long":106.824374,"distance":0},{"distance":0,"station_name":"Cibinong","transit":false,"is_transit":false,"i_lat":-6.46424,"time":0,"station_id":"CBN","i_long":106.851978,"line":21},{"distance":6527,"i_lat":-6.466285,"line":21,"time":10,"transit":false,"station_name":"Nambo","station_id":"NMO","is_transit":false,"i_long":106.905196}]]}