{"data":[[{"distance":0,"is_transit":false,"i_lat":-6.185975,"station_id":"GST","i_long":106.850107,"time":0,"transit":false,"line":11,"station_name":"Gang Sentiong"},{"i_long":106.855437,"time":1,"is_transit":false,"transit":false,"station_id":"KMT","line":11,"station_name":"Kramat","distance":973,"i_lat":-6.193792},{"line":11,"time":2,"distance":1829,"i_lat":-6.209188,"i_long":106.861737,"transit":false,"is_transit":false,"station_name":"Pondok Jati","station_id":"POK"},{"distance":1236,"is_transit":true,"station_id":"JNG","station_name":"Jatinegara","i_lat":-6.215091,"time":9,"transit":true,"i_long":106.86807400000001,"line":1},{"station_id":"MTR","distance":1377,"i_lat":-6.212485,"transit":false,"station_name":"Matraman","is_transit":false,"time":2,"i_long":106.858896,"line":1},{"time":2,"station_name":"Manggarai","i_lat":-6.209883,"line":2,"is_transit":true,"transit":true,"i_long":106.84912,"distance":1275,"station_id":"MRI"},{"line":2,"distance":2610,"station_id":"TEB","transit":false,"time":4,"is_transit":false,"station_name":"Tebet","i_lat":-6.226659,"i_long":106.857948},{"line":2,"transit":false,"distance":1230,"i_lat":-6.242512,"station_name":"Cawang","station_id":"CW","time":2,"is_transit":false,"i_long":106.856607},{"line":2,"station_id":"DRN","distance":1546,"time":3,"is_transit":false,"station_name":"Duren Kalibata","i_lat":-6.255332,"i_long":106.85449,"transit":false},{"station_name":"Pasar Minggu Baru","i_lat":-6.263214,"transit":false,"station_id":"PSMB","time":2,"is_transit":false,"distance":824,"i_long":106.851577,"line":2},{"distance":2380,"i_lat":-6.2842400000000005,"station_name":"Pasar Minggu","station_id":"PSM","is_transit":false,"time":2,"i_long":106.843999,"transit":false,"line":2},{"i_long":106.838896,"station_name":"Tanjung Barat","transit":false,"line":2,"distance":2820,"station_id":"TNT","i_lat":-6.3080680000000005,"is_transit":false,"time":4},{"i_long":106.832616,"station_name":"Lenteng Agung","transit":false,"distance":2671,"i_lat":-6.330363,"line":2,"is_transit":false,"station_id":"LNA","time":3}],[{"time":0,"transit":false,"station_id":"GST","is_transit":false,"distance":0,"i_lat":-6.185975,"line":11,"station_name":"Gang Sentiong","i_long":106.850107},{"i_lat":-6.174784,"station_id":"PSE","transit":false,"station_name":"Pasar Senen","i_long":106.84368,"line":11,"is_transit":false,"time":8,"distance":1567},{"station_name":"Kemayoran","i_long":106.839204,"transit":false,"distance":1436,"station_id":"KMO","i_lat":-6.161728,"is_transit":false,"time":4,"line":11},{"i_lat":-6.14505,"station_name":"Rajawali","line":11,"transit":false,"time":5,"i_long":106.836569,"station_id":"RJW","is_transit":false,"distance":1901},{"station_name":"Kampung Bandan","station_id":"KPB","distance":1444,"transit":true,"time":3,"i_lat":-6.132549,"is_transit":true,"i_long":106.826365,"line":4},{"i_lat":-6.144674,"distance":4102,"transit":false,"station_name":"Angke","i_long":106.79867,"is_transit":false,"time":9,"station_id":"AK","line":1},{"time":4,"station_name":"Duri","station_id":"DU","is_transit":false,"distance":1230,"i_lat":-6.155215,"transit":false,"i_long":106.800832,"line":1},{"i_lat":-6.185545,"is_transit":false,"station_id":"THB","line":1,"station_name":"Tanah Abang","distance":3632,"time":8,"i_long":106.811091,"transit":false},{"time":5,"transit":false,"station_name":"Karet","is_transit":false,"i_long":106.816351,"distance":2029,"i_lat":-6.20132,"line":1,"station_id":"KAT"},{"station_name":"Sudirman Baru","distance":471,"i_lat":-6.201433,"time":1,"station_id":"SUDB","line":1,"is_transit":false,"transit":false,"i_long":106.819881},{"distance":280,"station_id":"SUD","i_lat":-6.202263,"i_long":106.822649,"is_transit":false,"line":1,"transit":false,"time":1,"station_name":"Sudirman"},{"i_lat":-6.209883,"line":2,"is_transit":true,"distance":3186,"i_long":106.84912,"transit":true,"station_id":"MRI","time":4,"station_name":"Manggarai"},{"station_id":"TEB","time":4,"station_name":"Tebet","line":2,"transit":false,"i_long":106.857948,"is_transit":false,"distance":2610,"i_lat":-6.226659},{"time":2,"i_long":106.856607,"distance":1230,"i_lat":-6.242512,"station_name":"Cawang","transit":false,"is_transit":false,"station_id":"CW","line":2},{"is_transit":false,"i_lat":-6.255332,"station_id":"DRN","i_long":106.85449,"line":2,"distance":1546,"transit":false,"station_name":"Duren Kalibata","time":3},{"station_id":"PSMB","i_lat":-6.263214,"transit":false,"time":2,"i_long":106.851577,"is_transit":false,"station_name":"Pasar Minggu Baru","line":2,"distance":824},{"time":2,"station_name":"Pasar Minggu","is_transit":false,"transit":false,"distance":2380,"i_lat":-6.2842400000000005,"station_id":"PSM","i_long":106.843999,"line":2},{"is_transit":false,"distance":2820,"station_name":"Tanjung Barat","line":2,"i_lat":-6.3080680000000005,"time":4,"station_id":"TNT","transit":false,"i_long":106.838896},{"station_id":"LNA","line":2,"distance":2671,"i_lat":-6.330363,"is_transit":false,"station_name":"Lenteng Agung","transit":false,"time":3,"i_long":106.832616}],[{"time":0,"distance":0,"station_name":"Gang Sentiong","transit":false,"station_id":"GST","i_lat":-6.185975,"i_long":106.850107,"is_transit":false,"line":11},{"line":11,"distance":1567,"transit":false,"time":8,"is_transit":false,"i_long":106.84368,"station_name":"Pasar Senen","station_id":"PSE","i_lat":-6.174784},{"i_long":106.839204,"station_name":"Kemayoran","station_id":"KMO","distance":1436,"time":4,"transit":false,"line":11,"i_lat":-6.161728,"is_transit":false},{"i_long":106.836569,"distance":1901,"station_name":"Rajawali","station_id":"RJW","transit":false,"is_transit":false,"time":5,"line":11,"i_lat":-6.14505},{"station_id":"KPB","is_transit":true,"transit":true,"time":3,"i_long":106.826365,"station_name":"Kampung Bandan","i_lat":-6.132549,"distance":1444,"line":4},{"station_name":"Jakarta Kota","line":2,"station_id":"JAKK","transit":true,"time":3,"distance":1364,"i_lat":-6.137569,"i_long":106.812439,"is_transit":true},{"transit":false,"is_transit":false,"i_lat":-6.141205,"i_long":106.820901,"distance":1264,"station_id":"JAY","station_name":"Jayakarta","time":4,"line":2},{"is_transit":false,"i_lat":-6.149769,"distance":1080,"station_id":"MGB","transit":false,"station_name":"Manggabesar","time":2,"i_long":106.82482,"line":2},{"i_lat":-6.160725,"i_long":106.827103,"time":2,"line":2,"station_name":"Sawah Besar","station_id":"SW","transit":false,"is_transit":false,"distance":906},{"i_lat":-6.166716,"time":2,"is_transit":false,"i_long":106.828284,"transit":false,"station_id":"JUA","distance":1149,"line":2,"station_name":"Juanda"},{"line":2,"station_id":"GDD","i_long":106.832183,"distance":2015,"transit":false,"is_transit":false,"station_name":"Gondangdia","time":4,"i_lat":-6.186295},{"time":3,"station_name":"Cikini","is_transit":false,"distance":1750,"i_lat":-6.198556,"transit":false,"i_long":106.840169,"station_id":"CKI","line":2},{"i_lat":-6.209883,"is_transit":false,"i_long":106.84912,"station_id":"MRI","time":4,"distance":1590,"line":2,"transit":false,"station_name":"Manggarai"},{"i_long":106.857948,"transit":false,"station_id":"TEB","is_transit":false,"distance":2610,"i_lat":-6.226659,"line":2,"station_name":"Tebet","time":4},{"transit":false,"is_transit":false,"line":2,"i_lat":-6.242512,"i_long":106.856607,"time":2,"station_name":"Cawang","distance":1230,"station_id":"CW"},{"i_lat":-6.255332,"distance":1546,"station_name":"Duren Kalibata","is_transit":false,"line":2,"station_id":"DRN","time":3,"transit":false,"i_long":106.85449},{"station_name":"Pasar Minggu Baru","time":2,"distance":824,"is_transit":false,"i_lat":-6.263214,"line":2,"transit":false,"i_long":106.851577,"station_id":"PSMB"},{"transit":false,"station_name":"Pasar Minggu","time":2,"line":2,"station_id":"PSM","is_transit":false,"i_lat":-6.2842400000000005,"i_long":106.843999,"distance":2380},{"i_lat":-6.3080680000000005,"time":4,"distance":2820,"transit":false,"station_name":"Tanjung Barat","station_id":"TNT","i_long":106.838896,"line":2,"is_transit":false},{"station_id":"LNA","is_transit":false,"time":3,"i_lat":-6.330363,"line":2,"i_long":106.832616,"transit":false,"distance":2671,"station_name":"Lenteng Agung"}]]}