{"data":[[{"transit":false,"station_name":"Gang Sentiong","line":11,"i_long":106.850107,"station_id":"GST","time":0,"distance":0,"i_lat":-6.185975,"is_transit":false},{"station_name":"Pasar Senen","station_id":"PSE","time":8,"i_long":106.84368,"transit":false,"is_transit":false,"line":11,"distance":1567,"i_lat":-6.174784},{"distance":1436,"i_long":106.839204,"line":11,"transit":false,"station_id":"KMO","i_lat":-6.161728,"is_transit":false,"time":4,"station_name":"Kemayoran"},{"station_id":"RJW","i_lat":-6.14505,"is_transit":false,"distance":1901,"line":11,"station_name":"Rajawali","time":5,"i_long":106.836569,"transit":false},{"distance":1444,"i_lat":-6.132549,"is_transit":true,"transit":true,"station_name":"Kampung Bandan","station_id":"KPB","time":3,"line":4,"i_long":106.826365},{"distance":4102,"station_id":"AK","station_name":"Angke","i_lat":-6.144674,"i_long":106.79867,"is_transit":false,"line":1,"transit":false,"time":9},{"station_id":"DU","transit":true,"is_transit":true,"distance":1230,"i_long":106.800832,"i_lat":-6.155215,"station_name":"Duri","time":4,"line":1},{"time":3,"i_long":106.788277,"distance":1700,"transit":false,"station_name":"Grogol","station_id":"GGL","is_transit":false,"line":5,"i_lat":-6.162021},{"station_name":"Pesing","is_transit":false,"distance":2036,"i_long":106.771379,"time":2,"transit":false,"i_lat":-6.161433,"station_id":"PSG","line":5},{"is_transit":false,"i_long":106.756522,"i_lat":-6.1587309999999995,"time":2,"distance":1614,"transit":false,"line":5,"station_id":"TKO","station_name":"Taman Kota"},{"i_lat":-6.159876,"distance":2334,"transit":false,"is_transit":false,"time":2,"i_long":106.737035,"station_name":"Bojongindah","line":5,"station_id":"BOI"},{"transit":false,"is_transit":false,"time":4,"station_id":"RW","i_lat":-6.162758,"distance":1152,"i_long":106.723064,"line":5,"station_name":"Rawa Buaya"},{"transit":false,"line":5,"distance":2504,"station_name":"Kalideres","time":3,"is_transit":false,"station_id":"KDS","i_lat":-6.166068,"i_long":106.701612},{"transit":false,"distance":2548,"i_lat":-6.169933,"line":5,"is_transit":false,"station_name":"Poris","station_id":"PI","time":3,"i_long":106.679458},{"line":5,"i_lat":-6.171811,"station_name":"Batuceper","is_transit":false,"distance":1834,"station_id":"BPR","time":3,"i_long":106.665036,"transit":false},{"line":5,"station_id":"TTI","station_name":"Tanah Tinggi","i_lat":-6.17331,"distance":2028,"time":3,"is_transit":false,"i_long":106.64657,"transit":false}],[{"is_transit":false,"i_long":106.850107,"distance":0,"transit":false,"station_name":"Gang Sentiong","time":0,"station_id":"GST","i_lat":-6.185975,"line":11},{"line":11,"transit":false,"distance":973,"i_long":106.855437,"station_name":"Kramat","is_transit":false,"station_id":"KMT","i_lat":-6.193792,"time":1},{"i_long":106.861737,"distance":1829,"time":2,"line":11,"i_lat":-6.209188,"transit":false,"station_name":"Pondok Jati","is_transit":false,"station_id":"POK"},{"station_name":"Jatinegara","line":1,"is_transit":true,"transit":true,"i_long":106.86807400000001,"time":9,"station_id":"JNG","distance":1236,"i_lat":-6.215091},{"line":1,"time":2,"transit":false,"station_id":"MTR","station_name":"Matraman","i_lat":-6.212485,"is_transit":false,"distance":1377,"i_long":106.858896},{"i_long":106.84912,"is_transit":false,"station_name":"Manggarai","transit":false,"time":2,"distance":1275,"i_lat":-6.209883,"line":2,"station_id":"MRI"},{"station_name":"Sudirman","station_id":"SUD","transit":false,"distance":3186,"is_transit":false,"i_lat":-6.202263,"i_long":106.822649,"line":1,"time":4},{"transit":false,"distance":280,"i_long":106.819881,"time":1,"i_lat":-6.201433,"is_transit":false,"line":1,"station_name":"Sudirman Baru","station_id":"SUDB"},{"station_name":"Karet","distance":471,"is_transit":false,"line":1,"transit":false,"time":1,"i_lat":-6.20132,"i_long":106.816351,"station_id":"KAT"},{"distance":2029,"time":5,"station_name":"Tanah Abang","is_transit":false,"line":1,"i_lat":-6.185545,"i_long":106.811091,"station_id":"THB","transit":false},{"distance":3632,"station_name":"Duri","is_transit":true,"line":1,"i_long":106.800832,"i_lat":-6.155215,"transit":true,"station_id":"DU","time":8},{"transit":false,"i_long":106.788277,"station_name":"Grogol","station_id":"GGL","line":5,"is_transit":false,"distance":1700,"time":3,"i_lat":-6.162021},{"time":2,"distance":2036,"i_lat":-6.161433,"transit":false,"station_id":"PSG","line":5,"station_name":"Pesing","i_long":106.771379,"is_transit":false},{"station_name":"Taman Kota","is_transit":false,"i_lat":-6.1587309999999995,"station_id":"TKO","line":5,"time":2,"i_long":106.756522,"distance":1614,"transit":false},{"station_name":"Bojongindah","distance":2334,"i_lat":-6.159876,"transit":false,"i_long":106.737035,"line":5,"is_transit":false,"time":2,"station_id":"BOI"},{"station_id":"RW","transit":false,"i_long":106.723064,"is_transit":false,"distance":1152,"i_lat":-6.162758,"line":5,"station_name":"Rawa Buaya","time":4},{"line":5,"transit":false,"i_long":106.701612,"distance":2504,"station_name":"Kalideres","station_id":"KDS","i_lat":-6.166068,"is_transit":false,"time":3},{"station_id":"PI","station_name":"Poris","transit":false,"is_transit":false,"i_long":106.679458,"distance":2548,"time":3,"line":5,"i_lat":-6.169933},{"i_lat":-6.171811,"station_name":"Batuceper","line":5,"is_transit":false,"station_id":"BPR","time":3,"i_long":106.665036,"distance":1834,"transit":false},{"station_name":"Tanah Tinggi","line":5,"time":3,"is_transit":false,"distance":2028,"station_id":"TTI","transit":false,"i_lat":-6.17331,"i_long":106.64657}],[{"line":11,"station_name":"Gang Sentiong","i_lat":-6.185975,"distance":0,"is_transit":false,"i_long":106.850107,"time":0,"station_id":"GST","transit":false},{"time":1,"line":11,"distance":973,"is_transit":false,"station_id":"KMT","station_name":"Kramat","transit":false,"i_lat":-6.193792,"i_long":106.855437},{"i_lat":-6.209188,"transit":false,"time":2,"line":11,"distance":1829,"station_name":"Pondok Jati","station_id":"POK","is_transit":false,"i_long":106.861737},{"is_transit":true,"station_name":"Jatinegara","station_id":"JNG","i_long":106.86807400000001,"distance":1236,"line":1,"i_lat":-6.215091,"time":9,"transit":true},{"i_lat":-6.212485,"transit":false,"station_id":"MTR","station_name":"Matraman","time":2,"is_transit":false,"distance":1377,"i_long":106.858896,"line":1},{"i_lat":-6.209883,"is_transit":true,"line":2,"i_long":106.84912,"transit":true,"station_name":"Manggarai","time":2,"station_id":"MRI","distance":1275},{"station_name":"Cikini","is_transit":false,"distance":1590,"time":4,"station_id":"CKI","i_lat":-6.198556,"line":2,"i_long":106.840169,"transit":false},{"station_id":"GDD","i_lat":-6.186295,"station_name":"Gondangdia","distance":1750,"time":3,"is_transit":false,"i_long":106.832183,"line":2,"transit":false},{"distance":2015,"i_lat":-6.166716,"station_name":"Juanda","line":2,"station_id":"JUA","time":4,"transit":false,"i_long":106.828284,"is_transit":false},{"distance":1149,"station_name":"Sawah Besar","time":2,"transit":false,"is_transit":false,"i_long":106.827103,"line":2,"station_id":"SW","i_lat":-6.160725},{"line":2,"station_name":"Manggabesar","i_lat":-6.149769,"transit":false,"time":2,"i_long":106.82482,"is_transit":false,"station_id":"MGB","distance":906},{"i_lat":-6.141205,"i_long":106.820901,"station_id":"JAY","is_transit":false,"line":2,"distance":1080,"station_name":"Jayakarta","time":2,"transit":false},{"line":2,"station_id":"JAKK","distance":1264,"time":4,"transit":true,"station_name":"Jakarta Kota","i_long":106.812439,"is_transit":true,"i_lat":-6.137569},{"i_lat":-6.132549,"time":3,"is_transit":true,"i_long":106.826365,"station_id":"KPB","station_name":"Kampung Bandan","distance":1364,"transit":true,"line":4},{"i_lat":-6.144674,"line":1,"transit":false,"is_transit":false,"station_id":"AK","i_long":106.79867,"station_name":"Angke","distance":4102,"time":9},{"i_lat":-6.155215,"distance":1230,"line":1,"station_name":"Duri","is_transit":true,"time":4,"transit":true,"station_id":"DU","i_long":106.800832},{"transit":false,"line":5,"time":3,"station_id":"GGL","station_name":"Grogol","is_transit":false,"i_long":106.788277,"distance":1700,"i_lat":-6.162021},{"i_long":106.771379,"station_name":"Pesing","transit":false,"is_transit":false,"line":5,"time":2,"i_lat":-6.161433,"station_id":"PSG","distance":2036},{"station_id":"TKO","is_transit":false,"line":5,"time":2,"i_long":106.756522,"transit":false,"i_lat":-6.1587309999999995,"distance":1614,"station_name":"Taman Kota"},{"transit":false,"station_id":"BOI","line":5,"time":2,"distance":2334,"station_name":"Bojongindah","is_transit":false,"i_lat":-6.159876,"i_long":106.737035},{"distance":1152,"line":5,"time":4,"i_long":106.723064,"is_transit":false,"station_name":"Rawa Buaya","transit":false,"station_id":"RW","i_lat":-6.162758},{"i_long":106.701612,"station_id":"KDS","time":3,"station_name":"Kalideres","i_lat":-6.166068,"is_transit":false,"distance":2504,"transit":false,"line":5},{"transit":false,"is_transit":false,"i_lat":-6.169933,"time":3,"station_name":"Poris","i_long":106.679458,"distance":2548,"station_id":"PI","line":5},{"station_name":"Batuceper","transit":false,"is_transit":false,"i_lat":-6.171811,"i_long":106.665036,"line":5,"time":3,"distance":1834,"station_id":"BPR"},{"line":5,"i_lat":-6.17331,"transit":false,"time":3,"is_transit":false,"i_long":106.64657,"distance":2028,"station_id":"TTI","station_name":"Tanah Tinggi"}],[{"station_id":"GST","station_name":"Gang Sentiong","time":0,"is_transit":false,"distance":0,"i_lat":-6.185975,"i_long":106.850107,"transit":false,"line":11},{"is_transit":false,"line":11,"station_name":"Pasar Senen","transit":false,"time":8,"distance":1567,"station_id":"PSE","i_lat":-6.174784,"i_long":106.84368},{"station_name":"Kemayoran","time":4,"distance":1436,"line":11,"i_lat":-6.161728,"station_id":"KMO","is_transit":false,"transit":false,"i_long":106.839204},{"is_transit":false,"distance":1901,"time":5,"station_name":"Rajawali","station_id":"RJW","transit":false,"i_lat":-6.14505,"i_long":106.836569,"line":11},{"distance":1444,"station_id":"KPB","transit":true,"is_transit":true,"i_long":106.826365,"i_lat":-6.132549,"station_name":"Kampung Bandan","line":4,"time":3},{"i_long":106.812439,"distance":1364,"is_transit":true,"i_lat":-6.137569,"station_name":"Jakarta Kota","time":3,"transit":true,"station_id":"JAKK","line":2},{"i_long":106.820901,"line":2,"time":4,"station_id":"JAY","station_name":"Jayakarta","is_transit":false,"i_lat":-6.141205,"transit":false,"distance":1264},{"distance":1080,"line":2,"station_name":"Manggabesar","time":2,"transit":false,"i_lat":-6.149769,"i_long":106.82482,"station_id":"MGB","is_transit":false},{"distance":906,"is_transit":false,"transit":false,"i_long":106.827103,"time":2,"i_lat":-6.160725,"line":2,"station_id":"SW","station_name":"Sawah Besar"},{"is_transit":false,"i_lat":-6.166716,"i_long":106.828284,"station_id":"JUA","distance":1149,"line":2,"transit":false,"time":2,"station_name":"Juanda"},{"station_id":"GDD","is_transit":false,"transit":false,"time":4,"i_lat":-6.186295,"line":2,"station_name":"Gondangdia","i_long":106.832183,"distance":2015},{"i_long":106.840169,"distance":1750,"station_name":"Cikini","is_transit":false,"station_id":"CKI","time":3,"i_lat":-6.198556,"line":2,"transit":false},{"time":4,"i_lat":-6.209883,"i_long":106.84912,"distance":1590,"station_id":"MRI","transit":true,"station_name":"Manggarai","is_transit":true,"line":2},{"i_long":106.822649,"station_name":"Sudirman","distance":3186,"i_lat":-6.202263,"time":4,"transit":false,"is_transit":false,"station_id":"SUD","line":1},{"distance":280,"station_id":"SUDB","i_lat":-6.201433,"line":1,"time":1,"station_name":"Sudirman Baru","i_long":106.819881,"transit":false,"is_transit":false},{"i_lat":-6.20132,"station_name":"Karet","i_long":106.816351,"line":1,"distance":471,"time":1,"station_id":"KAT","is_transit":false,"transit":false},{"distance":2029,"transit":false,"station_name":"Tanah Abang","station_id":"THB","time":5,"i_lat":-6.185545,"i_long":106.811091,"line":1,"is_transit":false},{"transit":true,"time":8,"is_transit":true,"station_name":"Duri","i_long":106.800832,"line":1,"distance":3632,"station_id":"DU","i_lat":-6.155215},{"transit":false,"time":3,"is_transit":false,"line":5,"station_id":"GGL","distance":1700,"i_lat":-6.162021,"station_name":"Grogol","i_long":106.788277},{"distance":2036,"station_id":"PSG","i_lat":-6.161433,"time":2,"line":5,"transit":false,"station_name":"Pesing","is_transit":false,"i_long":106.771379},{"transit":false,"time":2,"distance":1614,"is_transit":false,"line":5,"station_name":"Taman Kota","i_lat":-6.1587309999999995,"station_id":"TKO","i_long":106.756522},{"i_lat":-6.159876,"station_id":"BOI","line":5,"distance":2334,"is_transit":false,"transit":false,"station_name":"Bojongindah","time":2,"i_long":106.737035},{"time":4,"distance":1152,"line":5,"transit":false,"station_name":"Rawa Buaya","station_id":"RW","is_transit":false,"i_lat":-6.162758,"i_long":106.723064},{"station_id":"KDS","time":3,"distance":2504,"transit":false,"i_long":106.701612,"is_transit":false,"i_lat":-6.166068,"line":5,"station_name":"Kalideres"},{"transit":false,"station_id":"PI","is_transit":false,"station_name":"Poris","i_lat":-6.169933,"line":5,"i_long":106.679458,"time":3,"distance":2548},{"distance":1834,"station_name":"Batuceper","i_lat":-6.171811,"line":5,"time":3,"i_long":106.665036,"transit":false,"station_id":"BPR","is_transit":false},{"transit":false,"is_transit":false,"line":5,"station_id":"TTI","i_lat":-6.17331,"i_long":106.64657,"time":3,"distance":2028,"station_name":"Tanah Tinggi"}]]}