{"data":[[{"distance":0,"transit":false,"station_id":"GST","station_name":"Gang Sentiong","i_long":106.850107,"is_transit":false,"line":11,"time":0,"i_lat":-6.185975},{"i_lat":-6.193792,"distance":973,"station_id":"KMT","transit":false,"i_long":106.855437,"time":1,"line":11,"station_name":"Kramat","is_transit":false},{"station_name":"Pondok Jati","is_transit":false,"line":11,"distance":1829,"station_id":"POK","i_long":106.861737,"time":2,"i_lat":-6.209188,"transit":false},{"i_long":106.86807400000001,"i_lat":-6.215091,"transit":true,"time":9,"distance":1236,"station_name":"Jatinegara","is_transit":true,"station_id":"JNG","line":1},{"time":2,"distance":1377,"is_transit":false,"station_id":"MTR","transit":false,"i_lat":-6.212485,"station_name":"Matraman","line":1,"i_long":106.858896},{"distance":1275,"is_transit":true,"station_id":"MRI","i_long":106.84912,"line":2,"time":2,"station_name":"Manggarai","transit":true,"i_lat":-6.209883},{"is_transit":false,"i_long":106.857948,"i_lat":-6.226659,"transit":false,"station_id":"TEB","station_name":"Tebet","time":4,"line":2,"distance":2610},{"station_name":"Cawang","line":2,"transit":false,"station_id":"CW","time":2,"is_transit":false,"i_lat":-6.242512,"distance":1230,"i_long":106.856607},{"distance":1546,"is_transit":false,"station_name":"Duren Kalibata","station_id":"DRN","transit":false,"time":3,"i_lat":-6.255332,"i_long":106.85449,"line":2},{"station_id":"PSMB","i_lat":-6.263214,"is_transit":false,"transit":false,"station_name":"Pasar Minggu Baru","line":2,"time":2,"i_long":106.851577,"distance":824},{"transit":false,"i_lat":-6.2842400000000005,"distance":2380,"is_transit":false,"line":2,"station_id":"PSM","i_long":106.843999,"time":2,"station_name":"Pasar Minggu"},{"line":2,"station_id":"TNT","station_name":"Tanjung Barat","time":4,"is_transit":false,"i_lat":-6.3080680000000005,"i_long":106.838896,"transit":false,"distance":2820},{"distance":2671,"transit":false,"is_transit":false,"station_name":"Lenteng Agung","i_long":106.832616,"line":2,"time":3,"station_id":"LNA","i_lat":-6.330363}],[{"i_long":106.850107,"time":0,"distance":0,"station_id":"GST","station_name":"Gang Sentiong","is_transit":false,"transit":false,"i_lat":-6.185975,"line":11},{"transit":false,"i_long":106.84368,"time":8,"is_transit":false,"station_id":"PSE","i_lat":-6.174784,"line":11,"distance":1567,"station_name":"Pasar Senen"},{"distance":1436,"station_id":"KMO","station_name":"Kemayoran","i_lat":-6.161728,"i_long":106.839204,"time":4,"line":11,"transit":false,"is_transit":false},{"distance":1901,"i_lat":-6.14505,"i_long":106.836569,"station_id":"RJW","time":5,"station_name":"Rajawali","line":11,"is_transit":false,"transit":false},{"station_name":"Kampung Bandan","i_lat":-6.132549,"is_transit":true,"time":3,"distance":1444,"line":4,"i_long":106.826365,"station_id":"KPB","transit":true},{"time":9,"i_long":106.79867,"line":1,"i_lat":-6.144674,"station_id":"AK","station_name":"Angke","is_transit":false,"distance":4102,"transit":false},{"i_lat":-6.155215,"line":1,"station_id":"DU","i_long":106.800832,"transit":false,"time":4,"distance":1230,"is_transit":false,"station_name":"Duri"},{"time":8,"i_lat":-6.185545,"i_long":106.811091,"station_name":"Tanah Abang","distance":3632,"station_id":"THB","transit":false,"line":1,"is_transit":false},{"transit":false,"line":1,"i_long":106.816351,"station_name":"Karet","is_transit":false,"i_lat":-6.20132,"distance":2029,"station_id":"KAT","time":5},{"i_long":106.819881,"station_name":"Sudirman Baru","station_id":"SUDB","time":1,"i_lat":-6.201433,"distance":471,"transit":false,"line":1,"is_transit":false},{"station_id":"SUD","time":1,"distance":280,"line":1,"is_transit":false,"i_long":106.822649,"station_name":"Sudirman","transit":false,"i_lat":-6.202263},{"station_id":"MRI","line":2,"is_transit":true,"distance":3186,"time":4,"transit":true,"i_long":106.84912,"i_lat":-6.209883,"station_name":"Manggarai"},{"time":4,"is_transit":false,"station_name":"Tebet","i_long":106.857948,"station_id":"TEB","i_lat":-6.226659,"distance":2610,"transit":false,"line":2},{"distance":1230,"station_id":"CW","transit":false,"time":2,"i_long":106.856607,"i_lat":-6.242512,"line":2,"station_name":"Cawang","is_transit":false},{"station_name":"Duren Kalibata","i_lat":-6.255332,"distance":1546,"line":2,"station_id":"DRN","is_transit":false,"time":3,"i_long":106.85449,"transit":false},{"transit":false,"station_name":"Pasar Minggu Baru","distance":824,"station_id":"PSMB","i_long":106.851577,"is_transit":false,"i_lat":-6.263214,"time":2,"line":2},{"is_transit":false,"transit":false,"i_long":106.843999,"station_name":"Pasar Minggu","i_lat":-6.2842400000000005,"line":2,"station_id":"PSM","time":2,"distance":2380},{"time":4,"line":2,"i_lat":-6.3080680000000005,"is_transit":false,"transit":false,"station_id":"TNT","station_name":"Tanjung Barat","i_long":106.838896,"distance":2820},{"station_name":"Lenteng Agung","i_long":106.832616,"time":3,"i_lat":-6.330363,"is_transit":false,"transit":false,"station_id":"LNA","distance":2671,"line":2}],[{"i_lat":-6.185975,"i_long":106.850107,"line":11,"station_name":"Gang Sentiong","station_id":"GST","is_transit":false,"transit":false,"distance":0,"time":0},{"time":8,"line":11,"transit":false,"station_name":"Pasar Senen","is_transit":false,"distance":1567,"station_id":"PSE","i_lat":-6.174784,"i_long":106.84368},{"i_lat":-6.161728,"station_id":"KMO","station_name":"Kemayoran","is_transit":false,"distance":1436,"time":4,"transit":false,"i_long":106.839204,"line":11},{"transit":false,"station_id":"RJW","station_name":"Rajawali","i_long":106.836569,"line":11,"is_transit":false,"i_lat":-6.14505,"time":5,"distance":1901},{"station_id":"KPB","station_name":"Kampung Bandan","i_lat":-6.132549,"distance":1444,"line":4,"is_transit":true,"transit":true,"time":3,"i_long":106.826365},{"transit":true,"distance":1364,"i_lat":-6.137569,"station_name":"Jakarta Kota","time":3,"i_long":106.812439,"line":2,"is_transit":true,"station_id":"JAKK"},{"station_name":"Jayakarta","distance":1264,"transit":false,"station_id":"JAY","i_lat":-6.141205,"line":2,"i_long":106.820901,"time":4,"is_transit":false},{"station_id":"MGB","i_long":106.82482,"i_lat":-6.149769,"transit":false,"station_name":"Manggabesar","time":2,"line":2,"is_transit":false,"distance":1080},{"is_transit":false,"line":2,"i_long":106.827103,"station_name":"Sawah Besar","i_lat":-6.160725,"transit":false,"distance":906,"station_id":"SW","time":2},{"is_transit":false,"distance":1149,"transit":false,"station_id":"JUA","station_name":"Juanda","time":2,"i_long":106.828284,"i_lat":-6.166716,"line":2},{"transit":false,"station_id":"GDD","distance":2015,"line":2,"time":4,"station_name":"Gondangdia","i_lat":-6.186295,"i_long":106.832183,"is_transit":false},{"i_lat":-6.198556,"transit":false,"station_id":"CKI","is_transit":false,"distance":1750,"i_long":106.840169,"station_name":"Cikini","line":2,"time":3},{"station_id":"MRI","i_lat":-6.209883,"time":4,"station_name":"Manggarai","distance":1590,"transit":false,"i_long":106.84912,"is_transit":false,"line":2},{"i_long":106.857948,"is_transit":false,"time":4,"line":2,"transit":false,"i_lat":-6.226659,"station_name":"Tebet","station_id":"TEB","distance":2610},{"station_name":"Cawang","distance":1230,"i_long":106.856607,"transit":false,"i_lat":-6.242512,"station_id":"CW","line":2,"time":2,"is_transit":false},{"station_name":"Duren Kalibata","i_lat":-6.255332,"i_long":106.85449,"is_transit":false,"transit":false,"line":2,"distance":1546,"time":3,"station_id":"DRN"},{"transit":false,"time":2,"is_transit":false,"station_id":"PSMB","i_lat":-6.263214,"i_long":106.851577,"distance":824,"station_name":"Pasar Minggu Baru","line":2},{"station_name":"Pasar Minggu","is_transit":false,"time":2,"i_long":106.843999,"line":2,"i_lat":-6.2842400000000005,"distance":2380,"station_id":"PSM","transit":false},{"is_transit":false,"line":2,"station_id":"TNT","i_long":106.838896,"station_name":"Tanjung Barat","time":4,"distance":2820,"i_lat":-6.3080680000000005,"transit":false},{"i_long":106.832616,"distance":2671,"is_transit":false,"station_id":"LNA","time":3,"transit":false,"i_lat":-6.330363,"station_name":"Lenteng Agung","line":2}]]}