{"data":[[{"station_id":"GST","station_name":"Gang Sentiong","transit":false,"i_long":106.850107,"line":11,"is_transit":false,"distance":0,"time":0,"i_lat":-6.185975},{"line":11,"transit":false,"station_id":"PSE","i_long":106.84368,"is_transit":false,"time":8,"i_lat":-6.174784,"distance":1567,"station_name":"Pasar Senen"},{"is_transit":false,"station_name":"Kemayoran","station_id":"KMO","line":11,"transit":false,"time":4,"i_lat":-6.161728,"i_long":106.839204,"distance":1436},{"station_name":"Rajawali","transit":false,"station_id":"RJW","i_lat":-6.14505,"is_transit":false,"time":5,"line":11,"distance":1901,"i_long":106.836569},{"station_id":"KPB","time":3,"transit":true,"line":4,"i_long":106.826365,"distance":1444,"station_name":"Kampung Bandan","i_lat":-6.132549,"is_transit":true},{"transit":false,"is_transit":false,"line":1,"i_lat":-6.144674,"station_name":"Angke","distance":4102,"time":9,"station_id":"AK","i_long":106.79867},{"station_id":"DU","station_name":"Duri","i_long":106.800832,"line":1,"is_transit":false,"i_lat":-6.155215,"transit":false,"time":4,"distance":1230},{"distance":3632,"station_id":"THB","line":1,"station_name":"Tanah Abang","transit":true,"i_long":106.811091,"time":8,"is_transit":true,"i_lat":-6.185545},{"time":6,"station_id":"PLM","i_long":106.79689,"station_name":"Palmerah","distance":3191,"is_transit":false,"line":6,"i_lat":-6.207404,"transit":false},{"transit":false,"line":6,"station_name":"Kebayoran","is_transit":false,"distance":3737,"i_lat":-6.237242,"station_id":"KBY","time":7,"i_long":106.780334},{"distance":6218,"station_name":"Pondokranji","transit":false,"line":6,"time":8,"i_long":106.74273,"i_lat":-6.276362,"station_id":"PDJ","is_transit":false},{"station_name":"Jurangmangu","is_transit":false,"transit":false,"station_id":"JMU","distance":2179,"i_long":106.728916,"time":3,"i_lat":-6.288927,"line":6},{"transit":false,"station_name":"Sudimara","time":4,"station_id":"SDM","line":6,"i_lat":-6.296963,"is_transit":false,"i_long":106.712277,"distance":1994},{"transit":false,"is_transit":false,"station_name":"Rawa Buntu","distance":4566,"i_long":106.675475,"i_lat":-6.314823,"time":6,"station_id":"RU","line":6},{"i_lat":-6.319871,"line":6,"station_name":"Serpong","time":4,"is_transit":false,"station_id":"SRP","distance":2413,"i_long":106.66566,"transit":false},{"line":3,"station_name":"Cisauk","is_transit":false,"time":4,"i_lat":-6.32484,"distance":1784,"i_long":106.640411,"transit":false,"station_id":"CSK"},{"station_name":"Cicayur","i_lat":-6.329547,"transit":false,"distance":2519,"time":4,"station_id":"CC","is_transit":false,"i_long":106.617853,"line":3},{"station_id":"PRP","i_lat":-6.3441410000000005,"station_name":"Parung Panjang","transit":false,"is_transit":false,"i_long":106.568863,"line":6,"time":8,"distance":5968},{"station_id":"CJT","time":9,"distance":7025,"line":3,"i_lat":-6.354349,"is_transit":false,"station_name":"Cilejit","transit":false,"i_long":106.508482},{"transit":false,"station_id":"DAR","time":6,"station_name":"Daru","i_lat":-6.338021,"i_long":106.491338,"distance":2675,"is_transit":false,"line":0},{"station_id":"TEJ","station_name":"Tenjo","is_transit":false,"i_lat":-6.327251,"i_long":106.460812,"line":6,"distance":3902,"time":5,"transit":false},{"time":5,"transit":false,"station_name":"Tigaraksa","line":6,"i_lat":-6.328533,"i_long":106.425991,"distance":2974,"station_id":"TGS","is_transit":false},{"time":3,"is_transit":false,"i_long":106.411216,"line":3,"transit":false,"station_name":"Cikoya","i_lat":-6.33561,"station_id":"CKY","distance":2651},{"transit":false,"station_name":"Maja","distance":1853,"time":4,"station_id":"MJ","i_lat":-6.332307,"is_transit":false,"i_long":106.394373,"line":6}],[{"time":0,"is_transit":false,"station_id":"GST","line":11,"distance":0,"station_name":"Gang Sentiong","transit":false,"i_long":106.850107,"i_lat":-6.185975},{"station_id":"KMT","transit":false,"time":1,"station_name":"Kramat","is_transit":false,"i_lat":-6.193792,"line":11,"i_long":106.855437,"distance":973},{"i_long":106.861737,"station_name":"Pondok Jati","transit":false,"time":2,"line":11,"distance":1829,"is_transit":false,"station_id":"POK","i_lat":-6.209188},{"transit":true,"line":1,"station_id":"JNG","i_lat":-6.215091,"i_long":106.86807400000001,"distance":1236,"time":9,"is_transit":true,"station_name":"Jatinegara"},{"i_long":106.858896,"distance":1377,"station_id":"MTR","transit":false,"time":2,"i_lat":-6.212485,"line":1,"station_name":"Matraman","is_transit":false},{"station_id":"MRI","transit":false,"i_long":106.84912,"time":2,"is_transit":false,"distance":1275,"i_lat":-6.209883,"line":2,"station_name":"Manggarai"},{"line":1,"is_transit":false,"distance":3186,"transit":false,"time":4,"i_lat":-6.202263,"i_long":106.822649,"station_name":"Sudirman","station_id":"SUD"},{"station_name":"Sudirman Baru","station_id":"SUDB","is_transit":false,"distance":280,"time":1,"i_long":106.819881,"transit":false,"i_lat":-6.201433,"line":1},{"time":1,"transit":false,"station_name":"Karet","distance":471,"i_long":106.816351,"station_id":"KAT","i_lat":-6.20132,"line":1,"is_transit":false},{"transit":true,"distance":2029,"line":1,"i_lat":-6.185545,"station_name":"Tanah Abang","is_transit":true,"i_long":106.811091,"time":5,"station_id":"THB"},{"i_lat":-6.207404,"is_transit":false,"time":6,"i_long":106.79689,"transit":false,"distance":3191,"station_id":"PLM","station_name":"Palmerah","line":6},{"station_name":"Kebayoran","is_transit":false,"transit":false,"distance":3737,"i_lat":-6.237242,"line":6,"station_id":"KBY","i_long":106.780334,"time":7},{"line":6,"time":8,"distance":6218,"station_name":"Pondokranji","i_long":106.74273,"i_lat":-6.276362,"is_transit":false,"station_id":"PDJ","transit":false},{"i_lat":-6.288927,"time":3,"line":6,"i_long":106.728916,"station_name":"Jurangmangu","is_transit":false,"transit":false,"distance":2179,"station_id":"JMU"},{"is_transit":false,"line":6,"distance":1994,"station_id":"SDM","station_name":"Sudimara","i_lat":-6.296963,"i_long":106.712277,"time":4,"transit":false},{"time":6,"distance":4566,"transit":false,"i_long":106.675475,"is_transit":false,"station_id":"RU","i_lat":-6.314823,"station_name":"Rawa Buntu","line":6},{"transit":false,"i_long":106.66566,"station_id":"SRP","is_transit":false,"i_lat":-6.319871,"time":4,"station_name":"Serpong","distance":2413,"line":6},{"distance":1784,"station_id":"CSK","transit":false,"time":4,"station_name":"Cisauk","i_lat":-6.32484,"is_transit":false,"line":3,"i_long":106.640411},{"distance":2519,"time":4,"transit":false,"i_long":106.617853,"station_id":"CC","is_transit":false,"i_lat":-6.329547,"line":3,"station_name":"Cicayur"},{"i_long":106.568863,"distance":5968,"line":6,"is_transit":false,"transit":false,"time":8,"station_name":"Parung Panjang","i_lat":-6.3441410000000005,"station_id":"PRP"},{"station_id":"CJT","line":3,"time":9,"distance":7025,"station_name":"Cilejit","i_long":106.508482,"i_lat":-6.354349,"transit":false,"is_transit":false},{"transit":false,"is_transit":false,"time":6,"i_lat":-6.338021,"distance":2675,"i_long":106.491338,"station_id":"DAR","station_name":"Daru","line":0},{"station_name":"Tenjo","station_id":"TEJ","is_transit":false,"time":5,"i_long":106.460812,"transit":false,"line":6,"distance":3902,"i_lat":-6.327251},{"i_long":106.425991,"is_transit":false,"i_lat":-6.328533,"time":5,"line":6,"distance":2974,"station_name":"Tigaraksa","transit":false,"station_id":"TGS"},{"is_transit":false,"i_long":106.411216,"i_lat":-6.33561,"time":3,"line":3,"station_id":"CKY","distance":2651,"station_name":"Cikoya","transit":false},{"station_id":"MJ","i_long":106.394373,"i_lat":-6.332307,"transit":false,"station_name":"Maja","time":4,"distance":1853,"is_transit":false,"line":6}],[{"is_transit":false,"i_lat":-6.185975,"station_id":"GST","i_long":106.850107,"distance":0,"time":0,"transit":false,"station_name":"Gang Sentiong","line":11},{"time":1,"station_id":"KMT","is_transit":false,"i_lat":-6.193792,"station_name":"Kramat","i_long":106.855437,"line":11,"distance":973,"transit":false},{"line":11,"i_lat":-6.209188,"distance":1829,"is_transit":false,"transit":false,"time":2,"station_name":"Pondok Jati","station_id":"POK","i_long":106.861737},{"station_id":"JNG","is_transit":true,"distance":1236,"transit":true,"station_name":"Jatinegara","i_long":106.86807400000001,"i_lat":-6.215091,"line":1,"time":9},{"is_transit":false,"line":1,"transit":false,"station_id":"MTR","station_name":"Matraman","time":2,"distance":1377,"i_lat":-6.212485,"i_long":106.858896},{"time":2,"line":2,"i_long":106.84912,"is_transit":true,"i_lat":-6.209883,"station_name":"Manggarai","station_id":"MRI","transit":true,"distance":1275},{"i_lat":-6.198556,"time":4,"transit":false,"line":2,"is_transit":false,"station_id":"CKI","i_long":106.840169,"station_name":"Cikini","distance":1590},{"i_long":106.832183,"transit":false,"distance":1750,"is_transit":false,"i_lat":-6.186295,"station_name":"Gondangdia","time":3,"station_id":"GDD","line":2},{"time":4,"i_long":106.828284,"station_id":"JUA","transit":false,"line":2,"distance":2015,"is_transit":false,"i_lat":-6.166716,"station_name":"Juanda"},{"i_lat":-6.160725,"is_transit":false,"i_long":106.827103,"distance":1149,"line":2,"station_name":"Sawah Besar","station_id":"SW","time":2,"transit":false},{"i_lat":-6.149769,"station_name":"Manggabesar","transit":false,"line":2,"time":2,"station_id":"MGB","i_long":106.82482,"is_transit":false,"distance":906},{"i_long":106.820901,"distance":1080,"time":2,"transit":false,"is_transit":false,"station_name":"Jayakarta","i_lat":-6.141205,"station_id":"JAY","line":2},{"time":4,"i_lat":-6.137569,"station_id":"JAKK","transit":true,"line":2,"is_transit":true,"distance":1264,"station_name":"Jakarta Kota","i_long":106.812439},{"distance":1364,"is_transit":true,"time":3,"station_id":"KPB","i_long":106.826365,"station_name":"Kampung Bandan","line":4,"transit":true,"i_lat":-6.132549},{"time":9,"transit":false,"i_lat":-6.144674,"is_transit":false,"station_id":"AK","distance":4102,"line":1,"station_name":"Angke","i_long":106.79867},{"time":4,"distance":1230,"station_id":"DU","i_lat":-6.155215,"transit":false,"line":1,"i_long":106.800832,"station_name":"Duri","is_transit":false},{"is_transit":true,"i_lat":-6.185545,"station_id":"THB","station_name":"Tanah Abang","time":8,"i_long":106.811091,"distance":3632,"transit":true,"line":1},{"time":6,"station_name":"Palmerah","i_long":106.79689,"distance":3191,"line":6,"is_transit":false,"station_id":"PLM","transit":false,"i_lat":-6.207404},{"line":6,"is_transit":false,"i_lat":-6.237242,"i_long":106.780334,"station_name":"Kebayoran","time":7,"transit":false,"distance":3737,"station_id":"KBY"},{"distance":6218,"time":8,"station_id":"PDJ","i_long":106.74273,"station_name":"Pondokranji","line":6,"transit":false,"is_transit":false,"i_lat":-6.276362},{"transit":false,"i_long":106.728916,"station_id":"JMU","station_name":"Jurangmangu","i_lat":-6.288927,"time":3,"line":6,"distance":2179,"is_transit":false},{"time":4,"i_lat":-6.296963,"station_name":"Sudimara","i_long":106.712277,"line":6,"distance":1994,"transit":false,"station_id":"SDM","is_transit":false},{"station_name":"Rawa Buntu","time":6,"line":6,"transit":false,"is_transit":false,"station_id":"RU","i_lat":-6.314823,"distance":4566,"i_long":106.675475},{"i_lat":-6.319871,"station_name":"Serpong","i_long":106.66566,"time":4,"is_transit":false,"distance":2413,"line":6,"station_id":"SRP","transit":false},{"line":3,"time":4,"station_id":"CSK","distance":1784,"transit":false,"station_name":"Cisauk","is_transit":false,"i_lat":-6.32484,"i_long":106.640411},{"i_lat":-6.329547,"i_long":106.617853,"station_id":"CC","transit":false,"line":3,"distance":2519,"is_transit":false,"station_name":"Cicayur","time":4},{"is_transit":false,"i_lat":-6.3441410000000005,"i_long":106.568863,"distance":5968,"station_id":"PRP","time":8,"transit":false,"line":6,"station_name":"Parung Panjang"},{"line":3,"distance":7025,"is_transit":false,"station_name":"Cilejit","station_id":"CJT","i_lat":-6.354349,"transit":false,"time":9,"i_long":106.508482},{"distance":2675,"station_name":"Daru","time":6,"i_long":106.491338,"is_transit":false,"i_lat":-6.338021,"station_id":"DAR","transit":false,"line":0},{"station_id":"TEJ","transit":false,"distance":3902,"i_lat":-6.327251,"time":5,"i_long":106.460812,"is_transit":false,"line":6,"station_name":"Tenjo"},{"is_transit":false,"i_long":106.425991,"station_id":"TGS","distance":2974,"transit":false,"i_lat":-6.328533,"time":5,"line":6,"station_name":"Tigaraksa"},{"transit":false,"i_long":106.411216,"i_lat":-6.33561,"station_name":"Cikoya","distance":2651,"is_transit":false,"station_id":"CKY","line":3,"time":3},{"is_transit":false,"i_long":106.394373,"station_id":"MJ","time":4,"line":6,"transit":false,"distance":1853,"i_lat":-6.332307,"station_name":"Maja"}],[{"is_transit":false,"time":0,"line":11,"transit":false,"i_long":106.850107,"station_name":"Gang Sentiong","i_lat":-6.185975,"station_id":"GST","distance":0},{"is_transit":false,"line":11,"station_id":"PSE","time":8,"distance":1567,"station_name":"Pasar Senen","transit":false,"i_lat":-6.174784,"i_long":106.84368},{"station_id":"KMO","station_name":"Kemayoran","time":4,"i_long":106.839204,"is_transit":false,"distance":1436,"transit":false,"i_lat":-6.161728,"line":11},{"line":11,"i_long":106.836569,"is_transit":false,"station_name":"Rajawali","time":5,"distance":1901,"station_id":"RJW","transit":false,"i_lat":-6.14505},{"station_id":"KPB","i_long":106.826365,"station_name":"Kampung Bandan","line":4,"time":3,"distance":1444,"transit":true,"is_transit":true,"i_lat":-6.132549},{"station_name":"Jakarta Kota","i_lat":-6.137569,"distance":1364,"transit":true,"i_long":106.812439,"is_transit":true,"station_id":"JAKK","line":2,"time":3},{"i_long":106.820901,"station_id":"JAY","transit":false,"is_transit":false,"line":2,"time":4,"distance":1264,"station_name":"Jayakarta","i_lat":-6.141205},{"station_name":"Manggabesar","i_long":106.82482,"time":2,"distance":1080,"station_id":"MGB","i_lat":-6.149769,"transit":false,"is_transit":false,"line":2},{"i_long":106.827103,"distance":906,"time":2,"transit":false,"i_lat":-6.160725,"is_transit":false,"station_name":"Sawah Besar","station_id":"SW","line":2},{"station_id":"JUA","time":2,"distance":1149,"line":2,"station_name":"Juanda","is_transit":false,"i_long":106.828284,"i_lat":-6.166716,"transit":false},{"station_name":"Gondangdia","station_id":"GDD","time":4,"distance":2015,"is_transit":false,"transit":false,"i_lat":-6.186295,"i_long":106.832183,"line":2},{"is_transit":false,"i_long":106.840169,"station_id":"CKI","i_lat":-6.198556,"distance":1750,"transit":false,"line":2,"time":3,"station_name":"Cikini"},{"distance":1590,"station_name":"Manggarai","line":2,"transit":true,"i_long":106.84912,"station_id":"MRI","time":4,"is_transit":true,"i_lat":-6.209883},{"line":1,"distance":3186,"time":4,"station_id":"SUD","station_name":"Sudirman","is_transit":false,"i_long":106.822649,"transit":false,"i_lat":-6.202263},{"time":1,"transit":false,"i_long":106.819881,"i_lat":-6.201433,"is_transit":false,"station_name":"Sudirman Baru","distance":280,"station_id":"SUDB","line":1},{"i_lat":-6.20132,"distance":471,"is_transit":false,"i_long":106.816351,"time":1,"station_name":"Karet","station_id":"KAT","transit":false,"line":1},{"time":5,"distance":2029,"station_id":"THB","i_lat":-6.185545,"transit":true,"i_long":106.811091,"line":1,"is_transit":true,"station_name":"Tanah Abang"},{"station_id":"PLM","i_lat":-6.207404,"line":6,"distance":3191,"transit":false,"i_long":106.79689,"time":6,"is_transit":false,"station_name":"Palmerah"},{"is_transit":false,"time":7,"distance":3737,"station_name":"Kebayoran","transit":false,"i_lat":-6.237242,"station_id":"KBY","line":6,"i_long":106.780334},{"distance":6218,"i_long":106.74273,"station_name":"Pondokranji","station_id":"PDJ","time":8,"line":6,"transit":false,"i_lat":-6.276362,"is_transit":false},{"is_transit":false,"i_long":106.728916,"station_id":"JMU","time":3,"station_name":"Jurangmangu","transit":false,"i_lat":-6.288927,"distance":2179,"line":6},{"i_lat":-6.296963,"is_transit":false,"time":4,"i_long":106.712277,"station_id":"SDM","station_name":"Sudimara","transit":false,"line":6,"distance":1994},{"i_long":106.675475,"i_lat":-6.314823,"is_transit":false,"line":6,"time":6,"distance":4566,"transit":false,"station_name":"Rawa Buntu","station_id":"RU"},{"time":4,"station_name":"Serpong","i_long":106.66566,"is_transit":false,"line":6,"distance":2413,"station_id":"SRP","transit":false,"i_lat":-6.319871},{"transit":false,"is_transit":false,"i_lat":-6.32484,"time":4,"line":3,"station_name":"Cisauk","distance":1784,"i_long":106.640411,"station_id":"CSK"},{"station_name":"Cicayur","i_long":106.617853,"time":4,"line":3,"station_id":"CC","i_lat":-6.329547,"is_transit":false,"distance":2519,"transit":false},{"i_lat":-6.3441410000000005,"is_transit":false,"distance":5968,"station_name":"Parung Panjang","station_id":"PRP","line":6,"i_long":106.568863,"time":8,"transit":false},{"station_id":"CJT","transit":false,"is_transit":false,"time":9,"i_long":106.508482,"line":3,"distance":7025,"i_lat":-6.354349,"station_name":"Cilejit"},{"station_name":"Daru","distance":2675,"time":6,"transit":false,"i_long":106.491338,"is_transit":false,"station_id":"DAR","line":0,"i_lat":-6.338021},{"i_lat":-6.327251,"distance":3902,"i_long":106.460812,"line":6,"time":5,"transit":false,"is_transit":false,"station_name":"Tenjo","station_id":"TEJ"},{"line":6,"station_name":"Tigaraksa","time":5,"transit":false,"station_id":"TGS","i_lat":-6.328533,"is_transit":false,"distance":2974,"i_long":106.425991},{"station_id":"CKY","i_lat":-6.33561,"i_long":106.411216,"is_transit":false,"line":3,"distance":2651,"time":3,"station_name":"Cikoya","transit":false},{"transit":false,"i_long":106.394373,"is_transit":false,"time":4,"line":6,"distance":1853,"i_lat":-6.332307,"station_id":"MJ","station_name":"Maja"}]]}