{"data":[[{"is_transit":false,"station_id":"GST","i_lat":-6.185975,"distance":0,"station_name":"Gang Sentiong","i_long":106.850107,"time":0,"line":11,"transit":false},{"is_transit":false,"i_long":106.84368,"station_id":"PSE","distance":1567,"station_name":"Pasar Senen","transit":false,"i_lat":-6.174784,"time":8,"line":11},{"line":11,"station_name":"Kemayoran","station_id":"KMO","time":4,"i_lat":-6.161728,"i_long":106.839204,"is_transit":false,"distance":1436,"transit":false},{"transit":false,"time":5,"distance":1901,"station_name":"Rajawali","is_transit":false,"i_lat":-6.14505,"i_long":106.836569,"line":11,"station_id":"RJW"},{"station_id":"KPB","distance":1444,"station_name":"Kampung Bandan","is_transit":true,"line":4,"time":3,"transit":true,"i_long":106.826365,"i_lat":-6.132549},{"station_name":"Angke","station_id":"AK","i_lat":-6.144674,"is_transit":false,"time":9,"transit":false,"distance":4102,"i_long":106.79867,"line":1},{"i_lat":-6.155215,"distance":1230,"i_long":106.800832,"time":4,"station_id":"DU","transit":false,"line":1,"station_name":"Duri","is_transit":false},{"station_name":"Tanah Abang","transit":true,"i_lat":-6.185545,"line":1,"is_transit":true,"distance":3632,"time":8,"station_id":"THB","i_long":106.811091},{"time":6,"distance":3191,"is_transit":false,"station_id":"PLM","i_long":106.79689,"transit":false,"station_name":"Palmerah","i_lat":-6.207404,"line":6},{"i_lat":-6.237242,"line":6,"transit":false,"station_id":"KBY","distance":3737,"station_name":"Kebayoran","time":7,"i_long":106.780334,"is_transit":false},{"i_lat":-6.276362,"is_transit":false,"distance":6218,"station_name":"Pondokranji","line":6,"station_id":"PDJ","i_long":106.74273,"time":8,"transit":false},{"station_name":"Jurangmangu","station_id":"JMU","i_long":106.728916,"is_transit":false,"i_lat":-6.288927,"line":6,"distance":2179,"time":3,"transit":false},{"is_transit":false,"transit":false,"distance":1994,"station_id":"SDM","station_name":"Sudimara","i_lat":-6.296963,"i_long":106.712277,"time":4,"line":6}],[{"station_id":"GST","i_lat":-6.185975,"line":11,"time":0,"distance":0,"station_name":"Gang Sentiong","is_transit":false,"transit":false,"i_long":106.850107},{"transit":false,"i_long":106.855437,"station_name":"Kramat","is_transit":false,"line":11,"time":1,"distance":973,"i_lat":-6.193792,"station_id":"KMT"},{"is_transit":false,"i_long":106.861737,"station_name":"Pondok Jati","line":11,"station_id":"POK","distance":1829,"time":2,"transit":false,"i_lat":-6.209188},{"station_id":"JNG","i_lat":-6.215091,"line":1,"station_name":"Jatinegara","is_transit":true,"distance":1236,"i_long":106.86807400000001,"time":9,"transit":true},{"station_name":"Matraman","station_id":"MTR","distance":1377,"is_transit":false,"transit":false,"i_long":106.858896,"line":1,"time":2,"i_lat":-6.212485},{"distance":1275,"transit":false,"i_lat":-6.209883,"station_name":"Manggarai","line":2,"is_transit":false,"time":2,"i_long":106.84912,"station_id":"MRI"},{"time":4,"distance":3186,"station_name":"Sudirman","i_long":106.822649,"transit":false,"line":1,"station_id":"SUD","is_transit":false,"i_lat":-6.202263},{"i_lat":-6.201433,"time":1,"station_id":"SUDB","is_transit":false,"station_name":"Sudirman Baru","distance":280,"i_long":106.819881,"line":1,"transit":false},{"time":1,"distance":471,"station_name":"Karet","transit":false,"i_long":106.816351,"is_transit":false,"i_lat":-6.20132,"line":1,"station_id":"KAT"},{"time":5,"is_transit":true,"distance":2029,"station_id":"THB","i_lat":-6.185545,"line":1,"i_long":106.811091,"transit":true,"station_name":"Tanah Abang"},{"time":6,"station_name":"Palmerah","transit":false,"i_long":106.79689,"station_id":"PLM","distance":3191,"i_lat":-6.207404,"is_transit":false,"line":6},{"line":6,"is_transit":false,"station_id":"KBY","i_long":106.780334,"station_name":"Kebayoran","transit":false,"time":7,"i_lat":-6.237242,"distance":3737},{"i_lat":-6.276362,"i_long":106.74273,"station_name":"Pondokranji","transit":false,"distance":6218,"station_id":"PDJ","is_transit":false,"time":8,"line":6},{"i_lat":-6.288927,"line":6,"time":3,"transit":false,"i_long":106.728916,"station_id":"JMU","distance":2179,"station_name":"Jurangmangu","is_transit":false},{"distance":1994,"station_id":"SDM","line":6,"is_transit":false,"time":4,"i_long":106.712277,"transit":false,"i_lat":-6.296963,"station_name":"Sudimara"}],[{"is_transit":false,"i_long":106.850107,"time":0,"station_id":"GST","station_name":"Gang Sentiong","distance":0,"transit":false,"i_lat":-6.185975,"line":11},{"distance":973,"time":1,"station_name":"Kramat","transit":false,"i_long":106.855437,"i_lat":-6.193792,"station_id":"KMT","line":11,"is_transit":false},{"station_name":"Pondok Jati","station_id":"POK","time":2,"i_long":106.861737,"distance":1829,"i_lat":-6.209188,"is_transit":false,"transit":false,"line":11},{"is_transit":true,"line":1,"station_id":"JNG","transit":true,"i_long":106.86807400000001,"distance":1236,"i_lat":-6.215091,"station_name":"Jatinegara","time":9},{"distance":1377,"time":2,"is_transit":false,"station_name":"Matraman","i_lat":-6.212485,"i_long":106.858896,"line":1,"station_id":"MTR","transit":false},{"i_lat":-6.209883,"time":2,"transit":true,"is_transit":true,"distance":1275,"station_name":"Manggarai","line":2,"i_long":106.84912,"station_id":"MRI"},{"distance":1590,"line":2,"transit":false,"station_id":"CKI","station_name":"Cikini","is_transit":false,"i_lat":-6.198556,"time":4,"i_long":106.840169},{"i_lat":-6.186295,"line":2,"station_name":"Gondangdia","distance":1750,"station_id":"GDD","transit":false,"i_long":106.832183,"time":3,"is_transit":false},{"station_id":"JUA","station_name":"Juanda","distance":2015,"transit":false,"i_long":106.828284,"time":4,"line":2,"i_lat":-6.166716,"is_transit":false},{"time":2,"is_transit":false,"distance":1149,"station_id":"SW","station_name":"Sawah Besar","line":2,"i_lat":-6.160725,"transit":false,"i_long":106.827103},{"distance":906,"i_long":106.82482,"i_lat":-6.149769,"line":2,"is_transit":false,"time":2,"station_id":"MGB","transit":false,"station_name":"Manggabesar"},{"transit":false,"station_name":"Jayakarta","time":2,"station_id":"JAY","is_transit":false,"i_long":106.820901,"distance":1080,"line":2,"i_lat":-6.141205},{"is_transit":true,"time":4,"distance":1264,"i_long":106.812439,"station_name":"Jakarta Kota","transit":true,"line":2,"i_lat":-6.137569,"station_id":"JAKK"},{"i_lat":-6.132549,"station_name":"Kampung Bandan","i_long":106.826365,"transit":true,"time":3,"station_id":"KPB","distance":1364,"is_transit":true,"line":4},{"distance":4102,"station_id":"AK","i_lat":-6.144674,"is_transit":false,"transit":false,"i_long":106.79867,"line":1,"station_name":"Angke","time":9},{"i_lat":-6.155215,"station_name":"Duri","is_transit":false,"i_long":106.800832,"time":4,"distance":1230,"line":1,"station_id":"DU","transit":false},{"time":8,"is_transit":true,"transit":true,"station_id":"THB","i_long":106.811091,"i_lat":-6.185545,"line":1,"distance":3632,"station_name":"Tanah Abang"},{"station_id":"PLM","i_long":106.79689,"line":6,"distance":3191,"station_name":"Palmerah","is_transit":false,"transit":false,"time":6,"i_lat":-6.207404},{"is_transit":false,"distance":3737,"i_lat":-6.237242,"transit":false,"i_long":106.780334,"line":6,"station_id":"KBY","station_name":"Kebayoran","time":7},{"transit":false,"distance":6218,"station_name":"Pondokranji","time":8,"station_id":"PDJ","is_transit":false,"line":6,"i_long":106.74273,"i_lat":-6.276362},{"station_name":"Jurangmangu","transit":false,"i_lat":-6.288927,"distance":2179,"is_transit":false,"line":6,"station_id":"JMU","i_long":106.728916,"time":3},{"is_transit":false,"i_lat":-6.296963,"distance":1994,"transit":false,"station_name":"Sudimara","i_long":106.712277,"line":6,"station_id":"SDM","time":4}],[{"station_name":"Gang Sentiong","is_transit":false,"distance":0,"line":11,"time":0,"i_long":106.850107,"transit":false,"i_lat":-6.185975,"station_id":"GST"},{"time":8,"station_id":"PSE","station_name":"Pasar Senen","line":11,"distance":1567,"i_lat":-6.174784,"transit":false,"is_transit":false,"i_long":106.84368},{"distance":1436,"is_transit":false,"line":11,"station_id":"KMO","i_long":106.839204,"station_name":"Kemayoran","transit":false,"time":4,"i_lat":-6.161728},{"distance":1901,"station_id":"RJW","i_lat":-6.14505,"transit":false,"station_name":"Rajawali","is_transit":false,"time":5,"i_long":106.836569,"line":11},{"station_id":"KPB","is_transit":true,"distance":1444,"station_name":"Kampung Bandan","i_long":106.826365,"transit":true,"time":3,"i_lat":-6.132549,"line":4},{"is_transit":true,"transit":true,"i_long":106.812439,"line":2,"station_name":"Jakarta Kota","i_lat":-6.137569,"time":3,"distance":1364,"station_id":"JAKK"},{"station_id":"JAY","is_transit":false,"line":2,"distance":1264,"i_long":106.820901,"time":4,"station_name":"Jayakarta","transit":false,"i_lat":-6.141205},{"station_name":"Manggabesar","is_transit":false,"station_id":"MGB","i_long":106.82482,"distance":1080,"transit":false,"i_lat":-6.149769,"line":2,"time":2},{"station_id":"SW","line":2,"transit":false,"station_name":"Sawah Besar","is_transit":false,"distance":906,"time":2,"i_long":106.827103,"i_lat":-6.160725},{"is_transit":false,"i_lat":-6.166716,"time":2,"i_long":106.828284,"transit":false,"distance":1149,"station_name":"Juanda","station_id":"JUA","line":2},{"i_lat":-6.186295,"transit":false,"line":2,"distance":2015,"time":4,"station_name":"Gondangdia","station_id":"GDD","is_transit":false,"i_long":106.832183},{"time":3,"is_transit":false,"station_id":"CKI","i_long":106.840169,"distance":1750,"transit":false,"station_name":"Cikini","i_lat":-6.198556,"line":2},{"line":2,"station_name":"Manggarai","distance":1590,"is_transit":true,"station_id":"MRI","i_lat":-6.209883,"time":4,"transit":true,"i_long":106.84912},{"station_id":"SUD","station_name":"Sudirman","i_long":106.822649,"distance":3186,"is_transit":false,"transit":false,"time":4,"line":1,"i_lat":-6.202263},{"i_long":106.819881,"distance":280,"station_name":"Sudirman Baru","station_id":"SUDB","i_lat":-6.201433,"is_transit":false,"line":1,"time":1,"transit":false},{"distance":471,"i_lat":-6.20132,"transit":false,"time":1,"station_name":"Karet","station_id":"KAT","is_transit":false,"line":1,"i_long":106.816351},{"station_name":"Tanah Abang","i_lat":-6.185545,"time":5,"station_id":"THB","transit":true,"is_transit":true,"line":1,"i_long":106.811091,"distance":2029},{"station_name":"Palmerah","station_id":"PLM","time":6,"line":6,"transit":false,"i_long":106.79689,"distance":3191,"i_lat":-6.207404,"is_transit":false},{"time":7,"i_long":106.780334,"i_lat":-6.237242,"station_name":"Kebayoran","line":6,"station_id":"KBY","transit":false,"distance":3737,"is_transit":false},{"transit":false,"i_long":106.74273,"line":6,"time":8,"station_id":"PDJ","station_name":"Pondokranji","i_lat":-6.276362,"is_transit":false,"distance":6218},{"is_transit":false,"transit":false,"line":6,"station_id":"JMU","i_lat":-6.288927,"time":3,"distance":2179,"i_long":106.728916,"station_name":"Jurangmangu"},{"is_transit":false,"distance":1994,"time":4,"i_long":106.712277,"i_lat":-6.296963,"line":6,"station_name":"Sudimara","transit":false,"station_id":"SDM"}]]}