{"data":[[{"station_name":"Gang Sentiong","is_transit":false,"i_lat":-6.185975,"station_id":"GST","i_long":106.850107,"distance":0,"line":11,"transit":false,"time":0},{"station_name":"Kramat","line":11,"i_long":106.855437,"station_id":"KMT","is_transit":false,"time":1,"transit":false,"distance":973,"i_lat":-6.193792},{"i_lat":-6.209188,"station_id":"POK","i_long":106.861737,"is_transit":false,"station_name":"Pondok Jati","line":11,"distance":1829,"time":2,"transit":false},{"station_name":"Jatinegara","i_lat":-6.215091,"station_id":"JNG","i_long":106.86807400000001,"transit":true,"line":0,"is_transit":true,"distance":1236,"time":9},{"transit":false,"station_id":"MTR","distance":1377,"i_long":106.858896,"time":2,"is_transit":false,"station_name":"Matraman","i_lat":-6.212485,"line":1},{"i_lat":-6.209883,"station_name":"Manggarai","transit":true,"is_transit":true,"time":2,"line":0,"distance":1275,"i_long":106.84912,"station_id":"MRI"},{"is_transit":false,"line":0,"station_id":"CKI","distance":1590,"i_lat":-6.198556,"transit":false,"station_name":"Cikini","time":4,"i_long":106.840169},{"distance":1750,"is_transit":false,"transit":false,"station_id":"GDD","station_name":"Gondangdia","i_long":106.832183,"i_lat":-6.186295,"line":2,"time":3}],[{"station_name":"Gang Sentiong","i_lat":-6.185975,"time":0,"i_long":106.850107,"is_transit":false,"transit":false,"line":11,"station_id":"GST","distance":0},{"line":11,"is_transit":false,"transit":false,"time":8,"station_id":"PSE","i_long":106.84368,"distance":1567,"station_name":"Pasar Senen","i_lat":-6.174784},{"station_name":"Kemayoran","time":4,"i_lat":-6.161728,"i_long":106.839204,"station_id":"KMO","line":11,"is_transit":false,"transit":false,"distance":1436},{"line":11,"transit":false,"is_transit":false,"i_lat":-6.14505,"i_long":106.836569,"station_name":"Rajawali","station_id":"RJW","time":5,"distance":1901},{"distance":1444,"transit":true,"is_transit":true,"i_lat":-6.132549,"line":0,"station_name":"Kampung Bandan","time":3,"station_id":"KPB","i_long":106.826365},{"station_id":"JAKK","distance":1364,"i_lat":-6.137569,"time":3,"line":0,"station_name":"Jakarta Kota","is_transit":true,"i_long":106.812439,"transit":true},{"transit":false,"i_lat":-6.141205,"i_long":106.820901,"distance":1264,"time":4,"is_transit":false,"station_name":"Jayakarta","station_id":"JAY","line":7},{"station_name":"Manggabesar","is_transit":false,"station_id":"MGB","i_lat":-6.149769,"line":2,"time":2,"distance":1080,"i_long":106.82482,"transit":false},{"station_name":"Sawah Besar","line":2,"station_id":"SW","time":2,"is_transit":false,"distance":906,"transit":false,"i_lat":-6.160725,"i_long":106.827103},{"time":2,"i_lat":-6.166716,"is_transit":false,"distance":1149,"station_id":"JUA","line":2,"station_name":"Juanda","transit":false,"i_long":106.828284},{"station_id":"GDD","line":2,"transit":false,"is_transit":false,"i_lat":-6.186295,"i_long":106.832183,"station_name":"Gondangdia","distance":2015,"time":4}],[{"i_long":106.850107,"line":11,"transit":false,"station_name":"Gang Sentiong","station_id":"GST","is_transit":false,"i_lat":-6.185975,"distance":0,"time":0},{"line":11,"transit":false,"i_long":106.84368,"station_name":"Pasar Senen","station_id":"PSE","time":8,"distance":1567,"is_transit":false,"i_lat":-6.174784},{"i_long":106.839204,"is_transit":false,"i_lat":-6.161728,"line":11,"station_id":"KMO","station_name":"Kemayoran","time":4,"transit":false,"distance":1436},{"distance":1901,"station_name":"Rajawali","station_id":"RJW","is_transit":false,"i_lat":-6.14505,"transit":false,"i_long":106.836569,"line":11,"time":5},{"time":3,"station_name":"Kampung Bandan","i_lat":-6.132549,"is_transit":true,"station_id":"KPB","transit":true,"distance":1444,"i_long":106.826365,"line":0},{"station_id":"AK","transit":false,"time":9,"is_transit":false,"i_lat":-6.144674,"station_name":"Angke","i_long":106.79867,"distance":4102,"line":0},{"station_name":"Duri","time":4,"transit":true,"is_transit":true,"i_lat":-6.155215,"i_long":106.800832,"line":1,"station_id":"DU","distance":1230},{"station_name":"Tanah Abang","station_id":"THB","i_lat":-6.185545,"distance":3632,"i_long":106.811091,"is_transit":true,"line":1,"transit":false,"time":8},{"is_transit":false,"line":1,"station_name":"Karet","distance":2029,"time":5,"station_id":"KAT","i_lat":-6.20132,"i_long":106.816351,"transit":false},{"station_name":"Sudirman Baru","i_long":106.819881,"distance":471,"transit":false,"line":1,"station_id":"SUDB","time":1,"is_transit":false,"i_lat":-6.201433},{"line":1,"distance":280,"station_name":"Sudirman","time":1,"i_long":106.822649,"station_id":"SUD","is_transit":false,"transit":false,"i_lat":-6.202263},{"line":0,"distance":3186,"station_name":"Manggarai","transit":true,"time":4,"i_lat":-6.209883,"station_id":"MRI","is_transit":true,"i_long":106.84912},{"distance":1590,"transit":false,"is_transit":false,"time":4,"station_name":"Cikini","station_id":"CKI","i_lat":-6.198556,"i_long":106.840169,"line":0},{"station_name":"Gondangdia","is_transit":false,"distance":1750,"transit":false,"i_lat":-6.186295,"station_id":"GDD","line":2,"time":3,"i_long":106.832183}],[{"distance":0,"time":0,"station_id":"GST","i_lat":-6.185975,"i_long":106.850107,"line":11,"station_name":"Gang Sentiong","transit":false,"is_transit":false},{"transit":false,"i_lat":-6.193792,"distance":973,"i_long":106.855437,"time":1,"station_id":"KMT","station_name":"Kramat","line":11,"is_transit":false},{"i_long":106.861737,"station_name":"Pondok Jati","is_transit":false,"transit":false,"distance":1829,"time":2,"i_lat":-6.209188,"station_id":"POK","line":11},{"i_lat":-6.215091,"transit":true,"is_transit":true,"distance":1236,"i_long":106.86807400000001,"station_id":"JNG","station_name":"Jatinegara","time":9,"line":0},{"distance":1377,"i_long":106.858896,"line":1,"is_transit":false,"station_id":"MTR","time":2,"i_lat":-6.212485,"transit":false,"station_name":"Matraman"},{"station_name":"Manggarai","transit":false,"i_long":106.84912,"distance":1275,"line":0,"is_transit":true,"time":2,"station_id":"MRI","i_lat":-6.209883},{"station_id":"SUD","is_transit":false,"i_lat":-6.202263,"time":4,"distance":3186,"i_long":106.822649,"line":1,"station_name":"Sudirman","transit":false},{"station_name":"Sudirman Baru","station_id":"SUDB","i_lat":-6.201433,"distance":280,"i_long":106.819881,"is_transit":false,"time":1,"line":1,"transit":false},{"station_id":"KAT","station_name":"Karet","time":1,"is_transit":false,"line":1,"i_long":106.816351,"i_lat":-6.20132,"distance":471,"transit":false},{"transit":false,"i_lat":-6.185545,"distance":2029,"station_name":"Tanah Abang","is_transit":true,"station_id":"THB","i_long":106.811091,"time":5,"line":1},{"is_transit":true,"line":1,"time":8,"distance":3632,"transit":true,"i_lat":-6.155215,"i_long":106.800832,"station_name":"Duri","station_id":"DU"},{"station_id":"AK","is_transit":false,"transit":false,"time":4,"distance":1230,"i_long":106.79867,"station_name":"Angke","line":0,"i_lat":-6.144674},{"station_id":"KPB","i_long":106.826365,"i_lat":-6.132549,"transit":false,"time":9,"is_transit":true,"station_name":"Kampung Bandan","distance":4102,"line":0},{"station_id":"JAKK","i_lat":-6.137569,"is_transit":true,"distance":1364,"station_name":"Jakarta Kota","time":3,"i_long":106.812439,"line":0,"transit":true},{"time":4,"transit":false,"station_id":"JAY","station_name":"Jayakarta","i_lat":-6.141205,"distance":1264,"line":7,"is_transit":false,"i_long":106.820901},{"distance":1080,"station_id":"MGB","line":2,"transit":false,"i_long":106.82482,"time":2,"station_name":"Manggabesar","i_lat":-6.149769,"is_transit":false},{"station_name":"Sawah Besar","transit":false,"distance":906,"i_lat":-6.160725,"is_transit":false,"time":2,"line":2,"station_id":"SW","i_long":106.827103},{"time":2,"transit":false,"line":2,"distance":1149,"i_lat":-6.166716,"station_id":"JUA","station_name":"Juanda","i_long":106.828284,"is_transit":false},{"station_id":"GDD","station_name":"Gondangdia","distance":2015,"transit":false,"line":2,"is_transit":false,"time":4,"i_lat":-6.186295,"i_long":106.832183}]]}