{"data":[[{"is_transit":false,"i_lat":-6.185975,"station_name":"Gang Sentiong","time":0,"transit":false,"station_id":"GST","line":11,"distance":0,"i_long":106.850107},{"i_long":106.855437,"station_id":"KMT","distance":973,"line":11,"i_lat":-6.193792,"transit":false,"is_transit":false,"time":1,"station_name":"Kramat"},{"station_id":"POK","station_name":"Pondok Jati","transit":false,"i_lat":-6.209188,"distance":1829,"is_transit":false,"i_long":106.861737,"time":2,"line":11},{"is_transit":true,"transit":true,"distance":1236,"i_long":106.86807400000001,"line":0,"station_id":"JNG","i_lat":-6.215091,"station_name":"Jatinegara","time":9},{"distance":3395,"station_name":"Klender","transit":false,"i_long":106.899548,"is_transit":false,"time":3,"line":1,"i_lat":-6.2135,"station_id":"KLD"},{"station_id":"BUA","line":0,"is_transit":false,"station_name":"Buaran","i_long":106.922662,"transit":false,"time":2,"distance":3100,"i_lat":-6.215568},{"station_name":"Klenderbaru","time":1,"i_long":106.939679,"distance":1305,"is_transit":false,"transit":false,"i_lat":-6.217455,"station_id":"KLDB","line":1},{"station_id":"CUK","time":8,"distance":1385,"i_lat":-6.219053,"is_transit":false,"station_name":"Cakung","transit":false,"line":0,"i_long":106.951283},{"distance":3097,"time":3,"station_id":"KRI","i_lat":-6.224515,"line":1,"station_name":"Kranji","i_long":106.977657,"is_transit":false,"transit":false},{"station_name":"Bekasi","i_lat":-6.236616,"i_long":106.997013,"line":0,"transit":false,"station_id":"BKS","is_transit":false,"time":4,"distance":2520}],[{"line":11,"is_transit":false,"distance":0,"transit":false,"i_long":106.850107,"time":0,"station_name":"Gang Sentiong","station_id":"GST","i_lat":-6.185975},{"line":11,"station_name":"Pasar Senen","is_transit":false,"transit":false,"station_id":"PSE","distance":1567,"i_long":106.84368,"time":8,"i_lat":-6.174784},{"time":4,"transit":false,"line":11,"is_transit":false,"station_name":"Kemayoran","station_id":"KMO","distance":1436,"i_long":106.839204,"i_lat":-6.161728},{"time":5,"distance":1901,"transit":false,"i_lat":-6.14505,"station_id":"RJW","station_name":"Rajawali","i_long":106.836569,"is_transit":false,"line":11},{"line":0,"i_long":106.826365,"station_name":"Kampung Bandan","time":3,"station_id":"KPB","transit":true,"is_transit":true,"i_lat":-6.132549,"distance":1444},{"i_long":106.79867,"is_transit":false,"i_lat":-6.144674,"time":9,"distance":4102,"transit":false,"line":0,"station_name":"Angke","station_id":"AK"},{"i_lat":-6.155215,"time":4,"i_long":106.800832,"station_id":"DU","transit":true,"line":1,"station_name":"Duri","is_transit":true,"distance":1230},{"time":8,"station_name":"Tanah Abang","is_transit":true,"distance":3632,"i_lat":-6.185545,"line":1,"transit":false,"i_long":106.811091,"station_id":"THB"},{"i_long":106.816351,"line":1,"station_name":"Karet","time":5,"i_lat":-6.20132,"transit":false,"distance":2029,"station_id":"KAT","is_transit":false},{"line":1,"transit":false,"station_id":"SUDB","i_long":106.819881,"station_name":"Sudirman Baru","time":1,"i_lat":-6.201433,"distance":471,"is_transit":false},{"i_lat":-6.202263,"distance":280,"station_name":"Sudirman","time":1,"station_id":"SUD","is_transit":false,"transit":false,"line":1,"i_long":106.822649},{"distance":3186,"station_name":"Manggarai","transit":false,"time":4,"i_long":106.84912,"is_transit":true,"i_lat":-6.209883,"line":0,"station_id":"MRI"},{"distance":1275,"i_lat":-6.212485,"line":1,"is_transit":false,"station_id":"MTR","time":2,"station_name":"Matraman","transit":false,"i_long":106.858896},{"time":8,"line":0,"station_id":"JNG","i_long":106.86807400000001,"i_lat":-6.215091,"station_name":"Jatinegara","distance":1377,"transit":false,"is_transit":true},{"is_transit":false,"distance":3395,"station_name":"Klender","i_long":106.899548,"line":1,"station_id":"KLD","i_lat":-6.2135,"transit":false,"time":3},{"distance":3100,"station_id":"BUA","is_transit":false,"transit":false,"line":0,"i_lat":-6.215568,"time":2,"station_name":"Buaran","i_long":106.922662},{"transit":false,"distance":1305,"station_id":"KLDB","i_long":106.939679,"time":1,"i_lat":-6.217455,"line":1,"is_transit":false,"station_name":"Klenderbaru"},{"station_id":"CUK","time":8,"is_transit":false,"transit":false,"distance":1385,"i_lat":-6.219053,"station_name":"Cakung","i_long":106.951283,"line":0},{"i_lat":-6.224515,"i_long":106.977657,"line":1,"station_id":"KRI","distance":3097,"station_name":"Kranji","transit":false,"is_transit":false,"time":3},{"i_long":106.997013,"distance":2520,"is_transit":false,"time":4,"station_id":"BKS","station_name":"Bekasi","line":0,"transit":false,"i_lat":-6.236616}],[{"station_name":"Gang Sentiong","i_lat":-6.185975,"transit":false,"station_id":"GST","i_long":106.850107,"is_transit":false,"line":11,"distance":0,"time":0},{"distance":1567,"i_lat":-6.174784,"time":8,"station_name":"Pasar Senen","transit":false,"i_long":106.84368,"line":11,"station_id":"PSE","is_transit":false},{"station_id":"KMO","is_transit":false,"i_lat":-6.161728,"station_name":"Kemayoran","i_long":106.839204,"distance":1436,"transit":false,"time":4,"line":11},{"time":5,"i_lat":-6.14505,"distance":1901,"line":11,"i_long":106.836569,"transit":false,"station_name":"Rajawali","station_id":"RJW","is_transit":false},{"time":3,"i_long":106.826365,"station_name":"Kampung Bandan","distance":1444,"is_transit":true,"transit":true,"line":0,"station_id":"KPB","i_lat":-6.132549},{"i_long":106.812439,"station_id":"JAKK","transit":true,"line":0,"time":3,"station_name":"Jakarta Kota","distance":1364,"i_lat":-6.137569,"is_transit":true},{"transit":false,"station_id":"JAY","time":4,"distance":1264,"is_transit":false,"station_name":"Jayakarta","i_lat":-6.141205,"i_long":106.820901,"line":7},{"is_transit":false,"transit":false,"i_lat":-6.149769,"distance":1080,"line":2,"station_name":"Manggabesar","station_id":"MGB","time":2,"i_long":106.82482},{"is_transit":false,"station_id":"SW","transit":false,"station_name":"Sawah Besar","time":2,"i_long":106.827103,"line":2,"i_lat":-6.160725,"distance":906},{"is_transit":false,"time":2,"i_long":106.828284,"distance":1149,"station_name":"Juanda","transit":false,"station_id":"JUA","i_lat":-6.166716,"line":2},{"is_transit":false,"line":2,"time":4,"station_id":"GDD","distance":2015,"transit":false,"i_lat":-6.186295,"station_name":"Gondangdia","i_long":106.832183},{"station_id":"CKI","time":3,"i_lat":-6.198556,"is_transit":false,"distance":1750,"station_name":"Cikini","i_long":106.840169,"line":0,"transit":false},{"distance":1590,"station_id":"MRI","is_transit":true,"i_long":106.84912,"line":0,"time":4,"transit":true,"station_name":"Manggarai","i_lat":-6.209883},{"is_transit":false,"i_long":106.858896,"station_id":"MTR","distance":1275,"time":2,"transit":false,"i_lat":-6.212485,"station_name":"Matraman","line":1},{"station_id":"JNG","is_transit":true,"station_name":"Jatinegara","line":0,"distance":1377,"i_lat":-6.215091,"transit":false,"i_long":106.86807400000001,"time":8},{"time":3,"station_id":"KLD","i_lat":-6.2135,"i_long":106.899548,"is_transit":false,"line":1,"transit":false,"station_name":"Klender","distance":3395},{"is_transit":false,"station_id":"BUA","station_name":"Buaran","transit":false,"i_lat":-6.215568,"i_long":106.922662,"line":0,"distance":3100,"time":2},{"line":1,"station_name":"Klenderbaru","is_transit":false,"distance":1305,"time":1,"i_long":106.939679,"station_id":"KLDB","i_lat":-6.217455,"transit":false},{"station_name":"Cakung","station_id":"CUK","i_lat":-6.219053,"transit":false,"time":8,"is_transit":false,"distance":1385,"i_long":106.951283,"line":0},{"is_transit":false,"transit":false,"i_lat":-6.224515,"station_id":"KRI","i_long":106.977657,"time":3,"distance":3097,"station_name":"Kranji","line":1},{"is_transit":false,"distance":2520,"station_name":"Bekasi","i_long":106.997013,"station_id":"BKS","i_lat":-6.236616,"line":0,"transit":false,"time":4}]]}