{"data":[[{"is_transit":false,"i_lat":-6.185975,"station_id":"GST","time":0,"transit":false,"i_long":106.850107,"distance":0,"line":11,"station_name":"Gang Sentiong"},{"station_name":"Kramat","transit":false,"line":11,"time":1,"is_transit":false,"i_lat":-6.193792,"distance":973,"i_long":106.855437,"station_id":"KMT"},{"i_lat":-6.209188,"is_transit":false,"distance":1829,"line":11,"i_long":106.861737,"transit":false,"station_id":"POK","station_name":"Pondok Jati","time":2},{"station_name":"Jatinegara","line":1,"time":9,"station_id":"JNG","distance":1236,"is_transit":true,"i_long":106.86807400000001,"transit":true,"i_lat":-6.215091},{"line":1,"transit":false,"i_lat":-6.212485,"time":2,"i_long":106.858896,"station_name":"Matraman","station_id":"MTR","is_transit":false,"distance":1377},{"is_transit":true,"time":2,"i_long":106.84912,"station_name":"Manggarai","transit":true,"line":2,"station_id":"MRI","i_lat":-6.209883,"distance":1275},{"distance":1590,"transit":false,"time":4,"station_name":"Cikini","is_transit":false,"i_long":106.840169,"i_lat":-6.198556,"line":2,"station_id":"CKI"},{"transit":false,"i_long":106.832183,"time":3,"station_id":"GDD","i_lat":-6.186295,"line":2,"distance":1750,"station_name":"Gondangdia","is_transit":false}],[{"distance":0,"i_lat":-6.185975,"is_transit":false,"i_long":106.850107,"station_id":"GST","transit":false,"line":11,"time":0,"station_name":"Gang Sentiong"},{"line":11,"distance":1567,"station_id":"PSE","station_name":"Pasar Senen","i_lat":-6.174784,"transit":false,"is_transit":false,"time":8,"i_long":106.84368},{"distance":1436,"transit":false,"i_lat":-6.161728,"station_name":"Kemayoran","line":11,"i_long":106.839204,"station_id":"KMO","time":4,"is_transit":false},{"distance":1901,"line":11,"time":5,"station_id":"RJW","station_name":"Rajawali","is_transit":false,"i_long":106.836569,"transit":false,"i_lat":-6.14505},{"i_long":106.826365,"line":4,"distance":1444,"station_id":"KPB","is_transit":true,"i_lat":-6.132549,"transit":true,"time":3,"station_name":"Kampung Bandan"},{"i_lat":-6.137569,"i_long":106.812439,"station_name":"Jakarta Kota","line":2,"is_transit":true,"time":3,"station_id":"JAKK","distance":1364,"transit":true},{"station_id":"JAY","i_lat":-6.141205,"i_long":106.820901,"line":2,"transit":false,"station_name":"Jayakarta","is_transit":false,"time":4,"distance":1264},{"is_transit":false,"line":2,"i_long":106.82482,"transit":false,"distance":1080,"i_lat":-6.149769,"time":2,"station_name":"Manggabesar","station_id":"MGB"},{"i_lat":-6.160725,"station_id":"SW","line":2,"time":2,"is_transit":false,"i_long":106.827103,"distance":906,"station_name":"Sawah Besar","transit":false},{"is_transit":false,"transit":false,"distance":1149,"station_id":"JUA","i_lat":-6.166716,"i_long":106.828284,"time":2,"line":2,"station_name":"Juanda"},{"time":4,"i_long":106.832183,"is_transit":false,"station_name":"Gondangdia","distance":2015,"transit":false,"station_id":"GDD","i_lat":-6.186295,"line":2}],[{"station_id":"GST","distance":0,"is_transit":false,"transit":false,"i_long":106.850107,"time":0,"station_name":"Gang Sentiong","line":11,"i_lat":-6.185975},{"station_id":"PSE","transit":false,"line":11,"time":8,"distance":1567,"station_name":"Pasar Senen","i_lat":-6.174784,"i_long":106.84368,"is_transit":false},{"transit":false,"is_transit":false,"distance":1436,"station_id":"KMO","time":4,"i_lat":-6.161728,"i_long":106.839204,"station_name":"Kemayoran","line":11},{"transit":false,"i_long":106.836569,"line":11,"time":5,"station_id":"RJW","station_name":"Rajawali","is_transit":false,"distance":1901,"i_lat":-6.14505},{"transit":true,"i_lat":-6.132549,"distance":1444,"i_long":106.826365,"station_name":"Kampung Bandan","line":4,"time":3,"station_id":"KPB","is_transit":true},{"i_lat":-6.144674,"time":9,"is_transit":false,"i_long":106.79867,"station_name":"Angke","distance":4102,"station_id":"AK","transit":false,"line":1},{"transit":false,"line":1,"is_transit":false,"station_name":"Duri","i_long":106.800832,"distance":1230,"time":4,"i_lat":-6.155215,"station_id":"DU"},{"station_id":"THB","transit":false,"distance":3632,"station_name":"Tanah Abang","time":8,"is_transit":false,"i_long":106.811091,"line":1,"i_lat":-6.185545},{"station_id":"KAT","time":5,"line":1,"i_lat":-6.20132,"is_transit":false,"distance":2029,"i_long":106.816351,"station_name":"Karet","transit":false},{"is_transit":false,"i_lat":-6.201433,"station_name":"Sudirman Baru","transit":false,"station_id":"SUDB","line":1,"distance":471,"i_long":106.819881,"time":1},{"i_lat":-6.202263,"station_id":"SUD","transit":false,"i_long":106.822649,"distance":280,"time":1,"is_transit":false,"station_name":"Sudirman","line":1},{"i_long":106.84912,"station_name":"Manggarai","is_transit":true,"transit":true,"line":2,"time":4,"distance":3186,"i_lat":-6.209883,"station_id":"MRI"},{"time":4,"station_id":"CKI","transit":false,"i_lat":-6.198556,"line":2,"station_name":"Cikini","i_long":106.840169,"is_transit":false,"distance":1590},{"station_name":"Gondangdia","is_transit":false,"i_lat":-6.186295,"station_id":"GDD","i_long":106.832183,"distance":1750,"time":3,"line":2,"transit":false}],[{"time":0,"station_name":"Gang Sentiong","is_transit":false,"transit":false,"line":11,"i_lat":-6.185975,"distance":0,"i_long":106.850107,"station_id":"GST"},{"station_id":"KMT","time":1,"station_name":"Kramat","i_lat":-6.193792,"i_long":106.855437,"transit":false,"distance":973,"line":11,"is_transit":false},{"i_lat":-6.209188,"is_transit":false,"line":11,"station_name":"Pondok Jati","time":2,"transit":false,"distance":1829,"i_long":106.861737,"station_id":"POK"},{"i_long":106.86807400000001,"i_lat":-6.215091,"line":1,"distance":1236,"time":9,"station_name":"Jatinegara","station_id":"JNG","is_transit":true,"transit":true},{"is_transit":false,"i_long":106.858896,"i_lat":-6.212485,"station_id":"MTR","time":2,"distance":1377,"station_name":"Matraman","transit":false,"line":1},{"time":2,"i_lat":-6.209883,"is_transit":false,"i_long":106.84912,"transit":false,"station_id":"MRI","distance":1275,"station_name":"Manggarai","line":2},{"station_name":"Sudirman","line":1,"station_id":"SUD","time":4,"is_transit":false,"distance":3186,"i_lat":-6.202263,"i_long":106.822649,"transit":false},{"transit":false,"station_id":"SUDB","line":1,"is_transit":false,"time":1,"station_name":"Sudirman Baru","distance":280,"i_lat":-6.201433,"i_long":106.819881},{"time":1,"transit":false,"is_transit":false,"i_long":106.816351,"station_id":"KAT","distance":471,"line":1,"i_lat":-6.20132,"station_name":"Karet"},{"i_long":106.811091,"distance":2029,"station_name":"Tanah Abang","i_lat":-6.185545,"time":5,"station_id":"THB","transit":false,"line":1,"is_transit":false},{"is_transit":false,"i_lat":-6.155215,"line":1,"distance":3632,"station_id":"DU","transit":false,"station_name":"Duri","time":8,"i_long":106.800832},{"i_long":106.79867,"is_transit":false,"distance":1230,"line":1,"station_name":"Angke","i_lat":-6.144674,"transit":false,"time":4,"station_id":"AK"},{"time":9,"station_name":"Kampung Bandan","transit":true,"is_transit":true,"i_lat":-6.132549,"line":4,"i_long":106.826365,"distance":4102,"station_id":"KPB"},{"transit":true,"station_name":"Jakarta Kota","is_transit":true,"distance":1364,"time":3,"i_lat":-6.137569,"i_long":106.812439,"station_id":"JAKK","line":2},{"transit":false,"station_id":"JAY","i_lat":-6.141205,"i_long":106.820901,"is_transit":false,"station_name":"Jayakarta","distance":1264,"line":2,"time":4},{"is_transit":false,"station_id":"MGB","time":2,"station_name":"Manggabesar","distance":1080,"i_long":106.82482,"i_lat":-6.149769,"transit":false,"line":2},{"i_long":106.827103,"time":2,"is_transit":false,"line":2,"station_id":"SW","station_name":"Sawah Besar","transit":false,"distance":906,"i_lat":-6.160725},{"time":2,"i_long":106.828284,"line":2,"i_lat":-6.166716,"station_name":"Juanda","distance":1149,"is_transit":false,"station_id":"JUA","transit":false},{"transit":false,"station_id":"GDD","i_lat":-6.186295,"i_long":106.832183,"line":2,"time":4,"is_transit":false,"distance":2015,"station_name":"Gondangdia"}]]}