{"data":[[{"i_lat":-6.185975,"distance":0,"i_long":106.850107,"station_id":"GST","is_transit":false,"transit":false,"line":11,"time":0,"station_name":"Gang Sentiong"},{"is_transit":false,"i_lat":-6.193792,"i_long":106.855437,"station_id":"KMT","station_name":"Kramat","distance":973,"line":11,"time":1,"transit":false},{"is_transit":false,"i_lat":-6.209188,"station_id":"POK","i_long":106.861737,"line":11,"station_name":"Pondok Jati","time":2,"distance":1829,"transit":false},{"station_name":"Jatinegara","transit":true,"i_lat":-6.215091,"is_transit":true,"distance":1236,"i_long":106.86807400000001,"station_id":"JNG","line":1,"time":9},{"transit":false,"is_transit":false,"line":1,"station_name":"Matraman","i_long":106.858896,"distance":1377,"station_id":"MTR","i_lat":-6.212485,"time":2},{"line":2,"station_id":"MRI","transit":true,"i_long":106.84912,"distance":1275,"time":2,"is_transit":true,"i_lat":-6.209883,"station_name":"Manggarai"},{"station_id":"TEB","i_long":106.857948,"station_name":"Tebet","transit":false,"distance":2610,"i_lat":-6.226659,"time":4,"line":2,"is_transit":false},{"line":2,"station_id":"CW","i_long":106.856607,"is_transit":false,"station_name":"Cawang","transit":false,"time":2,"i_lat":-6.242512,"distance":1230},{"time":3,"is_transit":false,"station_name":"Duren Kalibata","transit":false,"station_id":"DRN","distance":1546,"i_long":106.85449,"line":2,"i_lat":-6.255332},{"distance":824,"i_long":106.851577,"line":2,"time":2,"i_lat":-6.263214,"station_id":"PSMB","is_transit":false,"transit":false,"station_name":"Pasar Minggu Baru"},{"time":2,"station_name":"Pasar Minggu","is_transit":false,"distance":2380,"transit":false,"station_id":"PSM","i_long":106.843999,"line":2,"i_lat":-6.2842400000000005},{"time":4,"station_name":"Tanjung Barat","line":2,"station_id":"TNT","i_lat":-6.3080680000000005,"is_transit":false,"distance":2820,"transit":false,"i_long":106.838896},{"line":2,"is_transit":false,"station_name":"Lenteng Agung","i_long":106.832616,"transit":false,"distance":2671,"i_lat":-6.330363,"station_id":"LNA","time":3},{"station_id":"UP","distance":1029,"transit":false,"time":2,"line":2,"station_name":"Univ. Pancasila","i_long":106.834175,"is_transit":false,"i_lat":-6.339291},{"time":3,"distance":2264,"line":2,"i_long":106.831474,"station_id":"UI","station_name":"Univ. Indonesia","transit":false,"is_transit":false,"i_lat":-6.360749}],[{"line":11,"time":0,"station_name":"Gang Sentiong","is_transit":false,"station_id":"GST","transit":false,"distance":0,"i_long":106.850107,"i_lat":-6.185975},{"time":8,"transit":false,"station_name":"Pasar Senen","i_lat":-6.174784,"distance":1567,"i_long":106.84368,"station_id":"PSE","is_transit":false,"line":11},{"i_lat":-6.161728,"station_name":"Kemayoran","is_transit":false,"time":4,"i_long":106.839204,"line":11,"transit":false,"distance":1436,"station_id":"KMO"},{"line":11,"transit":false,"station_id":"RJW","i_lat":-6.14505,"i_long":106.836569,"is_transit":false,"time":5,"station_name":"Rajawali","distance":1901},{"is_transit":true,"i_lat":-6.132549,"station_name":"Kampung Bandan","distance":1444,"time":3,"i_long":106.826365,"transit":true,"station_id":"KPB","line":4},{"station_id":"AK","station_name":"Angke","distance":4102,"transit":false,"i_lat":-6.144674,"line":1,"is_transit":false,"i_long":106.79867,"time":9},{"transit":false,"station_name":"Duri","time":4,"i_long":106.800832,"line":1,"distance":1230,"i_lat":-6.155215,"station_id":"DU","is_transit":false},{"distance":3632,"line":1,"is_transit":false,"i_lat":-6.185545,"i_long":106.811091,"time":8,"transit":false,"station_id":"THB","station_name":"Tanah Abang"},{"station_name":"Karet","station_id":"KAT","is_transit":false,"time":5,"distance":2029,"i_long":106.816351,"i_lat":-6.20132,"transit":false,"line":1},{"i_long":106.819881,"distance":471,"is_transit":false,"i_lat":-6.201433,"line":1,"time":1,"station_name":"Sudirman Baru","transit":false,"station_id":"SUDB"},{"time":1,"is_transit":false,"distance":280,"i_lat":-6.202263,"i_long":106.822649,"station_name":"Sudirman","transit":false,"line":1,"station_id":"SUD"},{"time":4,"distance":3186,"line":2,"i_lat":-6.209883,"station_id":"MRI","station_name":"Manggarai","i_long":106.84912,"transit":true,"is_transit":true},{"station_id":"TEB","distance":2610,"is_transit":false,"transit":false,"line":2,"time":4,"station_name":"Tebet","i_long":106.857948,"i_lat":-6.226659},{"i_long":106.856607,"line":2,"transit":false,"station_name":"Cawang","time":2,"station_id":"CW","is_transit":false,"distance":1230,"i_lat":-6.242512},{"transit":false,"i_long":106.85449,"distance":1546,"is_transit":false,"i_lat":-6.255332,"line":2,"station_name":"Duren Kalibata","time":3,"station_id":"DRN"},{"is_transit":false,"station_name":"Pasar Minggu Baru","time":2,"i_lat":-6.263214,"transit":false,"line":2,"i_long":106.851577,"station_id":"PSMB","distance":824},{"i_long":106.843999,"station_id":"PSM","station_name":"Pasar Minggu","is_transit":false,"distance":2380,"i_lat":-6.2842400000000005,"time":2,"transit":false,"line":2},{"transit":false,"i_long":106.838896,"distance":2820,"time":4,"i_lat":-6.3080680000000005,"line":2,"station_id":"TNT","is_transit":false,"station_name":"Tanjung Barat"},{"i_lat":-6.330363,"is_transit":false,"transit":false,"line":2,"station_name":"Lenteng Agung","distance":2671,"station_id":"LNA","i_long":106.832616,"time":3},{"is_transit":false,"station_id":"UP","station_name":"Univ. Pancasila","distance":1029,"i_long":106.834175,"transit":false,"line":2,"time":2,"i_lat":-6.339291},{"i_long":106.831474,"i_lat":-6.360749,"line":2,"station_id":"UI","station_name":"Univ. Indonesia","transit":false,"is_transit":false,"distance":2264,"time":3}],[{"station_name":"Gang Sentiong","distance":0,"station_id":"GST","is_transit":false,"i_lat":-6.185975,"time":0,"transit":false,"line":11,"i_long":106.850107},{"i_lat":-6.174784,"line":11,"station_name":"Pasar Senen","station_id":"PSE","i_long":106.84368,"is_transit":false,"time":8,"distance":1567,"transit":false},{"line":11,"station_id":"KMO","is_transit":false,"i_lat":-6.161728,"i_long":106.839204,"time":4,"distance":1436,"transit":false,"station_name":"Kemayoran"},{"distance":1901,"i_lat":-6.14505,"station_id":"RJW","transit":false,"station_name":"Rajawali","i_long":106.836569,"is_transit":false,"line":11,"time":5},{"time":3,"transit":true,"distance":1444,"i_lat":-6.132549,"i_long":106.826365,"is_transit":true,"line":4,"station_id":"KPB","station_name":"Kampung Bandan"},{"distance":1364,"i_long":106.812439,"station_id":"JAKK","time":3,"station_name":"Jakarta Kota","line":2,"i_lat":-6.137569,"transit":true,"is_transit":true},{"station_name":"Jayakarta","time":4,"transit":false,"i_lat":-6.141205,"is_transit":false,"i_long":106.820901,"line":2,"distance":1264,"station_id":"JAY"},{"time":2,"station_id":"MGB","transit":false,"i_lat":-6.149769,"is_transit":false,"i_long":106.82482,"distance":1080,"station_name":"Manggabesar","line":2},{"i_lat":-6.160725,"i_long":106.827103,"station_id":"SW","line":2,"distance":906,"time":2,"transit":false,"station_name":"Sawah Besar","is_transit":false},{"distance":1149,"i_lat":-6.166716,"time":2,"is_transit":false,"line":2,"station_id":"JUA","transit":false,"station_name":"Juanda","i_long":106.828284},{"transit":false,"is_transit":false,"i_long":106.832183,"i_lat":-6.186295,"station_id":"GDD","time":4,"station_name":"Gondangdia","distance":2015,"line":2},{"station_id":"CKI","time":3,"station_name":"Cikini","is_transit":false,"i_lat":-6.198556,"i_long":106.840169,"transit":false,"distance":1750,"line":2},{"i_lat":-6.209883,"i_long":106.84912,"station_name":"Manggarai","line":2,"distance":1590,"time":4,"transit":false,"station_id":"MRI","is_transit":false},{"is_transit":false,"station_name":"Tebet","transit":false,"time":4,"i_lat":-6.226659,"i_long":106.857948,"line":2,"station_id":"TEB","distance":2610},{"is_transit":false,"i_lat":-6.242512,"distance":1230,"transit":false,"station_name":"Cawang","time":2,"i_long":106.856607,"line":2,"station_id":"CW"},{"is_transit":false,"i_long":106.85449,"distance":1546,"time":3,"transit":false,"station_id":"DRN","station_name":"Duren Kalibata","i_lat":-6.255332,"line":2},{"time":2,"station_name":"Pasar Minggu Baru","i_long":106.851577,"line":2,"is_transit":false,"transit":false,"distance":824,"i_lat":-6.263214,"station_id":"PSMB"},{"time":2,"distance":2380,"station_id":"PSM","transit":false,"station_name":"Pasar Minggu","i_lat":-6.2842400000000005,"line":2,"is_transit":false,"i_long":106.843999},{"i_long":106.838896,"transit":false,"line":2,"station_id":"TNT","distance":2820,"is_transit":false,"time":4,"station_name":"Tanjung Barat","i_lat":-6.3080680000000005},{"is_transit":false,"distance":2671,"i_lat":-6.330363,"station_id":"LNA","line":2,"transit":false,"i_long":106.832616,"station_name":"Lenteng Agung","time":3},{"distance":1029,"station_id":"UP","transit":false,"station_name":"Univ. Pancasila","i_lat":-6.339291,"line":2,"time":2,"is_transit":false,"i_long":106.834175},{"i_long":106.831474,"time":3,"station_name":"Univ. Indonesia","transit":false,"line":2,"i_lat":-6.360749,"distance":2264,"station_id":"UI","is_transit":false}]]}