{"data":[[{"station_id":"GST","i_long":106.850107,"time":0,"distance":0,"transit":false,"line":11,"i_lat":-6.185975,"station_name":"Gang Sentiong","is_transit":false},{"i_long":106.855437,"station_name":"Kramat","is_transit":false,"i_lat":-6.193792,"station_id":"KMT","transit":false,"time":1,"line":11,"distance":973},{"distance":1829,"i_long":106.861737,"transit":false,"station_name":"Pondok Jati","is_transit":false,"time":2,"station_id":"POK","i_lat":-6.209188,"line":11},{"station_id":"JNG","is_transit":true,"distance":1236,"i_lat":-6.215091,"i_long":106.86807400000001,"line":1,"transit":true,"time":9,"station_name":"Jatinegara"},{"i_lat":-6.2135,"transit":false,"station_id":"KLD","time":3,"distance":3395,"line":1,"station_name":"Klender","is_transit":false,"i_long":106.899548},{"station_id":"BUA","is_transit":false,"i_lat":-6.215568,"transit":false,"i_long":106.922662,"line":1,"time":2,"station_name":"Buaran","distance":3100},{"station_id":"KLDB","i_lat":-6.217455,"distance":1305,"is_transit":false,"transit":false,"i_long":106.939679,"time":1,"line":1,"station_name":"Klenderbaru"},{"time":8,"distance":1385,"station_id":"CUK","i_long":106.951283,"station_name":"Cakung","line":1,"transit":false,"i_lat":-6.219053,"is_transit":false},{"station_id":"KRI","station_name":"Kranji","distance":3097,"i_long":106.977657,"time":3,"i_lat":-6.224515,"transit":false,"line":1,"is_transit":false},{"transit":false,"station_id":"BKS","time":4,"distance":2520,"i_long":106.997013,"station_name":"Bekasi","is_transit":false,"line":1,"i_lat":-6.236616}],[{"station_name":"Gang Sentiong","i_lat":-6.185975,"station_id":"GST","i_long":106.850107,"line":11,"distance":0,"is_transit":false,"time":0,"transit":false},{"i_lat":-6.174784,"i_long":106.84368,"time":8,"distance":1567,"is_transit":false,"station_name":"Pasar Senen","line":11,"transit":false,"station_id":"PSE"},{"station_id":"KMO","distance":1436,"is_transit":false,"i_long":106.839204,"station_name":"Kemayoran","time":4,"line":11,"transit":false,"i_lat":-6.161728},{"time":5,"i_lat":-6.14505,"transit":false,"line":11,"i_long":106.836569,"station_id":"RJW","distance":1901,"is_transit":false,"station_name":"Rajawali"},{"station_name":"Kampung Bandan","line":4,"i_long":106.826365,"transit":true,"distance":1444,"is_transit":true,"time":3,"station_id":"KPB","i_lat":-6.132549},{"distance":4102,"i_lat":-6.144674,"station_id":"AK","is_transit":false,"time":9,"i_long":106.79867,"station_name":"Angke","line":1,"transit":false},{"transit":false,"station_name":"Duri","time":4,"distance":1230,"i_lat":-6.155215,"line":1,"is_transit":false,"station_id":"DU","i_long":106.800832},{"transit":false,"station_name":"Tanah Abang","station_id":"THB","time":8,"i_lat":-6.185545,"i_long":106.811091,"line":1,"distance":3632,"is_transit":false},{"line":1,"station_id":"KAT","transit":false,"time":5,"i_lat":-6.20132,"is_transit":false,"i_long":106.816351,"distance":2029,"station_name":"Karet"},{"i_long":106.819881,"station_id":"SUDB","time":1,"is_transit":false,"station_name":"Sudirman Baru","transit":false,"distance":471,"i_lat":-6.201433,"line":1},{"line":1,"transit":false,"time":1,"station_id":"SUD","distance":280,"i_lat":-6.202263,"station_name":"Sudirman","i_long":106.822649,"is_transit":false},{"is_transit":false,"station_name":"Manggarai","time":4,"transit":false,"i_long":106.84912,"i_lat":-6.209883,"station_id":"MRI","distance":3186,"line":2},{"is_transit":false,"station_name":"Matraman","time":2,"distance":1275,"station_id":"MTR","transit":false,"i_long":106.858896,"line":1,"i_lat":-6.212485},{"i_long":106.86807400000001,"station_id":"JNG","station_name":"Jatinegara","distance":1377,"is_transit":false,"time":8,"line":1,"transit":false,"i_lat":-6.215091},{"station_name":"Klender","i_lat":-6.2135,"distance":3395,"i_long":106.899548,"station_id":"KLD","is_transit":false,"time":3,"transit":false,"line":1},{"line":1,"is_transit":false,"time":2,"distance":3100,"i_lat":-6.215568,"i_long":106.922662,"station_name":"Buaran","station_id":"BUA","transit":false},{"i_long":106.939679,"time":1,"station_id":"KLDB","transit":false,"distance":1305,"station_name":"Klenderbaru","line":1,"is_transit":false,"i_lat":-6.217455},{"i_lat":-6.219053,"i_long":106.951283,"time":8,"transit":false,"station_id":"CUK","distance":1385,"is_transit":false,"line":1,"station_name":"Cakung"},{"line":1,"station_id":"KRI","station_name":"Kranji","distance":3097,"i_long":106.977657,"i_lat":-6.224515,"is_transit":false,"transit":false,"time":3},{"line":1,"station_id":"BKS","time":4,"station_name":"Bekasi","is_transit":false,"transit":false,"i_long":106.997013,"distance":2520,"i_lat":-6.236616}],[{"is_transit":false,"distance":0,"transit":false,"i_lat":-6.185975,"station_name":"Gang Sentiong","i_long":106.850107,"line":11,"time":0,"station_id":"GST"},{"is_transit":false,"i_long":106.84368,"station_name":"Pasar Senen","i_lat":-6.174784,"distance":1567,"transit":false,"line":11,"station_id":"PSE","time":8},{"transit":false,"station_id":"KMO","i_long":106.839204,"station_name":"Kemayoran","time":4,"i_lat":-6.161728,"is_transit":false,"distance":1436,"line":11},{"transit":false,"distance":1901,"is_transit":false,"i_lat":-6.14505,"line":11,"i_long":106.836569,"time":5,"station_id":"RJW","station_name":"Rajawali"},{"distance":1444,"i_long":106.826365,"i_lat":-6.132549,"station_name":"Kampung Bandan","time":3,"transit":true,"is_transit":true,"station_id":"KPB","line":4},{"i_lat":-6.137569,"i_long":106.812439,"line":2,"distance":1364,"station_name":"Jakarta Kota","time":3,"station_id":"JAKK","transit":true,"is_transit":true},{"station_id":"JAY","is_transit":false,"distance":1264,"line":2,"i_lat":-6.141205,"i_long":106.820901,"transit":false,"station_name":"Jayakarta","time":4},{"transit":false,"is_transit":false,"line":2,"station_id":"MGB","i_lat":-6.149769,"time":2,"i_long":106.82482,"distance":1080,"station_name":"Manggabesar"},{"line":2,"station_name":"Sawah Besar","station_id":"SW","is_transit":false,"distance":906,"i_long":106.827103,"transit":false,"i_lat":-6.160725,"time":2},{"i_lat":-6.166716,"i_long":106.828284,"line":2,"distance":1149,"station_name":"Juanda","station_id":"JUA","transit":false,"is_transit":false,"time":2},{"station_id":"GDD","is_transit":false,"i_lat":-6.186295,"transit":false,"distance":2015,"line":2,"station_name":"Gondangdia","time":4,"i_long":106.832183},{"time":3,"i_lat":-6.198556,"i_long":106.840169,"line":2,"station_name":"Cikini","distance":1750,"is_transit":false,"station_id":"CKI","transit":false},{"distance":1590,"is_transit":true,"i_lat":-6.209883,"i_long":106.84912,"time":4,"transit":true,"station_id":"MRI","station_name":"Manggarai","line":2},{"transit":false,"is_transit":false,"station_id":"MTR","i_lat":-6.212485,"time":2,"line":1,"distance":1275,"station_name":"Matraman","i_long":106.858896},{"time":8,"transit":false,"distance":1377,"line":1,"station_id":"JNG","is_transit":false,"i_lat":-6.215091,"station_name":"Jatinegara","i_long":106.86807400000001},{"i_long":106.899548,"transit":false,"station_id":"KLD","time":3,"i_lat":-6.2135,"line":1,"is_transit":false,"station_name":"Klender","distance":3395},{"is_transit":false,"i_long":106.922662,"station_name":"Buaran","time":2,"station_id":"BUA","distance":3100,"i_lat":-6.215568,"line":1,"transit":false},{"station_name":"Klenderbaru","distance":1305,"i_long":106.939679,"transit":false,"time":1,"i_lat":-6.217455,"line":1,"station_id":"KLDB","is_transit":false},{"i_long":106.951283,"time":8,"transit":false,"distance":1385,"line":1,"station_id":"CUK","is_transit":false,"station_name":"Cakung","i_lat":-6.219053},{"transit":false,"line":1,"time":3,"i_lat":-6.224515,"station_name":"Kranji","is_transit":false,"i_long":106.977657,"distance":3097,"station_id":"KRI"},{"line":1,"station_name":"Bekasi","transit":false,"is_transit":false,"distance":2520,"i_lat":-6.236616,"time":4,"station_id":"BKS","i_long":106.997013}]]}