{"data":[[{"distance":0,"station_id":"GST","station_name":"Gang Sentiong","line":11,"i_lat":-6.185975,"time":0,"is_transit":false,"transit":false,"i_long":106.850107},{"station_name":"Pasar Senen","is_transit":false,"line":11,"i_lat":-6.174784,"transit":false,"i_long":106.84368,"distance":1567,"time":8,"station_id":"PSE"},{"distance":1436,"i_long":106.839204,"time":4,"transit":false,"station_id":"KMO","is_transit":false,"line":11,"station_name":"Kemayoran","i_lat":-6.161728},{"station_name":"Rajawali","is_transit":false,"station_id":"RJW","i_long":106.836569,"time":5,"transit":false,"i_lat":-6.14505,"distance":1901,"line":11},{"station_name":"Kampung Bandan","i_lat":-6.132549,"distance":1444,"transit":true,"station_id":"KPB","time":3,"is_transit":true,"line":4,"i_long":106.826365},{"is_transit":false,"transit":false,"i_lat":-6.144674,"distance":4102,"line":1,"time":9,"i_long":106.79867,"station_id":"AK","station_name":"Angke"},{"i_long":106.800832,"station_name":"Duri","line":1,"distance":1230,"is_transit":true,"transit":true,"station_id":"DU","time":4,"i_lat":-6.155215},{"station_name":"Grogol","i_long":106.788277,"is_transit":false,"station_id":"GGL","transit":false,"i_lat":-6.162021,"distance":1700,"line":5,"time":3}],[{"line":11,"time":0,"distance":0,"i_long":106.850107,"is_transit":false,"i_lat":-6.185975,"transit":false,"station_id":"GST","station_name":"Gang Sentiong"},{"station_id":"KMT","i_lat":-6.193792,"time":1,"is_transit":false,"i_long":106.855437,"distance":973,"station_name":"Kramat","line":11,"transit":false},{"transit":false,"time":2,"distance":1829,"i_long":106.861737,"i_lat":-6.209188,"is_transit":false,"line":11,"station_id":"POK","station_name":"Pondok Jati"},{"i_long":106.86807400000001,"line":1,"station_name":"Jatinegara","station_id":"JNG","i_lat":-6.215091,"is_transit":true,"distance":1236,"transit":true,"time":9},{"distance":1377,"i_long":106.858896,"is_transit":false,"transit":false,"station_id":"MTR","station_name":"Matraman","i_lat":-6.212485,"line":1,"time":2},{"station_name":"Manggarai","is_transit":false,"i_lat":-6.209883,"i_long":106.84912,"line":2,"transit":false,"distance":1275,"time":2,"station_id":"MRI"},{"i_lat":-6.202263,"station_id":"SUD","transit":false,"station_name":"Sudirman","line":1,"is_transit":false,"time":4,"i_long":106.822649,"distance":3186},{"i_lat":-6.201433,"time":1,"transit":false,"line":1,"distance":280,"station_id":"SUDB","i_long":106.819881,"is_transit":false,"station_name":"Sudirman Baru"},{"transit":false,"i_lat":-6.20132,"station_id":"KAT","i_long":106.816351,"is_transit":false,"time":1,"station_name":"Karet","line":1,"distance":471},{"station_id":"THB","i_long":106.811091,"transit":false,"i_lat":-6.185545,"station_name":"Tanah Abang","time":5,"distance":2029,"line":1,"is_transit":false},{"line":1,"station_id":"DU","transit":true,"is_transit":true,"i_lat":-6.155215,"station_name":"Duri","time":8,"distance":3632,"i_long":106.800832},{"is_transit":false,"transit":false,"distance":1700,"station_id":"GGL","station_name":"Grogol","i_long":106.788277,"line":5,"i_lat":-6.162021,"time":3}],[{"transit":false,"station_id":"GST","time":0,"line":11,"is_transit":false,"distance":0,"i_long":106.850107,"i_lat":-6.185975,"station_name":"Gang Sentiong"},{"is_transit":false,"distance":973,"station_id":"KMT","i_long":106.855437,"time":1,"station_name":"Kramat","transit":false,"line":11,"i_lat":-6.193792},{"is_transit":false,"i_lat":-6.209188,"line":11,"distance":1829,"station_name":"Pondok Jati","transit":false,"station_id":"POK","time":2,"i_long":106.861737},{"station_id":"JNG","time":9,"is_transit":true,"i_lat":-6.215091,"station_name":"Jatinegara","line":1,"distance":1236,"i_long":106.86807400000001,"transit":true},{"time":2,"distance":1377,"transit":false,"i_lat":-6.212485,"is_transit":false,"station_id":"MTR","i_long":106.858896,"station_name":"Matraman","line":1},{"station_id":"MRI","line":2,"i_long":106.84912,"transit":true,"is_transit":true,"distance":1275,"i_lat":-6.209883,"time":2,"station_name":"Manggarai"},{"is_transit":false,"i_long":106.840169,"distance":1590,"line":2,"i_lat":-6.198556,"time":4,"station_id":"CKI","station_name":"Cikini","transit":false},{"line":2,"station_name":"Gondangdia","transit":false,"i_lat":-6.186295,"i_long":106.832183,"time":3,"station_id":"GDD","is_transit":false,"distance":1750},{"time":4,"station_id":"JUA","is_transit":false,"station_name":"Juanda","i_long":106.828284,"line":2,"distance":2015,"transit":false,"i_lat":-6.166716},{"i_lat":-6.160725,"station_id":"SW","i_long":106.827103,"line":2,"station_name":"Sawah Besar","transit":false,"time":2,"is_transit":false,"distance":1149},{"time":2,"transit":false,"distance":906,"i_lat":-6.149769,"i_long":106.82482,"line":2,"station_name":"Manggabesar","is_transit":false,"station_id":"MGB"},{"distance":1080,"station_name":"Jayakarta","transit":false,"i_lat":-6.141205,"line":2,"station_id":"JAY","is_transit":false,"i_long":106.820901,"time":2},{"transit":true,"line":2,"is_transit":true,"station_name":"Jakarta Kota","i_long":106.812439,"distance":1264,"i_lat":-6.137569,"station_id":"JAKK","time":4},{"transit":true,"i_lat":-6.132549,"station_name":"Kampung Bandan","line":4,"is_transit":true,"time":3,"station_id":"KPB","i_long":106.826365,"distance":1364},{"i_long":106.79867,"line":1,"time":9,"distance":4102,"i_lat":-6.144674,"station_id":"AK","station_name":"Angke","is_transit":false,"transit":false},{"station_id":"DU","is_transit":true,"transit":true,"station_name":"Duri","distance":1230,"line":1,"time":4,"i_long":106.800832,"i_lat":-6.155215},{"transit":false,"i_lat":-6.162021,"time":3,"distance":1700,"station_id":"GGL","is_transit":false,"i_long":106.788277,"line":5,"station_name":"Grogol"}],[{"i_lat":-6.185975,"i_long":106.850107,"line":11,"station_name":"Gang Sentiong","time":0,"is_transit":false,"transit":false,"station_id":"GST","distance":0},{"transit":false,"line":11,"time":8,"distance":1567,"station_id":"PSE","is_transit":false,"i_long":106.84368,"station_name":"Pasar Senen","i_lat":-6.174784},{"station_id":"KMO","i_lat":-6.161728,"transit":false,"distance":1436,"i_long":106.839204,"line":11,"station_name":"Kemayoran","is_transit":false,"time":4},{"is_transit":false,"time":5,"distance":1901,"i_lat":-6.14505,"line":11,"station_name":"Rajawali","station_id":"RJW","i_long":106.836569,"transit":false},{"station_id":"KPB","line":4,"i_lat":-6.132549,"transit":true,"is_transit":true,"distance":1444,"time":3,"station_name":"Kampung Bandan","i_long":106.826365},{"station_id":"JAKK","time":3,"station_name":"Jakarta Kota","is_transit":true,"distance":1364,"i_lat":-6.137569,"line":2,"transit":true,"i_long":106.812439},{"time":4,"distance":1264,"station_name":"Jayakarta","line":2,"transit":false,"is_transit":false,"station_id":"JAY","i_lat":-6.141205,"i_long":106.820901},{"is_transit":false,"time":2,"i_lat":-6.149769,"i_long":106.82482,"station_name":"Manggabesar","distance":1080,"line":2,"transit":false,"station_id":"MGB"},{"station_id":"SW","time":2,"i_lat":-6.160725,"line":2,"transit":false,"distance":906,"is_transit":false,"i_long":106.827103,"station_name":"Sawah Besar"},{"is_transit":false,"i_lat":-6.166716,"distance":1149,"station_id":"JUA","time":2,"station_name":"Juanda","i_long":106.828284,"line":2,"transit":false},{"time":4,"station_id":"GDD","distance":2015,"is_transit":false,"i_lat":-6.186295,"transit":false,"i_long":106.832183,"line":2,"station_name":"Gondangdia"},{"distance":1750,"line":2,"station_id":"CKI","is_transit":false,"station_name":"Cikini","transit":false,"time":3,"i_long":106.840169,"i_lat":-6.198556},{"is_transit":true,"time":4,"station_name":"Manggarai","station_id":"MRI","i_long":106.84912,"line":2,"distance":1590,"transit":true,"i_lat":-6.209883},{"station_name":"Sudirman","transit":false,"station_id":"SUD","i_long":106.822649,"is_transit":false,"line":1,"distance":3186,"i_lat":-6.202263,"time":4},{"distance":280,"i_long":106.819881,"i_lat":-6.201433,"line":1,"station_id":"SUDB","station_name":"Sudirman Baru","time":1,"transit":false,"is_transit":false},{"i_lat":-6.20132,"distance":471,"is_transit":false,"station_name":"Karet","transit":false,"time":1,"station_id":"KAT","line":1,"i_long":106.816351},{"station_name":"Tanah Abang","station_id":"THB","line":1,"time":5,"i_long":106.811091,"transit":false,"i_lat":-6.185545,"distance":2029,"is_transit":false},{"station_name":"Duri","time":8,"i_long":106.800832,"i_lat":-6.155215,"line":1,"transit":true,"distance":3632,"is_transit":true,"station_id":"DU"},{"station_id":"GGL","distance":1700,"i_lat":-6.162021,"is_transit":false,"i_long":106.788277,"time":3,"line":5,"transit":false,"station_name":"Grogol"}]]}