{"data":[[{"transit":false,"station_name":"Gang Sentiong","distance":0,"i_long":106.850107,"is_transit":false,"time":0,"station_id":"GST","line":11,"i_lat":-6.185975},{"i_lat":-6.174784,"station_name":"Pasar Senen","i_long":106.84368,"line":11,"is_transit":false,"transit":false,"station_id":"PSE","distance":1567,"time":8},{"station_name":"Kemayoran","transit":false,"distance":1436,"is_transit":false,"time":4,"i_long":106.839204,"station_id":"KMO","i_lat":-6.161728,"line":11},{"i_lat":-6.14505,"i_long":106.836569,"is_transit":false,"line":11,"time":5,"station_name":"Rajawali","transit":false,"station_id":"RJW","distance":1901},{"station_id":"KPB","is_transit":true,"station_name":"Kampung Bandan","transit":true,"distance":1444,"i_long":106.826365,"i_lat":-6.132549,"line":4,"time":3},{"is_transit":false,"i_lat":-6.144674,"station_name":"Angke","transit":false,"time":9,"distance":4102,"line":1,"i_long":106.79867,"station_id":"AK"},{"station_name":"Duri","i_lat":-6.155215,"i_long":106.800832,"transit":false,"is_transit":false,"distance":1230,"line":1,"station_id":"DU","time":4},{"station_id":"THB","transit":true,"is_transit":true,"time":8,"station_name":"Tanah Abang","i_lat":-6.185545,"i_long":106.811091,"line":1,"distance":3632},{"station_id":"PLM","time":6,"i_long":106.79689,"line":6,"distance":3191,"station_name":"Palmerah","is_transit":false,"i_lat":-6.207404,"transit":false},{"i_lat":-6.237242,"i_long":106.780334,"time":7,"station_id":"KBY","line":6,"is_transit":false,"distance":3737,"station_name":"Kebayoran","transit":false},{"is_transit":false,"line":6,"i_lat":-6.276362,"distance":6218,"station_id":"PDJ","time":8,"i_long":106.74273,"station_name":"Pondokranji","transit":false},{"station_id":"JMU","line":6,"time":3,"distance":2179,"is_transit":false,"transit":false,"i_lat":-6.288927,"station_name":"Jurangmangu","i_long":106.728916},{"distance":1994,"transit":false,"time":4,"is_transit":false,"line":6,"station_name":"Sudimara","station_id":"SDM","i_lat":-6.296963,"i_long":106.712277}],[{"transit":false,"i_lat":-6.185975,"i_long":106.850107,"is_transit":false,"line":11,"station_id":"GST","time":0,"distance":0,"station_name":"Gang Sentiong"},{"station_name":"Kramat","time":1,"i_lat":-6.193792,"station_id":"KMT","i_long":106.855437,"distance":973,"transit":false,"line":11,"is_transit":false},{"line":11,"distance":1829,"i_long":106.861737,"i_lat":-6.209188,"is_transit":false,"transit":false,"station_name":"Pondok Jati","station_id":"POK","time":2},{"is_transit":true,"time":9,"station_id":"JNG","transit":true,"distance":1236,"station_name":"Jatinegara","i_lat":-6.215091,"line":1,"i_long":106.86807400000001},{"station_name":"Matraman","i_long":106.858896,"line":1,"i_lat":-6.212485,"station_id":"MTR","transit":false,"time":2,"is_transit":false,"distance":1377},{"station_name":"Manggarai","line":2,"distance":1275,"time":2,"i_lat":-6.209883,"i_long":106.84912,"station_id":"MRI","transit":false,"is_transit":false},{"transit":false,"i_long":106.822649,"line":1,"station_id":"SUD","station_name":"Sudirman","time":4,"i_lat":-6.202263,"is_transit":false,"distance":3186},{"station_id":"SUDB","i_long":106.819881,"transit":false,"i_lat":-6.201433,"line":1,"distance":280,"time":1,"is_transit":false,"station_name":"Sudirman Baru"},{"station_name":"Karet","line":1,"i_long":106.816351,"is_transit":false,"station_id":"KAT","i_lat":-6.20132,"time":1,"transit":false,"distance":471},{"i_lat":-6.185545,"station_name":"Tanah Abang","is_transit":true,"station_id":"THB","time":5,"i_long":106.811091,"line":1,"transit":true,"distance":2029},{"i_long":106.79689,"i_lat":-6.207404,"is_transit":false,"time":6,"station_id":"PLM","distance":3191,"station_name":"Palmerah","transit":false,"line":6},{"line":6,"station_id":"KBY","station_name":"Kebayoran","i_lat":-6.237242,"is_transit":false,"time":7,"distance":3737,"i_long":106.780334,"transit":false},{"station_id":"PDJ","station_name":"Pondokranji","transit":false,"i_lat":-6.276362,"time":8,"is_transit":false,"distance":6218,"i_long":106.74273,"line":6},{"station_name":"Jurangmangu","line":6,"time":3,"is_transit":false,"i_lat":-6.288927,"station_id":"JMU","transit":false,"i_long":106.728916,"distance":2179},{"i_lat":-6.296963,"station_id":"SDM","is_transit":false,"time":4,"transit":false,"i_long":106.712277,"line":6,"station_name":"Sudimara","distance":1994}],[{"line":11,"time":0,"is_transit":false,"station_id":"GST","transit":false,"i_lat":-6.185975,"distance":0,"i_long":106.850107,"station_name":"Gang Sentiong"},{"transit":false,"is_transit":false,"station_name":"Kramat","distance":973,"time":1,"station_id":"KMT","i_lat":-6.193792,"i_long":106.855437,"line":11},{"station_name":"Pondok Jati","station_id":"POK","time":2,"is_transit":false,"transit":false,"distance":1829,"i_lat":-6.209188,"i_long":106.861737,"line":11},{"distance":1236,"i_long":106.86807400000001,"is_transit":true,"line":1,"time":9,"station_id":"JNG","station_name":"Jatinegara","transit":true,"i_lat":-6.215091},{"station_id":"MTR","i_long":106.858896,"transit":false,"station_name":"Matraman","distance":1377,"i_lat":-6.212485,"time":2,"is_transit":false,"line":1},{"station_id":"MRI","station_name":"Manggarai","transit":true,"i_long":106.84912,"line":2,"distance":1275,"time":2,"is_transit":true,"i_lat":-6.209883},{"time":4,"transit":false,"i_long":106.840169,"station_name":"Cikini","station_id":"CKI","is_transit":false,"line":2,"distance":1590,"i_lat":-6.198556},{"distance":1750,"time":3,"station_name":"Gondangdia","line":2,"transit":false,"station_id":"GDD","i_lat":-6.186295,"is_transit":false,"i_long":106.832183},{"time":4,"i_lat":-6.166716,"distance":2015,"is_transit":false,"line":2,"transit":false,"station_id":"JUA","i_long":106.828284,"station_name":"Juanda"},{"station_id":"SW","is_transit":false,"line":2,"distance":1149,"transit":false,"time":2,"i_lat":-6.160725,"i_long":106.827103,"station_name":"Sawah Besar"},{"distance":906,"i_long":106.82482,"i_lat":-6.149769,"line":2,"transit":false,"time":2,"station_name":"Manggabesar","is_transit":false,"station_id":"MGB"},{"line":2,"is_transit":false,"distance":1080,"station_name":"Jayakarta","station_id":"JAY","transit":false,"i_lat":-6.141205,"i_long":106.820901,"time":2},{"line":2,"station_name":"Jakarta Kota","station_id":"JAKK","i_lat":-6.137569,"i_long":106.812439,"time":4,"is_transit":true,"transit":true,"distance":1264},{"station_id":"KPB","distance":1364,"station_name":"Kampung Bandan","i_lat":-6.132549,"i_long":106.826365,"line":4,"is_transit":true,"transit":true,"time":3},{"time":9,"transit":false,"distance":4102,"is_transit":false,"i_lat":-6.144674,"station_name":"Angke","i_long":106.79867,"line":1,"station_id":"AK"},{"is_transit":false,"distance":1230,"station_name":"Duri","time":4,"transit":false,"i_lat":-6.155215,"i_long":106.800832,"station_id":"DU","line":1},{"i_long":106.811091,"transit":true,"station_name":"Tanah Abang","is_transit":true,"distance":3632,"time":8,"i_lat":-6.185545,"station_id":"THB","line":1},{"transit":false,"line":6,"i_long":106.79689,"is_transit":false,"station_name":"Palmerah","time":6,"i_lat":-6.207404,"station_id":"PLM","distance":3191},{"transit":false,"station_id":"KBY","time":7,"station_name":"Kebayoran","distance":3737,"i_lat":-6.237242,"line":6,"is_transit":false,"i_long":106.780334},{"station_id":"PDJ","distance":6218,"station_name":"Pondokranji","is_transit":false,"i_long":106.74273,"transit":false,"i_lat":-6.276362,"time":8,"line":6},{"is_transit":false,"distance":2179,"station_name":"Jurangmangu","time":3,"station_id":"JMU","i_long":106.728916,"transit":false,"i_lat":-6.288927,"line":6},{"line":6,"transit":false,"station_id":"SDM","i_lat":-6.296963,"station_name":"Sudimara","time":4,"i_long":106.712277,"distance":1994,"is_transit":false}],[{"station_id":"GST","i_long":106.850107,"distance":0,"line":11,"station_name":"Gang Sentiong","is_transit":false,"time":0,"i_lat":-6.185975,"transit":false},{"time":8,"station_id":"PSE","line":11,"i_lat":-6.174784,"station_name":"Pasar Senen","transit":false,"distance":1567,"is_transit":false,"i_long":106.84368},{"distance":1436,"station_name":"Kemayoran","i_lat":-6.161728,"i_long":106.839204,"line":11,"is_transit":false,"time":4,"station_id":"KMO","transit":false},{"station_name":"Rajawali","line":11,"i_lat":-6.14505,"transit":false,"i_long":106.836569,"is_transit":false,"station_id":"RJW","time":5,"distance":1901},{"time":3,"transit":true,"distance":1444,"station_id":"KPB","i_lat":-6.132549,"i_long":106.826365,"station_name":"Kampung Bandan","line":4,"is_transit":true},{"i_lat":-6.137569,"line":2,"distance":1364,"is_transit":true,"station_id":"JAKK","time":3,"transit":true,"i_long":106.812439,"station_name":"Jakarta Kota"},{"distance":1264,"transit":false,"is_transit":false,"time":4,"station_name":"Jayakarta","line":2,"i_lat":-6.141205,"i_long":106.820901,"station_id":"JAY"},{"i_long":106.82482,"time":2,"station_id":"MGB","transit":false,"i_lat":-6.149769,"station_name":"Manggabesar","line":2,"is_transit":false,"distance":1080},{"distance":906,"transit":false,"line":2,"station_id":"SW","time":2,"station_name":"Sawah Besar","is_transit":false,"i_long":106.827103,"i_lat":-6.160725},{"station_id":"JUA","is_transit":false,"distance":1149,"i_lat":-6.166716,"time":2,"transit":false,"line":2,"station_name":"Juanda","i_long":106.828284},{"transit":false,"line":2,"i_lat":-6.186295,"i_long":106.832183,"distance":2015,"station_name":"Gondangdia","time":4,"is_transit":false,"station_id":"GDD"},{"i_lat":-6.198556,"distance":1750,"line":2,"is_transit":false,"station_name":"Cikini","transit":false,"station_id":"CKI","time":3,"i_long":106.840169},{"transit":true,"station_name":"Manggarai","line":2,"station_id":"MRI","distance":1590,"i_lat":-6.209883,"time":4,"i_long":106.84912,"is_transit":true},{"i_long":106.822649,"station_name":"Sudirman","time":4,"i_lat":-6.202263,"is_transit":false,"line":1,"station_id":"SUD","transit":false,"distance":3186},{"line":1,"transit":false,"is_transit":false,"time":1,"station_id":"SUDB","i_lat":-6.201433,"station_name":"Sudirman Baru","i_long":106.819881,"distance":280},{"station_id":"KAT","transit":false,"i_lat":-6.20132,"station_name":"Karet","line":1,"distance":471,"i_long":106.816351,"time":1,"is_transit":false},{"time":5,"i_lat":-6.185545,"line":1,"is_transit":true,"station_id":"THB","distance":2029,"transit":true,"station_name":"Tanah Abang","i_long":106.811091},{"station_id":"PLM","station_name":"Palmerah","transit":false,"distance":3191,"time":6,"is_transit":false,"i_lat":-6.207404,"line":6,"i_long":106.79689},{"i_lat":-6.237242,"is_transit":false,"station_name":"Kebayoran","distance":3737,"station_id":"KBY","time":7,"transit":false,"line":6,"i_long":106.780334},{"line":6,"is_transit":false,"time":8,"station_id":"PDJ","i_long":106.74273,"distance":6218,"station_name":"Pondokranji","i_lat":-6.276362,"transit":false},{"station_id":"JMU","transit":false,"i_long":106.728916,"distance":2179,"line":6,"time":3,"station_name":"Jurangmangu","i_lat":-6.288927,"is_transit":false},{"time":4,"is_transit":false,"station_name":"Sudimara","line":6,"i_long":106.712277,"station_id":"SDM","distance":1994,"transit":false,"i_lat":-6.296963}]]}