{"data":[[{"station_id":"GST","distance":0,"station_name":"Gang Sentiong","is_transit":false,"i_lat":-6.185975,"time":0,"transit":false,"line":11,"i_long":106.850107},{"is_transit":false,"time":8,"line":11,"station_id":"PSE","transit":false,"i_long":106.84368,"distance":1567,"station_name":"Pasar Senen","i_lat":-6.174784},{"station_id":"KMO","time":4,"i_long":106.839204,"distance":1436,"station_name":"Kemayoran","i_lat":-6.161728,"line":11,"is_transit":false,"transit":false},{"line":11,"station_id":"RJW","i_long":106.836569,"station_name":"Rajawali","transit":false,"time":5,"i_lat":-6.14505,"is_transit":false,"distance":1901},{"is_transit":true,"i_lat":-6.132549,"line":0,"station_id":"KPB","i_long":106.826365,"distance":1444,"station_name":"Kampung Bandan","time":3,"transit":true},{"is_transit":false,"transit":false,"i_lat":-6.144674,"station_name":"Angke","i_long":106.79867,"time":9,"station_id":"AK","distance":4102,"line":0},{"transit":true,"i_lat":-6.155215,"i_long":106.800832,"distance":1230,"is_transit":true,"line":1,"time":4,"station_name":"Duri","station_id":"DU"},{"distance":3632,"transit":true,"i_lat":-6.185545,"station_id":"THB","time":8,"station_name":"Tanah Abang","i_long":106.811091,"is_transit":true,"line":1},{"station_id":"PLM","is_transit":false,"i_lat":-6.207404,"i_long":106.79689,"distance":3191,"line":6,"transit":false,"time":6,"station_name":"Palmerah"},{"i_long":106.780334,"station_name":"Kebayoran","time":7,"i_lat":-6.237242,"station_id":"KBY","is_transit":false,"distance":3737,"line":6,"transit":false},{"station_name":"Pondokranji","transit":false,"i_lat":-6.276362,"time":8,"line":6,"i_long":106.74273,"distance":6218,"is_transit":false,"station_id":"PDJ"},{"time":3,"transit":false,"i_long":106.728916,"line":6,"station_id":"JMU","i_lat":-6.288927,"is_transit":false,"distance":2179,"station_name":"Jurangmangu"},{"is_transit":false,"distance":1994,"station_name":"Sudimara","transit":false,"line":6,"time":4,"station_id":"SDM","i_lat":-6.296963,"i_long":106.712277},{"line":6,"distance":4566,"transit":false,"i_lat":-6.314823,"is_transit":false,"station_name":"Rawa Buntu","station_id":"RU","time":6,"i_long":106.675475},{"time":4,"transit":false,"station_name":"Serpong","line":6,"is_transit":false,"i_lat":-6.319871,"station_id":"SRP","distance":2413,"i_long":106.66566},{"transit":false,"station_name":"Cisauk","distance":1784,"time":4,"is_transit":false,"i_long":106.640411,"station_id":"CSK","line":0,"i_lat":-6.32484},{"time":4,"distance":2519,"is_transit":false,"i_lat":-6.329547,"i_long":106.617853,"line":0,"transit":false,"station_id":"CC","station_name":"Cicayur"},{"time":8,"line":6,"station_id":"PRP","i_long":106.568863,"i_lat":-6.3441410000000005,"station_name":"Parung Panjang","distance":5968,"transit":false,"is_transit":false},{"is_transit":false,"distance":7025,"station_name":"Cilejit","i_long":106.508482,"line":0,"station_id":"CJT","i_lat":-6.354349,"transit":false,"time":9}],[{"distance":0,"station_id":"GST","is_transit":false,"transit":false,"line":11,"i_lat":-6.185975,"time":0,"station_name":"Gang Sentiong","i_long":106.850107},{"transit":false,"distance":973,"station_id":"KMT","i_long":106.855437,"time":1,"i_lat":-6.193792,"line":11,"is_transit":false,"station_name":"Kramat"},{"time":2,"transit":false,"i_lat":-6.209188,"line":11,"is_transit":false,"station_id":"POK","station_name":"Pondok Jati","distance":1829,"i_long":106.861737},{"transit":true,"distance":1236,"is_transit":true,"station_name":"Jatinegara","i_long":106.86807400000001,"station_id":"JNG","time":9,"line":0,"i_lat":-6.215091},{"station_id":"MTR","station_name":"Matraman","i_long":106.858896,"transit":false,"i_lat":-6.212485,"line":1,"distance":1377,"time":2,"is_transit":false},{"station_name":"Manggarai","distance":1275,"line":0,"i_lat":-6.209883,"station_id":"MRI","time":2,"transit":false,"is_transit":true,"i_long":106.84912},{"station_id":"SUD","i_lat":-6.202263,"distance":3186,"i_long":106.822649,"transit":false,"time":4,"station_name":"Sudirman","line":1,"is_transit":false},{"time":1,"transit":false,"i_long":106.819881,"distance":280,"is_transit":false,"station_name":"Sudirman Baru","line":1,"i_lat":-6.201433,"station_id":"SUDB"},{"time":1,"station_name":"Karet","is_transit":false,"transit":false,"distance":471,"i_long":106.816351,"line":1,"i_lat":-6.20132,"station_id":"KAT"},{"i_lat":-6.185545,"station_name":"Tanah Abang","transit":true,"line":1,"is_transit":true,"time":5,"distance":2029,"station_id":"THB","i_long":106.811091},{"line":6,"i_long":106.79689,"distance":3191,"transit":false,"is_transit":false,"station_id":"PLM","station_name":"Palmerah","time":6,"i_lat":-6.207404},{"transit":false,"is_transit":false,"i_long":106.780334,"station_id":"KBY","station_name":"Kebayoran","i_lat":-6.237242,"line":6,"distance":3737,"time":7},{"station_name":"Pondokranji","line":6,"i_long":106.74273,"is_transit":false,"i_lat":-6.276362,"transit":false,"station_id":"PDJ","time":8,"distance":6218},{"is_transit":false,"time":3,"station_name":"Jurangmangu","transit":false,"i_long":106.728916,"distance":2179,"line":6,"i_lat":-6.288927,"station_id":"JMU"},{"i_lat":-6.296963,"time":4,"i_long":106.712277,"station_name":"Sudimara","station_id":"SDM","distance":1994,"transit":false,"is_transit":false,"line":6},{"i_lat":-6.314823,"time":6,"line":6,"station_name":"Rawa Buntu","i_long":106.675475,"is_transit":false,"transit":false,"station_id":"RU","distance":4566},{"station_name":"Serpong","i_lat":-6.319871,"station_id":"SRP","distance":2413,"is_transit":false,"transit":false,"line":6,"i_long":106.66566,"time":4},{"distance":1784,"station_id":"CSK","is_transit":false,"i_long":106.640411,"line":0,"time":4,"transit":false,"station_name":"Cisauk","i_lat":-6.32484},{"is_transit":false,"i_long":106.617853,"station_id":"CC","distance":2519,"time":4,"transit":false,"i_lat":-6.329547,"station_name":"Cicayur","line":0},{"station_id":"PRP","is_transit":false,"station_name":"Parung Panjang","line":6,"distance":5968,"i_lat":-6.3441410000000005,"transit":false,"i_long":106.568863,"time":8},{"time":9,"station_id":"CJT","i_lat":-6.354349,"i_long":106.508482,"is_transit":false,"line":0,"transit":false,"station_name":"Cilejit","distance":7025}],[{"is_transit":false,"station_id":"GST","station_name":"Gang Sentiong","transit":false,"i_lat":-6.185975,"i_long":106.850107,"line":11,"distance":0,"time":0},{"i_lat":-6.193792,"line":11,"time":1,"station_name":"Kramat","transit":false,"i_long":106.855437,"distance":973,"station_id":"KMT","is_transit":false},{"i_long":106.861737,"station_id":"POK","line":11,"i_lat":-6.209188,"is_transit":false,"transit":false,"time":2,"distance":1829,"station_name":"Pondok Jati"},{"i_long":106.86807400000001,"time":9,"is_transit":true,"station_name":"Jatinegara","station_id":"JNG","transit":true,"distance":1236,"i_lat":-6.215091,"line":0},{"station_id":"MTR","time":2,"is_transit":false,"transit":false,"i_lat":-6.212485,"distance":1377,"i_long":106.858896,"line":1,"station_name":"Matraman"},{"transit":true,"line":0,"is_transit":true,"station_id":"MRI","i_lat":-6.209883,"i_long":106.84912,"distance":1275,"time":2,"station_name":"Manggarai"},{"distance":1590,"i_lat":-6.198556,"is_transit":false,"station_name":"Cikini","station_id":"CKI","transit":false,"i_long":106.840169,"line":0,"time":4},{"line":2,"station_id":"GDD","i_long":106.832183,"is_transit":false,"i_lat":-6.186295,"station_name":"Gondangdia","transit":false,"time":3,"distance":1750},{"time":4,"is_transit":false,"i_lat":-6.166716,"line":2,"distance":2015,"station_name":"Juanda","i_long":106.828284,"station_id":"JUA","transit":false},{"station_id":"SW","transit":false,"i_long":106.827103,"is_transit":false,"station_name":"Sawah Besar","distance":1149,"time":2,"line":2,"i_lat":-6.160725},{"station_name":"Manggabesar","time":2,"transit":false,"station_id":"MGB","is_transit":false,"distance":906,"i_lat":-6.149769,"i_long":106.82482,"line":2},{"station_id":"JAY","time":2,"station_name":"Jayakarta","is_transit":false,"transit":false,"i_lat":-6.141205,"i_long":106.820901,"line":7,"distance":1080},{"i_long":106.812439,"time":4,"station_name":"Jakarta Kota","transit":true,"line":0,"distance":1264,"station_id":"JAKK","i_lat":-6.137569,"is_transit":true},{"i_long":106.826365,"station_id":"KPB","distance":1364,"i_lat":-6.132549,"station_name":"Kampung Bandan","time":3,"line":0,"is_transit":true,"transit":false},{"distance":4102,"station_name":"Angke","transit":false,"i_lat":-6.144674,"i_long":106.79867,"is_transit":false,"time":9,"station_id":"AK","line":0},{"station_id":"DU","time":4,"is_transit":true,"transit":true,"i_lat":-6.155215,"line":1,"station_name":"Duri","i_long":106.800832,"distance":1230},{"station_id":"THB","i_long":106.811091,"is_transit":true,"time":8,"distance":3632,"transit":true,"i_lat":-6.185545,"line":1,"station_name":"Tanah Abang"},{"transit":false,"line":6,"is_transit":false,"station_name":"Palmerah","i_lat":-6.207404,"station_id":"PLM","time":6,"distance":3191,"i_long":106.79689},{"distance":3737,"i_lat":-6.237242,"transit":false,"station_id":"KBY","is_transit":false,"time":7,"station_name":"Kebayoran","i_long":106.780334,"line":6},{"station_id":"PDJ","line":6,"i_long":106.74273,"time":8,"transit":false,"distance":6218,"is_transit":false,"i_lat":-6.276362,"station_name":"Pondokranji"},{"is_transit":false,"i_lat":-6.288927,"distance":2179,"transit":false,"station_id":"JMU","time":3,"line":6,"station_name":"Jurangmangu","i_long":106.728916},{"i_lat":-6.296963,"station_name":"Sudimara","transit":false,"line":6,"time":4,"station_id":"SDM","is_transit":false,"distance":1994,"i_long":106.712277},{"time":6,"distance":4566,"station_id":"RU","is_transit":false,"transit":false,"i_lat":-6.314823,"station_name":"Rawa Buntu","i_long":106.675475,"line":6},{"time":4,"distance":2413,"line":6,"station_id":"SRP","transit":false,"i_lat":-6.319871,"is_transit":false,"i_long":106.66566,"station_name":"Serpong"},{"i_long":106.640411,"distance":1784,"i_lat":-6.32484,"station_name":"Cisauk","line":0,"station_id":"CSK","time":4,"transit":false,"is_transit":false},{"station_name":"Cicayur","is_transit":false,"i_lat":-6.329547,"line":0,"time":4,"i_long":106.617853,"distance":2519,"transit":false,"station_id":"CC"},{"station_id":"PRP","transit":false,"is_transit":false,"time":8,"distance":5968,"station_name":"Parung Panjang","i_lat":-6.3441410000000005,"i_long":106.568863,"line":6},{"transit":false,"is_transit":false,"i_long":106.508482,"time":9,"i_lat":-6.354349,"line":0,"station_name":"Cilejit","distance":7025,"station_id":"CJT"}],[{"i_lat":-6.185975,"transit":false,"time":0,"is_transit":false,"station_id":"GST","distance":0,"station_name":"Gang Sentiong","i_long":106.850107,"line":11},{"is_transit":false,"station_id":"PSE","station_name":"Pasar Senen","i_lat":-6.174784,"time":8,"distance":1567,"line":11,"transit":false,"i_long":106.84368},{"line":11,"i_long":106.839204,"is_transit":false,"transit":false,"station_name":"Kemayoran","distance":1436,"station_id":"KMO","time":4,"i_lat":-6.161728},{"time":5,"i_long":106.836569,"transit":false,"i_lat":-6.14505,"distance":1901,"line":11,"is_transit":false,"station_name":"Rajawali","station_id":"RJW"},{"transit":true,"i_long":106.826365,"line":0,"i_lat":-6.132549,"station_id":"KPB","is_transit":true,"time":3,"distance":1444,"station_name":"Kampung Bandan"},{"station_name":"Jakarta Kota","station_id":"JAKK","distance":1364,"line":0,"i_lat":-6.137569,"time":3,"i_long":106.812439,"is_transit":true,"transit":true},{"distance":1264,"i_lat":-6.141205,"is_transit":false,"time":4,"station_id":"JAY","station_name":"Jayakarta","transit":false,"i_long":106.820901,"line":7},{"distance":1080,"line":2,"station_name":"Manggabesar","i_long":106.82482,"station_id":"MGB","is_transit":false,"time":2,"i_lat":-6.149769,"transit":false},{"station_name":"Sawah Besar","i_long":106.827103,"i_lat":-6.160725,"transit":false,"time":2,"station_id":"SW","is_transit":false,"distance":906,"line":2},{"station_id":"JUA","time":2,"distance":1149,"station_name":"Juanda","i_long":106.828284,"line":2,"i_lat":-6.166716,"is_transit":false,"transit":false},{"i_long":106.832183,"i_lat":-6.186295,"distance":2015,"time":4,"station_name":"Gondangdia","is_transit":false,"line":2,"transit":false,"station_id":"GDD"},{"station_name":"Cikini","line":0,"is_transit":false,"station_id":"CKI","transit":false,"distance":1750,"time":3,"i_long":106.840169,"i_lat":-6.198556},{"line":0,"is_transit":true,"transit":true,"i_long":106.84912,"i_lat":-6.209883,"time":4,"station_id":"MRI","distance":1590,"station_name":"Manggarai"},{"distance":3186,"is_transit":false,"i_long":106.822649,"station_id":"SUD","i_lat":-6.202263,"line":1,"time":4,"station_name":"Sudirman","transit":false},{"time":1,"station_name":"Sudirman Baru","i_lat":-6.201433,"transit":false,"station_id":"SUDB","line":1,"is_transit":false,"distance":280,"i_long":106.819881},{"line":1,"time":1,"transit":false,"station_name":"Karet","is_transit":false,"distance":471,"i_lat":-6.20132,"i_long":106.816351,"station_id":"KAT"},{"i_long":106.811091,"line":1,"is_transit":true,"time":5,"i_lat":-6.185545,"station_id":"THB","distance":2029,"transit":true,"station_name":"Tanah Abang"},{"is_transit":false,"time":6,"station_name":"Palmerah","i_long":106.79689,"line":6,"transit":false,"distance":3191,"i_lat":-6.207404,"station_id":"PLM"},{"distance":3737,"station_id":"KBY","is_transit":false,"time":7,"i_lat":-6.237242,"i_long":106.780334,"station_name":"Kebayoran","transit":false,"line":6},{"i_lat":-6.276362,"station_name":"Pondokranji","distance":6218,"is_transit":false,"i_long":106.74273,"transit":false,"station_id":"PDJ","time":8,"line":6},{"line":6,"i_long":106.728916,"station_name":"Jurangmangu","i_lat":-6.288927,"transit":false,"is_transit":false,"station_id":"JMU","time":3,"distance":2179},{"i_long":106.712277,"is_transit":false,"line":6,"transit":false,"distance":1994,"station_name":"Sudimara","i_lat":-6.296963,"station_id":"SDM","time":4},{"station_name":"Rawa Buntu","transit":false,"i_lat":-6.314823,"i_long":106.675475,"line":6,"is_transit":false,"time":6,"station_id":"RU","distance":4566},{"time":4,"line":6,"distance":2413,"i_lat":-6.319871,"is_transit":false,"i_long":106.66566,"transit":false,"station_id":"SRP","station_name":"Serpong"},{"station_id":"CSK","time":4,"station_name":"Cisauk","i_long":106.640411,"distance":1784,"line":0,"transit":false,"is_transit":false,"i_lat":-6.32484},{"is_transit":false,"transit":false,"line":0,"station_id":"CC","time":4,"distance":2519,"station_name":"Cicayur","i_lat":-6.329547,"i_long":106.617853},{"i_lat":-6.3441410000000005,"i_long":106.568863,"station_id":"PRP","distance":5968,"station_name":"Parung Panjang","transit":false,"is_transit":false,"time":8,"line":6},{"station_name":"Cilejit","is_transit":false,"distance":7025,"station_id":"CJT","i_long":106.508482,"line":0,"transit":false,"time":9,"i_lat":-6.354349}]]}