{"data":[[{"transit":false,"station_name":"Gang Sentiong","is_transit":false,"time":0,"i_lat":-6.185975,"line":11,"i_long":106.850107,"station_id":"GST","distance":0},{"i_long":106.855437,"station_name":"Kramat","distance":973,"transit":false,"time":1,"station_id":"KMT","is_transit":false,"i_lat":-6.193792,"line":11},{"distance":1829,"i_long":106.861737,"station_name":"Pondok Jati","i_lat":-6.209188,"time":2,"station_id":"POK","line":11,"transit":false,"is_transit":false},{"station_id":"JNG","distance":1236,"line":1,"i_lat":-6.215091,"is_transit":true,"i_long":106.86807400000001,"time":9,"transit":true,"station_name":"Jatinegara"},{"is_transit":false,"distance":3395,"station_id":"KLD","station_name":"Klender","line":1,"time":3,"i_lat":-6.2135,"i_long":106.899548,"transit":false},{"distance":3100,"i_lat":-6.215568,"station_id":"BUA","line":1,"is_transit":false,"i_long":106.922662,"station_name":"Buaran","transit":false,"time":2},{"station_id":"KLDB","i_long":106.939679,"line":1,"station_name":"Klenderbaru","distance":1305,"transit":false,"i_lat":-6.217455,"is_transit":false,"time":1},{"transit":false,"i_long":106.951283,"i_lat":-6.219053,"line":1,"station_name":"Cakung","distance":1385,"is_transit":false,"station_id":"CUK","time":8},{"is_transit":false,"station_id":"KRI","transit":false,"distance":3097,"i_lat":-6.224515,"i_long":106.977657,"line":1,"station_name":"Kranji","time":3},{"i_lat":-6.236616,"transit":false,"i_long":106.997013,"is_transit":false,"line":1,"station_id":"BKS","station_name":"Bekasi","distance":2520,"time":4}],[{"transit":false,"station_id":"GST","station_name":"Gang Sentiong","i_lat":-6.185975,"is_transit":false,"i_long":106.850107,"time":0,"distance":0,"line":11},{"time":8,"station_id":"PSE","station_name":"Pasar Senen","distance":1567,"i_lat":-6.174784,"i_long":106.84368,"is_transit":false,"transit":false,"line":11},{"station_id":"KMO","time":4,"line":11,"distance":1436,"transit":false,"is_transit":false,"station_name":"Kemayoran","i_long":106.839204,"i_lat":-6.161728},{"transit":false,"i_lat":-6.14505,"is_transit":false,"station_name":"Rajawali","station_id":"RJW","distance":1901,"time":5,"i_long":106.836569,"line":11},{"transit":true,"distance":1444,"line":4,"time":3,"i_long":106.826365,"station_name":"Kampung Bandan","is_transit":true,"i_lat":-6.132549,"station_id":"KPB"},{"i_long":106.79867,"i_lat":-6.144674,"station_name":"Angke","station_id":"AK","transit":false,"distance":4102,"is_transit":false,"line":1,"time":9},{"station_name":"Duri","time":4,"distance":1230,"is_transit":false,"line":1,"station_id":"DU","i_lat":-6.155215,"transit":false,"i_long":106.800832},{"time":8,"i_long":106.811091,"line":1,"i_lat":-6.185545,"distance":3632,"station_id":"THB","station_name":"Tanah Abang","transit":false,"is_transit":false},{"i_lat":-6.20132,"distance":2029,"station_id":"KAT","time":5,"station_name":"Karet","is_transit":false,"i_long":106.816351,"line":1,"transit":false},{"distance":471,"i_lat":-6.201433,"transit":false,"i_long":106.819881,"line":1,"is_transit":false,"time":1,"station_id":"SUDB","station_name":"Sudirman Baru"},{"i_lat":-6.202263,"distance":280,"transit":false,"i_long":106.822649,"station_name":"Sudirman","time":1,"is_transit":false,"line":1,"station_id":"SUD"},{"distance":3186,"i_long":106.84912,"station_name":"Manggarai","station_id":"MRI","transit":false,"line":2,"is_transit":false,"i_lat":-6.209883,"time":4},{"transit":false,"i_long":106.858896,"line":1,"is_transit":false,"distance":1275,"station_id":"MTR","time":2,"i_lat":-6.212485,"station_name":"Matraman"},{"station_id":"JNG","i_long":106.86807400000001,"line":1,"station_name":"Jatinegara","is_transit":false,"i_lat":-6.215091,"time":8,"distance":1377,"transit":false},{"time":3,"station_id":"KLD","distance":3395,"is_transit":false,"transit":false,"i_lat":-6.2135,"i_long":106.899548,"line":1,"station_name":"Klender"},{"station_id":"BUA","is_transit":false,"distance":3100,"station_name":"Buaran","time":2,"transit":false,"i_long":106.922662,"line":1,"i_lat":-6.215568},{"transit":false,"time":1,"line":1,"distance":1305,"i_lat":-6.217455,"is_transit":false,"station_id":"KLDB","i_long":106.939679,"station_name":"Klenderbaru"},{"i_lat":-6.219053,"transit":false,"distance":1385,"i_long":106.951283,"station_name":"Cakung","time":8,"station_id":"CUK","is_transit":false,"line":1},{"transit":false,"station_id":"KRI","i_lat":-6.224515,"i_long":106.977657,"line":1,"distance":3097,"is_transit":false,"station_name":"Kranji","time":3},{"transit":false,"i_lat":-6.236616,"distance":2520,"station_name":"Bekasi","time":4,"station_id":"BKS","i_long":106.997013,"is_transit":false,"line":1}],[{"distance":0,"line":11,"time":0,"i_lat":-6.185975,"station_id":"GST","transit":false,"is_transit":false,"station_name":"Gang Sentiong","i_long":106.850107},{"station_id":"PSE","line":11,"i_lat":-6.174784,"is_transit":false,"i_long":106.84368,"station_name":"Pasar Senen","time":8,"distance":1567,"transit":false},{"line":11,"station_id":"KMO","i_lat":-6.161728,"time":4,"station_name":"Kemayoran","is_transit":false,"i_long":106.839204,"transit":false,"distance":1436},{"i_long":106.836569,"is_transit":false,"i_lat":-6.14505,"line":11,"transit":false,"distance":1901,"station_name":"Rajawali","time":5,"station_id":"RJW"},{"transit":true,"time":3,"station_name":"Kampung Bandan","i_lat":-6.132549,"station_id":"KPB","i_long":106.826365,"line":4,"is_transit":true,"distance":1444},{"station_id":"JAKK","transit":true,"i_long":106.812439,"station_name":"Jakarta Kota","is_transit":true,"distance":1364,"i_lat":-6.137569,"line":2,"time":3},{"is_transit":false,"station_id":"JAY","line":2,"distance":1264,"i_long":106.820901,"transit":false,"station_name":"Jayakarta","time":4,"i_lat":-6.141205},{"station_name":"Manggabesar","distance":1080,"i_lat":-6.149769,"is_transit":false,"line":2,"time":2,"station_id":"MGB","transit":false,"i_long":106.82482},{"is_transit":false,"line":2,"distance":906,"i_long":106.827103,"time":2,"transit":false,"station_id":"SW","station_name":"Sawah Besar","i_lat":-6.160725},{"time":2,"is_transit":false,"station_id":"JUA","i_long":106.828284,"i_lat":-6.166716,"station_name":"Juanda","distance":1149,"transit":false,"line":2},{"is_transit":false,"station_name":"Gondangdia","time":4,"i_long":106.832183,"line":2,"i_lat":-6.186295,"transit":false,"distance":2015,"station_id":"GDD"},{"transit":false,"i_lat":-6.198556,"line":2,"i_long":106.840169,"station_name":"Cikini","is_transit":false,"time":3,"station_id":"CKI","distance":1750},{"line":2,"transit":true,"i_lat":-6.209883,"time":4,"distance":1590,"station_id":"MRI","i_long":106.84912,"station_name":"Manggarai","is_transit":true},{"i_lat":-6.212485,"i_long":106.858896,"distance":1275,"station_name":"Matraman","transit":false,"is_transit":false,"time":2,"station_id":"MTR","line":1},{"i_long":106.86807400000001,"line":1,"distance":1377,"is_transit":false,"station_id":"JNG","transit":false,"i_lat":-6.215091,"time":8,"station_name":"Jatinegara"},{"station_name":"Klender","transit":false,"station_id":"KLD","distance":3395,"i_long":106.899548,"line":1,"time":3,"i_lat":-6.2135,"is_transit":false},{"is_transit":false,"i_lat":-6.215568,"distance":3100,"station_id":"BUA","i_long":106.922662,"station_name":"Buaran","time":2,"transit":false,"line":1},{"i_long":106.939679,"station_name":"Klenderbaru","distance":1305,"transit":false,"time":1,"station_id":"KLDB","line":1,"is_transit":false,"i_lat":-6.217455},{"distance":1385,"station_name":"Cakung","is_transit":false,"line":1,"i_lat":-6.219053,"transit":false,"i_long":106.951283,"station_id":"CUK","time":8},{"i_lat":-6.224515,"i_long":106.977657,"line":1,"time":3,"transit":false,"distance":3097,"station_name":"Kranji","station_id":"KRI","is_transit":false},{"transit":false,"time":4,"station_id":"BKS","is_transit":false,"i_lat":-6.236616,"i_long":106.997013,"station_name":"Bekasi","distance":2520,"line":1}]]}