{"data":[[{"is_transit":false,"station_name":"Gang Sentiong","i_lat":-6.185975,"station_id":"GST","transit":false,"distance":0,"time":0,"i_long":106.850107,"line":11},{"transit":false,"distance":1567,"time":8,"station_name":"Pasar Senen","station_id":"PSE","i_lat":-6.174784,"i_long":106.84368,"is_transit":false,"line":11},{"distance":1436,"station_name":"Kemayoran","is_transit":false,"transit":false,"i_lat":-6.161728,"time":4,"station_id":"KMO","i_long":106.839204,"line":11},{"i_lat":-6.14505,"transit":false,"i_long":106.836569,"distance":1901,"time":5,"is_transit":false,"station_name":"Rajawali","line":11,"station_id":"RJW"},{"station_id":"KPB","i_lat":-6.132549,"i_long":106.826365,"station_name":"Kampung Bandan","line":0,"is_transit":true,"transit":true,"distance":1444,"time":3},{"is_transit":false,"i_lat":-6.144674,"station_id":"AK","line":0,"i_long":106.79867,"transit":false,"station_name":"Angke","distance":4102,"time":9},{"is_transit":true,"station_id":"DU","distance":1230,"time":4,"transit":true,"i_long":106.800832,"i_lat":-6.155215,"station_name":"Duri","line":1},{"is_transit":false,"distance":1700,"line":5,"time":3,"station_name":"Grogol","station_id":"GGL","transit":false,"i_lat":-6.162021,"i_long":106.788277}],[{"transit":false,"is_transit":false,"distance":0,"i_long":106.850107,"time":0,"station_id":"GST","station_name":"Gang Sentiong","i_lat":-6.185975,"line":11},{"transit":false,"station_id":"KMT","distance":973,"i_lat":-6.193792,"line":11,"station_name":"Kramat","i_long":106.855437,"time":1,"is_transit":false},{"time":2,"i_long":106.861737,"line":11,"station_id":"POK","i_lat":-6.209188,"is_transit":false,"distance":1829,"transit":false,"station_name":"Pondok Jati"},{"i_long":106.86807400000001,"is_transit":true,"distance":1236,"transit":true,"station_name":"Jatinegara","time":9,"i_lat":-6.215091,"line":0,"station_id":"JNG"},{"transit":false,"i_long":106.858896,"distance":1377,"time":2,"station_name":"Matraman","line":1,"station_id":"MTR","is_transit":false,"i_lat":-6.212485},{"transit":false,"distance":1275,"i_long":106.84912,"station_name":"Manggarai","station_id":"MRI","line":0,"is_transit":true,"time":2,"i_lat":-6.209883},{"station_name":"Sudirman","distance":3186,"i_long":106.822649,"time":4,"i_lat":-6.202263,"station_id":"SUD","line":1,"transit":false,"is_transit":false},{"i_lat":-6.201433,"is_transit":false,"i_long":106.819881,"station_name":"Sudirman Baru","station_id":"SUDB","transit":false,"distance":280,"time":1,"line":1},{"i_lat":-6.20132,"station_id":"KAT","is_transit":false,"i_long":106.816351,"line":1,"station_name":"Karet","time":1,"transit":false,"distance":471},{"transit":false,"distance":2029,"station_id":"THB","is_transit":true,"time":5,"i_lat":-6.185545,"i_long":106.811091,"station_name":"Tanah Abang","line":1},{"i_long":106.800832,"station_name":"Duri","is_transit":true,"i_lat":-6.155215,"transit":true,"time":8,"line":1,"station_id":"DU","distance":3632},{"i_lat":-6.162021,"line":5,"distance":1700,"is_transit":false,"transit":false,"i_long":106.788277,"station_id":"GGL","time":3,"station_name":"Grogol"}],[{"distance":0,"time":0,"station_id":"GST","i_long":106.850107,"line":11,"is_transit":false,"i_lat":-6.185975,"station_name":"Gang Sentiong","transit":false},{"i_lat":-6.193792,"transit":false,"station_id":"KMT","time":1,"station_name":"Kramat","i_long":106.855437,"line":11,"is_transit":false,"distance":973},{"station_name":"Pondok Jati","station_id":"POK","distance":1829,"i_lat":-6.209188,"time":2,"transit":false,"line":11,"i_long":106.861737,"is_transit":false},{"line":0,"is_transit":true,"station_name":"Jatinegara","distance":1236,"i_lat":-6.215091,"station_id":"JNG","time":9,"i_long":106.86807400000001,"transit":true},{"is_transit":false,"station_name":"Matraman","station_id":"MTR","transit":false,"i_lat":-6.212485,"i_long":106.858896,"distance":1377,"time":2,"line":1},{"i_long":106.84912,"distance":1275,"station_id":"MRI","line":0,"station_name":"Manggarai","transit":true,"time":2,"i_lat":-6.209883,"is_transit":true},{"time":4,"station_id":"CKI","is_transit":false,"i_long":106.840169,"line":0,"transit":false,"station_name":"Cikini","distance":1590,"i_lat":-6.198556},{"i_lat":-6.186295,"station_name":"Gondangdia","line":2,"i_long":106.832183,"station_id":"GDD","time":3,"transit":false,"distance":1750,"is_transit":false},{"line":2,"distance":2015,"i_long":106.828284,"station_name":"Juanda","is_transit":false,"transit":false,"time":4,"station_id":"JUA","i_lat":-6.166716},{"is_transit":false,"line":2,"station_name":"Sawah Besar","time":2,"i_long":106.827103,"i_lat":-6.160725,"station_id":"SW","transit":false,"distance":1149},{"station_name":"Manggabesar","i_long":106.82482,"distance":906,"transit":false,"i_lat":-6.149769,"station_id":"MGB","time":2,"line":2,"is_transit":false},{"distance":1080,"station_name":"Jayakarta","i_lat":-6.141205,"station_id":"JAY","time":2,"transit":false,"line":7,"i_long":106.820901,"is_transit":false},{"distance":1264,"time":4,"i_long":106.812439,"station_id":"JAKK","transit":true,"i_lat":-6.137569,"station_name":"Jakarta Kota","line":0,"is_transit":true},{"is_transit":true,"transit":false,"i_lat":-6.132549,"station_id":"KPB","distance":1364,"line":0,"time":3,"station_name":"Kampung Bandan","i_long":106.826365},{"is_transit":false,"distance":4102,"line":0,"station_name":"Angke","station_id":"AK","time":9,"i_long":106.79867,"i_lat":-6.144674,"transit":false},{"line":1,"station_id":"DU","station_name":"Duri","transit":true,"is_transit":true,"i_lat":-6.155215,"i_long":106.800832,"time":4,"distance":1230},{"distance":1700,"time":3,"station_id":"GGL","line":5,"station_name":"Grogol","i_lat":-6.162021,"transit":false,"i_long":106.788277,"is_transit":false}],[{"station_name":"Gang Sentiong","distance":0,"time":0,"i_lat":-6.185975,"is_transit":false,"station_id":"GST","line":11,"transit":false,"i_long":106.850107},{"i_long":106.84368,"is_transit":false,"line":11,"distance":1567,"time":8,"station_id":"PSE","station_name":"Pasar Senen","transit":false,"i_lat":-6.174784},{"time":4,"i_lat":-6.161728,"transit":false,"line":11,"is_transit":false,"station_name":"Kemayoran","i_long":106.839204,"distance":1436,"station_id":"KMO"},{"time":5,"transit":false,"line":11,"is_transit":false,"distance":1901,"i_long":106.836569,"station_name":"Rajawali","i_lat":-6.14505,"station_id":"RJW"},{"time":3,"line":0,"i_long":106.826365,"station_name":"Kampung Bandan","transit":true,"distance":1444,"is_transit":true,"i_lat":-6.132549,"station_id":"KPB"},{"i_lat":-6.137569,"distance":1364,"is_transit":true,"line":0,"i_long":106.812439,"station_name":"Jakarta Kota","station_id":"JAKK","transit":true,"time":3},{"station_name":"Jayakarta","distance":1264,"i_lat":-6.141205,"station_id":"JAY","time":4,"line":7,"transit":false,"is_transit":false,"i_long":106.820901},{"is_transit":false,"i_lat":-6.149769,"time":2,"line":2,"station_name":"Manggabesar","station_id":"MGB","distance":1080,"transit":false,"i_long":106.82482},{"distance":906,"is_transit":false,"transit":false,"time":2,"i_lat":-6.160725,"i_long":106.827103,"line":2,"station_id":"SW","station_name":"Sawah Besar"},{"time":2,"station_id":"JUA","station_name":"Juanda","distance":1149,"i_lat":-6.166716,"transit":false,"i_long":106.828284,"line":2,"is_transit":false},{"distance":2015,"station_name":"Gondangdia","i_lat":-6.186295,"i_long":106.832183,"transit":false,"is_transit":false,"time":4,"line":2,"station_id":"GDD"},{"i_long":106.840169,"distance":1750,"i_lat":-6.198556,"is_transit":false,"station_id":"CKI","station_name":"Cikini","line":0,"transit":false,"time":3},{"transit":true,"i_long":106.84912,"station_name":"Manggarai","line":0,"distance":1590,"time":4,"station_id":"MRI","is_transit":true,"i_lat":-6.209883},{"i_long":106.822649,"is_transit":false,"transit":false,"distance":3186,"line":1,"station_id":"SUD","time":4,"station_name":"Sudirman","i_lat":-6.202263},{"time":1,"station_name":"Sudirman Baru","i_lat":-6.201433,"transit":false,"distance":280,"i_long":106.819881,"station_id":"SUDB","line":1,"is_transit":false},{"is_transit":false,"transit":false,"station_name":"Karet","i_lat":-6.20132,"i_long":106.816351,"line":1,"time":1,"station_id":"KAT","distance":471},{"i_lat":-6.185545,"line":1,"transit":false,"time":5,"i_long":106.811091,"distance":2029,"station_id":"THB","station_name":"Tanah Abang","is_transit":true},{"i_lat":-6.155215,"is_transit":true,"station_name":"Duri","transit":true,"station_id":"DU","time":8,"i_long":106.800832,"distance":3632,"line":1},{"transit":false,"station_id":"GGL","station_name":"Grogol","is_transit":false,"distance":1700,"time":3,"i_lat":-6.162021,"line":5,"i_long":106.788277}]]}