{"data":[[{"line":11,"time":0,"is_transit":false,"i_lat":-6.185975,"station_name":"Gang Sentiong","distance":0,"station_id":"GST","i_long":106.850107,"transit":false},{"station_id":"PSE","distance":1567,"is_transit":false,"time":8,"station_name":"Pasar Senen","i_lat":-6.174784,"transit":false,"line":11,"i_long":106.84368},{"station_name":"Kemayoran","line":11,"i_long":106.839204,"i_lat":-6.161728,"transit":false,"station_id":"KMO","time":4,"distance":1436,"is_transit":false},{"station_id":"RJW","i_lat":-6.14505,"line":11,"transit":false,"time":5,"i_long":106.836569,"distance":1901,"station_name":"Rajawali","is_transit":false},{"line":4,"station_id":"KPB","is_transit":true,"station_name":"Kampung Bandan","time":3,"distance":1444,"i_long":106.826365,"transit":true,"i_lat":-6.132549},{"distance":4102,"time":9,"i_long":106.79867,"line":1,"station_name":"Angke","is_transit":false,"transit":false,"station_id":"AK","i_lat":-6.144674},{"time":4,"station_id":"DU","is_transit":false,"line":1,"i_long":106.800832,"transit":false,"station_name":"Duri","distance":1230,"i_lat":-6.155215},{"i_lat":-6.185545,"i_long":106.811091,"line":1,"time":8,"distance":3632,"transit":true,"is_transit":true,"station_name":"Tanah Abang","station_id":"THB"},{"station_name":"Palmerah","station_id":"PLM","i_long":106.79689,"distance":3191,"is_transit":false,"i_lat":-6.207404,"transit":false,"line":6,"time":6},{"station_name":"Kebayoran","station_id":"KBY","i_lat":-6.237242,"transit":false,"line":6,"is_transit":false,"distance":3737,"time":7,"i_long":106.780334},{"station_id":"PDJ","transit":false,"is_transit":false,"station_name":"Pondokranji","distance":6218,"i_lat":-6.276362,"line":6,"i_long":106.74273,"time":8},{"transit":false,"time":3,"distance":2179,"line":6,"is_transit":false,"i_lat":-6.288927,"station_name":"Jurangmangu","i_long":106.728916,"station_id":"JMU"},{"distance":1994,"station_id":"SDM","i_lat":-6.296963,"i_long":106.712277,"line":6,"time":4,"station_name":"Sudimara","transit":false,"is_transit":false}],[{"time":0,"station_name":"Gang Sentiong","distance":0,"i_long":106.850107,"line":11,"is_transit":false,"transit":false,"station_id":"GST","i_lat":-6.185975},{"station_name":"Kramat","is_transit":false,"station_id":"KMT","transit":false,"i_long":106.855437,"distance":973,"time":1,"i_lat":-6.193792,"line":11},{"is_transit":false,"station_name":"Pondok Jati","i_lat":-6.209188,"i_long":106.861737,"time":2,"station_id":"POK","line":11,"transit":false,"distance":1829},{"station_id":"JNG","i_lat":-6.215091,"line":1,"time":9,"i_long":106.86807400000001,"station_name":"Jatinegara","distance":1236,"is_transit":true,"transit":true},{"i_long":106.858896,"station_name":"Matraman","station_id":"MTR","i_lat":-6.212485,"distance":1377,"transit":false,"is_transit":false,"line":1,"time":2},{"line":2,"i_lat":-6.209883,"i_long":106.84912,"is_transit":false,"time":2,"station_name":"Manggarai","station_id":"MRI","transit":false,"distance":1275},{"i_long":106.822649,"distance":3186,"transit":false,"time":4,"is_transit":false,"station_name":"Sudirman","line":1,"station_id":"SUD","i_lat":-6.202263},{"i_lat":-6.201433,"station_id":"SUDB","station_name":"Sudirman Baru","i_long":106.819881,"transit":false,"line":1,"distance":280,"is_transit":false,"time":1},{"time":1,"i_long":106.816351,"transit":false,"distance":471,"is_transit":false,"i_lat":-6.20132,"station_id":"KAT","station_name":"Karet","line":1},{"station_name":"Tanah Abang","line":1,"station_id":"THB","distance":2029,"transit":true,"time":5,"i_lat":-6.185545,"i_long":106.811091,"is_transit":true},{"station_name":"Palmerah","station_id":"PLM","distance":3191,"i_long":106.79689,"i_lat":-6.207404,"is_transit":false,"time":6,"line":6,"transit":false},{"station_id":"KBY","line":6,"is_transit":false,"station_name":"Kebayoran","i_lat":-6.237242,"i_long":106.780334,"time":7,"transit":false,"distance":3737},{"time":8,"distance":6218,"station_name":"Pondokranji","station_id":"PDJ","i_lat":-6.276362,"i_long":106.74273,"line":6,"is_transit":false,"transit":false},{"time":3,"transit":false,"distance":2179,"i_lat":-6.288927,"i_long":106.728916,"is_transit":false,"station_name":"Jurangmangu","line":6,"station_id":"JMU"},{"time":4,"station_name":"Sudimara","station_id":"SDM","i_long":106.712277,"line":6,"distance":1994,"is_transit":false,"i_lat":-6.296963,"transit":false}],[{"time":0,"line":11,"station_name":"Gang Sentiong","i_long":106.850107,"station_id":"GST","i_lat":-6.185975,"distance":0,"transit":false,"is_transit":false},{"is_transit":false,"time":1,"station_id":"KMT","i_lat":-6.193792,"transit":false,"line":11,"i_long":106.855437,"distance":973,"station_name":"Kramat"},{"is_transit":false,"time":2,"line":11,"i_long":106.861737,"transit":false,"station_id":"POK","station_name":"Pondok Jati","i_lat":-6.209188,"distance":1829},{"is_transit":true,"i_lat":-6.215091,"station_id":"JNG","i_long":106.86807400000001,"station_name":"Jatinegara","distance":1236,"time":9,"line":1,"transit":true},{"transit":false,"time":2,"station_name":"Matraman","distance":1377,"line":1,"station_id":"MTR","i_long":106.858896,"i_lat":-6.212485,"is_transit":false},{"transit":true,"distance":1275,"i_lat":-6.209883,"i_long":106.84912,"line":2,"time":2,"is_transit":true,"station_name":"Manggarai","station_id":"MRI"},{"i_lat":-6.198556,"line":2,"is_transit":false,"transit":false,"station_id":"CKI","distance":1590,"time":4,"station_name":"Cikini","i_long":106.840169},{"i_lat":-6.186295,"station_name":"Gondangdia","station_id":"GDD","i_long":106.832183,"line":2,"time":3,"distance":1750,"is_transit":false,"transit":false},{"station_name":"Juanda","i_lat":-6.166716,"distance":2015,"i_long":106.828284,"station_id":"JUA","line":2,"is_transit":false,"time":4,"transit":false},{"time":2,"distance":1149,"is_transit":false,"transit":false,"station_name":"Sawah Besar","i_lat":-6.160725,"i_long":106.827103,"station_id":"SW","line":2},{"i_lat":-6.149769,"is_transit":false,"station_name":"Manggabesar","station_id":"MGB","transit":false,"i_long":106.82482,"time":2,"distance":906,"line":2},{"station_id":"JAY","line":2,"is_transit":false,"transit":false,"station_name":"Jayakarta","i_lat":-6.141205,"time":2,"distance":1080,"i_long":106.820901},{"line":2,"i_long":106.812439,"transit":true,"is_transit":true,"time":4,"station_name":"Jakarta Kota","distance":1264,"i_lat":-6.137569,"station_id":"JAKK"},{"transit":true,"time":3,"distance":1364,"station_name":"Kampung Bandan","i_lat":-6.132549,"line":4,"station_id":"KPB","i_long":106.826365,"is_transit":true},{"i_long":106.79867,"time":9,"transit":false,"i_lat":-6.144674,"line":1,"distance":4102,"station_name":"Angke","station_id":"AK","is_transit":false},{"i_lat":-6.155215,"station_id":"DU","i_long":106.800832,"transit":false,"line":1,"is_transit":false,"time":4,"station_name":"Duri","distance":1230},{"i_long":106.811091,"line":1,"distance":3632,"transit":true,"time":8,"station_name":"Tanah Abang","is_transit":true,"station_id":"THB","i_lat":-6.185545},{"transit":false,"distance":3191,"time":6,"station_name":"Palmerah","i_lat":-6.207404,"station_id":"PLM","i_long":106.79689,"line":6,"is_transit":false},{"distance":3737,"time":7,"is_transit":false,"line":6,"i_long":106.780334,"transit":false,"i_lat":-6.237242,"station_id":"KBY","station_name":"Kebayoran"},{"is_transit":false,"transit":false,"station_name":"Pondokranji","time":8,"station_id":"PDJ","distance":6218,"i_long":106.74273,"line":6,"i_lat":-6.276362},{"distance":2179,"station_name":"Jurangmangu","is_transit":false,"i_long":106.728916,"transit":false,"line":6,"time":3,"station_id":"JMU","i_lat":-6.288927},{"distance":1994,"i_lat":-6.296963,"transit":false,"time":4,"station_id":"SDM","i_long":106.712277,"is_transit":false,"station_name":"Sudimara","line":6}],[{"station_id":"GST","transit":false,"time":0,"i_long":106.850107,"i_lat":-6.185975,"is_transit":false,"station_name":"Gang Sentiong","line":11,"distance":0},{"is_transit":false,"transit":false,"station_name":"Pasar Senen","time":8,"i_long":106.84368,"station_id":"PSE","line":11,"i_lat":-6.174784,"distance":1567},{"line":11,"distance":1436,"is_transit":false,"i_long":106.839204,"time":4,"station_id":"KMO","transit":false,"i_lat":-6.161728,"station_name":"Kemayoran"},{"is_transit":false,"i_lat":-6.14505,"transit":false,"station_name":"Rajawali","time":5,"station_id":"RJW","distance":1901,"line":11,"i_long":106.836569},{"i_long":106.826365,"station_id":"KPB","station_name":"Kampung Bandan","line":4,"distance":1444,"i_lat":-6.132549,"time":3,"transit":true,"is_transit":true},{"line":2,"distance":1364,"transit":true,"station_name":"Jakarta Kota","i_lat":-6.137569,"is_transit":true,"i_long":106.812439,"time":3,"station_id":"JAKK"},{"station_name":"Jayakarta","i_lat":-6.141205,"transit":false,"line":2,"is_transit":false,"time":4,"station_id":"JAY","distance":1264,"i_long":106.820901},{"line":2,"i_long":106.82482,"station_name":"Manggabesar","i_lat":-6.149769,"station_id":"MGB","is_transit":false,"time":2,"transit":false,"distance":1080},{"time":2,"is_transit":false,"distance":906,"station_id":"SW","i_lat":-6.160725,"station_name":"Sawah Besar","i_long":106.827103,"transit":false,"line":2},{"time":2,"distance":1149,"station_id":"JUA","transit":false,"is_transit":false,"i_long":106.828284,"station_name":"Juanda","i_lat":-6.166716,"line":2},{"station_id":"GDD","i_long":106.832183,"line":2,"is_transit":false,"distance":2015,"i_lat":-6.186295,"transit":false,"time":4,"station_name":"Gondangdia"},{"station_id":"CKI","line":2,"station_name":"Cikini","distance":1750,"transit":false,"i_long":106.840169,"time":3,"is_transit":false,"i_lat":-6.198556},{"station_name":"Manggarai","is_transit":true,"distance":1590,"station_id":"MRI","line":2,"i_long":106.84912,"i_lat":-6.209883,"time":4,"transit":true},{"transit":false,"station_id":"SUD","line":1,"is_transit":false,"distance":3186,"i_long":106.822649,"station_name":"Sudirman","time":4,"i_lat":-6.202263},{"distance":280,"i_lat":-6.201433,"time":1,"station_id":"SUDB","transit":false,"is_transit":false,"line":1,"station_name":"Sudirman Baru","i_long":106.819881},{"is_transit":false,"station_name":"Karet","station_id":"KAT","i_lat":-6.20132,"time":1,"i_long":106.816351,"transit":false,"distance":471,"line":1},{"line":1,"is_transit":true,"distance":2029,"station_name":"Tanah Abang","station_id":"THB","i_lat":-6.185545,"transit":true,"time":5,"i_long":106.811091},{"distance":3191,"transit":false,"station_id":"PLM","i_lat":-6.207404,"time":6,"i_long":106.79689,"line":6,"is_transit":false,"station_name":"Palmerah"},{"i_lat":-6.237242,"is_transit":false,"station_name":"Kebayoran","line":6,"i_long":106.780334,"distance":3737,"transit":false,"time":7,"station_id":"KBY"},{"time":8,"distance":6218,"transit":false,"station_name":"Pondokranji","i_long":106.74273,"i_lat":-6.276362,"station_id":"PDJ","line":6,"is_transit":false},{"is_transit":false,"station_name":"Jurangmangu","time":3,"distance":2179,"station_id":"JMU","line":6,"transit":false,"i_lat":-6.288927,"i_long":106.728916},{"i_lat":-6.296963,"distance":1994,"station_id":"SDM","line":6,"time":4,"transit":false,"is_transit":false,"i_long":106.712277,"station_name":"Sudimara"}]]}