{"data":[[{"time":0,"i_lat":-6.185975,"transit":false,"distance":0,"i_long":106.850107,"line":11,"is_transit":false,"station_name":"Gang Sentiong","station_id":"GST"},{"station_id":"PSE","is_transit":false,"i_long":106.84368,"distance":1567,"line":11,"time":8,"transit":false,"station_name":"Pasar Senen","i_lat":-6.174784},{"i_long":106.839204,"time":4,"station_id":"KMO","distance":1436,"transit":false,"is_transit":false,"line":11,"i_lat":-6.161728,"station_name":"Kemayoran"},{"station_id":"RJW","is_transit":false,"transit":false,"i_lat":-6.14505,"i_long":106.836569,"time":5,"line":11,"station_name":"Rajawali","distance":1901},{"i_lat":-6.132549,"station_name":"Kampung Bandan","time":3,"is_transit":true,"station_id":"KPB","distance":1444,"transit":true,"line":4,"i_long":106.826365},{"station_id":"AK","distance":4102,"time":9,"is_transit":false,"i_lat":-6.144674,"i_long":106.79867,"station_name":"Angke","line":1,"transit":false},{"station_id":"DU","distance":1230,"is_transit":true,"transit":true,"i_long":106.800832,"line":1,"i_lat":-6.155215,"station_name":"Duri","time":4},{"distance":1700,"is_transit":false,"i_lat":-6.162021,"station_id":"GGL","i_long":106.788277,"station_name":"Grogol","line":5,"transit":false,"time":3}],[{"distance":0,"is_transit":false,"time":0,"station_name":"Gang Sentiong","station_id":"GST","transit":false,"i_long":106.850107,"i_lat":-6.185975,"line":11},{"distance":973,"i_long":106.855437,"line":11,"station_name":"Kramat","station_id":"KMT","time":1,"i_lat":-6.193792,"is_transit":false,"transit":false},{"i_lat":-6.209188,"is_transit":false,"distance":1829,"time":2,"station_name":"Pondok Jati","i_long":106.861737,"transit":false,"station_id":"POK","line":11},{"distance":1236,"transit":true,"station_name":"Jatinegara","is_transit":true,"i_lat":-6.215091,"station_id":"JNG","line":1,"i_long":106.86807400000001,"time":9},{"station_name":"Matraman","distance":1377,"is_transit":false,"i_long":106.858896,"station_id":"MTR","transit":false,"i_lat":-6.212485,"line":1,"time":2},{"time":2,"distance":1275,"i_lat":-6.209883,"line":2,"i_long":106.84912,"station_id":"MRI","station_name":"Manggarai","is_transit":false,"transit":false},{"station_name":"Sudirman","station_id":"SUD","i_lat":-6.202263,"transit":false,"distance":3186,"i_long":106.822649,"time":4,"line":1,"is_transit":false},{"transit":false,"time":1,"i_lat":-6.201433,"station_id":"SUDB","i_long":106.819881,"station_name":"Sudirman Baru","distance":280,"line":1,"is_transit":false},{"is_transit":false,"line":1,"time":1,"distance":471,"transit":false,"i_lat":-6.20132,"i_long":106.816351,"station_id":"KAT","station_name":"Karet"},{"i_lat":-6.185545,"i_long":106.811091,"line":1,"transit":false,"is_transit":false,"station_id":"THB","time":5,"distance":2029,"station_name":"Tanah Abang"},{"is_transit":true,"i_lat":-6.155215,"i_long":106.800832,"line":1,"station_id":"DU","transit":true,"time":8,"station_name":"Duri","distance":3632},{"is_transit":false,"distance":1700,"time":3,"station_id":"GGL","i_long":106.788277,"station_name":"Grogol","i_lat":-6.162021,"transit":false,"line":5}],[{"transit":false,"distance":0,"i_lat":-6.185975,"line":11,"station_id":"GST","time":0,"station_name":"Gang Sentiong","is_transit":false,"i_long":106.850107},{"is_transit":false,"station_id":"KMT","transit":false,"station_name":"Kramat","time":1,"distance":973,"i_lat":-6.193792,"i_long":106.855437,"line":11},{"distance":1829,"station_name":"Pondok Jati","station_id":"POK","transit":false,"i_lat":-6.209188,"i_long":106.861737,"line":11,"time":2,"is_transit":false},{"station_name":"Jatinegara","distance":1236,"transit":true,"i_lat":-6.215091,"is_transit":true,"time":9,"line":1,"i_long":106.86807400000001,"station_id":"JNG"},{"time":2,"line":1,"distance":1377,"i_long":106.858896,"is_transit":false,"station_id":"MTR","station_name":"Matraman","i_lat":-6.212485,"transit":false},{"time":2,"station_id":"MRI","i_long":106.84912,"transit":true,"station_name":"Manggarai","distance":1275,"line":2,"is_transit":true,"i_lat":-6.209883},{"station_id":"CKI","time":4,"transit":false,"station_name":"Cikini","i_lat":-6.198556,"line":2,"is_transit":false,"distance":1590,"i_long":106.840169},{"transit":false,"i_lat":-6.186295,"station_id":"GDD","distance":1750,"is_transit":false,"time":3,"i_long":106.832183,"line":2,"station_name":"Gondangdia"},{"is_transit":false,"transit":false,"distance":2015,"station_id":"JUA","time":4,"i_lat":-6.166716,"i_long":106.828284,"station_name":"Juanda","line":2},{"time":2,"station_name":"Sawah Besar","station_id":"SW","distance":1149,"transit":false,"is_transit":false,"i_long":106.827103,"i_lat":-6.160725,"line":2},{"station_id":"MGB","time":2,"station_name":"Manggabesar","is_transit":false,"distance":906,"transit":false,"line":2,"i_long":106.82482,"i_lat":-6.149769},{"line":2,"is_transit":false,"transit":false,"time":2,"i_lat":-6.141205,"station_name":"Jayakarta","station_id":"JAY","i_long":106.820901,"distance":1080},{"transit":true,"i_lat":-6.137569,"station_id":"JAKK","distance":1264,"i_long":106.812439,"time":4,"line":2,"is_transit":true,"station_name":"Jakarta Kota"},{"is_transit":true,"i_lat":-6.132549,"time":3,"distance":1364,"station_name":"Kampung Bandan","i_long":106.826365,"line":4,"station_id":"KPB","transit":true},{"time":9,"transit":false,"station_name":"Angke","station_id":"AK","i_long":106.79867,"distance":4102,"i_lat":-6.144674,"line":1,"is_transit":false},{"station_name":"Duri","line":1,"time":4,"station_id":"DU","distance":1230,"i_lat":-6.155215,"transit":true,"is_transit":true,"i_long":106.800832},{"time":3,"is_transit":false,"transit":false,"line":5,"distance":1700,"station_id":"GGL","i_lat":-6.162021,"i_long":106.788277,"station_name":"Grogol"}],[{"line":11,"time":0,"station_name":"Gang Sentiong","distance":0,"transit":false,"station_id":"GST","i_long":106.850107,"is_transit":false,"i_lat":-6.185975},{"time":8,"station_name":"Pasar Senen","i_lat":-6.174784,"i_long":106.84368,"distance":1567,"is_transit":false,"station_id":"PSE","transit":false,"line":11},{"line":11,"station_id":"KMO","is_transit":false,"transit":false,"i_lat":-6.161728,"station_name":"Kemayoran","time":4,"i_long":106.839204,"distance":1436},{"i_lat":-6.14505,"is_transit":false,"distance":1901,"station_name":"Rajawali","transit":false,"station_id":"RJW","i_long":106.836569,"time":5,"line":11},{"line":4,"station_id":"KPB","is_transit":true,"i_long":106.826365,"distance":1444,"transit":true,"station_name":"Kampung Bandan","time":3,"i_lat":-6.132549},{"i_long":106.812439,"distance":1364,"time":3,"is_transit":true,"station_id":"JAKK","transit":true,"i_lat":-6.137569,"station_name":"Jakarta Kota","line":2},{"station_id":"JAY","i_long":106.820901,"transit":false,"distance":1264,"station_name":"Jayakarta","is_transit":false,"i_lat":-6.141205,"line":2,"time":4},{"i_lat":-6.149769,"station_name":"Manggabesar","time":2,"station_id":"MGB","distance":1080,"transit":false,"is_transit":false,"line":2,"i_long":106.82482},{"station_name":"Sawah Besar","is_transit":false,"i_long":106.827103,"time":2,"line":2,"distance":906,"transit":false,"station_id":"SW","i_lat":-6.160725},{"distance":1149,"transit":false,"station_id":"JUA","line":2,"station_name":"Juanda","i_lat":-6.166716,"time":2,"i_long":106.828284,"is_transit":false},{"i_lat":-6.186295,"i_long":106.832183,"line":2,"time":4,"distance":2015,"station_id":"GDD","is_transit":false,"station_name":"Gondangdia","transit":false},{"i_long":106.840169,"station_id":"CKI","transit":false,"i_lat":-6.198556,"line":2,"time":3,"is_transit":false,"station_name":"Cikini","distance":1750},{"station_name":"Manggarai","distance":1590,"transit":true,"i_long":106.84912,"line":2,"station_id":"MRI","i_lat":-6.209883,"time":4,"is_transit":true},{"station_name":"Sudirman","station_id":"SUD","i_lat":-6.202263,"i_long":106.822649,"is_transit":false,"transit":false,"line":1,"time":4,"distance":3186},{"station_name":"Sudirman Baru","transit":false,"i_long":106.819881,"line":1,"is_transit":false,"station_id":"SUDB","distance":280,"i_lat":-6.201433,"time":1},{"time":1,"is_transit":false,"distance":471,"station_id":"KAT","i_long":106.816351,"station_name":"Karet","line":1,"i_lat":-6.20132,"transit":false},{"line":1,"distance":2029,"station_id":"THB","is_transit":false,"station_name":"Tanah Abang","time":5,"transit":false,"i_lat":-6.185545,"i_long":106.811091},{"distance":3632,"transit":true,"i_lat":-6.155215,"is_transit":true,"time":8,"i_long":106.800832,"line":1,"station_name":"Duri","station_id":"DU"},{"station_name":"Grogol","transit":false,"line":5,"station_id":"GGL","time":3,"is_transit":false,"i_lat":-6.162021,"i_long":106.788277,"distance":1700}]]}