{"data":[[{"line":11,"is_transit":false,"distance":0,"i_lat":-6.185975,"transit":false,"i_long":106.850107,"time":0,"station_id":"GST","station_name":"Gang Sentiong"},{"line":11,"i_long":106.84368,"time":8,"i_lat":-6.174784,"station_id":"PSE","distance":1567,"station_name":"Pasar Senen","transit":false,"is_transit":false},{"station_name":"Kemayoran","i_lat":-6.161728,"transit":false,"i_long":106.839204,"station_id":"KMO","line":11,"time":4,"is_transit":false,"distance":1436},{"distance":1901,"station_id":"RJW","i_long":106.836569,"transit":false,"station_name":"Rajawali","i_lat":-6.14505,"time":5,"line":11,"is_transit":false},{"time":3,"distance":1444,"i_lat":-6.132549,"station_id":"KPB","is_transit":true,"line":0,"transit":true,"station_name":"Kampung Bandan","i_long":106.826365},{"distance":4102,"transit":false,"i_long":106.79867,"station_id":"AK","line":0,"time":9,"is_transit":false,"i_lat":-6.144674,"station_name":"Angke"},{"transit":true,"i_long":106.800832,"station_id":"DU","line":1,"distance":1230,"i_lat":-6.155215,"station_name":"Duri","time":4,"is_transit":true},{"station_name":"Tanah Abang","station_id":"THB","is_transit":true,"line":1,"distance":3632,"i_long":106.811091,"time":8,"i_lat":-6.185545,"transit":true},{"is_transit":false,"time":6,"transit":false,"i_lat":-6.207404,"station_name":"Palmerah","i_long":106.79689,"station_id":"PLM","distance":3191,"line":6},{"time":7,"distance":3737,"i_long":106.780334,"line":6,"transit":false,"i_lat":-6.237242,"station_id":"KBY","is_transit":false,"station_name":"Kebayoran"},{"station_name":"Pondokranji","time":8,"transit":false,"i_lat":-6.276362,"station_id":"PDJ","is_transit":false,"distance":6218,"i_long":106.74273,"line":6},{"is_transit":false,"i_lat":-6.288927,"station_id":"JMU","i_long":106.728916,"transit":false,"time":3,"station_name":"Jurangmangu","line":6,"distance":2179},{"i_lat":-6.296963,"i_long":106.712277,"station_id":"SDM","transit":false,"is_transit":false,"time":4,"station_name":"Sudimara","line":6,"distance":1994},{"line":6,"i_long":106.675475,"is_transit":false,"distance":4566,"i_lat":-6.314823,"station_name":"Rawa Buntu","station_id":"RU","time":6,"transit":false},{"transit":false,"time":4,"station_id":"SRP","station_name":"Serpong","distance":2413,"is_transit":false,"i_long":106.66566,"i_lat":-6.319871,"line":6},{"is_transit":false,"distance":1784,"station_name":"Cisauk","transit":false,"i_lat":-6.32484,"station_id":"CSK","time":4,"i_long":106.640411,"line":0},{"transit":false,"i_lat":-6.329547,"is_transit":false,"station_id":"CC","i_long":106.617853,"line":0,"time":4,"distance":2519,"station_name":"Cicayur"},{"i_long":106.568863,"line":6,"station_name":"Parung Panjang","station_id":"PRP","i_lat":-6.3441410000000005,"time":8,"distance":5968,"transit":false,"is_transit":false}],[{"station_name":"Gang Sentiong","line":11,"transit":false,"i_lat":-6.185975,"distance":0,"is_transit":false,"station_id":"GST","time":0,"i_long":106.850107},{"transit":false,"station_id":"KMT","i_lat":-6.193792,"time":1,"is_transit":false,"station_name":"Kramat","line":11,"distance":973,"i_long":106.855437},{"line":11,"transit":false,"is_transit":false,"time":2,"station_name":"Pondok Jati","distance":1829,"i_long":106.861737,"i_lat":-6.209188,"station_id":"POK"},{"station_name":"Jatinegara","is_transit":true,"i_lat":-6.215091,"distance":1236,"i_long":106.86807400000001,"line":0,"station_id":"JNG","transit":true,"time":9},{"i_long":106.858896,"time":2,"i_lat":-6.212485,"station_id":"MTR","is_transit":false,"transit":false,"line":1,"station_name":"Matraman","distance":1377},{"is_transit":true,"time":2,"line":0,"transit":false,"i_long":106.84912,"station_name":"Manggarai","distance":1275,"i_lat":-6.209883,"station_id":"MRI"},{"distance":3186,"line":1,"station_id":"SUD","is_transit":false,"time":4,"transit":false,"station_name":"Sudirman","i_lat":-6.202263,"i_long":106.822649},{"i_long":106.819881,"line":1,"transit":false,"station_id":"SUDB","is_transit":false,"station_name":"Sudirman Baru","time":1,"i_lat":-6.201433,"distance":280},{"distance":471,"i_lat":-6.20132,"line":1,"i_long":106.816351,"time":1,"station_name":"Karet","is_transit":false,"transit":false,"station_id":"KAT"},{"station_name":"Tanah Abang","i_lat":-6.185545,"is_transit":true,"time":5,"i_long":106.811091,"line":1,"station_id":"THB","transit":true,"distance":2029},{"line":6,"i_long":106.79689,"i_lat":-6.207404,"station_id":"PLM","time":6,"is_transit":false,"station_name":"Palmerah","transit":false,"distance":3191},{"transit":false,"station_name":"Kebayoran","is_transit":false,"time":7,"distance":3737,"i_lat":-6.237242,"station_id":"KBY","i_long":106.780334,"line":6},{"station_name":"Pondokranji","transit":false,"i_lat":-6.276362,"i_long":106.74273,"line":6,"time":8,"is_transit":false,"distance":6218,"station_id":"PDJ"},{"line":6,"i_lat":-6.288927,"time":3,"station_id":"JMU","station_name":"Jurangmangu","i_long":106.728916,"transit":false,"distance":2179,"is_transit":false},{"i_long":106.712277,"line":6,"distance":1994,"transit":false,"station_name":"Sudimara","is_transit":false,"time":4,"station_id":"SDM","i_lat":-6.296963},{"time":6,"transit":false,"distance":4566,"i_long":106.675475,"station_name":"Rawa Buntu","is_transit":false,"line":6,"station_id":"RU","i_lat":-6.314823},{"station_id":"SRP","i_long":106.66566,"i_lat":-6.319871,"is_transit":false,"line":6,"distance":2413,"transit":false,"time":4,"station_name":"Serpong"},{"station_id":"CSK","transit":false,"distance":1784,"time":4,"i_lat":-6.32484,"line":0,"station_name":"Cisauk","is_transit":false,"i_long":106.640411},{"is_transit":false,"i_lat":-6.329547,"station_id":"CC","transit":false,"i_long":106.617853,"line":0,"distance":2519,"station_name":"Cicayur","time":4},{"station_name":"Parung Panjang","line":6,"station_id":"PRP","i_lat":-6.3441410000000005,"is_transit":false,"time":8,"distance":5968,"i_long":106.568863,"transit":false}],[{"i_lat":-6.185975,"station_id":"GST","distance":0,"time":0,"i_long":106.850107,"station_name":"Gang Sentiong","is_transit":false,"line":11,"transit":false},{"transit":false,"time":1,"i_long":106.855437,"i_lat":-6.193792,"line":11,"is_transit":false,"distance":973,"station_id":"KMT","station_name":"Kramat"},{"line":11,"time":2,"transit":false,"i_lat":-6.209188,"distance":1829,"station_name":"Pondok Jati","is_transit":false,"i_long":106.861737,"station_id":"POK"},{"is_transit":true,"i_lat":-6.215091,"i_long":106.86807400000001,"station_id":"JNG","time":9,"line":0,"station_name":"Jatinegara","distance":1236,"transit":true},{"time":2,"i_lat":-6.212485,"distance":1377,"i_long":106.858896,"station_id":"MTR","is_transit":false,"line":1,"transit":false,"station_name":"Matraman"},{"station_name":"Manggarai","i_lat":-6.209883,"station_id":"MRI","i_long":106.84912,"time":2,"is_transit":true,"distance":1275,"line":0,"transit":true},{"i_lat":-6.198556,"time":4,"distance":1590,"station_id":"CKI","is_transit":false,"station_name":"Cikini","line":0,"transit":false,"i_long":106.840169},{"is_transit":false,"transit":false,"line":2,"station_id":"GDD","time":3,"i_lat":-6.186295,"distance":1750,"i_long":106.832183,"station_name":"Gondangdia"},{"transit":false,"i_long":106.828284,"time":4,"station_id":"JUA","distance":2015,"line":2,"is_transit":false,"i_lat":-6.166716,"station_name":"Juanda"},{"transit":false,"i_lat":-6.160725,"distance":1149,"is_transit":false,"time":2,"station_name":"Sawah Besar","i_long":106.827103,"line":2,"station_id":"SW"},{"i_lat":-6.149769,"time":2,"transit":false,"station_name":"Manggabesar","i_long":106.82482,"is_transit":false,"distance":906,"line":2,"station_id":"MGB"},{"station_id":"JAY","line":7,"transit":false,"i_lat":-6.141205,"distance":1080,"i_long":106.820901,"station_name":"Jayakarta","time":2,"is_transit":false},{"distance":1264,"line":0,"i_lat":-6.137569,"station_name":"Jakarta Kota","time":4,"station_id":"JAKK","is_transit":true,"transit":true,"i_long":106.812439},{"station_id":"KPB","distance":1364,"i_long":106.826365,"line":0,"i_lat":-6.132549,"transit":false,"is_transit":true,"time":3,"station_name":"Kampung Bandan"},{"i_lat":-6.144674,"i_long":106.79867,"distance":4102,"is_transit":false,"time":9,"line":0,"station_id":"AK","station_name":"Angke","transit":false},{"line":1,"distance":1230,"is_transit":true,"time":4,"station_id":"DU","station_name":"Duri","i_lat":-6.155215,"transit":true,"i_long":106.800832},{"line":1,"is_transit":true,"station_name":"Tanah Abang","i_lat":-6.185545,"time":8,"transit":true,"i_long":106.811091,"station_id":"THB","distance":3632},{"line":6,"distance":3191,"i_lat":-6.207404,"station_name":"Palmerah","time":6,"i_long":106.79689,"station_id":"PLM","transit":false,"is_transit":false},{"is_transit":false,"transit":false,"line":6,"distance":3737,"station_name":"Kebayoran","station_id":"KBY","time":7,"i_lat":-6.237242,"i_long":106.780334},{"i_lat":-6.276362,"transit":false,"station_id":"PDJ","distance":6218,"i_long":106.74273,"line":6,"time":8,"station_name":"Pondokranji","is_transit":false},{"i_lat":-6.288927,"time":3,"distance":2179,"station_id":"JMU","transit":false,"line":6,"is_transit":false,"station_name":"Jurangmangu","i_long":106.728916},{"time":4,"station_name":"Sudimara","distance":1994,"transit":false,"station_id":"SDM","line":6,"is_transit":false,"i_lat":-6.296963,"i_long":106.712277},{"is_transit":false,"station_id":"RU","transit":false,"line":6,"i_long":106.675475,"i_lat":-6.314823,"time":6,"station_name":"Rawa Buntu","distance":4566},{"distance":2413,"transit":false,"station_id":"SRP","i_lat":-6.319871,"i_long":106.66566,"line":6,"time":4,"station_name":"Serpong","is_transit":false},{"i_long":106.640411,"is_transit":false,"time":4,"station_id":"CSK","station_name":"Cisauk","transit":false,"distance":1784,"i_lat":-6.32484,"line":0},{"time":4,"transit":false,"i_lat":-6.329547,"i_long":106.617853,"line":0,"is_transit":false,"station_name":"Cicayur","distance":2519,"station_id":"CC"},{"line":6,"i_lat":-6.3441410000000005,"is_transit":false,"station_id":"PRP","station_name":"Parung Panjang","time":8,"distance":5968,"transit":false,"i_long":106.568863}],[{"i_lat":-6.185975,"station_id":"GST","is_transit":false,"distance":0,"time":0,"transit":false,"i_long":106.850107,"line":11,"station_name":"Gang Sentiong"},{"transit":false,"i_long":106.84368,"station_id":"PSE","is_transit":false,"distance":1567,"station_name":"Pasar Senen","time":8,"line":11,"i_lat":-6.174784},{"is_transit":false,"line":11,"station_id":"KMO","time":4,"distance":1436,"i_lat":-6.161728,"transit":false,"station_name":"Kemayoran","i_long":106.839204},{"transit":false,"i_lat":-6.14505,"line":11,"i_long":106.836569,"station_name":"Rajawali","station_id":"RJW","time":5,"is_transit":false,"distance":1901},{"station_id":"KPB","station_name":"Kampung Bandan","i_long":106.826365,"line":0,"distance":1444,"transit":true,"is_transit":true,"time":3,"i_lat":-6.132549},{"time":3,"transit":true,"is_transit":true,"distance":1364,"i_long":106.812439,"line":0,"station_name":"Jakarta Kota","station_id":"JAKK","i_lat":-6.137569},{"is_transit":false,"line":7,"distance":1264,"i_lat":-6.141205,"station_name":"Jayakarta","i_long":106.820901,"time":4,"transit":false,"station_id":"JAY"},{"station_name":"Manggabesar","line":2,"transit":false,"i_lat":-6.149769,"is_transit":false,"distance":1080,"time":2,"i_long":106.82482,"station_id":"MGB"},{"i_long":106.827103,"i_lat":-6.160725,"station_id":"SW","transit":false,"is_transit":false,"time":2,"line":2,"distance":906,"station_name":"Sawah Besar"},{"station_id":"JUA","time":2,"transit":false,"i_long":106.828284,"station_name":"Juanda","distance":1149,"i_lat":-6.166716,"is_transit":false,"line":2},{"is_transit":false,"transit":false,"i_lat":-6.186295,"station_id":"GDD","i_long":106.832183,"station_name":"Gondangdia","line":2,"time":4,"distance":2015},{"station_name":"Cikini","station_id":"CKI","distance":1750,"transit":false,"time":3,"i_long":106.840169,"i_lat":-6.198556,"is_transit":false,"line":0},{"station_id":"MRI","i_long":106.84912,"station_name":"Manggarai","line":0,"is_transit":true,"time":4,"i_lat":-6.209883,"distance":1590,"transit":true},{"station_name":"Sudirman","transit":false,"i_lat":-6.202263,"i_long":106.822649,"station_id":"SUD","time":4,"is_transit":false,"distance":3186,"line":1},{"distance":280,"station_name":"Sudirman Baru","i_long":106.819881,"time":1,"transit":false,"line":1,"i_lat":-6.201433,"station_id":"SUDB","is_transit":false},{"i_lat":-6.20132,"distance":471,"station_name":"Karet","line":1,"time":1,"i_long":106.816351,"station_id":"KAT","is_transit":false,"transit":false},{"distance":2029,"i_long":106.811091,"transit":true,"time":5,"line":1,"station_id":"THB","is_transit":true,"i_lat":-6.185545,"station_name":"Tanah Abang"},{"distance":3191,"station_id":"PLM","time":6,"station_name":"Palmerah","transit":false,"i_long":106.79689,"line":6,"i_lat":-6.207404,"is_transit":false},{"is_transit":false,"station_id":"KBY","i_lat":-6.237242,"station_name":"Kebayoran","i_long":106.780334,"time":7,"line":6,"transit":false,"distance":3737},{"station_name":"Pondokranji","distance":6218,"i_lat":-6.276362,"i_long":106.74273,"is_transit":false,"line":6,"time":8,"transit":false,"station_id":"PDJ"},{"line":6,"i_long":106.728916,"transit":false,"time":3,"i_lat":-6.288927,"station_id":"JMU","is_transit":false,"station_name":"Jurangmangu","distance":2179},{"distance":1994,"line":6,"time":4,"i_long":106.712277,"station_name":"Sudimara","i_lat":-6.296963,"transit":false,"is_transit":false,"station_id":"SDM"},{"time":6,"station_id":"RU","distance":4566,"is_transit":false,"i_long":106.675475,"line":6,"station_name":"Rawa Buntu","transit":false,"i_lat":-6.314823},{"station_id":"SRP","is_transit":false,"station_name":"Serpong","time":4,"transit":false,"i_long":106.66566,"i_lat":-6.319871,"line":6,"distance":2413},{"distance":1784,"station_name":"Cisauk","line":0,"time":4,"transit":false,"i_long":106.640411,"station_id":"CSK","i_lat":-6.32484,"is_transit":false},{"station_name":"Cicayur","i_lat":-6.329547,"line":0,"is_transit":false,"distance":2519,"station_id":"CC","transit":false,"time":4,"i_long":106.617853},{"is_transit":false,"station_name":"Parung Panjang","station_id":"PRP","i_lat":-6.3441410000000005,"transit":false,"distance":5968,"i_long":106.568863,"line":6,"time":8}]]}