{"data":[[{"i_lat":-6.185975,"is_transit":false,"station_id":"GST","line":11,"distance":0,"i_long":106.850107,"time":0,"station_name":"Gang Sentiong","transit":false},{"i_lat":-6.174784,"station_name":"Pasar Senen","transit":false,"time":8,"distance":1567,"line":11,"station_id":"PSE","i_long":106.84368,"is_transit":false},{"i_long":106.839204,"is_transit":false,"time":4,"distance":1436,"station_id":"KMO","line":11,"station_name":"Kemayoran","i_lat":-6.161728,"transit":false},{"time":5,"distance":1901,"line":11,"transit":false,"is_transit":false,"station_id":"RJW","i_long":106.836569,"i_lat":-6.14505,"station_name":"Rajawali"},{"station_name":"Kampung Bandan","is_transit":true,"time":3,"station_id":"KPB","i_long":106.826365,"distance":1444,"line":4,"transit":true,"i_lat":-6.132549},{"i_long":106.84464,"is_transit":false,"line":4,"station_name":"Ancol","i_lat":-6.128023,"distance":2185,"time":4,"transit":false,"station_id":"AC"}],[{"i_lat":-6.185975,"line":11,"is_transit":false,"time":0,"i_long":106.850107,"station_name":"Gang Sentiong","distance":0,"transit":false,"station_id":"GST"},{"i_long":106.855437,"time":1,"i_lat":-6.193792,"distance":973,"transit":false,"line":11,"station_name":"Kramat","is_transit":false,"station_id":"KMT"},{"station_id":"POK","station_name":"Pondok Jati","transit":false,"is_transit":false,"time":2,"line":11,"i_lat":-6.209188,"distance":1829,"i_long":106.861737},{"line":1,"transit":true,"station_id":"JNG","time":9,"station_name":"Jatinegara","i_long":106.86807400000001,"is_transit":true,"distance":1236,"i_lat":-6.215091},{"i_lat":-6.212485,"line":1,"time":2,"is_transit":false,"distance":1377,"station_id":"MTR","transit":false,"station_name":"Matraman","i_long":106.858896},{"station_id":"MRI","station_name":"Manggarai","line":2,"distance":1275,"transit":false,"time":2,"is_transit":false,"i_long":106.84912,"i_lat":-6.209883},{"i_long":106.822649,"distance":3186,"transit":false,"line":1,"is_transit":false,"time":4,"station_name":"Sudirman","station_id":"SUD","i_lat":-6.202263},{"line":1,"transit":false,"is_transit":false,"time":1,"distance":280,"station_name":"Sudirman Baru","i_long":106.819881,"station_id":"SUDB","i_lat":-6.201433},{"distance":471,"station_name":"Karet","i_long":106.816351,"is_transit":false,"line":1,"station_id":"KAT","time":1,"transit":false,"i_lat":-6.20132},{"i_long":106.811091,"station_name":"Tanah Abang","distance":2029,"line":1,"i_lat":-6.185545,"is_transit":false,"station_id":"THB","transit":false,"time":5},{"i_long":106.800832,"is_transit":false,"station_name":"Duri","line":1,"transit":false,"distance":3632,"time":8,"i_lat":-6.155215,"station_id":"DU"},{"distance":1230,"i_lat":-6.144674,"station_id":"AK","time":4,"i_long":106.79867,"station_name":"Angke","transit":false,"line":1,"is_transit":false},{"station_id":"KPB","station_name":"Kampung Bandan","time":9,"distance":4102,"i_long":106.826365,"transit":true,"is_transit":true,"i_lat":-6.132549,"line":4},{"distance":2185,"time":4,"transit":false,"line":4,"station_id":"AC","station_name":"Ancol","is_transit":false,"i_lat":-6.128023,"i_long":106.84464}],[{"station_name":"Gang Sentiong","i_lat":-6.185975,"station_id":"GST","transit":false,"time":0,"distance":0,"i_long":106.850107,"line":11,"is_transit":false},{"transit":false,"distance":973,"station_id":"KMT","time":1,"is_transit":false,"i_lat":-6.193792,"line":11,"station_name":"Kramat","i_long":106.855437},{"is_transit":false,"transit":false,"station_id":"POK","i_long":106.861737,"i_lat":-6.209188,"line":11,"time":2,"station_name":"Pondok Jati","distance":1829},{"is_transit":true,"transit":true,"station_id":"JNG","line":1,"distance":1236,"time":9,"i_lat":-6.215091,"i_long":106.86807400000001,"station_name":"Jatinegara"},{"station_name":"Matraman","is_transit":false,"i_long":106.858896,"station_id":"MTR","time":2,"transit":false,"line":1,"distance":1377,"i_lat":-6.212485},{"line":2,"time":2,"station_name":"Manggarai","i_lat":-6.209883,"distance":1275,"transit":true,"is_transit":true,"station_id":"MRI","i_long":106.84912},{"time":4,"i_long":106.840169,"transit":false,"station_name":"Cikini","distance":1590,"station_id":"CKI","is_transit":false,"line":2,"i_lat":-6.198556},{"time":3,"distance":1750,"is_transit":false,"line":2,"station_name":"Gondangdia","transit":false,"i_lat":-6.186295,"station_id":"GDD","i_long":106.832183},{"is_transit":false,"time":4,"line":2,"transit":false,"i_long":106.828284,"station_id":"JUA","station_name":"Juanda","distance":2015,"i_lat":-6.166716},{"station_name":"Sawah Besar","station_id":"SW","time":2,"i_lat":-6.160725,"i_long":106.827103,"line":2,"transit":false,"is_transit":false,"distance":1149},{"i_long":106.82482,"is_transit":false,"time":2,"station_name":"Manggabesar","station_id":"MGB","transit":false,"distance":906,"i_lat":-6.149769,"line":2},{"line":2,"time":2,"station_name":"Jayakarta","i_long":106.820901,"transit":false,"is_transit":false,"station_id":"JAY","i_lat":-6.141205,"distance":1080},{"time":4,"station_id":"JAKK","i_lat":-6.137569,"distance":1264,"i_long":106.812439,"station_name":"Jakarta Kota","is_transit":true,"line":2,"transit":true},{"line":4,"station_name":"Kampung Bandan","is_transit":true,"time":3,"station_id":"KPB","distance":1364,"transit":true,"i_long":106.826365,"i_lat":-6.132549},{"station_id":"AC","distance":2185,"line":4,"transit":false,"station_name":"Ancol","i_lat":-6.128023,"time":4,"is_transit":false,"i_long":106.84464}]]}