{"data":[[{"station_name":"Gang Sentiong","transit":false,"time":0,"distance":0,"i_lat":-6.185975,"i_long":106.850107,"is_transit":false,"line":11,"station_id":"GST"},{"time":1,"distance":973,"line":11,"transit":false,"is_transit":false,"station_name":"Kramat","station_id":"KMT","i_long":106.855437,"i_lat":-6.193792},{"station_name":"Pondok Jati","i_lat":-6.209188,"distance":1829,"station_id":"POK","transit":false,"line":11,"is_transit":false,"i_long":106.861737,"time":2},{"time":9,"i_lat":-6.215091,"distance":1236,"line":0,"transit":true,"station_name":"Jatinegara","is_transit":true,"i_long":106.86807400000001,"station_id":"JNG"},{"transit":false,"line":1,"time":2,"is_transit":false,"distance":1377,"station_name":"Matraman","i_long":106.858896,"i_lat":-6.212485,"station_id":"MTR"},{"distance":1275,"i_long":106.84912,"line":0,"station_id":"MRI","time":2,"transit":true,"is_transit":true,"station_name":"Manggarai","i_lat":-6.209883},{"i_lat":-6.226659,"station_name":"Tebet","i_long":106.857948,"distance":2610,"station_id":"TEB","is_transit":false,"time":4,"line":2,"transit":false},{"i_long":106.856607,"time":2,"i_lat":-6.242512,"line":0,"station_id":"CW","is_transit":false,"distance":1230,"transit":false,"station_name":"Cawang"},{"is_transit":false,"station_name":"Duren Kalibata","station_id":"DRN","distance":1546,"i_lat":-6.255332,"time":3,"i_long":106.85449,"transit":false,"line":0},{"i_long":106.851577,"distance":824,"station_name":"Pasar Minggu Baru","line":2,"transit":false,"is_transit":false,"time":2,"station_id":"PSMB","i_lat":-6.263214},{"station_id":"PSM","i_lat":-6.2842400000000005,"line":2,"is_transit":false,"distance":2380,"i_long":106.843999,"time":2,"transit":false,"station_name":"Pasar Minggu"},{"time":4,"i_lat":-6.3080680000000005,"i_long":106.838896,"is_transit":false,"station_name":"Tanjung Barat","line":2,"distance":2820,"station_id":"TNT","transit":false},{"transit":false,"station_id":"LNA","is_transit":false,"time":3,"distance":2671,"i_long":106.832616,"line":2,"station_name":"Lenteng Agung","i_lat":-6.330363},{"station_name":"Univ. Pancasila","i_lat":-6.339291,"transit":false,"i_long":106.834175,"time":2,"line":2,"is_transit":false,"distance":1029,"station_id":"UP"},{"transit":false,"is_transit":false,"line":2,"distance":2264,"i_lat":-6.360749,"station_id":"UI","time":3,"i_long":106.831474,"station_name":"Univ. Indonesia"}],[{"time":0,"station_name":"Gang Sentiong","distance":0,"transit":false,"is_transit":false,"i_long":106.850107,"i_lat":-6.185975,"line":11,"station_id":"GST"},{"transit":false,"is_transit":false,"line":11,"i_long":106.84368,"station_name":"Pasar Senen","station_id":"PSE","time":8,"distance":1567,"i_lat":-6.174784},{"transit":false,"line":11,"is_transit":false,"i_long":106.839204,"station_id":"KMO","i_lat":-6.161728,"station_name":"Kemayoran","time":4,"distance":1436},{"station_name":"Rajawali","distance":1901,"transit":false,"i_lat":-6.14505,"i_long":106.836569,"time":5,"station_id":"RJW","is_transit":false,"line":11},{"line":0,"i_long":106.826365,"i_lat":-6.132549,"is_transit":true,"station_id":"KPB","time":3,"station_name":"Kampung Bandan","distance":1444,"transit":true},{"i_long":106.79867,"station_name":"Angke","time":9,"distance":4102,"station_id":"AK","transit":false,"i_lat":-6.144674,"is_transit":false,"line":0},{"line":1,"is_transit":true,"i_lat":-6.155215,"time":4,"station_id":"DU","transit":true,"i_long":106.800832,"station_name":"Duri","distance":1230},{"station_id":"THB","i_lat":-6.185545,"transit":false,"distance":3632,"station_name":"Tanah Abang","i_long":106.811091,"line":1,"is_transit":true,"time":8},{"time":5,"i_lat":-6.20132,"station_id":"KAT","distance":2029,"transit":false,"is_transit":false,"line":1,"station_name":"Karet","i_long":106.816351},{"is_transit":false,"transit":false,"i_long":106.819881,"station_id":"SUDB","distance":471,"i_lat":-6.201433,"line":1,"station_name":"Sudirman Baru","time":1},{"is_transit":false,"line":1,"distance":280,"transit":false,"station_name":"Sudirman","time":1,"i_lat":-6.202263,"i_long":106.822649,"station_id":"SUD"},{"station_id":"MRI","station_name":"Manggarai","distance":3186,"line":0,"is_transit":true,"i_long":106.84912,"i_lat":-6.209883,"transit":true,"time":4},{"i_lat":-6.226659,"distance":2610,"line":2,"is_transit":false,"station_name":"Tebet","time":4,"station_id":"TEB","transit":false,"i_long":106.857948},{"line":0,"is_transit":false,"time":2,"i_lat":-6.242512,"distance":1230,"station_id":"CW","i_long":106.856607,"transit":false,"station_name":"Cawang"},{"is_transit":false,"distance":1546,"i_lat":-6.255332,"transit":false,"station_id":"DRN","station_name":"Duren Kalibata","time":3,"i_long":106.85449,"line":0},{"station_id":"PSMB","transit":false,"i_lat":-6.263214,"station_name":"Pasar Minggu Baru","distance":824,"i_long":106.851577,"is_transit":false,"time":2,"line":2},{"station_id":"PSM","time":2,"i_lat":-6.2842400000000005,"i_long":106.843999,"distance":2380,"is_transit":false,"line":2,"transit":false,"station_name":"Pasar Minggu"},{"i_lat":-6.3080680000000005,"i_long":106.838896,"line":2,"station_id":"TNT","is_transit":false,"transit":false,"time":4,"station_name":"Tanjung Barat","distance":2820},{"i_lat":-6.330363,"station_name":"Lenteng Agung","is_transit":false,"time":3,"transit":false,"i_long":106.832616,"distance":2671,"line":2,"station_id":"LNA"},{"distance":1029,"time":2,"transit":false,"station_name":"Univ. Pancasila","line":2,"station_id":"UP","i_lat":-6.339291,"i_long":106.834175,"is_transit":false},{"station_name":"Univ. Indonesia","station_id":"UI","distance":2264,"i_lat":-6.360749,"line":2,"i_long":106.831474,"time":3,"is_transit":false,"transit":false}],[{"i_lat":-6.185975,"station_name":"Gang Sentiong","is_transit":false,"station_id":"GST","line":11,"i_long":106.850107,"transit":false,"distance":0,"time":0},{"line":11,"station_id":"PSE","station_name":"Pasar Senen","is_transit":false,"time":8,"transit":false,"i_long":106.84368,"distance":1567,"i_lat":-6.174784},{"distance":1436,"transit":false,"i_lat":-6.161728,"station_name":"Kemayoran","line":11,"is_transit":false,"station_id":"KMO","i_long":106.839204,"time":4},{"station_id":"RJW","station_name":"Rajawali","i_long":106.836569,"distance":1901,"transit":false,"line":11,"is_transit":false,"time":5,"i_lat":-6.14505},{"i_lat":-6.132549,"station_name":"Kampung Bandan","transit":true,"is_transit":true,"distance":1444,"time":3,"i_long":106.826365,"station_id":"KPB","line":0},{"i_long":106.812439,"station_id":"JAKK","station_name":"Jakarta Kota","time":3,"is_transit":true,"line":0,"transit":true,"i_lat":-6.137569,"distance":1364},{"distance":1264,"station_name":"Jayakarta","time":4,"transit":false,"line":7,"i_lat":-6.141205,"is_transit":false,"i_long":106.820901,"station_id":"JAY"},{"i_long":106.82482,"station_id":"MGB","station_name":"Manggabesar","is_transit":false,"time":2,"transit":false,"i_lat":-6.149769,"line":2,"distance":1080},{"station_name":"Sawah Besar","line":2,"is_transit":false,"station_id":"SW","transit":false,"i_lat":-6.160725,"time":2,"distance":906,"i_long":106.827103},{"station_id":"JUA","station_name":"Juanda","line":2,"i_lat":-6.166716,"is_transit":false,"i_long":106.828284,"transit":false,"time":2,"distance":1149},{"time":4,"distance":2015,"station_id":"GDD","station_name":"Gondangdia","i_lat":-6.186295,"i_long":106.832183,"is_transit":false,"transit":false,"line":2},{"i_long":106.840169,"line":0,"is_transit":false,"distance":1750,"station_id":"CKI","time":3,"station_name":"Cikini","transit":false,"i_lat":-6.198556},{"i_lat":-6.209883,"i_long":106.84912,"station_id":"MRI","time":4,"is_transit":true,"transit":true,"distance":1590,"line":0,"station_name":"Manggarai"},{"line":2,"time":4,"transit":false,"station_name":"Tebet","is_transit":false,"station_id":"TEB","i_lat":-6.226659,"distance":2610,"i_long":106.857948},{"is_transit":false,"i_long":106.856607,"time":2,"distance":1230,"transit":false,"line":0,"station_id":"CW","station_name":"Cawang","i_lat":-6.242512},{"i_lat":-6.255332,"line":0,"station_name":"Duren Kalibata","station_id":"DRN","distance":1546,"time":3,"transit":false,"is_transit":false,"i_long":106.85449},{"is_transit":false,"station_name":"Pasar Minggu Baru","i_long":106.851577,"line":2,"station_id":"PSMB","time":2,"transit":false,"distance":824,"i_lat":-6.263214},{"distance":2380,"i_lat":-6.2842400000000005,"station_name":"Pasar Minggu","transit":false,"i_long":106.843999,"time":2,"line":2,"station_id":"PSM","is_transit":false},{"line":2,"station_name":"Tanjung Barat","distance":2820,"i_lat":-6.3080680000000005,"transit":false,"is_transit":false,"station_id":"TNT","i_long":106.838896,"time":4},{"station_name":"Lenteng Agung","is_transit":false,"transit":false,"i_lat":-6.330363,"distance":2671,"station_id":"LNA","time":3,"i_long":106.832616,"line":2},{"time":2,"line":2,"i_long":106.834175,"station_id":"UP","i_lat":-6.339291,"transit":false,"is_transit":false,"distance":1029,"station_name":"Univ. Pancasila"},{"line":2,"station_id":"UI","i_long":106.831474,"station_name":"Univ. Indonesia","transit":false,"distance":2264,"i_lat":-6.360749,"time":3,"is_transit":false}]]}