{"data":[[{"is_transit":false,"station_id":"GST","line":11,"time":0,"transit":false,"distance":0,"i_lat":-6.185975,"i_long":106.850107,"station_name":"Gang Sentiong"},{"time":8,"is_transit":false,"i_long":106.84368,"i_lat":-6.174784,"transit":false,"station_id":"PSE","distance":1567,"station_name":"Pasar Senen","line":11},{"is_transit":false,"i_long":106.839204,"transit":false,"station_name":"Kemayoran","i_lat":-6.161728,"line":11,"time":4,"distance":1436,"station_id":"KMO"},{"i_lat":-6.14505,"i_long":106.836569,"station_id":"RJW","is_transit":false,"line":11,"transit":false,"time":5,"distance":1901,"station_name":"Rajawali"},{"is_transit":true,"station_name":"Kampung Bandan","i_lat":-6.132549,"time":3,"transit":true,"line":4,"station_id":"KPB","i_long":106.826365,"distance":1444},{"transit":true,"is_transit":true,"distance":1364,"i_long":106.812439,"i_lat":-6.137569,"station_id":"JAKK","station_name":"Jakarta Kota","time":3,"line":2},{"is_transit":false,"station_name":"Jayakarta","line":2,"transit":false,"time":4,"i_lat":-6.141205,"i_long":106.820901,"distance":1264,"station_id":"JAY"},{"i_long":106.82482,"line":2,"distance":1080,"station_id":"MGB","time":2,"i_lat":-6.149769,"is_transit":false,"transit":false,"station_name":"Manggabesar"},{"line":2,"station_name":"Sawah Besar","transit":false,"distance":906,"is_transit":false,"i_long":106.827103,"time":2,"i_lat":-6.160725,"station_id":"SW"}],[{"distance":0,"transit":false,"i_lat":-6.185975,"i_long":106.850107,"line":11,"station_name":"Gang Sentiong","station_id":"GST","is_transit":false,"time":0},{"line":11,"distance":973,"station_id":"KMT","station_name":"Kramat","is_transit":false,"transit":false,"time":1,"i_lat":-6.193792,"i_long":106.855437},{"station_id":"POK","i_lat":-6.209188,"transit":false,"line":11,"distance":1829,"is_transit":false,"station_name":"Pondok Jati","i_long":106.861737,"time":2},{"i_lat":-6.215091,"station_id":"JNG","transit":true,"line":1,"station_name":"Jatinegara","distance":1236,"is_transit":true,"time":9,"i_long":106.86807400000001},{"i_long":106.858896,"distance":1377,"is_transit":false,"i_lat":-6.212485,"time":2,"station_name":"Matraman","station_id":"MTR","line":1,"transit":false},{"station_id":"MRI","distance":1275,"station_name":"Manggarai","time":2,"is_transit":true,"transit":true,"i_lat":-6.209883,"i_long":106.84912,"line":2},{"time":4,"distance":1590,"is_transit":false,"i_lat":-6.198556,"line":2,"station_id":"CKI","i_long":106.840169,"transit":false,"station_name":"Cikini"},{"i_long":106.832183,"i_lat":-6.186295,"transit":false,"is_transit":false,"distance":1750,"line":2,"station_id":"GDD","station_name":"Gondangdia","time":3},{"i_lat":-6.166716,"transit":false,"station_name":"Juanda","time":4,"distance":2015,"is_transit":false,"station_id":"JUA","line":2,"i_long":106.828284},{"station_id":"SW","station_name":"Sawah Besar","i_lat":-6.160725,"i_long":106.827103,"transit":false,"time":2,"distance":1149,"line":2,"is_transit":false}],[{"i_long":106.850107,"station_name":"Gang Sentiong","time":0,"station_id":"GST","transit":false,"distance":0,"is_transit":false,"i_lat":-6.185975,"line":11},{"distance":1567,"transit":false,"station_name":"Pasar Senen","i_lat":-6.174784,"time":8,"i_long":106.84368,"line":11,"station_id":"PSE","is_transit":false},{"time":4,"station_id":"KMO","is_transit":false,"i_long":106.839204,"i_lat":-6.161728,"line":11,"station_name":"Kemayoran","distance":1436,"transit":false},{"i_long":106.836569,"line":11,"station_id":"RJW","station_name":"Rajawali","time":5,"distance":1901,"transit":false,"is_transit":false,"i_lat":-6.14505},{"time":3,"is_transit":true,"distance":1444,"station_name":"Kampung Bandan","transit":true,"station_id":"KPB","i_lat":-6.132549,"i_long":106.826365,"line":4},{"i_long":106.79867,"is_transit":false,"station_id":"AK","i_lat":-6.144674,"time":9,"distance":4102,"station_name":"Angke","line":1,"transit":false},{"time":4,"is_transit":false,"station_id":"DU","i_lat":-6.155215,"distance":1230,"transit":false,"i_long":106.800832,"line":1,"station_name":"Duri"},{"station_id":"THB","i_long":106.811091,"distance":3632,"is_transit":false,"station_name":"Tanah Abang","line":1,"i_lat":-6.185545,"transit":false,"time":8},{"i_long":106.816351,"i_lat":-6.20132,"time":5,"station_name":"Karet","transit":false,"line":1,"station_id":"KAT","distance":2029,"is_transit":false},{"time":1,"transit":false,"distance":471,"station_id":"SUDB","i_lat":-6.201433,"i_long":106.819881,"line":1,"station_name":"Sudirman Baru","is_transit":false},{"station_id":"SUD","distance":280,"station_name":"Sudirman","is_transit":false,"i_long":106.822649,"line":1,"transit":false,"i_lat":-6.202263,"time":1},{"station_name":"Manggarai","station_id":"MRI","transit":true,"i_lat":-6.209883,"distance":3186,"is_transit":true,"line":2,"time":4,"i_long":106.84912},{"i_long":106.840169,"station_name":"Cikini","time":4,"is_transit":false,"distance":1590,"station_id":"CKI","i_lat":-6.198556,"line":2,"transit":false},{"i_lat":-6.186295,"line":2,"station_id":"GDD","station_name":"Gondangdia","is_transit":false,"i_long":106.832183,"transit":false,"distance":1750,"time":3},{"line":2,"i_long":106.828284,"distance":2015,"transit":false,"i_lat":-6.166716,"station_id":"JUA","station_name":"Juanda","is_transit":false,"time":4},{"i_long":106.827103,"station_id":"SW","station_name":"Sawah Besar","distance":1149,"transit":false,"is_transit":false,"i_lat":-6.160725,"time":2,"line":2}],[{"station_id":"GST","i_lat":-6.185975,"time":0,"distance":0,"line":11,"is_transit":false,"transit":false,"station_name":"Gang Sentiong","i_long":106.850107},{"i_lat":-6.193792,"distance":973,"line":11,"is_transit":false,"station_name":"Kramat","transit":false,"time":1,"station_id":"KMT","i_long":106.855437},{"i_lat":-6.209188,"is_transit":false,"transit":false,"station_id":"POK","station_name":"Pondok Jati","line":11,"distance":1829,"i_long":106.861737,"time":2},{"station_id":"JNG","is_transit":true,"transit":true,"line":1,"distance":1236,"time":9,"station_name":"Jatinegara","i_lat":-6.215091,"i_long":106.86807400000001},{"station_name":"Matraman","station_id":"MTR","time":2,"distance":1377,"is_transit":false,"i_long":106.858896,"i_lat":-6.212485,"transit":false,"line":1},{"distance":1275,"station_name":"Manggarai","transit":false,"line":2,"is_transit":false,"time":2,"i_lat":-6.209883,"i_long":106.84912,"station_id":"MRI"},{"distance":3186,"transit":false,"time":4,"station_id":"SUD","i_lat":-6.202263,"i_long":106.822649,"is_transit":false,"line":1,"station_name":"Sudirman"},{"i_long":106.819881,"is_transit":false,"line":1,"i_lat":-6.201433,"time":1,"transit":false,"distance":280,"station_id":"SUDB","station_name":"Sudirman Baru"},{"transit":false,"is_transit":false,"station_id":"KAT","distance":471,"i_long":106.816351,"line":1,"station_name":"Karet","time":1,"i_lat":-6.20132},{"station_id":"THB","line":1,"transit":false,"i_lat":-6.185545,"station_name":"Tanah Abang","time":5,"i_long":106.811091,"distance":2029,"is_transit":false},{"distance":3632,"is_transit":false,"station_name":"Duri","i_lat":-6.155215,"i_long":106.800832,"time":8,"transit":false,"line":1,"station_id":"DU"},{"time":4,"station_id":"AK","is_transit":false,"distance":1230,"transit":false,"i_long":106.79867,"station_name":"Angke","line":1,"i_lat":-6.144674},{"time":9,"station_name":"Kampung Bandan","i_long":106.826365,"transit":true,"station_id":"KPB","distance":4102,"is_transit":true,"i_lat":-6.132549,"line":4},{"line":2,"i_lat":-6.137569,"i_long":106.812439,"time":3,"station_id":"JAKK","is_transit":true,"transit":true,"station_name":"Jakarta Kota","distance":1364},{"i_long":106.820901,"station_name":"Jayakarta","is_transit":false,"i_lat":-6.141205,"station_id":"JAY","line":2,"time":4,"distance":1264,"transit":false},{"i_long":106.82482,"line":2,"time":2,"distance":1080,"station_name":"Manggabesar","transit":false,"i_lat":-6.149769,"is_transit":false,"station_id":"MGB"},{"distance":906,"station_name":"Sawah Besar","station_id":"SW","i_lat":-6.160725,"line":2,"time":2,"is_transit":false,"i_long":106.827103,"transit":false}]]}