{"data":[[{"i_lat":-6.185975,"i_long":106.850107,"station_id":"GST","is_transit":false,"station_name":"Gang Sentiong","line":11,"distance":0,"transit":false,"time":0},{"station_id":"PSE","i_lat":-6.174784,"is_transit":false,"station_name":"Pasar Senen","line":11,"transit":false,"i_long":106.84368,"distance":1567,"time":8},{"line":11,"distance":1436,"station_name":"Kemayoran","transit":false,"i_lat":-6.161728,"i_long":106.839204,"station_id":"KMO","time":4,"is_transit":false},{"station_name":"Rajawali","transit":false,"i_long":106.836569,"distance":1901,"time":5,"line":11,"station_id":"RJW","i_lat":-6.14505,"is_transit":false},{"station_name":"Kampung Bandan","is_transit":true,"distance":1444,"time":3,"i_lat":-6.132549,"station_id":"KPB","i_long":106.826365,"transit":true,"line":4},{"station_id":"AK","station_name":"Angke","transit":false,"distance":4102,"is_transit":false,"i_lat":-6.144674,"time":9,"i_long":106.79867,"line":1},{"transit":false,"i_long":106.800832,"distance":1230,"station_name":"Duri","is_transit":false,"time":4,"station_id":"DU","i_lat":-6.155215,"line":1},{"is_transit":true,"transit":true,"distance":3632,"i_lat":-6.185545,"time":8,"station_id":"THB","line":1,"i_long":106.811091,"station_name":"Tanah Abang"},{"distance":3191,"i_long":106.79689,"line":6,"station_id":"PLM","station_name":"Palmerah","time":6,"i_lat":-6.207404,"transit":false,"is_transit":false},{"distance":3737,"station_name":"Kebayoran","line":6,"transit":false,"station_id":"KBY","is_transit":false,"i_long":106.780334,"time":7,"i_lat":-6.237242},{"time":8,"station_id":"PDJ","i_lat":-6.276362,"i_long":106.74273,"distance":6218,"station_name":"Pondokranji","transit":false,"is_transit":false,"line":6},{"station_name":"Jurangmangu","transit":false,"distance":2179,"i_lat":-6.288927,"i_long":106.728916,"is_transit":false,"time":3,"station_id":"JMU","line":6},{"transit":false,"time":4,"distance":1994,"station_id":"SDM","i_lat":-6.296963,"line":6,"station_name":"Sudimara","i_long":106.712277,"is_transit":false},{"i_lat":-6.314823,"i_long":106.675475,"line":6,"distance":4566,"station_id":"RU","transit":false,"time":6,"station_name":"Rawa Buntu","is_transit":false},{"distance":2413,"i_long":106.66566,"time":4,"transit":false,"i_lat":-6.319871,"line":6,"station_name":"Serpong","is_transit":false,"station_id":"SRP"},{"station_id":"CSK","station_name":"Cisauk","i_lat":-6.32484,"i_long":106.640411,"is_transit":false,"transit":false,"time":4,"distance":1784,"line":3},{"distance":2519,"transit":false,"station_id":"CC","i_long":106.617853,"time":4,"station_name":"Cicayur","is_transit":false,"line":3,"i_lat":-6.329547},{"time":8,"i_lat":-6.3441410000000005,"is_transit":false,"distance":5968,"i_long":106.568863,"station_id":"PRP","line":6,"station_name":"Parung Panjang","transit":false}],[{"transit":false,"time":0,"station_id":"GST","is_transit":false,"i_lat":-6.185975,"station_name":"Gang Sentiong","i_long":106.850107,"line":11,"distance":0},{"i_lat":-6.193792,"is_transit":false,"distance":973,"i_long":106.855437,"transit":false,"station_id":"KMT","station_name":"Kramat","line":11,"time":1},{"distance":1829,"line":11,"station_name":"Pondok Jati","i_long":106.861737,"time":2,"i_lat":-6.209188,"is_transit":false,"transit":false,"station_id":"POK"},{"i_long":106.86807400000001,"distance":1236,"is_transit":true,"time":9,"transit":true,"station_name":"Jatinegara","i_lat":-6.215091,"station_id":"JNG","line":1},{"station_id":"MTR","distance":1377,"i_lat":-6.212485,"i_long":106.858896,"station_name":"Matraman","time":2,"is_transit":false,"line":1,"transit":false},{"station_id":"MRI","line":2,"i_lat":-6.209883,"i_long":106.84912,"is_transit":false,"distance":1275,"station_name":"Manggarai","transit":false,"time":2},{"station_name":"Sudirman","distance":3186,"i_long":106.822649,"is_transit":false,"transit":false,"line":1,"station_id":"SUD","i_lat":-6.202263,"time":4},{"i_lat":-6.201433,"station_name":"Sudirman Baru","is_transit":false,"transit":false,"line":1,"i_long":106.819881,"time":1,"distance":280,"station_id":"SUDB"},{"i_lat":-6.20132,"line":1,"distance":471,"station_name":"Karet","is_transit":false,"i_long":106.816351,"station_id":"KAT","transit":false,"time":1},{"station_id":"THB","distance":2029,"i_long":106.811091,"time":5,"transit":true,"station_name":"Tanah Abang","i_lat":-6.185545,"line":1,"is_transit":true},{"line":6,"i_long":106.79689,"i_lat":-6.207404,"station_id":"PLM","transit":false,"time":6,"station_name":"Palmerah","is_transit":false,"distance":3191},{"station_name":"Kebayoran","transit":false,"station_id":"KBY","i_long":106.780334,"line":6,"time":7,"i_lat":-6.237242,"is_transit":false,"distance":3737},{"transit":false,"line":6,"station_name":"Pondokranji","is_transit":false,"distance":6218,"station_id":"PDJ","i_lat":-6.276362,"time":8,"i_long":106.74273},{"line":6,"station_name":"Jurangmangu","i_lat":-6.288927,"time":3,"transit":false,"distance":2179,"station_id":"JMU","i_long":106.728916,"is_transit":false},{"i_lat":-6.296963,"is_transit":false,"station_id":"SDM","i_long":106.712277,"transit":false,"distance":1994,"line":6,"time":4,"station_name":"Sudimara"},{"station_name":"Rawa Buntu","line":6,"transit":false,"station_id":"RU","is_transit":false,"time":6,"distance":4566,"i_lat":-6.314823,"i_long":106.675475},{"transit":false,"is_transit":false,"i_lat":-6.319871,"line":6,"station_id":"SRP","station_name":"Serpong","time":4,"distance":2413,"i_long":106.66566},{"station_id":"CSK","distance":1784,"line":3,"transit":false,"time":4,"i_long":106.640411,"station_name":"Cisauk","is_transit":false,"i_lat":-6.32484},{"line":3,"time":4,"distance":2519,"is_transit":false,"i_lat":-6.329547,"i_long":106.617853,"station_name":"Cicayur","station_id":"CC","transit":false},{"distance":5968,"transit":false,"station_id":"PRP","station_name":"Parung Panjang","is_transit":false,"time":8,"i_lat":-6.3441410000000005,"i_long":106.568863,"line":6}],[{"time":0,"i_lat":-6.185975,"station_name":"Gang Sentiong","is_transit":false,"transit":false,"distance":0,"station_id":"GST","line":11,"i_long":106.850107},{"time":1,"station_name":"Kramat","station_id":"KMT","i_lat":-6.193792,"i_long":106.855437,"is_transit":false,"line":11,"transit":false,"distance":973},{"transit":false,"distance":1829,"station_id":"POK","i_lat":-6.209188,"i_long":106.861737,"time":2,"station_name":"Pondok Jati","line":11,"is_transit":false},{"i_long":106.86807400000001,"transit":true,"line":1,"time":9,"distance":1236,"station_id":"JNG","station_name":"Jatinegara","is_transit":true,"i_lat":-6.215091},{"time":2,"distance":1377,"i_long":106.858896,"i_lat":-6.212485,"line":1,"is_transit":false,"transit":false,"station_id":"MTR","station_name":"Matraman"},{"i_lat":-6.209883,"i_long":106.84912,"line":2,"station_id":"MRI","distance":1275,"time":2,"is_transit":true,"station_name":"Manggarai","transit":true},{"station_name":"Cikini","is_transit":false,"station_id":"CKI","i_long":106.840169,"line":2,"distance":1590,"i_lat":-6.198556,"transit":false,"time":4},{"i_long":106.832183,"station_name":"Gondangdia","transit":false,"distance":1750,"station_id":"GDD","i_lat":-6.186295,"is_transit":false,"time":3,"line":2},{"distance":2015,"time":4,"i_lat":-6.166716,"is_transit":false,"station_id":"JUA","transit":false,"i_long":106.828284,"line":2,"station_name":"Juanda"},{"station_name":"Sawah Besar","line":2,"time":2,"distance":1149,"i_lat":-6.160725,"i_long":106.827103,"is_transit":false,"transit":false,"station_id":"SW"},{"line":2,"i_long":106.82482,"distance":906,"time":2,"station_name":"Manggabesar","transit":false,"i_lat":-6.149769,"station_id":"MGB","is_transit":false},{"i_lat":-6.141205,"distance":1080,"station_name":"Jayakarta","is_transit":false,"transit":false,"station_id":"JAY","time":2,"line":2,"i_long":106.820901},{"station_name":"Jakarta Kota","line":2,"station_id":"JAKK","distance":1264,"i_long":106.812439,"transit":true,"is_transit":true,"time":4,"i_lat":-6.137569},{"i_lat":-6.132549,"time":3,"line":4,"transit":true,"is_transit":true,"i_long":106.826365,"distance":1364,"station_name":"Kampung Bandan","station_id":"KPB"},{"distance":4102,"transit":false,"is_transit":false,"station_name":"Angke","i_long":106.79867,"line":1,"station_id":"AK","time":9,"i_lat":-6.144674},{"distance":1230,"transit":false,"station_name":"Duri","is_transit":false,"station_id":"DU","i_lat":-6.155215,"i_long":106.800832,"line":1,"time":4},{"station_id":"THB","is_transit":true,"station_name":"Tanah Abang","time":8,"line":1,"i_lat":-6.185545,"i_long":106.811091,"transit":true,"distance":3632},{"station_id":"PLM","is_transit":false,"i_lat":-6.207404,"station_name":"Palmerah","transit":false,"i_long":106.79689,"line":6,"time":6,"distance":3191},{"is_transit":false,"transit":false,"station_id":"KBY","station_name":"Kebayoran","i_lat":-6.237242,"i_long":106.780334,"time":7,"distance":3737,"line":6},{"is_transit":false,"transit":false,"distance":6218,"i_long":106.74273,"station_name":"Pondokranji","station_id":"PDJ","line":6,"i_lat":-6.276362,"time":8},{"station_name":"Jurangmangu","line":6,"station_id":"JMU","is_transit":false,"transit":false,"i_long":106.728916,"distance":2179,"time":3,"i_lat":-6.288927},{"distance":1994,"time":4,"station_name":"Sudimara","station_id":"SDM","line":6,"is_transit":false,"transit":false,"i_long":106.712277,"i_lat":-6.296963},{"is_transit":false,"transit":false,"station_id":"RU","i_long":106.675475,"i_lat":-6.314823,"distance":4566,"time":6,"line":6,"station_name":"Rawa Buntu"},{"i_lat":-6.319871,"station_name":"Serpong","distance":2413,"time":4,"transit":false,"i_long":106.66566,"station_id":"SRP","line":6,"is_transit":false},{"i_lat":-6.32484,"station_name":"Cisauk","transit":false,"is_transit":false,"time":4,"station_id":"CSK","i_long":106.640411,"line":3,"distance":1784},{"i_long":106.617853,"station_name":"Cicayur","time":4,"station_id":"CC","line":3,"transit":false,"i_lat":-6.329547,"distance":2519,"is_transit":false},{"line":6,"transit":false,"station_id":"PRP","i_lat":-6.3441410000000005,"station_name":"Parung Panjang","time":8,"distance":5968,"i_long":106.568863,"is_transit":false}],[{"time":0,"line":11,"i_lat":-6.185975,"station_id":"GST","station_name":"Gang Sentiong","is_transit":false,"i_long":106.850107,"transit":false,"distance":0},{"i_long":106.84368,"station_name":"Pasar Senen","is_transit":false,"transit":false,"station_id":"PSE","line":11,"i_lat":-6.174784,"time":8,"distance":1567},{"line":11,"distance":1436,"is_transit":false,"i_long":106.839204,"i_lat":-6.161728,"transit":false,"station_name":"Kemayoran","station_id":"KMO","time":4},{"line":11,"is_transit":false,"station_id":"RJW","i_long":106.836569,"i_lat":-6.14505,"transit":false,"station_name":"Rajawali","time":5,"distance":1901},{"line":4,"i_lat":-6.132549,"transit":true,"time":3,"distance":1444,"i_long":106.826365,"station_name":"Kampung Bandan","station_id":"KPB","is_transit":true},{"i_lat":-6.137569,"transit":true,"time":3,"station_id":"JAKK","distance":1364,"i_long":106.812439,"station_name":"Jakarta Kota","line":2,"is_transit":true},{"time":4,"i_lat":-6.141205,"line":2,"is_transit":false,"transit":false,"station_name":"Jayakarta","station_id":"JAY","i_long":106.820901,"distance":1264},{"transit":false,"distance":1080,"line":2,"i_lat":-6.149769,"i_long":106.82482,"time":2,"is_transit":false,"station_name":"Manggabesar","station_id":"MGB"},{"station_name":"Sawah Besar","transit":false,"i_long":106.827103,"line":2,"station_id":"SW","i_lat":-6.160725,"is_transit":false,"time":2,"distance":906},{"is_transit":false,"line":2,"transit":false,"time":2,"i_long":106.828284,"station_name":"Juanda","station_id":"JUA","i_lat":-6.166716,"distance":1149},{"i_lat":-6.186295,"is_transit":false,"station_id":"GDD","i_long":106.832183,"station_name":"Gondangdia","line":2,"transit":false,"time":4,"distance":2015},{"is_transit":false,"station_name":"Cikini","time":3,"station_id":"CKI","transit":false,"distance":1750,"i_long":106.840169,"i_lat":-6.198556,"line":2},{"transit":true,"station_name":"Manggarai","time":4,"i_lat":-6.209883,"i_long":106.84912,"station_id":"MRI","line":2,"is_transit":true,"distance":1590},{"distance":3186,"i_long":106.822649,"line":1,"i_lat":-6.202263,"station_name":"Sudirman","transit":false,"station_id":"SUD","is_transit":false,"time":4},{"station_name":"Sudirman Baru","time":1,"distance":280,"is_transit":false,"i_long":106.819881,"transit":false,"line":1,"station_id":"SUDB","i_lat":-6.201433},{"transit":false,"i_long":106.816351,"line":1,"distance":471,"is_transit":false,"i_lat":-6.20132,"time":1,"station_id":"KAT","station_name":"Karet"},{"i_long":106.811091,"station_name":"Tanah Abang","line":1,"i_lat":-6.185545,"is_transit":true,"station_id":"THB","distance":2029,"time":5,"transit":true},{"distance":3191,"time":6,"i_long":106.79689,"station_id":"PLM","is_transit":false,"station_name":"Palmerah","transit":false,"i_lat":-6.207404,"line":6},{"distance":3737,"i_lat":-6.237242,"station_name":"Kebayoran","i_long":106.780334,"line":6,"is_transit":false,"time":7,"transit":false,"station_id":"KBY"},{"i_long":106.74273,"station_name":"Pondokranji","i_lat":-6.276362,"station_id":"PDJ","is_transit":false,"distance":6218,"time":8,"transit":false,"line":6},{"transit":false,"time":3,"station_id":"JMU","station_name":"Jurangmangu","distance":2179,"i_long":106.728916,"line":6,"i_lat":-6.288927,"is_transit":false},{"station_name":"Sudimara","transit":false,"time":4,"i_long":106.712277,"distance":1994,"is_transit":false,"i_lat":-6.296963,"station_id":"SDM","line":6},{"time":6,"station_name":"Rawa Buntu","transit":false,"is_transit":false,"station_id":"RU","distance":4566,"i_long":106.675475,"i_lat":-6.314823,"line":6},{"line":6,"distance":2413,"i_lat":-6.319871,"station_name":"Serpong","is_transit":false,"time":4,"i_long":106.66566,"transit":false,"station_id":"SRP"},{"line":3,"time":4,"is_transit":false,"station_name":"Cisauk","transit":false,"distance":1784,"station_id":"CSK","i_lat":-6.32484,"i_long":106.640411},{"transit":false,"line":3,"time":4,"distance":2519,"i_long":106.617853,"i_lat":-6.329547,"is_transit":false,"station_name":"Cicayur","station_id":"CC"},{"is_transit":false,"transit":false,"station_id":"PRP","i_long":106.568863,"time":8,"line":6,"i_lat":-6.3441410000000005,"distance":5968,"station_name":"Parung Panjang"}]]}