{"data":[[{"i_long":106.850107,"station_name":"Gang Sentiong","time":0,"station_id":"GST","is_transit":false,"transit":false,"i_lat":-6.185975,"distance":0,"line":11},{"station_name":"Kramat","distance":973,"is_transit":false,"line":11,"transit":false,"i_lat":-6.193792,"time":1,"station_id":"KMT","i_long":106.855437},{"transit":false,"station_name":"Pondok Jati","distance":1829,"i_lat":-6.209188,"time":2,"is_transit":false,"i_long":106.861737,"line":11,"station_id":"POK"},{"transit":true,"i_long":106.86807400000001,"line":1,"station_id":"JNG","i_lat":-6.215091,"station_name":"Jatinegara","distance":1236,"is_transit":true,"time":9},{"station_id":"KLD","is_transit":false,"transit":false,"i_lat":-6.2135,"station_name":"Klender","time":3,"distance":3395,"i_long":106.899548,"line":1},{"i_lat":-6.215568,"transit":false,"i_long":106.922662,"station_name":"Buaran","distance":3100,"is_transit":false,"line":1,"time":2,"station_id":"BUA"},{"time":1,"station_name":"Klenderbaru","transit":false,"station_id":"KLDB","line":1,"i_lat":-6.217455,"is_transit":false,"distance":1305,"i_long":106.939679},{"line":1,"time":8,"station_name":"Cakung","i_long":106.951283,"is_transit":false,"transit":false,"distance":1385,"station_id":"CUK","i_lat":-6.219053},{"station_id":"KRI","time":3,"transit":false,"i_lat":-6.224515,"station_name":"Kranji","is_transit":false,"i_long":106.977657,"distance":3097,"line":1}],[{"i_lat":-6.185975,"transit":false,"is_transit":false,"distance":0,"station_name":"Gang Sentiong","line":11,"i_long":106.850107,"time":0,"station_id":"GST"},{"station_id":"PSE","transit":false,"is_transit":false,"time":8,"distance":1567,"station_name":"Pasar Senen","i_lat":-6.174784,"line":11,"i_long":106.84368},{"i_long":106.839204,"station_id":"KMO","transit":false,"is_transit":false,"distance":1436,"line":11,"station_name":"Kemayoran","time":4,"i_lat":-6.161728},{"i_lat":-6.14505,"is_transit":false,"i_long":106.836569,"distance":1901,"station_id":"RJW","time":5,"station_name":"Rajawali","transit":false,"line":11},{"i_long":106.826365,"line":4,"i_lat":-6.132549,"transit":true,"station_id":"KPB","station_name":"Kampung Bandan","time":3,"distance":1444,"is_transit":true},{"station_name":"Angke","i_long":106.79867,"distance":4102,"i_lat":-6.144674,"is_transit":false,"station_id":"AK","time":9,"line":1,"transit":false},{"transit":false,"distance":1230,"station_name":"Duri","time":4,"line":1,"i_lat":-6.155215,"station_id":"DU","i_long":106.800832,"is_transit":false},{"distance":3632,"time":8,"station_name":"Tanah Abang","station_id":"THB","is_transit":false,"i_lat":-6.185545,"i_long":106.811091,"line":1,"transit":false},{"station_id":"KAT","i_lat":-6.20132,"transit":false,"i_long":106.816351,"is_transit":false,"distance":2029,"time":5,"station_name":"Karet","line":1},{"distance":471,"is_transit":false,"station_name":"Sudirman Baru","time":1,"station_id":"SUDB","i_long":106.819881,"transit":false,"i_lat":-6.201433,"line":1},{"is_transit":false,"transit":false,"line":1,"time":1,"i_long":106.822649,"distance":280,"station_name":"Sudirman","station_id":"SUD","i_lat":-6.202263},{"station_name":"Manggarai","time":4,"is_transit":false,"i_lat":-6.209883,"distance":3186,"line":2,"transit":false,"i_long":106.84912,"station_id":"MRI"},{"distance":1275,"station_name":"Matraman","time":2,"transit":false,"i_lat":-6.212485,"station_id":"MTR","line":1,"is_transit":false,"i_long":106.858896},{"time":8,"i_lat":-6.215091,"distance":1377,"line":1,"i_long":106.86807400000001,"is_transit":false,"station_name":"Jatinegara","transit":false,"station_id":"JNG"},{"time":3,"is_transit":false,"station_id":"KLD","transit":false,"station_name":"Klender","i_long":106.899548,"i_lat":-6.2135,"distance":3395,"line":1},{"transit":false,"station_id":"BUA","station_name":"Buaran","line":1,"distance":3100,"i_long":106.922662,"i_lat":-6.215568,"time":2,"is_transit":false},{"is_transit":false,"time":1,"distance":1305,"station_name":"Klenderbaru","transit":false,"station_id":"KLDB","i_lat":-6.217455,"i_long":106.939679,"line":1},{"i_lat":-6.219053,"line":1,"distance":1385,"is_transit":false,"i_long":106.951283,"time":8,"station_id":"CUK","station_name":"Cakung","transit":false},{"transit":false,"is_transit":false,"line":1,"distance":3097,"station_name":"Kranji","i_long":106.977657,"i_lat":-6.224515,"time":3,"station_id":"KRI"}],[{"time":0,"i_lat":-6.185975,"is_transit":false,"line":11,"distance":0,"station_id":"GST","station_name":"Gang Sentiong","i_long":106.850107,"transit":false},{"station_name":"Pasar Senen","time":8,"i_lat":-6.174784,"distance":1567,"transit":false,"is_transit":false,"i_long":106.84368,"station_id":"PSE","line":11},{"station_id":"KMO","i_long":106.839204,"transit":false,"station_name":"Kemayoran","distance":1436,"line":11,"time":4,"is_transit":false,"i_lat":-6.161728},{"is_transit":false,"transit":false,"distance":1901,"station_id":"RJW","station_name":"Rajawali","i_lat":-6.14505,"i_long":106.836569,"line":11,"time":5},{"is_transit":true,"station_id":"KPB","i_lat":-6.132549,"distance":1444,"station_name":"Kampung Bandan","i_long":106.826365,"time":3,"line":4,"transit":true},{"is_transit":true,"i_long":106.812439,"station_id":"JAKK","distance":1364,"transit":true,"station_name":"Jakarta Kota","i_lat":-6.137569,"time":3,"line":2},{"line":2,"station_name":"Jayakarta","station_id":"JAY","time":4,"i_lat":-6.141205,"i_long":106.820901,"is_transit":false,"distance":1264,"transit":false},{"transit":false,"time":2,"is_transit":false,"distance":1080,"station_name":"Manggabesar","i_lat":-6.149769,"i_long":106.82482,"line":2,"station_id":"MGB"},{"station_id":"SW","distance":906,"is_transit":false,"station_name":"Sawah Besar","line":2,"time":2,"transit":false,"i_long":106.827103,"i_lat":-6.160725},{"station_name":"Juanda","station_id":"JUA","i_lat":-6.166716,"is_transit":false,"time":2,"transit":false,"distance":1149,"i_long":106.828284,"line":2},{"i_lat":-6.186295,"distance":2015,"i_long":106.832183,"time":4,"station_id":"GDD","transit":false,"line":2,"station_name":"Gondangdia","is_transit":false},{"station_name":"Cikini","transit":false,"i_lat":-6.198556,"line":2,"is_transit":false,"distance":1750,"time":3,"station_id":"CKI","i_long":106.840169},{"time":4,"is_transit":true,"distance":1590,"station_id":"MRI","i_long":106.84912,"transit":true,"station_name":"Manggarai","i_lat":-6.209883,"line":2},{"i_lat":-6.212485,"line":1,"transit":false,"station_id":"MTR","distance":1275,"station_name":"Matraman","time":2,"i_long":106.858896,"is_transit":false},{"i_lat":-6.215091,"is_transit":false,"distance":1377,"station_name":"Jatinegara","line":1,"station_id":"JNG","i_long":106.86807400000001,"time":8,"transit":false},{"station_name":"Klender","station_id":"KLD","i_long":106.899548,"is_transit":false,"i_lat":-6.2135,"line":1,"distance":3395,"time":3,"transit":false},{"is_transit":false,"transit":false,"distance":3100,"station_id":"BUA","station_name":"Buaran","i_lat":-6.215568,"i_long":106.922662,"time":2,"line":1},{"station_id":"KLDB","distance":1305,"i_long":106.939679,"time":1,"transit":false,"station_name":"Klenderbaru","i_lat":-6.217455,"line":1,"is_transit":false},{"line":1,"i_long":106.951283,"i_lat":-6.219053,"station_id":"CUK","time":8,"transit":false,"is_transit":false,"station_name":"Cakung","distance":1385},{"station_name":"Kranji","transit":false,"station_id":"KRI","i_long":106.977657,"line":1,"time":3,"i_lat":-6.224515,"is_transit":false,"distance":3097}]]}