{"data":[[{"transit":false,"line":11,"i_long":106.850107,"i_lat":-6.185975,"distance":0,"station_name":"Gang Sentiong","is_transit":false,"time":0,"station_id":"GST"},{"station_name":"Kramat","transit":false,"i_lat":-6.193792,"time":1,"i_long":106.855437,"line":11,"station_id":"KMT","is_transit":false,"distance":973},{"station_name":"Pondok Jati","i_long":106.861737,"line":11,"station_id":"POK","transit":false,"i_lat":-6.209188,"time":2,"distance":1829,"is_transit":false},{"line":0,"is_transit":true,"station_id":"JNG","i_lat":-6.215091,"distance":1236,"time":9,"transit":true,"i_long":106.86807400000001,"station_name":"Jatinegara"},{"line":1,"i_lat":-6.212485,"time":2,"transit":false,"distance":1377,"station_name":"Matraman","station_id":"MTR","is_transit":false,"i_long":106.858896},{"distance":1275,"i_lat":-6.209883,"i_long":106.84912,"is_transit":true,"line":0,"station_id":"MRI","station_name":"Manggarai","transit":true,"time":2},{"transit":false,"station_name":"Tebet","distance":2610,"i_long":106.857948,"line":2,"i_lat":-6.226659,"time":4,"station_id":"TEB","is_transit":false},{"is_transit":false,"line":0,"station_name":"Cawang","i_long":106.856607,"transit":false,"distance":1230,"time":2,"station_id":"CW","i_lat":-6.242512},{"station_name":"Duren Kalibata","transit":false,"i_long":106.85449,"distance":1546,"is_transit":false,"line":0,"i_lat":-6.255332,"station_id":"DRN","time":3},{"is_transit":false,"transit":false,"i_lat":-6.263214,"i_long":106.851577,"distance":824,"time":2,"station_name":"Pasar Minggu Baru","station_id":"PSMB","line":2},{"transit":false,"line":2,"is_transit":false,"i_lat":-6.2842400000000005,"i_long":106.843999,"station_id":"PSM","time":2,"station_name":"Pasar Minggu","distance":2380},{"i_lat":-6.3080680000000005,"time":4,"station_id":"TNT","distance":2820,"line":2,"transit":false,"is_transit":false,"station_name":"Tanjung Barat","i_long":106.838896},{"transit":false,"is_transit":false,"line":2,"time":3,"i_lat":-6.330363,"station_name":"Lenteng Agung","distance":2671,"i_long":106.832616,"station_id":"LNA"},{"time":2,"station_name":"Univ. Pancasila","is_transit":false,"transit":false,"distance":1029,"line":2,"station_id":"UP","i_long":106.834175,"i_lat":-6.339291},{"line":2,"station_name":"Univ. Indonesia","distance":2264,"i_long":106.831474,"is_transit":false,"i_lat":-6.360749,"station_id":"UI","transit":false,"time":3},{"i_lat":-6.369073,"transit":false,"distance":1109,"station_name":"Pondok Cina","time":2,"line":2,"is_transit":false,"i_long":106.831114,"station_id":"POC"},{"station_name":"Depokbaru","time":4,"is_transit":false,"transit":false,"i_long":106.819451,"line":0,"station_id":"DPB","i_lat":-6.391065,"distance":2727},{"is_transit":false,"transit":false,"station_id":"DP","i_lat":-6.405256,"distance":1584,"i_long":106.816926,"line":0,"time":3,"station_name":"Depok"},{"time":6,"transit":false,"station_id":"CTA","i_lat":-6.448811,"is_transit":true,"line":1,"station_name":"Citayam","distance":5084,"i_long":106.800298},{"i_long":106.851978,"distance":6740,"i_lat":-6.46424,"is_transit":false,"time":10,"station_name":"Cibinong","transit":false,"line":0,"station_id":"CBN"},{"i_long":106.905196,"station_name":"Nambo","station_id":"NMO","is_transit":false,"transit":false,"i_lat":-6.466285,"time":10,"line":21,"distance":6527}],[{"distance":0,"i_long":106.850107,"i_lat":-6.185975,"line":11,"station_id":"GST","transit":false,"is_transit":false,"time":0,"station_name":"Gang Sentiong"},{"station_id":"PSE","time":8,"i_long":106.84368,"line":11,"is_transit":false,"i_lat":-6.174784,"transit":false,"station_name":"Pasar Senen","distance":1567},{"time":4,"is_transit":false,"station_name":"Kemayoran","i_lat":-6.161728,"station_id":"KMO","transit":false,"i_long":106.839204,"distance":1436,"line":11},{"is_transit":false,"station_id":"RJW","station_name":"Rajawali","i_lat":-6.14505,"transit":false,"line":11,"time":5,"i_long":106.836569,"distance":1901},{"time":3,"i_long":106.826365,"is_transit":true,"transit":true,"distance":1444,"station_id":"KPB","station_name":"Kampung Bandan","i_lat":-6.132549,"line":0},{"i_lat":-6.144674,"line":0,"time":9,"distance":4102,"station_id":"AK","is_transit":false,"transit":false,"station_name":"Angke","i_long":106.79867},{"line":1,"station_name":"Duri","i_lat":-6.155215,"time":4,"transit":true,"station_id":"DU","distance":1230,"i_long":106.800832,"is_transit":true},{"transit":false,"time":8,"is_transit":true,"line":1,"i_long":106.811091,"station_name":"Tanah Abang","station_id":"THB","distance":3632,"i_lat":-6.185545},{"station_id":"KAT","station_name":"Karet","line":1,"distance":2029,"time":5,"i_lat":-6.20132,"i_long":106.816351,"transit":false,"is_transit":false},{"i_lat":-6.201433,"is_transit":false,"station_name":"Sudirman Baru","line":1,"transit":false,"i_long":106.819881,"station_id":"SUDB","distance":471,"time":1},{"station_name":"Sudirman","distance":280,"i_long":106.822649,"is_transit":false,"station_id":"SUD","i_lat":-6.202263,"time":1,"line":1,"transit":false},{"i_long":106.84912,"line":0,"transit":true,"is_transit":true,"i_lat":-6.209883,"time":4,"station_name":"Manggarai","station_id":"MRI","distance":3186},{"time":4,"station_name":"Tebet","i_lat":-6.226659,"distance":2610,"line":2,"is_transit":false,"station_id":"TEB","transit":false,"i_long":106.857948},{"transit":false,"i_lat":-6.242512,"distance":1230,"is_transit":false,"i_long":106.856607,"station_name":"Cawang","line":0,"time":2,"station_id":"CW"},{"time":3,"i_lat":-6.255332,"transit":false,"is_transit":false,"line":0,"distance":1546,"i_long":106.85449,"station_name":"Duren Kalibata","station_id":"DRN"},{"is_transit":false,"station_id":"PSMB","transit":false,"distance":824,"station_name":"Pasar Minggu Baru","i_long":106.851577,"line":2,"time":2,"i_lat":-6.263214},{"station_id":"PSM","transit":false,"line":2,"station_name":"Pasar Minggu","time":2,"i_lat":-6.2842400000000005,"distance":2380,"is_transit":false,"i_long":106.843999},{"station_id":"TNT","transit":false,"i_lat":-6.3080680000000005,"station_name":"Tanjung Barat","i_long":106.838896,"time":4,"line":2,"is_transit":false,"distance":2820},{"station_id":"LNA","is_transit":false,"transit":false,"distance":2671,"station_name":"Lenteng Agung","line":2,"time":3,"i_lat":-6.330363,"i_long":106.832616},{"time":2,"transit":false,"i_long":106.834175,"station_name":"Univ. Pancasila","station_id":"UP","i_lat":-6.339291,"distance":1029,"is_transit":false,"line":2},{"station_name":"Univ. Indonesia","is_transit":false,"transit":false,"distance":2264,"i_long":106.831474,"line":2,"i_lat":-6.360749,"station_id":"UI","time":3},{"line":2,"station_id":"POC","i_lat":-6.369073,"i_long":106.831114,"time":2,"station_name":"Pondok Cina","is_transit":false,"transit":false,"distance":1109},{"i_lat":-6.391065,"station_name":"Depokbaru","distance":2727,"line":0,"time":4,"is_transit":false,"transit":false,"station_id":"DPB","i_long":106.819451},{"station_id":"DP","distance":1584,"i_lat":-6.405256,"transit":false,"time":3,"is_transit":false,"i_long":106.816926,"line":0,"station_name":"Depok"},{"is_transit":true,"line":1,"station_name":"Citayam","i_lat":-6.448811,"time":6,"station_id":"CTA","transit":false,"distance":5084,"i_long":106.800298},{"distance":6740,"i_lat":-6.46424,"time":10,"is_transit":false,"station_id":"CBN","transit":false,"i_long":106.851978,"line":0,"station_name":"Cibinong"},{"i_long":106.905196,"station_id":"NMO","station_name":"Nambo","line":21,"distance":6527,"time":10,"transit":false,"is_transit":false,"i_lat":-6.466285}],[{"line":11,"transit":false,"i_lat":-6.185975,"station_name":"Gang Sentiong","i_long":106.850107,"is_transit":false,"time":0,"distance":0,"station_id":"GST"},{"line":11,"time":8,"station_id":"PSE","distance":1567,"station_name":"Pasar Senen","is_transit":false,"transit":false,"i_long":106.84368,"i_lat":-6.174784},{"time":4,"transit":false,"i_lat":-6.161728,"is_transit":false,"distance":1436,"i_long":106.839204,"station_id":"KMO","station_name":"Kemayoran","line":11},{"i_long":106.836569,"station_id":"RJW","line":11,"is_transit":false,"distance":1901,"time":5,"transit":false,"station_name":"Rajawali","i_lat":-6.14505},{"station_name":"Kampung Bandan","station_id":"KPB","i_lat":-6.132549,"time":3,"transit":true,"distance":1444,"line":0,"i_long":106.826365,"is_transit":true},{"distance":1364,"is_transit":true,"time":3,"station_name":"Jakarta Kota","transit":true,"i_lat":-6.137569,"i_long":106.812439,"line":0,"station_id":"JAKK"},{"i_lat":-6.141205,"station_name":"Jayakarta","is_transit":false,"distance":1264,"line":7,"time":4,"station_id":"JAY","transit":false,"i_long":106.820901},{"is_transit":false,"line":2,"time":2,"i_long":106.82482,"transit":false,"i_lat":-6.149769,"distance":1080,"station_name":"Manggabesar","station_id":"MGB"},{"is_transit":false,"station_id":"SW","distance":906,"station_name":"Sawah Besar","i_lat":-6.160725,"transit":false,"line":2,"time":2,"i_long":106.827103},{"distance":1149,"is_transit":false,"station_name":"Juanda","time":2,"i_lat":-6.166716,"transit":false,"i_long":106.828284,"station_id":"JUA","line":2},{"transit":false,"is_transit":false,"distance":2015,"i_lat":-6.186295,"time":4,"station_name":"Gondangdia","station_id":"GDD","line":2,"i_long":106.832183},{"i_lat":-6.198556,"station_id":"CKI","is_transit":false,"transit":false,"distance":1750,"i_long":106.840169,"line":0,"time":3,"station_name":"Cikini"},{"i_lat":-6.209883,"time":4,"line":0,"distance":1590,"i_long":106.84912,"is_transit":true,"transit":true,"station_name":"Manggarai","station_id":"MRI"},{"transit":false,"i_lat":-6.226659,"line":2,"is_transit":false,"i_long":106.857948,"station_id":"TEB","distance":2610,"station_name":"Tebet","time":4},{"station_name":"Cawang","is_transit":false,"i_long":106.856607,"transit":false,"station_id":"CW","line":0,"time":2,"i_lat":-6.242512,"distance":1230},{"station_name":"Duren Kalibata","station_id":"DRN","time":3,"line":0,"distance":1546,"i_long":106.85449,"i_lat":-6.255332,"is_transit":false,"transit":false},{"transit":false,"line":2,"station_name":"Pasar Minggu Baru","station_id":"PSMB","i_lat":-6.263214,"i_long":106.851577,"is_transit":false,"time":2,"distance":824},{"i_lat":-6.2842400000000005,"line":2,"station_id":"PSM","time":2,"station_name":"Pasar Minggu","transit":false,"distance":2380,"i_long":106.843999,"is_transit":false},{"distance":2820,"line":2,"i_long":106.838896,"transit":false,"time":4,"station_name":"Tanjung Barat","station_id":"TNT","i_lat":-6.3080680000000005,"is_transit":false},{"line":2,"time":3,"station_name":"Lenteng Agung","i_lat":-6.330363,"station_id":"LNA","distance":2671,"i_long":106.832616,"is_transit":false,"transit":false},{"i_long":106.834175,"line":2,"is_transit":false,"time":2,"station_name":"Univ. Pancasila","transit":false,"station_id":"UP","distance":1029,"i_lat":-6.339291},{"time":3,"distance":2264,"station_id":"UI","i_lat":-6.360749,"i_long":106.831474,"station_name":"Univ. Indonesia","transit":false,"line":2,"is_transit":false},{"line":2,"station_id":"POC","i_lat":-6.369073,"distance":1109,"station_name":"Pondok Cina","transit":false,"is_transit":false,"time":2,"i_long":106.831114},{"i_long":106.819451,"transit":false,"station_name":"Depokbaru","station_id":"DPB","distance":2727,"i_lat":-6.391065,"line":0,"is_transit":false,"time":4},{"station_name":"Depok","station_id":"DP","is_transit":false,"i_lat":-6.405256,"i_long":106.816926,"transit":false,"line":0,"distance":1584,"time":3},{"is_transit":true,"station_id":"CTA","i_lat":-6.448811,"i_long":106.800298,"line":1,"transit":false,"time":6,"station_name":"Citayam","distance":5084},{"is_transit":false,"distance":6740,"i_long":106.851978,"station_name":"Cibinong","station_id":"CBN","transit":false,"line":0,"time":10,"i_lat":-6.46424},{"time":10,"is_transit":false,"distance":6527,"transit":false,"line":21,"station_name":"Nambo","i_long":106.905196,"station_id":"NMO","i_lat":-6.466285}]]}