{"data":[[{"distance":0,"station_id":"GST","transit":false,"i_long":106.850107,"time":0,"station_name":"Gang Sentiong","i_lat":-6.185975,"line":11,"is_transit":false},{"time":8,"i_lat":-6.174784,"line":11,"i_long":106.84368,"is_transit":false,"station_id":"PSE","station_name":"Pasar Senen","transit":false,"distance":1567},{"distance":1436,"time":4,"station_id":"KMO","station_name":"Kemayoran","i_lat":-6.161728,"i_long":106.839204,"is_transit":false,"line":11,"transit":false},{"i_lat":-6.14505,"distance":1901,"time":5,"station_name":"Rajawali","i_long":106.836569,"transit":false,"station_id":"RJW","is_transit":false,"line":11},{"transit":true,"distance":1444,"time":3,"i_lat":-6.132549,"line":4,"is_transit":true,"station_id":"KPB","station_name":"Kampung Bandan","i_long":106.826365},{"line":1,"time":9,"station_id":"AK","distance":4102,"i_long":106.79867,"transit":false,"i_lat":-6.144674,"is_transit":false,"station_name":"Angke"},{"is_transit":false,"i_long":106.800832,"i_lat":-6.155215,"line":1,"station_id":"DU","time":4,"distance":1230,"transit":false,"station_name":"Duri"},{"time":8,"i_lat":-6.185545,"line":1,"is_transit":true,"distance":3632,"transit":true,"i_long":106.811091,"station_id":"THB","station_name":"Tanah Abang"},{"time":6,"is_transit":false,"transit":false,"station_name":"Palmerah","i_lat":-6.207404,"i_long":106.79689,"line":6,"station_id":"PLM","distance":3191},{"distance":3737,"station_id":"KBY","station_name":"Kebayoran","time":7,"i_long":106.780334,"i_lat":-6.237242,"line":6,"transit":false,"is_transit":false},{"station_name":"Pondokranji","distance":6218,"station_id":"PDJ","is_transit":false,"time":8,"transit":false,"i_long":106.74273,"i_lat":-6.276362,"line":6},{"i_long":106.728916,"line":6,"i_lat":-6.288927,"transit":false,"distance":2179,"station_name":"Jurangmangu","is_transit":false,"time":3,"station_id":"JMU"},{"i_long":106.712277,"is_transit":false,"time":4,"transit":false,"i_lat":-6.296963,"line":6,"station_id":"SDM","station_name":"Sudimara","distance":1994},{"distance":4566,"station_id":"RU","i_long":106.675475,"time":6,"station_name":"Rawa Buntu","transit":false,"i_lat":-6.314823,"line":6,"is_transit":false},{"station_id":"SRP","time":4,"distance":2413,"i_lat":-6.319871,"line":6,"station_name":"Serpong","transit":false,"i_long":106.66566,"is_transit":false},{"time":4,"distance":1784,"station_name":"Cisauk","transit":false,"station_id":"CSK","line":3,"is_transit":false,"i_long":106.640411,"i_lat":-6.32484},{"is_transit":false,"i_long":106.617853,"distance":2519,"time":4,"line":3,"i_lat":-6.329547,"station_name":"Cicayur","transit":false,"station_id":"CC"},{"station_id":"PRP","transit":false,"station_name":"Parung Panjang","distance":5968,"i_long":106.568863,"line":6,"time":8,"is_transit":false,"i_lat":-6.3441410000000005},{"i_long":106.508482,"time":9,"distance":7025,"is_transit":false,"station_name":"Cilejit","station_id":"CJT","transit":false,"i_lat":-6.354349,"line":3},{"i_lat":-6.338021,"station_id":"DAR","station_name":"Daru","time":6,"i_long":106.491338,"is_transit":false,"line":0,"distance":2675,"transit":false},{"line":6,"station_name":"Tenjo","time":5,"transit":false,"i_long":106.460812,"distance":3902,"station_id":"TEJ","i_lat":-6.327251,"is_transit":false},{"i_long":106.425991,"station_name":"Tigaraksa","station_id":"TGS","line":6,"time":5,"i_lat":-6.328533,"transit":false,"distance":2974,"is_transit":false},{"time":3,"distance":2651,"station_name":"Cikoya","station_id":"CKY","transit":false,"i_long":106.411216,"line":3,"is_transit":false,"i_lat":-6.33561}],[{"transit":false,"station_name":"Gang Sentiong","time":0,"line":11,"station_id":"GST","is_transit":false,"i_lat":-6.185975,"i_long":106.850107,"distance":0},{"line":11,"time":1,"is_transit":false,"i_long":106.855437,"station_name":"Kramat","i_lat":-6.193792,"station_id":"KMT","transit":false,"distance":973},{"transit":false,"station_id":"POK","distance":1829,"station_name":"Pondok Jati","i_long":106.861737,"time":2,"line":11,"is_transit":false,"i_lat":-6.209188},{"is_transit":true,"time":9,"station_name":"Jatinegara","transit":true,"line":1,"i_lat":-6.215091,"i_long":106.86807400000001,"distance":1236,"station_id":"JNG"},{"i_long":106.858896,"station_id":"MTR","distance":1377,"station_name":"Matraman","i_lat":-6.212485,"line":1,"is_transit":false,"transit":false,"time":2},{"is_transit":false,"station_id":"MRI","distance":1275,"i_lat":-6.209883,"i_long":106.84912,"station_name":"Manggarai","time":2,"transit":false,"line":2},{"transit":false,"distance":3186,"i_lat":-6.202263,"station_name":"Sudirman","line":1,"station_id":"SUD","is_transit":false,"i_long":106.822649,"time":4},{"i_lat":-6.201433,"distance":280,"time":1,"i_long":106.819881,"line":1,"station_id":"SUDB","transit":false,"is_transit":false,"station_name":"Sudirman Baru"},{"time":1,"i_lat":-6.20132,"is_transit":false,"station_name":"Karet","transit":false,"line":1,"i_long":106.816351,"distance":471,"station_id":"KAT"},{"time":5,"station_id":"THB","station_name":"Tanah Abang","is_transit":true,"i_lat":-6.185545,"line":1,"distance":2029,"i_long":106.811091,"transit":true},{"distance":3191,"time":6,"transit":false,"station_name":"Palmerah","i_lat":-6.207404,"line":6,"is_transit":false,"i_long":106.79689,"station_id":"PLM"},{"station_id":"KBY","distance":3737,"station_name":"Kebayoran","i_lat":-6.237242,"line":6,"transit":false,"is_transit":false,"time":7,"i_long":106.780334},{"time":8,"station_name":"Pondokranji","distance":6218,"station_id":"PDJ","i_lat":-6.276362,"transit":false,"is_transit":false,"line":6,"i_long":106.74273},{"is_transit":false,"station_name":"Jurangmangu","transit":false,"i_long":106.728916,"station_id":"JMU","i_lat":-6.288927,"distance":2179,"time":3,"line":6},{"time":4,"station_name":"Sudimara","is_transit":false,"line":6,"station_id":"SDM","transit":false,"distance":1994,"i_lat":-6.296963,"i_long":106.712277},{"station_name":"Rawa Buntu","time":6,"line":6,"is_transit":false,"station_id":"RU","i_lat":-6.314823,"i_long":106.675475,"distance":4566,"transit":false},{"station_name":"Serpong","is_transit":false,"i_long":106.66566,"transit":false,"time":4,"line":6,"distance":2413,"i_lat":-6.319871,"station_id":"SRP"},{"i_long":106.640411,"i_lat":-6.32484,"station_name":"Cisauk","distance":1784,"station_id":"CSK","time":4,"is_transit":false,"line":3,"transit":false},{"i_lat":-6.329547,"is_transit":false,"time":4,"transit":false,"line":3,"station_name":"Cicayur","distance":2519,"station_id":"CC","i_long":106.617853},{"is_transit":false,"station_id":"PRP","station_name":"Parung Panjang","transit":false,"i_lat":-6.3441410000000005,"distance":5968,"time":8,"i_long":106.568863,"line":6},{"i_long":106.508482,"station_name":"Cilejit","transit":false,"i_lat":-6.354349,"station_id":"CJT","time":9,"line":3,"is_transit":false,"distance":7025},{"station_name":"Daru","station_id":"DAR","i_long":106.491338,"line":0,"transit":false,"distance":2675,"is_transit":false,"time":6,"i_lat":-6.338021},{"is_transit":false,"line":6,"i_lat":-6.327251,"i_long":106.460812,"transit":false,"distance":3902,"station_id":"TEJ","station_name":"Tenjo","time":5},{"line":6,"is_transit":false,"station_name":"Tigaraksa","i_lat":-6.328533,"distance":2974,"station_id":"TGS","transit":false,"i_long":106.425991,"time":5},{"is_transit":false,"station_name":"Cikoya","transit":false,"distance":2651,"time":3,"i_long":106.411216,"station_id":"CKY","line":3,"i_lat":-6.33561}],[{"time":0,"line":11,"station_id":"GST","distance":0,"station_name":"Gang Sentiong","transit":false,"i_long":106.850107,"is_transit":false,"i_lat":-6.185975},{"i_long":106.855437,"station_name":"Kramat","distance":973,"station_id":"KMT","is_transit":false,"time":1,"line":11,"transit":false,"i_lat":-6.193792},{"i_long":106.861737,"transit":false,"is_transit":false,"distance":1829,"line":11,"time":2,"station_id":"POK","station_name":"Pondok Jati","i_lat":-6.209188},{"station_id":"JNG","transit":true,"distance":1236,"i_lat":-6.215091,"time":9,"is_transit":true,"station_name":"Jatinegara","line":1,"i_long":106.86807400000001},{"i_long":106.858896,"line":1,"distance":1377,"station_id":"MTR","station_name":"Matraman","transit":false,"time":2,"is_transit":false,"i_lat":-6.212485},{"time":2,"i_lat":-6.209883,"distance":1275,"station_id":"MRI","station_name":"Manggarai","i_long":106.84912,"line":2,"is_transit":true,"transit":true},{"i_long":106.840169,"line":2,"transit":false,"i_lat":-6.198556,"station_id":"CKI","distance":1590,"is_transit":false,"time":4,"station_name":"Cikini"},{"time":3,"i_long":106.832183,"distance":1750,"transit":false,"line":2,"is_transit":false,"i_lat":-6.186295,"station_name":"Gondangdia","station_id":"GDD"},{"station_name":"Juanda","transit":false,"distance":2015,"i_long":106.828284,"time":4,"i_lat":-6.166716,"line":2,"station_id":"JUA","is_transit":false},{"i_lat":-6.160725,"is_transit":false,"i_long":106.827103,"line":2,"station_name":"Sawah Besar","transit":false,"distance":1149,"station_id":"SW","time":2},{"is_transit":false,"distance":906,"transit":false,"i_lat":-6.149769,"time":2,"station_id":"MGB","line":2,"station_name":"Manggabesar","i_long":106.82482},{"i_lat":-6.141205,"distance":1080,"is_transit":false,"i_long":106.820901,"time":2,"line":2,"station_name":"Jayakarta","transit":false,"station_id":"JAY"},{"station_name":"Jakarta Kota","i_lat":-6.137569,"transit":true,"station_id":"JAKK","distance":1264,"time":4,"i_long":106.812439,"line":2,"is_transit":true},{"is_transit":true,"station_id":"KPB","transit":true,"i_lat":-6.132549,"i_long":106.826365,"line":4,"station_name":"Kampung Bandan","time":3,"distance":1364},{"station_id":"AK","station_name":"Angke","i_lat":-6.144674,"transit":false,"i_long":106.79867,"time":9,"distance":4102,"line":1,"is_transit":false},{"station_id":"DU","line":1,"distance":1230,"transit":false,"time":4,"station_name":"Duri","is_transit":false,"i_long":106.800832,"i_lat":-6.155215},{"station_name":"Tanah Abang","station_id":"THB","line":1,"distance":3632,"transit":true,"is_transit":true,"i_lat":-6.185545,"i_long":106.811091,"time":8},{"i_long":106.79689,"transit":false,"line":6,"is_transit":false,"distance":3191,"station_id":"PLM","time":6,"i_lat":-6.207404,"station_name":"Palmerah"},{"line":6,"i_lat":-6.237242,"is_transit":false,"transit":false,"distance":3737,"station_id":"KBY","station_name":"Kebayoran","time":7,"i_long":106.780334},{"time":8,"is_transit":false,"station_id":"PDJ","station_name":"Pondokranji","line":6,"transit":false,"i_lat":-6.276362,"distance":6218,"i_long":106.74273},{"time":3,"is_transit":false,"transit":false,"i_lat":-6.288927,"i_long":106.728916,"station_name":"Jurangmangu","distance":2179,"line":6,"station_id":"JMU"},{"time":4,"i_lat":-6.296963,"line":6,"distance":1994,"transit":false,"is_transit":false,"station_id":"SDM","station_name":"Sudimara","i_long":106.712277},{"distance":4566,"time":6,"transit":false,"i_long":106.675475,"is_transit":false,"station_name":"Rawa Buntu","i_lat":-6.314823,"station_id":"RU","line":6},{"i_lat":-6.319871,"station_id":"SRP","distance":2413,"time":4,"station_name":"Serpong","is_transit":false,"transit":false,"line":6,"i_long":106.66566},{"time":4,"i_lat":-6.32484,"is_transit":false,"i_long":106.640411,"distance":1784,"station_id":"CSK","station_name":"Cisauk","line":3,"transit":false},{"distance":2519,"is_transit":false,"station_id":"CC","transit":false,"time":4,"station_name":"Cicayur","i_lat":-6.329547,"i_long":106.617853,"line":3},{"is_transit":false,"time":8,"i_long":106.568863,"station_id":"PRP","station_name":"Parung Panjang","distance":5968,"line":6,"i_lat":-6.3441410000000005,"transit":false},{"i_long":106.508482,"i_lat":-6.354349,"time":9,"is_transit":false,"distance":7025,"station_name":"Cilejit","transit":false,"line":3,"station_id":"CJT"},{"distance":2675,"i_lat":-6.338021,"i_long":106.491338,"time":6,"line":0,"station_id":"DAR","transit":false,"station_name":"Daru","is_transit":false},{"i_long":106.460812,"distance":3902,"is_transit":false,"station_id":"TEJ","time":5,"transit":false,"i_lat":-6.327251,"line":6,"station_name":"Tenjo"},{"station_id":"TGS","distance":2974,"is_transit":false,"transit":false,"i_lat":-6.328533,"station_name":"Tigaraksa","i_long":106.425991,"line":6,"time":5},{"i_lat":-6.33561,"i_long":106.411216,"is_transit":false,"line":3,"distance":2651,"station_name":"Cikoya","transit":false,"station_id":"CKY","time":3}],[{"transit":false,"i_long":106.850107,"line":11,"station_id":"GST","i_lat":-6.185975,"station_name":"Gang Sentiong","is_transit":false,"distance":0,"time":0},{"transit":false,"distance":1567,"line":11,"time":8,"i_lat":-6.174784,"station_id":"PSE","station_name":"Pasar Senen","is_transit":false,"i_long":106.84368},{"i_lat":-6.161728,"distance":1436,"is_transit":false,"station_id":"KMO","station_name":"Kemayoran","transit":false,"i_long":106.839204,"time":4,"line":11},{"is_transit":false,"i_long":106.836569,"distance":1901,"time":5,"station_name":"Rajawali","i_lat":-6.14505,"station_id":"RJW","transit":false,"line":11},{"line":4,"is_transit":true,"station_name":"Kampung Bandan","i_long":106.826365,"i_lat":-6.132549,"transit":true,"time":3,"station_id":"KPB","distance":1444},{"is_transit":true,"distance":1364,"i_long":106.812439,"station_name":"Jakarta Kota","transit":true,"time":3,"line":2,"station_id":"JAKK","i_lat":-6.137569},{"station_id":"JAY","is_transit":false,"line":2,"station_name":"Jayakarta","time":4,"i_lat":-6.141205,"i_long":106.820901,"transit":false,"distance":1264},{"time":2,"i_lat":-6.149769,"station_id":"MGB","distance":1080,"station_name":"Manggabesar","is_transit":false,"transit":false,"line":2,"i_long":106.82482},{"is_transit":false,"time":2,"distance":906,"station_name":"Sawah Besar","station_id":"SW","i_lat":-6.160725,"line":2,"transit":false,"i_long":106.827103},{"station_name":"Juanda","i_lat":-6.166716,"is_transit":false,"line":2,"distance":1149,"station_id":"JUA","time":2,"transit":false,"i_long":106.828284},{"is_transit":false,"station_name":"Gondangdia","distance":2015,"time":4,"transit":false,"station_id":"GDD","i_lat":-6.186295,"line":2,"i_long":106.832183},{"station_id":"CKI","station_name":"Cikini","i_long":106.840169,"is_transit":false,"i_lat":-6.198556,"transit":false,"time":3,"distance":1750,"line":2},{"line":2,"time":4,"distance":1590,"is_transit":true,"station_id":"MRI","i_lat":-6.209883,"i_long":106.84912,"station_name":"Manggarai","transit":true},{"time":4,"i_lat":-6.202263,"i_long":106.822649,"is_transit":false,"line":1,"station_name":"Sudirman","distance":3186,"transit":false,"station_id":"SUD"},{"time":1,"line":1,"is_transit":false,"station_name":"Sudirman Baru","transit":false,"i_lat":-6.201433,"i_long":106.819881,"distance":280,"station_id":"SUDB"},{"is_transit":false,"station_name":"Karet","time":1,"transit":false,"i_long":106.816351,"i_lat":-6.20132,"distance":471,"line":1,"station_id":"KAT"},{"station_id":"THB","line":1,"is_transit":true,"station_name":"Tanah Abang","i_long":106.811091,"i_lat":-6.185545,"distance":2029,"transit":true,"time":5},{"is_transit":false,"i_lat":-6.207404,"transit":false,"distance":3191,"station_id":"PLM","time":6,"station_name":"Palmerah","i_long":106.79689,"line":6},{"line":6,"is_transit":false,"station_name":"Kebayoran","transit":false,"i_long":106.780334,"station_id":"KBY","time":7,"i_lat":-6.237242,"distance":3737},{"station_name":"Pondokranji","station_id":"PDJ","distance":6218,"transit":false,"is_transit":false,"time":8,"i_lat":-6.276362,"i_long":106.74273,"line":6},{"station_name":"Jurangmangu","distance":2179,"time":3,"i_lat":-6.288927,"i_long":106.728916,"line":6,"transit":false,"is_transit":false,"station_id":"JMU"},{"line":6,"station_name":"Sudimara","station_id":"SDM","i_long":106.712277,"distance":1994,"time":4,"i_lat":-6.296963,"is_transit":false,"transit":false},{"is_transit":false,"transit":false,"time":6,"i_long":106.675475,"station_id":"RU","i_lat":-6.314823,"distance":4566,"station_name":"Rawa Buntu","line":6},{"distance":2413,"time":4,"i_lat":-6.319871,"station_id":"SRP","station_name":"Serpong","i_long":106.66566,"transit":false,"is_transit":false,"line":6},{"station_name":"Cisauk","time":4,"transit":false,"station_id":"CSK","distance":1784,"is_transit":false,"i_long":106.640411,"i_lat":-6.32484,"line":3},{"station_name":"Cicayur","transit":false,"i_lat":-6.329547,"time":4,"i_long":106.617853,"line":3,"station_id":"CC","distance":2519,"is_transit":false},{"is_transit":false,"station_name":"Parung Panjang","i_lat":-6.3441410000000005,"station_id":"PRP","line":6,"time":8,"distance":5968,"transit":false,"i_long":106.568863},{"line":3,"station_id":"CJT","time":9,"transit":false,"i_lat":-6.354349,"is_transit":false,"i_long":106.508482,"station_name":"Cilejit","distance":7025},{"station_name":"Daru","i_long":106.491338,"line":0,"distance":2675,"transit":false,"station_id":"DAR","i_lat":-6.338021,"is_transit":false,"time":6},{"station_id":"TEJ","is_transit":false,"time":5,"transit":false,"distance":3902,"i_long":106.460812,"line":6,"i_lat":-6.327251,"station_name":"Tenjo"},{"is_transit":false,"station_id":"TGS","transit":false,"i_lat":-6.328533,"i_long":106.425991,"distance":2974,"time":5,"station_name":"Tigaraksa","line":6},{"is_transit":false,"line":3,"station_name":"Cikoya","transit":false,"i_long":106.411216,"time":3,"i_lat":-6.33561,"distance":2651,"station_id":"CKY"}]]}