{"data":[[{"station_id":"GST","i_lat":-6.185975,"is_transit":false,"time":0,"distance":0,"i_long":106.850107,"line":11,"transit":false,"station_name":"Gang Sentiong"},{"station_id":"PSE","line":11,"i_long":106.84368,"station_name":"Pasar Senen","i_lat":-6.174784,"transit":false,"is_transit":false,"distance":1567,"time":8},{"i_long":106.839204,"i_lat":-6.161728,"station_name":"Kemayoran","line":11,"time":4,"transit":false,"station_id":"KMO","is_transit":false,"distance":1436},{"station_id":"RJW","i_long":106.836569,"distance":1901,"transit":false,"is_transit":false,"time":5,"i_lat":-6.14505,"line":11,"station_name":"Rajawali"},{"station_name":"Kampung Bandan","is_transit":true,"time":3,"i_long":106.826365,"transit":true,"station_id":"KPB","i_lat":-6.132549,"distance":1444,"line":4},{"i_lat":-6.137569,"transit":true,"line":2,"i_long":106.812439,"station_name":"Jakarta Kota","is_transit":true,"station_id":"JAKK","time":3,"distance":1364},{"is_transit":false,"i_lat":-6.141205,"i_long":106.820901,"line":2,"station_id":"JAY","transit":false,"station_name":"Jayakarta","time":4,"distance":1264},{"line":2,"is_transit":false,"transit":false,"time":2,"distance":1080,"station_name":"Manggabesar","station_id":"MGB","i_long":106.82482,"i_lat":-6.149769},{"i_long":106.827103,"is_transit":false,"time":2,"station_name":"Sawah Besar","line":2,"transit":false,"station_id":"SW","distance":906,"i_lat":-6.160725}],[{"transit":false,"distance":0,"station_name":"Gang Sentiong","time":0,"line":11,"is_transit":false,"i_lat":-6.185975,"i_long":106.850107,"station_id":"GST"},{"station_id":"KMT","i_lat":-6.193792,"distance":973,"transit":false,"time":1,"i_long":106.855437,"station_name":"Kramat","is_transit":false,"line":11},{"transit":false,"line":11,"distance":1829,"station_name":"Pondok Jati","is_transit":false,"i_lat":-6.209188,"station_id":"POK","time":2,"i_long":106.861737},{"i_long":106.86807400000001,"time":9,"line":1,"is_transit":true,"transit":true,"i_lat":-6.215091,"station_id":"JNG","station_name":"Jatinegara","distance":1236},{"station_name":"Matraman","is_transit":false,"distance":1377,"time":2,"line":1,"transit":false,"i_lat":-6.212485,"i_long":106.858896,"station_id":"MTR"},{"station_name":"Manggarai","transit":true,"station_id":"MRI","i_long":106.84912,"line":2,"is_transit":true,"distance":1275,"time":2,"i_lat":-6.209883},{"i_long":106.840169,"time":4,"station_id":"CKI","line":2,"transit":false,"is_transit":false,"distance":1590,"i_lat":-6.198556,"station_name":"Cikini"},{"station_name":"Gondangdia","station_id":"GDD","is_transit":false,"distance":1750,"i_long":106.832183,"line":2,"transit":false,"time":3,"i_lat":-6.186295},{"transit":false,"station_id":"JUA","time":4,"is_transit":false,"distance":2015,"i_long":106.828284,"station_name":"Juanda","i_lat":-6.166716,"line":2},{"transit":false,"i_lat":-6.160725,"line":2,"time":2,"station_name":"Sawah Besar","station_id":"SW","i_long":106.827103,"distance":1149,"is_transit":false}],[{"distance":0,"transit":false,"station_id":"GST","station_name":"Gang Sentiong","line":11,"is_transit":false,"time":0,"i_lat":-6.185975,"i_long":106.850107},{"line":11,"station_name":"Pasar Senen","transit":false,"is_transit":false,"distance":1567,"i_long":106.84368,"station_id":"PSE","i_lat":-6.174784,"time":8},{"i_lat":-6.161728,"is_transit":false,"time":4,"distance":1436,"i_long":106.839204,"transit":false,"station_name":"Kemayoran","line":11,"station_id":"KMO"},{"time":5,"i_lat":-6.14505,"station_name":"Rajawali","line":11,"distance":1901,"station_id":"RJW","i_long":106.836569,"transit":false,"is_transit":false},{"station_id":"KPB","line":4,"i_lat":-6.132549,"transit":true,"is_transit":true,"station_name":"Kampung Bandan","distance":1444,"i_long":106.826365,"time":3},{"transit":false,"station_id":"AK","time":9,"station_name":"Angke","is_transit":false,"distance":4102,"i_lat":-6.144674,"i_long":106.79867,"line":1},{"i_lat":-6.155215,"line":1,"station_id":"DU","time":4,"i_long":106.800832,"station_name":"Duri","is_transit":false,"distance":1230,"transit":false},{"is_transit":false,"station_id":"THB","i_long":106.811091,"transit":false,"distance":3632,"i_lat":-6.185545,"line":1,"station_name":"Tanah Abang","time":8},{"i_long":106.816351,"station_id":"KAT","is_transit":false,"distance":2029,"transit":false,"station_name":"Karet","line":1,"time":5,"i_lat":-6.20132},{"is_transit":false,"i_long":106.819881,"station_id":"SUDB","line":1,"time":1,"distance":471,"station_name":"Sudirman Baru","i_lat":-6.201433,"transit":false},{"i_long":106.822649,"time":1,"distance":280,"line":1,"transit":false,"station_name":"Sudirman","is_transit":false,"i_lat":-6.202263,"station_id":"SUD"},{"transit":true,"is_transit":true,"distance":3186,"i_lat":-6.209883,"station_id":"MRI","station_name":"Manggarai","i_long":106.84912,"time":4,"line":2},{"i_long":106.840169,"line":2,"time":4,"station_id":"CKI","distance":1590,"i_lat":-6.198556,"transit":false,"station_name":"Cikini","is_transit":false},{"i_long":106.832183,"station_name":"Gondangdia","line":2,"time":3,"distance":1750,"station_id":"GDD","is_transit":false,"i_lat":-6.186295,"transit":false},{"is_transit":false,"i_lat":-6.166716,"line":2,"time":4,"station_name":"Juanda","station_id":"JUA","transit":false,"distance":2015,"i_long":106.828284},{"is_transit":false,"line":2,"station_id":"SW","transit":false,"i_lat":-6.160725,"station_name":"Sawah Besar","time":2,"distance":1149,"i_long":106.827103}],[{"line":11,"station_id":"GST","i_long":106.850107,"transit":false,"time":0,"station_name":"Gang Sentiong","is_transit":false,"i_lat":-6.185975,"distance":0},{"transit":false,"time":1,"is_transit":false,"i_lat":-6.193792,"line":11,"station_name":"Kramat","distance":973,"station_id":"KMT","i_long":106.855437},{"station_id":"POK","is_transit":false,"distance":1829,"i_lat":-6.209188,"transit":false,"i_long":106.861737,"time":2,"line":11,"station_name":"Pondok Jati"},{"i_lat":-6.215091,"line":1,"station_id":"JNG","transit":true,"is_transit":true,"time":9,"i_long":106.86807400000001,"distance":1236,"station_name":"Jatinegara"},{"transit":false,"is_transit":false,"station_id":"MTR","station_name":"Matraman","distance":1377,"line":1,"i_lat":-6.212485,"time":2,"i_long":106.858896},{"transit":false,"station_id":"MRI","i_long":106.84912,"line":2,"is_transit":false,"distance":1275,"station_name":"Manggarai","time":2,"i_lat":-6.209883},{"station_name":"Sudirman","is_transit":false,"time":4,"transit":false,"station_id":"SUD","i_long":106.822649,"distance":3186,"i_lat":-6.202263,"line":1},{"time":1,"is_transit":false,"distance":280,"transit":false,"i_long":106.819881,"line":1,"station_id":"SUDB","i_lat":-6.201433,"station_name":"Sudirman Baru"},{"transit":false,"i_lat":-6.20132,"station_name":"Karet","time":1,"distance":471,"is_transit":false,"i_long":106.816351,"line":1,"station_id":"KAT"},{"line":1,"distance":2029,"time":5,"is_transit":false,"station_name":"Tanah Abang","i_long":106.811091,"transit":false,"station_id":"THB","i_lat":-6.185545},{"time":8,"i_lat":-6.155215,"i_long":106.800832,"is_transit":false,"transit":false,"station_name":"Duri","line":1,"distance":3632,"station_id":"DU"},{"station_id":"AK","line":1,"is_transit":false,"distance":1230,"time":4,"station_name":"Angke","i_lat":-6.144674,"i_long":106.79867,"transit":false},{"distance":4102,"line":4,"station_name":"Kampung Bandan","i_long":106.826365,"transit":true,"time":9,"i_lat":-6.132549,"is_transit":true,"station_id":"KPB"},{"i_long":106.812439,"i_lat":-6.137569,"station_id":"JAKK","station_name":"Jakarta Kota","distance":1364,"time":3,"line":2,"is_transit":true,"transit":true},{"is_transit":false,"transit":false,"station_name":"Jayakarta","distance":1264,"i_long":106.820901,"line":2,"station_id":"JAY","i_lat":-6.141205,"time":4},{"station_id":"MGB","line":2,"station_name":"Manggabesar","is_transit":false,"time":2,"distance":1080,"i_long":106.82482,"transit":false,"i_lat":-6.149769},{"i_long":106.827103,"line":2,"distance":906,"station_id":"SW","station_name":"Sawah Besar","transit":false,"is_transit":false,"time":2,"i_lat":-6.160725}]]}