{"data":[[{"is_transit":false,"time":0,"transit":false,"i_lat":-6.185975,"line":11,"i_long":106.850107,"station_id":"GST","station_name":"Gang Sentiong","distance":0},{"is_transit":false,"distance":973,"station_id":"KMT","i_lat":-6.193792,"i_long":106.855437,"transit":false,"line":11,"station_name":"Kramat","time":1},{"i_lat":-6.209188,"is_transit":false,"time":2,"transit":false,"station_name":"Pondok Jati","line":11,"distance":1829,"i_long":106.861737,"station_id":"POK"},{"distance":1236,"is_transit":true,"time":9,"line":1,"i_lat":-6.215091,"station_id":"JNG","i_long":106.86807400000001,"station_name":"Jatinegara","transit":true},{"distance":3395,"transit":false,"station_name":"Klender","i_lat":-6.2135,"is_transit":false,"i_long":106.899548,"station_id":"KLD","line":1,"time":3},{"line":1,"station_name":"Buaran","transit":false,"distance":3100,"i_lat":-6.215568,"is_transit":false,"time":2,"station_id":"BUA","i_long":106.922662}],[{"transit":false,"station_name":"Gang Sentiong","station_id":"GST","i_lat":-6.185975,"i_long":106.850107,"time":0,"is_transit":false,"distance":0,"line":11},{"line":11,"is_transit":false,"station_id":"PSE","transit":false,"distance":1567,"i_long":106.84368,"station_name":"Pasar Senen","i_lat":-6.174784,"time":8},{"transit":false,"distance":1436,"time":4,"is_transit":false,"station_id":"KMO","i_lat":-6.161728,"i_long":106.839204,"station_name":"Kemayoran","line":11},{"line":11,"i_long":106.836569,"distance":1901,"station_name":"Rajawali","is_transit":false,"station_id":"RJW","i_lat":-6.14505,"time":5,"transit":false},{"transit":true,"station_name":"Kampung Bandan","station_id":"KPB","i_lat":-6.132549,"distance":1444,"i_long":106.826365,"time":3,"line":4,"is_transit":true},{"i_long":106.79867,"is_transit":false,"transit":false,"station_id":"AK","line":1,"station_name":"Angke","time":9,"i_lat":-6.144674,"distance":4102},{"i_long":106.800832,"time":4,"line":1,"station_name":"Duri","distance":1230,"station_id":"DU","is_transit":false,"transit":false,"i_lat":-6.155215},{"station_name":"Tanah Abang","line":1,"station_id":"THB","distance":3632,"is_transit":false,"transit":false,"i_lat":-6.185545,"time":8,"i_long":106.811091},{"station_id":"KAT","distance":2029,"station_name":"Karet","i_long":106.816351,"time":5,"transit":false,"is_transit":false,"line":1,"i_lat":-6.20132},{"time":1,"is_transit":false,"station_id":"SUDB","i_long":106.819881,"i_lat":-6.201433,"transit":false,"distance":471,"line":1,"station_name":"Sudirman Baru"},{"distance":280,"i_lat":-6.202263,"time":1,"station_id":"SUD","is_transit":false,"i_long":106.822649,"transit":false,"station_name":"Sudirman","line":1},{"is_transit":false,"i_lat":-6.209883,"time":4,"transit":false,"line":2,"station_id":"MRI","station_name":"Manggarai","distance":3186,"i_long":106.84912},{"i_lat":-6.212485,"is_transit":false,"i_long":106.858896,"time":2,"station_name":"Matraman","distance":1275,"line":1,"station_id":"MTR","transit":false},{"station_name":"Jatinegara","i_long":106.86807400000001,"distance":1377,"is_transit":false,"transit":false,"station_id":"JNG","i_lat":-6.215091,"line":1,"time":8},{"time":3,"distance":3395,"station_id":"KLD","i_long":106.899548,"line":1,"transit":false,"is_transit":false,"i_lat":-6.2135,"station_name":"Klender"},{"transit":false,"i_lat":-6.215568,"station_name":"Buaran","is_transit":false,"line":1,"time":2,"distance":3100,"station_id":"BUA","i_long":106.922662}],[{"station_name":"Gang Sentiong","is_transit":false,"i_long":106.850107,"line":11,"station_id":"GST","transit":false,"time":0,"distance":0,"i_lat":-6.185975},{"distance":1567,"line":11,"transit":false,"is_transit":false,"time":8,"station_id":"PSE","i_lat":-6.174784,"i_long":106.84368,"station_name":"Pasar Senen"},{"is_transit":false,"i_long":106.839204,"i_lat":-6.161728,"transit":false,"station_name":"Kemayoran","station_id":"KMO","line":11,"time":4,"distance":1436},{"i_lat":-6.14505,"line":11,"transit":false,"station_name":"Rajawali","time":5,"station_id":"RJW","is_transit":false,"distance":1901,"i_long":106.836569},{"i_lat":-6.132549,"line":4,"distance":1444,"transit":true,"i_long":106.826365,"is_transit":true,"station_id":"KPB","time":3,"station_name":"Kampung Bandan"},{"is_transit":true,"i_long":106.812439,"line":2,"i_lat":-6.137569,"distance":1364,"time":3,"station_name":"Jakarta Kota","station_id":"JAKK","transit":true},{"i_lat":-6.141205,"is_transit":false,"station_id":"JAY","transit":false,"time":4,"distance":1264,"line":2,"station_name":"Jayakarta","i_long":106.820901},{"station_name":"Manggabesar","station_id":"MGB","i_lat":-6.149769,"i_long":106.82482,"transit":false,"line":2,"distance":1080,"is_transit":false,"time":2},{"station_name":"Sawah Besar","time":2,"distance":906,"is_transit":false,"station_id":"SW","i_lat":-6.160725,"i_long":106.827103,"transit":false,"line":2},{"transit":false,"time":2,"is_transit":false,"distance":1149,"station_id":"JUA","i_lat":-6.166716,"station_name":"Juanda","i_long":106.828284,"line":2},{"is_transit":false,"station_id":"GDD","i_lat":-6.186295,"i_long":106.832183,"line":2,"time":4,"station_name":"Gondangdia","distance":2015,"transit":false},{"is_transit":false,"time":3,"station_name":"Cikini","station_id":"CKI","i_lat":-6.198556,"distance":1750,"line":2,"transit":false,"i_long":106.840169},{"time":4,"station_id":"MRI","i_long":106.84912,"transit":true,"line":2,"i_lat":-6.209883,"distance":1590,"station_name":"Manggarai","is_transit":true},{"line":1,"distance":1275,"station_id":"MTR","is_transit":false,"i_lat":-6.212485,"transit":false,"station_name":"Matraman","time":2,"i_long":106.858896},{"i_lat":-6.215091,"distance":1377,"line":1,"station_id":"JNG","transit":false,"station_name":"Jatinegara","i_long":106.86807400000001,"time":8,"is_transit":false},{"distance":3395,"i_lat":-6.2135,"i_long":106.899548,"is_transit":false,"station_id":"KLD","station_name":"Klender","transit":false,"line":1,"time":3},{"line":1,"time":2,"is_transit":false,"station_name":"Buaran","station_id":"BUA","transit":false,"i_lat":-6.215568,"distance":3100,"i_long":106.922662}]]}