{"data":[[{"transit":false,"is_transit":false,"i_long":106.850107,"line":11,"station_name":"Gang Sentiong","station_id":"GST","time":0,"i_lat":-6.185975,"distance":0},{"i_lat":-6.193792,"station_name":"Kramat","is_transit":false,"i_long":106.855437,"line":11,"station_id":"KMT","time":1,"transit":false,"distance":973},{"transit":false,"station_id":"POK","is_transit":false,"time":2,"distance":1829,"i_long":106.861737,"line":11,"station_name":"Pondok Jati","i_lat":-6.209188},{"i_long":106.86807400000001,"station_name":"Jatinegara","is_transit":true,"line":1,"distance":1236,"time":9,"i_lat":-6.215091,"transit":true,"station_id":"JNG"},{"transit":false,"time":3,"station_name":"Klender","station_id":"KLD","i_lat":-6.2135,"distance":3395,"i_long":106.899548,"is_transit":false,"line":1},{"time":2,"distance":3100,"station_id":"BUA","i_long":106.922662,"transit":false,"i_lat":-6.215568,"is_transit":false,"line":1,"station_name":"Buaran"},{"line":1,"is_transit":false,"time":1,"i_lat":-6.217455,"station_name":"Klenderbaru","i_long":106.939679,"distance":1305,"transit":false,"station_id":"KLDB"},{"i_lat":-6.219053,"time":8,"distance":1385,"transit":false,"i_long":106.951283,"station_id":"CUK","line":1,"station_name":"Cakung","is_transit":false},{"time":3,"i_lat":-6.224515,"station_name":"Kranji","transit":false,"distance":3097,"line":1,"station_id":"KRI","i_long":106.977657,"is_transit":false},{"distance":2520,"is_transit":false,"i_long":106.997013,"time":4,"line":1,"i_lat":-6.236616,"transit":false,"station_id":"BKS","station_name":"Bekasi"}],[{"distance":0,"i_lat":-6.185975,"i_long":106.850107,"line":11,"transit":false,"is_transit":false,"station_id":"GST","time":0,"station_name":"Gang Sentiong"},{"i_long":106.84368,"i_lat":-6.174784,"station_name":"Pasar Senen","transit":false,"is_transit":false,"time":8,"line":11,"distance":1567,"station_id":"PSE"},{"station_name":"Kemayoran","time":4,"is_transit":false,"line":11,"distance":1436,"station_id":"KMO","transit":false,"i_long":106.839204,"i_lat":-6.161728},{"time":5,"distance":1901,"i_long":106.836569,"is_transit":false,"i_lat":-6.14505,"transit":false,"station_id":"RJW","station_name":"Rajawali","line":11},{"distance":1444,"i_lat":-6.132549,"i_long":106.826365,"line":4,"station_id":"KPB","is_transit":true,"station_name":"Kampung Bandan","time":3,"transit":true},{"station_id":"AK","time":9,"transit":false,"station_name":"Angke","distance":4102,"is_transit":false,"i_long":106.79867,"i_lat":-6.144674,"line":1},{"station_id":"DU","line":1,"transit":false,"time":4,"is_transit":false,"i_lat":-6.155215,"station_name":"Duri","i_long":106.800832,"distance":1230},{"station_name":"Tanah Abang","i_lat":-6.185545,"line":1,"transit":false,"is_transit":false,"time":8,"station_id":"THB","distance":3632,"i_long":106.811091},{"i_long":106.816351,"distance":2029,"station_name":"Karet","i_lat":-6.20132,"is_transit":false,"station_id":"KAT","transit":false,"time":5,"line":1},{"transit":false,"distance":471,"i_long":106.819881,"line":1,"station_id":"SUDB","station_name":"Sudirman Baru","is_transit":false,"time":1,"i_lat":-6.201433},{"distance":280,"line":1,"station_id":"SUD","time":1,"i_lat":-6.202263,"i_long":106.822649,"station_name":"Sudirman","is_transit":false,"transit":false},{"transit":false,"is_transit":false,"station_id":"MRI","line":2,"station_name":"Manggarai","time":4,"i_lat":-6.209883,"i_long":106.84912,"distance":3186},{"i_lat":-6.212485,"i_long":106.858896,"transit":false,"station_id":"MTR","time":2,"line":1,"distance":1275,"station_name":"Matraman","is_transit":false},{"transit":false,"station_name":"Jatinegara","i_lat":-6.215091,"is_transit":false,"distance":1377,"station_id":"JNG","i_long":106.86807400000001,"line":1,"time":8},{"line":1,"station_name":"Klender","is_transit":false,"station_id":"KLD","i_long":106.899548,"time":3,"i_lat":-6.2135,"transit":false,"distance":3395},{"i_long":106.922662,"transit":false,"station_name":"Buaran","distance":3100,"time":2,"line":1,"i_lat":-6.215568,"station_id":"BUA","is_transit":false},{"time":1,"station_id":"KLDB","distance":1305,"i_lat":-6.217455,"transit":false,"station_name":"Klenderbaru","i_long":106.939679,"line":1,"is_transit":false},{"distance":1385,"i_lat":-6.219053,"station_name":"Cakung","i_long":106.951283,"line":1,"station_id":"CUK","transit":false,"is_transit":false,"time":8},{"time":3,"line":1,"transit":false,"i_lat":-6.224515,"station_id":"KRI","i_long":106.977657,"station_name":"Kranji","distance":3097,"is_transit":false},{"is_transit":false,"time":4,"distance":2520,"transit":false,"station_id":"BKS","i_lat":-6.236616,"i_long":106.997013,"line":1,"station_name":"Bekasi"}],[{"distance":0,"transit":false,"i_long":106.850107,"time":0,"i_lat":-6.185975,"line":11,"is_transit":false,"station_name":"Gang Sentiong","station_id":"GST"},{"i_lat":-6.174784,"line":11,"transit":false,"time":8,"distance":1567,"is_transit":false,"station_name":"Pasar Senen","station_id":"PSE","i_long":106.84368},{"line":11,"is_transit":false,"station_name":"Kemayoran","transit":false,"distance":1436,"station_id":"KMO","i_lat":-6.161728,"i_long":106.839204,"time":4},{"line":11,"i_lat":-6.14505,"transit":false,"time":5,"station_name":"Rajawali","is_transit":false,"distance":1901,"station_id":"RJW","i_long":106.836569},{"station_name":"Kampung Bandan","time":3,"i_long":106.826365,"station_id":"KPB","is_transit":true,"line":4,"i_lat":-6.132549,"distance":1444,"transit":true},{"station_id":"JAKK","distance":1364,"i_lat":-6.137569,"i_long":106.812439,"transit":true,"station_name":"Jakarta Kota","time":3,"line":2,"is_transit":true},{"transit":false,"station_name":"Jayakarta","i_lat":-6.141205,"i_long":106.820901,"line":2,"is_transit":false,"time":4,"station_id":"JAY","distance":1264},{"distance":1080,"i_lat":-6.149769,"i_long":106.82482,"time":2,"station_name":"Manggabesar","line":2,"station_id":"MGB","transit":false,"is_transit":false},{"distance":906,"station_id":"SW","is_transit":false,"i_lat":-6.160725,"transit":false,"i_long":106.827103,"station_name":"Sawah Besar","time":2,"line":2},{"time":2,"transit":false,"distance":1149,"station_id":"JUA","is_transit":false,"i_lat":-6.166716,"i_long":106.828284,"line":2,"station_name":"Juanda"},{"distance":2015,"time":4,"station_id":"GDD","transit":false,"is_transit":false,"station_name":"Gondangdia","i_long":106.832183,"i_lat":-6.186295,"line":2},{"i_long":106.840169,"is_transit":false,"i_lat":-6.198556,"station_name":"Cikini","time":3,"distance":1750,"station_id":"CKI","line":2,"transit":false},{"is_transit":true,"i_lat":-6.209883,"i_long":106.84912,"station_name":"Manggarai","distance":1590,"station_id":"MRI","line":2,"time":4,"transit":true},{"distance":1275,"time":2,"transit":false,"i_lat":-6.212485,"is_transit":false,"station_name":"Matraman","i_long":106.858896,"line":1,"station_id":"MTR"},{"transit":false,"distance":1377,"station_id":"JNG","station_name":"Jatinegara","i_long":106.86807400000001,"time":8,"is_transit":false,"i_lat":-6.215091,"line":1},{"distance":3395,"is_transit":false,"i_long":106.899548,"station_name":"Klender","time":3,"station_id":"KLD","line":1,"transit":false,"i_lat":-6.2135},{"is_transit":false,"transit":false,"distance":3100,"i_lat":-6.215568,"i_long":106.922662,"station_id":"BUA","time":2,"station_name":"Buaran","line":1},{"i_lat":-6.217455,"station_name":"Klenderbaru","time":1,"transit":false,"is_transit":false,"i_long":106.939679,"station_id":"KLDB","line":1,"distance":1305},{"station_id":"CUK","station_name":"Cakung","time":8,"line":1,"distance":1385,"i_long":106.951283,"i_lat":-6.219053,"is_transit":false,"transit":false},{"station_name":"Kranji","i_long":106.977657,"transit":false,"line":1,"time":3,"is_transit":false,"distance":3097,"i_lat":-6.224515,"station_id":"KRI"},{"distance":2520,"station_name":"Bekasi","i_lat":-6.236616,"i_long":106.997013,"line":1,"transit":false,"time":4,"station_id":"BKS","is_transit":false}]]}