{"data":[[{"is_transit":false,"station_id":"GST","line":11,"station_name":"Gang Sentiong","time":0,"i_lat":-6.185975,"transit":false,"distance":0,"i_long":106.850107},{"is_transit":false,"distance":973,"line":11,"i_lat":-6.193792,"i_long":106.855437,"station_id":"KMT","station_name":"Kramat","transit":false,"time":1},{"transit":false,"is_transit":false,"time":2,"distance":1829,"station_id":"POK","i_long":106.861737,"station_name":"Pondok Jati","line":11,"i_lat":-6.209188},{"line":1,"distance":1236,"i_lat":-6.215091,"station_id":"JNG","is_transit":true,"i_long":106.86807400000001,"station_name":"Jatinegara","time":9,"transit":true},{"station_id":"MTR","i_lat":-6.212485,"i_long":106.858896,"transit":false,"distance":1377,"time":2,"line":1,"station_name":"Matraman","is_transit":false},{"transit":true,"station_name":"Manggarai","is_transit":true,"i_long":106.84912,"i_lat":-6.209883,"line":2,"distance":1275,"station_id":"MRI","time":2},{"i_long":106.857948,"i_lat":-6.226659,"transit":false,"is_transit":false,"line":2,"distance":2610,"time":4,"station_id":"TEB","station_name":"Tebet"},{"is_transit":false,"transit":false,"time":2,"station_id":"CW","i_lat":-6.242512,"i_long":106.856607,"distance":1230,"line":2,"station_name":"Cawang"},{"time":3,"station_id":"DRN","line":2,"distance":1546,"station_name":"Duren Kalibata","i_lat":-6.255332,"i_long":106.85449,"transit":false,"is_transit":false},{"distance":824,"station_id":"PSMB","transit":false,"time":2,"station_name":"Pasar Minggu Baru","i_lat":-6.263214,"is_transit":false,"line":2,"i_long":106.851577},{"distance":2380,"time":2,"transit":false,"i_long":106.843999,"station_id":"PSM","is_transit":false,"i_lat":-6.2842400000000005,"line":2,"station_name":"Pasar Minggu"},{"i_long":106.838896,"distance":2820,"line":2,"is_transit":false,"transit":false,"time":4,"station_name":"Tanjung Barat","i_lat":-6.3080680000000005,"station_id":"TNT"},{"station_id":"LNA","line":2,"time":3,"distance":2671,"station_name":"Lenteng Agung","i_long":106.832616,"i_lat":-6.330363,"transit":false,"is_transit":false},{"transit":false,"is_transit":false,"time":2,"i_lat":-6.339291,"distance":1029,"i_long":106.834175,"station_id":"UP","station_name":"Univ. Pancasila","line":2},{"station_name":"Univ. Indonesia","is_transit":false,"station_id":"UI","time":3,"i_long":106.831474,"transit":false,"line":2,"distance":2264,"i_lat":-6.360749}],[{"i_long":106.850107,"is_transit":false,"i_lat":-6.185975,"time":0,"line":11,"station_name":"Gang Sentiong","distance":0,"transit":false,"station_id":"GST"},{"is_transit":false,"i_long":106.84368,"i_lat":-6.174784,"time":8,"line":11,"station_id":"PSE","distance":1567,"station_name":"Pasar Senen","transit":false},{"station_id":"KMO","i_long":106.839204,"i_lat":-6.161728,"transit":false,"station_name":"Kemayoran","time":4,"is_transit":false,"distance":1436,"line":11},{"is_transit":false,"i_lat":-6.14505,"station_id":"RJW","i_long":106.836569,"distance":1901,"time":5,"transit":false,"station_name":"Rajawali","line":11},{"time":3,"is_transit":true,"station_id":"KPB","i_lat":-6.132549,"station_name":"Kampung Bandan","i_long":106.826365,"line":4,"distance":1444,"transit":true},{"line":1,"i_lat":-6.144674,"distance":4102,"is_transit":false,"transit":false,"time":9,"station_name":"Angke","station_id":"AK","i_long":106.79867},{"time":4,"station_id":"DU","distance":1230,"transit":false,"station_name":"Duri","i_long":106.800832,"i_lat":-6.155215,"line":1,"is_transit":false},{"is_transit":false,"line":1,"transit":false,"station_id":"THB","station_name":"Tanah Abang","time":8,"distance":3632,"i_lat":-6.185545,"i_long":106.811091},{"time":5,"line":1,"i_long":106.816351,"is_transit":false,"i_lat":-6.20132,"station_name":"Karet","transit":false,"station_id":"KAT","distance":2029},{"i_lat":-6.201433,"time":1,"transit":false,"line":1,"is_transit":false,"station_id":"SUDB","i_long":106.819881,"station_name":"Sudirman Baru","distance":471},{"i_long":106.822649,"transit":false,"distance":280,"is_transit":false,"i_lat":-6.202263,"station_name":"Sudirman","time":1,"station_id":"SUD","line":1},{"time":4,"i_long":106.84912,"station_id":"MRI","transit":true,"line":2,"distance":3186,"is_transit":true,"i_lat":-6.209883,"station_name":"Manggarai"},{"i_lat":-6.226659,"is_transit":false,"i_long":106.857948,"distance":2610,"line":2,"station_name":"Tebet","station_id":"TEB","transit":false,"time":4},{"i_lat":-6.242512,"station_name":"Cawang","transit":false,"line":2,"time":2,"station_id":"CW","i_long":106.856607,"is_transit":false,"distance":1230},{"i_long":106.85449,"distance":1546,"time":3,"transit":false,"is_transit":false,"station_name":"Duren Kalibata","i_lat":-6.255332,"station_id":"DRN","line":2},{"time":2,"i_lat":-6.263214,"transit":false,"station_id":"PSMB","line":2,"is_transit":false,"distance":824,"station_name":"Pasar Minggu Baru","i_long":106.851577},{"distance":2380,"is_transit":false,"time":2,"station_id":"PSM","i_long":106.843999,"station_name":"Pasar Minggu","line":2,"transit":false,"i_lat":-6.2842400000000005},{"time":4,"transit":false,"i_lat":-6.3080680000000005,"is_transit":false,"station_id":"TNT","distance":2820,"line":2,"station_name":"Tanjung Barat","i_long":106.838896},{"time":3,"distance":2671,"station_id":"LNA","i_lat":-6.330363,"transit":false,"line":2,"i_long":106.832616,"station_name":"Lenteng Agung","is_transit":false},{"is_transit":false,"i_lat":-6.339291,"station_id":"UP","station_name":"Univ. Pancasila","time":2,"i_long":106.834175,"distance":1029,"transit":false,"line":2},{"is_transit":false,"transit":false,"line":2,"distance":2264,"i_long":106.831474,"station_id":"UI","time":3,"i_lat":-6.360749,"station_name":"Univ. Indonesia"}],[{"time":0,"is_transit":false,"i_lat":-6.185975,"station_name":"Gang Sentiong","transit":false,"i_long":106.850107,"station_id":"GST","distance":0,"line":11},{"i_long":106.84368,"line":11,"distance":1567,"time":8,"transit":false,"i_lat":-6.174784,"is_transit":false,"station_id":"PSE","station_name":"Pasar Senen"},{"is_transit":false,"station_name":"Kemayoran","station_id":"KMO","i_long":106.839204,"i_lat":-6.161728,"distance":1436,"time":4,"transit":false,"line":11},{"station_name":"Rajawali","i_lat":-6.14505,"line":11,"distance":1901,"is_transit":false,"time":5,"i_long":106.836569,"station_id":"RJW","transit":false},{"distance":1444,"station_id":"KPB","i_long":106.826365,"is_transit":true,"station_name":"Kampung Bandan","line":4,"i_lat":-6.132549,"time":3,"transit":true},{"transit":true,"station_id":"JAKK","i_lat":-6.137569,"is_transit":true,"i_long":106.812439,"line":2,"distance":1364,"station_name":"Jakarta Kota","time":3},{"is_transit":false,"i_long":106.820901,"station_name":"Jayakarta","line":2,"station_id":"JAY","distance":1264,"time":4,"transit":false,"i_lat":-6.141205},{"station_id":"MGB","distance":1080,"transit":false,"time":2,"station_name":"Manggabesar","i_long":106.82482,"i_lat":-6.149769,"is_transit":false,"line":2},{"i_lat":-6.160725,"i_long":106.827103,"is_transit":false,"distance":906,"transit":false,"line":2,"station_id":"SW","station_name":"Sawah Besar","time":2},{"is_transit":false,"station_name":"Juanda","i_long":106.828284,"transit":false,"station_id":"JUA","line":2,"distance":1149,"time":2,"i_lat":-6.166716},{"time":4,"station_id":"GDD","station_name":"Gondangdia","transit":false,"line":2,"distance":2015,"is_transit":false,"i_lat":-6.186295,"i_long":106.832183},{"distance":1750,"station_id":"CKI","transit":false,"i_long":106.840169,"line":2,"i_lat":-6.198556,"is_transit":false,"station_name":"Cikini","time":3},{"distance":1590,"time":4,"is_transit":false,"station_id":"MRI","line":2,"i_long":106.84912,"i_lat":-6.209883,"transit":false,"station_name":"Manggarai"},{"distance":2610,"i_lat":-6.226659,"station_id":"TEB","i_long":106.857948,"is_transit":false,"line":2,"station_name":"Tebet","time":4,"transit":false},{"station_name":"Cawang","time":2,"i_lat":-6.242512,"station_id":"CW","i_long":106.856607,"is_transit":false,"line":2,"distance":1230,"transit":false},{"i_long":106.85449,"transit":false,"is_transit":false,"station_name":"Duren Kalibata","line":2,"time":3,"station_id":"DRN","distance":1546,"i_lat":-6.255332},{"time":2,"is_transit":false,"distance":824,"i_lat":-6.263214,"station_name":"Pasar Minggu Baru","i_long":106.851577,"line":2,"transit":false,"station_id":"PSMB"},{"is_transit":false,"distance":2380,"line":2,"i_lat":-6.2842400000000005,"station_id":"PSM","transit":false,"time":2,"i_long":106.843999,"station_name":"Pasar Minggu"},{"transit":false,"i_lat":-6.3080680000000005,"i_long":106.838896,"distance":2820,"time":4,"station_id":"TNT","station_name":"Tanjung Barat","is_transit":false,"line":2},{"distance":2671,"station_name":"Lenteng Agung","transit":false,"is_transit":false,"i_long":106.832616,"time":3,"line":2,"i_lat":-6.330363,"station_id":"LNA"},{"i_lat":-6.339291,"i_long":106.834175,"line":2,"transit":false,"station_name":"Univ. Pancasila","station_id":"UP","is_transit":false,"time":2,"distance":1029},{"transit":false,"i_long":106.831474,"station_name":"Univ. Indonesia","is_transit":false,"line":2,"time":3,"i_lat":-6.360749,"distance":2264,"station_id":"UI"}]]}