{"data":[[{"time":0,"i_long":106.850107,"is_transit":false,"station_name":"Gang Sentiong","i_lat":-6.185975,"transit":false,"distance":0,"line":11,"station_id":"GST"},{"i_long":106.855437,"is_transit":false,"station_id":"KMT","station_name":"Kramat","time":1,"distance":973,"i_lat":-6.193792,"transit":false,"line":11},{"is_transit":false,"distance":1829,"transit":false,"station_id":"POK","station_name":"Pondok Jati","i_lat":-6.209188,"i_long":106.861737,"time":2,"line":11},{"distance":1236,"station_name":"Jatinegara","time":9,"i_lat":-6.215091,"line":1,"station_id":"JNG","is_transit":true,"i_long":106.86807400000001,"transit":true},{"i_long":106.899548,"is_transit":false,"station_name":"Klender","transit":false,"i_lat":-6.2135,"line":1,"distance":3395,"time":3,"station_id":"KLD"},{"i_long":106.922662,"is_transit":false,"distance":3100,"i_lat":-6.215568,"line":1,"station_name":"Buaran","transit":false,"station_id":"BUA","time":2}],[{"transit":false,"is_transit":false,"distance":0,"line":11,"station_name":"Gang Sentiong","station_id":"GST","i_lat":-6.185975,"i_long":106.850107,"time":0},{"transit":false,"line":11,"i_lat":-6.174784,"station_id":"PSE","time":8,"is_transit":false,"station_name":"Pasar Senen","distance":1567,"i_long":106.84368},{"station_name":"Kemayoran","transit":false,"i_lat":-6.161728,"time":4,"i_long":106.839204,"distance":1436,"line":11,"station_id":"KMO","is_transit":false},{"station_id":"RJW","is_transit":false,"line":11,"transit":false,"i_long":106.836569,"station_name":"Rajawali","i_lat":-6.14505,"time":5,"distance":1901},{"time":3,"i_lat":-6.132549,"station_id":"KPB","is_transit":true,"station_name":"Kampung Bandan","i_long":106.826365,"line":4,"distance":1444,"transit":true},{"i_long":106.79867,"distance":4102,"line":1,"station_name":"Angke","is_transit":false,"i_lat":-6.144674,"transit":false,"station_id":"AK","time":9},{"station_name":"Duri","i_long":106.800832,"line":1,"distance":1230,"transit":false,"station_id":"DU","i_lat":-6.155215,"is_transit":false,"time":4},{"i_long":106.811091,"line":1,"station_name":"Tanah Abang","is_transit":false,"distance":3632,"station_id":"THB","transit":false,"time":8,"i_lat":-6.185545},{"transit":false,"station_id":"KAT","line":1,"distance":2029,"time":5,"station_name":"Karet","i_lat":-6.20132,"i_long":106.816351,"is_transit":false},{"distance":471,"i_lat":-6.201433,"i_long":106.819881,"transit":false,"is_transit":false,"line":1,"station_id":"SUDB","station_name":"Sudirman Baru","time":1},{"i_lat":-6.202263,"station_name":"Sudirman","time":1,"i_long":106.822649,"transit":false,"is_transit":false,"distance":280,"line":1,"station_id":"SUD"},{"i_long":106.84912,"distance":3186,"i_lat":-6.209883,"station_name":"Manggarai","transit":false,"time":4,"line":2,"is_transit":false,"station_id":"MRI"},{"time":2,"distance":1275,"station_name":"Matraman","station_id":"MTR","line":1,"i_lat":-6.212485,"i_long":106.858896,"transit":false,"is_transit":false},{"time":8,"station_name":"Jatinegara","distance":1377,"is_transit":false,"i_lat":-6.215091,"station_id":"JNG","line":1,"transit":false,"i_long":106.86807400000001},{"station_id":"KLD","is_transit":false,"i_long":106.899548,"station_name":"Klender","time":3,"distance":3395,"i_lat":-6.2135,"line":1,"transit":false},{"line":1,"station_id":"BUA","i_long":106.922662,"station_name":"Buaran","is_transit":false,"transit":false,"i_lat":-6.215568,"distance":3100,"time":2}],[{"i_lat":-6.185975,"station_id":"GST","i_long":106.850107,"station_name":"Gang Sentiong","line":11,"is_transit":false,"time":0,"distance":0,"transit":false},{"distance":1567,"i_lat":-6.174784,"station_id":"PSE","transit":false,"is_transit":false,"time":8,"line":11,"station_name":"Pasar Senen","i_long":106.84368},{"line":11,"i_lat":-6.161728,"time":4,"station_id":"KMO","station_name":"Kemayoran","transit":false,"distance":1436,"is_transit":false,"i_long":106.839204},{"station_name":"Rajawali","transit":false,"i_lat":-6.14505,"is_transit":false,"i_long":106.836569,"station_id":"RJW","time":5,"line":11,"distance":1901},{"station_name":"Kampung Bandan","i_long":106.826365,"line":4,"time":3,"distance":1444,"i_lat":-6.132549,"is_transit":true,"transit":true,"station_id":"KPB"},{"station_name":"Jakarta Kota","is_transit":true,"time":3,"i_lat":-6.137569,"i_long":106.812439,"transit":true,"station_id":"JAKK","line":2,"distance":1364},{"is_transit":false,"i_long":106.820901,"i_lat":-6.141205,"distance":1264,"line":2,"time":4,"station_name":"Jayakarta","transit":false,"station_id":"JAY"},{"time":2,"distance":1080,"station_name":"Manggabesar","is_transit":false,"i_lat":-6.149769,"i_long":106.82482,"station_id":"MGB","transit":false,"line":2},{"transit":false,"station_name":"Sawah Besar","i_long":106.827103,"is_transit":false,"time":2,"distance":906,"line":2,"station_id":"SW","i_lat":-6.160725},{"i_lat":-6.166716,"i_long":106.828284,"transit":false,"line":2,"station_id":"JUA","time":2,"station_name":"Juanda","is_transit":false,"distance":1149},{"time":4,"station_name":"Gondangdia","i_lat":-6.186295,"distance":2015,"station_id":"GDD","line":2,"transit":false,"is_transit":false,"i_long":106.832183},{"distance":1750,"i_long":106.840169,"is_transit":false,"i_lat":-6.198556,"transit":false,"time":3,"line":2,"station_id":"CKI","station_name":"Cikini"},{"distance":1590,"transit":true,"is_transit":true,"time":4,"station_id":"MRI","i_long":106.84912,"i_lat":-6.209883,"line":2,"station_name":"Manggarai"},{"i_lat":-6.212485,"station_name":"Matraman","line":1,"time":2,"transit":false,"distance":1275,"is_transit":false,"i_long":106.858896,"station_id":"MTR"},{"is_transit":false,"i_long":106.86807400000001,"time":8,"line":1,"transit":false,"station_name":"Jatinegara","i_lat":-6.215091,"station_id":"JNG","distance":1377},{"station_name":"Klender","time":3,"station_id":"KLD","is_transit":false,"line":1,"transit":false,"distance":3395,"i_lat":-6.2135,"i_long":106.899548},{"time":2,"transit":false,"line":1,"is_transit":false,"distance":3100,"station_id":"BUA","i_lat":-6.215568,"station_name":"Buaran","i_long":106.922662}]]}