{"data":[[{"station_id":"GST","i_lat":-6.185975,"i_long":106.850107,"is_transit":false,"line":11,"distance":0,"transit":false,"station_name":"Gang Sentiong","time":0},{"distance":973,"time":1,"station_id":"KMT","station_name":"Kramat","transit":false,"i_long":106.855437,"line":11,"is_transit":false,"i_lat":-6.193792},{"time":2,"distance":1829,"i_long":106.861737,"station_id":"POK","station_name":"Pondok Jati","i_lat":-6.209188,"is_transit":false,"line":11,"transit":false},{"is_transit":true,"time":9,"distance":1236,"station_id":"JNG","transit":true,"i_lat":-6.215091,"line":0,"i_long":106.86807400000001,"station_name":"Jatinegara"},{"is_transit":false,"transit":false,"i_long":106.858896,"line":1,"station_name":"Matraman","station_id":"MTR","distance":1377,"time":2,"i_lat":-6.212485},{"time":2,"station_id":"MRI","i_lat":-6.209883,"line":0,"station_name":"Manggarai","transit":true,"distance":1275,"i_long":106.84912,"is_transit":true},{"is_transit":false,"line":2,"transit":false,"distance":2610,"station_name":"Tebet","i_lat":-6.226659,"i_long":106.857948,"station_id":"TEB","time":4},{"time":2,"i_long":106.856607,"line":0,"station_name":"Cawang","transit":false,"distance":1230,"is_transit":false,"i_lat":-6.242512,"station_id":"CW"},{"i_lat":-6.255332,"is_transit":false,"time":3,"station_name":"Duren Kalibata","distance":1546,"station_id":"DRN","transit":false,"i_long":106.85449,"line":0},{"distance":824,"transit":false,"i_long":106.851577,"line":2,"station_id":"PSMB","is_transit":false,"time":2,"station_name":"Pasar Minggu Baru","i_lat":-6.263214},{"i_long":106.843999,"station_name":"Pasar Minggu","distance":2380,"time":2,"transit":false,"station_id":"PSM","i_lat":-6.2842400000000005,"line":2,"is_transit":false},{"is_transit":false,"time":4,"station_id":"TNT","distance":2820,"transit":false,"station_name":"Tanjung Barat","i_long":106.838896,"line":2,"i_lat":-6.3080680000000005},{"station_name":"Lenteng Agung","time":3,"distance":2671,"i_lat":-6.330363,"i_long":106.832616,"transit":false,"line":2,"station_id":"LNA","is_transit":false}],[{"is_transit":false,"station_id":"GST","transit":false,"i_lat":-6.185975,"line":11,"distance":0,"station_name":"Gang Sentiong","time":0,"i_long":106.850107},{"station_name":"Pasar Senen","transit":false,"station_id":"PSE","time":8,"is_transit":false,"distance":1567,"i_lat":-6.174784,"i_long":106.84368,"line":11},{"station_name":"Kemayoran","line":11,"transit":false,"station_id":"KMO","is_transit":false,"time":4,"i_lat":-6.161728,"i_long":106.839204,"distance":1436},{"station_name":"Rajawali","station_id":"RJW","i_long":106.836569,"i_lat":-6.14505,"line":11,"transit":false,"distance":1901,"is_transit":false,"time":5},{"i_lat":-6.132549,"time":3,"station_name":"Kampung Bandan","i_long":106.826365,"transit":true,"line":0,"is_transit":true,"station_id":"KPB","distance":1444},{"i_long":106.79867,"line":0,"transit":false,"station_id":"AK","is_transit":false,"time":9,"i_lat":-6.144674,"distance":4102,"station_name":"Angke"},{"line":1,"is_transit":true,"distance":1230,"i_lat":-6.155215,"station_id":"DU","station_name":"Duri","transit":true,"i_long":106.800832,"time":4},{"station_id":"THB","is_transit":true,"line":1,"station_name":"Tanah Abang","i_lat":-6.185545,"i_long":106.811091,"distance":3632,"time":8,"transit":false},{"transit":false,"station_id":"KAT","is_transit":false,"i_long":106.816351,"time":5,"distance":2029,"line":1,"station_name":"Karet","i_lat":-6.20132},{"i_lat":-6.201433,"station_id":"SUDB","line":1,"is_transit":false,"time":1,"transit":false,"distance":471,"station_name":"Sudirman Baru","i_long":106.819881},{"station_id":"SUD","time":1,"i_long":106.822649,"is_transit":false,"distance":280,"transit":false,"station_name":"Sudirman","line":1,"i_lat":-6.202263},{"station_id":"MRI","station_name":"Manggarai","is_transit":true,"distance":3186,"i_long":106.84912,"line":0,"transit":true,"time":4,"i_lat":-6.209883},{"station_name":"Tebet","station_id":"TEB","time":4,"i_lat":-6.226659,"distance":2610,"transit":false,"i_long":106.857948,"line":2,"is_transit":false},{"station_name":"Cawang","is_transit":false,"i_lat":-6.242512,"distance":1230,"line":0,"i_long":106.856607,"transit":false,"station_id":"CW","time":2},{"i_lat":-6.255332,"station_name":"Duren Kalibata","is_transit":false,"station_id":"DRN","line":0,"time":3,"transit":false,"i_long":106.85449,"distance":1546},{"line":2,"station_id":"PSMB","i_long":106.851577,"time":2,"is_transit":false,"distance":824,"station_name":"Pasar Minggu Baru","transit":false,"i_lat":-6.263214},{"station_name":"Pasar Minggu","transit":false,"i_lat":-6.2842400000000005,"is_transit":false,"time":2,"i_long":106.843999,"distance":2380,"line":2,"station_id":"PSM"},{"i_lat":-6.3080680000000005,"i_long":106.838896,"time":4,"transit":false,"distance":2820,"line":2,"is_transit":false,"station_name":"Tanjung Barat","station_id":"TNT"},{"i_lat":-6.330363,"station_id":"LNA","line":2,"is_transit":false,"station_name":"Lenteng Agung","distance":2671,"transit":false,"time":3,"i_long":106.832616}],[{"station_name":"Gang Sentiong","station_id":"GST","distance":0,"transit":false,"line":11,"i_long":106.850107,"i_lat":-6.185975,"time":0,"is_transit":false},{"transit":false,"distance":1567,"i_lat":-6.174784,"line":11,"is_transit":false,"i_long":106.84368,"time":8,"station_name":"Pasar Senen","station_id":"PSE"},{"is_transit":false,"distance":1436,"station_name":"Kemayoran","time":4,"line":11,"station_id":"KMO","transit":false,"i_lat":-6.161728,"i_long":106.839204},{"station_id":"RJW","station_name":"Rajawali","time":5,"transit":false,"i_lat":-6.14505,"distance":1901,"i_long":106.836569,"is_transit":false,"line":11},{"station_name":"Kampung Bandan","i_lat":-6.132549,"line":0,"is_transit":true,"station_id":"KPB","time":3,"distance":1444,"transit":true,"i_long":106.826365},{"transit":true,"i_lat":-6.137569,"line":0,"station_id":"JAKK","time":3,"distance":1364,"is_transit":true,"station_name":"Jakarta Kota","i_long":106.812439},{"time":4,"transit":false,"is_transit":false,"i_lat":-6.141205,"i_long":106.820901,"line":7,"station_id":"JAY","distance":1264,"station_name":"Jayakarta"},{"distance":1080,"station_id":"MGB","transit":false,"station_name":"Manggabesar","time":2,"is_transit":false,"i_long":106.82482,"i_lat":-6.149769,"line":2},{"is_transit":false,"station_name":"Sawah Besar","transit":false,"distance":906,"i_lat":-6.160725,"station_id":"SW","i_long":106.827103,"line":2,"time":2},{"transit":false,"line":2,"station_name":"Juanda","i_lat":-6.166716,"i_long":106.828284,"station_id":"JUA","is_transit":false,"distance":1149,"time":2},{"time":4,"i_lat":-6.186295,"i_long":106.832183,"transit":false,"distance":2015,"station_name":"Gondangdia","is_transit":false,"line":2,"station_id":"GDD"},{"line":0,"station_id":"CKI","i_lat":-6.198556,"is_transit":false,"station_name":"Cikini","i_long":106.840169,"time":3,"distance":1750,"transit":false},{"line":0,"time":4,"station_name":"Manggarai","station_id":"MRI","distance":1590,"is_transit":true,"i_long":106.84912,"transit":true,"i_lat":-6.209883},{"is_transit":false,"time":4,"station_id":"TEB","distance":2610,"station_name":"Tebet","transit":false,"i_long":106.857948,"line":2,"i_lat":-6.226659},{"station_id":"CW","station_name":"Cawang","distance":1230,"line":0,"time":2,"i_lat":-6.242512,"transit":false,"i_long":106.856607,"is_transit":false},{"station_id":"DRN","distance":1546,"i_lat":-6.255332,"time":3,"line":0,"station_name":"Duren Kalibata","transit":false,"is_transit":false,"i_long":106.85449},{"station_id":"PSMB","transit":false,"time":2,"i_long":106.851577,"line":2,"is_transit":false,"station_name":"Pasar Minggu Baru","i_lat":-6.263214,"distance":824},{"transit":false,"i_long":106.843999,"is_transit":false,"station_name":"Pasar Minggu","line":2,"time":2,"distance":2380,"station_id":"PSM","i_lat":-6.2842400000000005},{"time":4,"is_transit":false,"station_id":"TNT","i_long":106.838896,"i_lat":-6.3080680000000005,"transit":false,"station_name":"Tanjung Barat","line":2,"distance":2820},{"distance":2671,"i_long":106.832616,"i_lat":-6.330363,"is_transit":false,"station_name":"Lenteng Agung","line":2,"station_id":"LNA","time":3,"transit":false}]]}