{"data":[[{"is_transit":false,"distance":0,"i_long":110.744432,"line":7,"i_lat":-7.589036,"time":0,"station_name":"Gawok","station_id":"GW","transit":false},{"is_transit":false,"time":6,"i_long":110.706679,"station_name":"Delanggu","distance":5543,"i_lat":-7.62181,"line":7,"station_id":"DL","transit":false},{"station_name":"Ceper","station_id":"CE","is_transit":false,"time":7,"i_long":110.674861,"line":7,"i_lat":-7.668597,"distance":6271,"transit":false},{"time":9,"distance":9279,"line":7,"station_name":"Klaten","transit":false,"station_id":"KT","i_lat":-7.712087,"is_transit":false,"i_long":110.602981},{"station_name":"Srowot","line":7,"transit":false,"i_lat":-7.74111,"i_long":110.548972,"is_transit":false,"time":8,"station_id":"SWT","distance":6738},{"is_transit":false,"station_id":"BBN","distance":5850,"time":7,"station_name":"Brambanan","i_lat":-7.756284,"i_long":110.500451,"line":0,"transit":false},{"line":7,"distance":7905,"transit":false,"i_long":110.436791,"time":8,"i_lat":-7.784476,"station_name":"Maguwo","is_transit":false,"station_id":"MGW"},{"i_lat":-7.790018,"station_name":"Lempuyangan","distance":6799,"i_long":110.375434,"transit":false,"time":7,"line":7,"station_id":"LPN","is_transit":false},{"station_name":"Yogyakarta","station_id":"YK","transit":false,"is_transit":false,"i_long":110.36345,"i_lat":-7.788961,"distance":1307,"line":7,"time":6},{"station_id":"PTN","station_name":"Patukan","i_lat":-7.790605,"time":5,"transit":false,"is_transit":false,"i_long":110.32542,"line":7,"distance":4241},{"station_name":"Rewulu","i_lat":-7.797702,"transit":false,"station_id":"RWL","is_transit":false,"line":7,"time":4,"i_long":110.279205,"distance":4579},{"station_name":"Sentolo","station_id":"STL","distance":9041,"line":0,"time":8,"i_lat":-7.832939,"transit":false,"is_transit":false,"i_long":110.220122},{"distance":10145,"i_long":110.158003,"station_name":"Wates","time":25,"line":7,"is_transit":false,"transit":false,"station_id":"WT","i_lat":-7.859237},{"time":15,"station_name":"Wojo","transit":false,"is_transit":false,"i_long":110.040449,"station_id":"WJ","line":7,"distance":13652,"i_lat":-7.861626},{"station_name":"Jenar","station_id":"JN","distance":8393,"i_long":110.000548,"line":0,"time":10,"transit":false,"is_transit":false,"i_lat":-7.801845}]]}