{"data":[[{"is_transit":false,"transit":false,"i_lat":-7.589036,"i_long":110.744432,"time":0,"station_id":"GW","line":7,"distance":0,"station_name":"Gawok"},{"transit":false,"time":6,"station_name":"Delanggu","is_transit":false,"i_long":110.706679,"station_id":"DL","distance":5543,"i_lat":-7.62181,"line":7},{"i_long":110.674861,"time":7,"station_name":"Ceper","i_lat":-7.668597,"distance":6271,"transit":false,"line":7,"is_transit":false,"station_id":"CE"},{"station_id":"KT","transit":false,"is_transit":false,"time":9,"distance":9279,"station_name":"Klaten","i_lat":-7.712087,"i_long":110.602981,"line":7},{"i_lat":-7.74111,"line":7,"station_id":"SWT","transit":false,"is_transit":false,"station_name":"Srowot","i_long":110.548972,"distance":6738,"time":8},{"line":0,"station_name":"Brambanan","station_id":"BBN","is_transit":false,"distance":5850,"time":7,"transit":false,"i_lat":-7.756284,"i_long":110.500451},{"station_name":"Maguwo","i_lat":-7.784476,"time":8,"station_id":"MGW","line":7,"distance":7905,"i_long":110.436791,"is_transit":false,"transit":false},{"station_name":"Lempuyangan","transit":false,"i_lat":-7.790018,"time":7,"distance":6799,"is_transit":false,"i_long":110.375434,"line":7,"station_id":"LPN"},{"distance":1307,"station_name":"Yogyakarta","i_lat":-7.788961,"is_transit":false,"station_id":"YK","transit":false,"i_long":110.36345,"line":7,"time":6},{"transit":false,"is_transit":false,"i_lat":-7.790605,"station_name":"Patukan","i_long":110.32542,"line":7,"time":5,"distance":4241,"station_id":"PTN"},{"distance":4579,"station_id":"RWL","i_long":110.279205,"is_transit":false,"station_name":"Rewulu","transit":false,"line":7,"i_lat":-7.797702,"time":4},{"transit":false,"station_name":"Sentolo","i_lat":-7.832939,"time":8,"i_long":110.220122,"station_id":"STL","line":0,"distance":9041,"is_transit":false},{"station_id":"WT","i_lat":-7.859237,"is_transit":false,"transit":false,"line":7,"station_name":"Wates","i_long":110.158003,"time":25,"distance":10145},{"distance":13652,"station_id":"WJ","is_transit":false,"time":15,"transit":false,"station_name":"Wojo","line":7,"i_lat":-7.861626,"i_long":110.040449},{"station_name":"Jenar","transit":false,"station_id":"JN","i_long":110.000548,"time":10,"line":0,"distance":8393,"i_lat":-7.801845,"is_transit":false}]]}