{"data":[[{"distance":0,"transit":false,"i_lat":-7.589036,"i_long":110.744432,"time":0,"is_transit":false,"line":7,"station_name":"Gawok","station_id":"GW"},{"station_name":"Delanggu","time":6,"transit":false,"i_lat":-7.62181,"is_transit":false,"station_id":"DL","distance":5543,"i_long":110.706679,"line":7},{"station_id":"CE","transit":false,"line":7,"i_long":110.674861,"station_name":"Ceper","distance":6271,"is_transit":false,"time":7,"i_lat":-7.668597},{"station_name":"Klaten","is_transit":false,"transit":false,"distance":9279,"i_lat":-7.712087,"i_long":110.602981,"line":7,"time":9,"station_id":"KT"},{"station_id":"SWT","time":8,"i_long":110.548972,"i_lat":-7.74111,"is_transit":false,"station_name":"Srowot","distance":6738,"line":7,"transit":false},{"station_name":"Brambanan","i_long":110.500451,"transit":false,"distance":5850,"is_transit":false,"time":7,"line":0,"i_lat":-7.756284,"station_id":"BBN"},{"line":7,"i_lat":-7.784476,"i_long":110.436791,"station_id":"MGW","distance":7905,"transit":false,"is_transit":false,"station_name":"Maguwo","time":8},{"station_id":"LPN","is_transit":false,"transit":false,"time":7,"distance":6799,"line":7,"i_lat":-7.790018,"station_name":"Lempuyangan","i_long":110.375434},{"time":6,"i_long":110.36345,"station_name":"Yogyakarta","transit":false,"station_id":"YK","i_lat":-7.788961,"line":7,"distance":1307,"is_transit":false},{"transit":false,"line":7,"station_id":"PTN","distance":4241,"i_long":110.32542,"station_name":"Patukan","i_lat":-7.790605,"is_transit":false,"time":5},{"station_id":"RWL","i_long":110.279205,"line":7,"distance":4579,"is_transit":false,"time":4,"transit":false,"station_name":"Rewulu","i_lat":-7.797702},{"transit":false,"time":8,"i_lat":-7.832939,"i_long":110.220122,"distance":9041,"is_transit":false,"station_id":"STL","station_name":"Sentolo","line":0},{"transit":false,"i_lat":-7.859237,"station_name":"Wates","time":25,"distance":10145,"station_id":"WT","i_long":110.158003,"is_transit":false,"line":7},{"distance":13652,"i_long":110.040449,"i_lat":-7.861626,"station_name":"Wojo","station_id":"WJ","is_transit":false,"time":15,"transit":false,"line":7},{"line":0,"time":10,"distance":8393,"transit":false,"i_long":110.000548,"station_id":"JN","station_name":"Jenar","i_lat":-7.801845,"is_transit":false}]]}