{"data":[[{"is_transit":false,"distance":0,"i_long":110.744432,"transit":false,"time":0,"i_lat":-7.589036,"station_name":"Gawok","line":7,"station_id":"GW"},{"time":6,"station_id":"DL","line":0,"distance":5543,"transit":false,"is_transit":false,"i_long":110.706679,"station_name":"Delanggu","i_lat":-7.62181},{"distance":6271,"station_name":"Ceper","is_transit":false,"transit":false,"line":0,"station_id":"CE","i_long":110.674861,"time":7,"i_lat":-7.668597},{"is_transit":false,"station_id":"KT","line":7,"time":9,"i_long":110.602981,"distance":9279,"station_name":"Klaten","i_lat":-7.712087,"transit":false},{"is_transit":false,"line":7,"station_name":"Srowot","time":8,"i_lat":-7.74111,"station_id":"SWT","transit":false,"distance":6738,"i_long":110.548972},{"station_name":"Brambanan","time":7,"distance":5850,"i_long":110.500451,"i_lat":-7.756284,"station_id":"BBN","is_transit":false,"line":0,"transit":false},{"station_name":"Maguwo","station_id":"MGW","transit":false,"distance":7905,"time":8,"line":7,"i_long":110.436791,"is_transit":false,"i_lat":-7.784476},{"time":7,"i_lat":-7.790018,"transit":false,"distance":6799,"is_transit":false,"station_id":"LPN","i_long":110.375434,"station_name":"Lempuyangan","line":7},{"transit":false,"time":6,"i_long":110.36345,"station_name":"Yogyakarta","is_transit":false,"station_id":"YK","distance":1307,"line":7,"i_lat":-7.788961},{"time":5,"line":7,"station_id":"PTN","distance":4241,"station_name":"Patukan","i_long":110.32542,"is_transit":false,"i_lat":-7.790605,"transit":false},{"line":7,"i_lat":-7.797702,"is_transit":false,"time":4,"station_id":"RWL","i_long":110.279205,"distance":4579,"transit":false,"station_name":"Rewulu"},{"transit":false,"station_name":"Sentolo","time":8,"station_id":"STL","i_lat":-7.832939,"is_transit":false,"line":7,"distance":9041,"i_long":110.220122},{"i_lat":-7.859237,"transit":false,"i_long":110.158003,"line":7,"is_transit":false,"station_id":"WT","distance":10145,"station_name":"Wates","time":25},{"distance":13652,"station_id":"WJ","time":15,"station_name":"Wojo","i_lat":-7.861626,"i_long":110.040449,"is_transit":false,"line":7,"transit":false},{"time":10,"line":7,"i_long":110.000548,"i_lat":-7.801845,"distance":8393,"station_name":"Jenar","transit":false,"is_transit":false,"station_id":"JN"}]]}