{"data":[[{"distance":0,"i_long":110.744432,"is_transit":false,"station_id":"GW","time":0,"i_lat":-7.589036,"line":7,"station_name":"Gawok","transit":false},{"transit":false,"i_long":110.706679,"station_name":"Delanggu","distance":5543,"i_lat":-7.62181,"is_transit":false,"line":0,"station_id":"DL","time":6},{"time":7,"i_lat":-7.668597,"line":0,"station_name":"Ceper","distance":6271,"station_id":"CE","i_long":110.674861,"is_transit":false,"transit":false},{"station_name":"Klaten","i_lat":-7.712087,"distance":9279,"is_transit":false,"station_id":"KT","transit":false,"i_long":110.602981,"line":7,"time":9},{"distance":6738,"i_lat":-7.74111,"line":7,"station_name":"Srowot","is_transit":false,"i_long":110.548972,"time":8,"station_id":"SWT","transit":false},{"time":7,"i_long":110.500451,"line":0,"i_lat":-7.756284,"station_name":"Brambanan","is_transit":false,"station_id":"BBN","distance":5850,"transit":false},{"station_name":"Maguwo","distance":7905,"i_lat":-7.784476,"line":7,"is_transit":false,"time":8,"station_id":"MGW","transit":false,"i_long":110.436791},{"time":7,"transit":false,"i_lat":-7.790018,"i_long":110.375434,"line":7,"station_id":"LPN","distance":6799,"is_transit":false,"station_name":"Lempuyangan"}]]}