{"data":[[{"is_transit":false,"station_name":"Gawok","distance":0,"line":7,"station_id":"GW","time":0,"i_lat":-7.589036,"i_long":110.744432,"transit":false},{"time":6,"distance":5543,"transit":false,"is_transit":false,"station_name":"Delanggu","i_lat":-7.62181,"line":7,"station_id":"DL","i_long":110.706679},{"i_lat":-7.668597,"station_name":"Ceper","line":7,"i_long":110.674861,"distance":6271,"station_id":"CE","time":7,"is_transit":false,"transit":false},{"station_id":"KT","station_name":"Klaten","time":9,"i_lat":-7.712087,"transit":false,"i_long":110.602981,"distance":9279,"line":7,"is_transit":false},{"is_transit":false,"station_name":"Srowot","time":8,"distance":6738,"i_lat":-7.74111,"i_long":110.548972,"transit":false,"line":7,"station_id":"SWT"},{"distance":5850,"station_name":"Brambanan","i_lat":-7.756284,"i_long":110.500451,"station_id":"BBN","line":0,"transit":false,"time":7,"is_transit":false},{"station_name":"Maguwo","time":8,"i_long":110.436791,"line":7,"transit":false,"distance":7905,"station_id":"MGW","is_transit":false,"i_lat":-7.784476},{"i_long":110.375434,"station_name":"Lempuyangan","time":7,"is_transit":false,"line":7,"distance":6799,"i_lat":-7.790018,"transit":false,"station_id":"LPN"}]]}