{"data":[[{"station_name":"Gawok","i_long":110.744432,"distance":0,"transit":false,"i_lat":-7.589036,"is_transit":false,"time":0,"line":7,"station_id":"GW"},{"station_name":"Delanggu","station_id":"DL","time":6,"line":7,"is_transit":false,"distance":5543,"transit":false,"i_lat":-7.62181,"i_long":110.706679},{"time":7,"i_lat":-7.668597,"station_name":"Ceper","transit":false,"station_id":"CE","distance":6271,"line":7,"is_transit":false,"i_long":110.674861},{"time":9,"distance":9279,"is_transit":false,"line":7,"transit":false,"i_lat":-7.712087,"i_long":110.602981,"station_id":"KT","station_name":"Klaten"},{"i_long":110.548972,"station_name":"Srowot","is_transit":false,"line":7,"transit":false,"time":8,"distance":6738,"i_lat":-7.74111,"station_id":"SWT"},{"station_name":"Brambanan","i_lat":-7.756284,"i_long":110.500451,"transit":false,"is_transit":false,"station_id":"BBN","time":7,"line":0,"distance":5850},{"time":8,"transit":false,"station_id":"MGW","i_long":110.436791,"distance":7905,"line":7,"i_lat":-7.784476,"is_transit":false,"station_name":"Maguwo"},{"station_name":"Lempuyangan","time":7,"station_id":"LPN","transit":false,"distance":6799,"i_lat":-7.790018,"line":7,"is_transit":false,"i_long":110.375434}]]}