{"data":[[{"station_id":"GW","i_long":110.744432,"is_transit":false,"line":7,"time":0,"transit":false,"i_lat":-7.589036,"station_name":"Gawok","distance":0},{"station_id":"DL","is_transit":false,"i_lat":-7.62181,"station_name":"Delanggu","time":6,"transit":false,"i_long":110.706679,"line":7,"distance":5543},{"station_id":"CE","is_transit":false,"i_lat":-7.668597,"transit":false,"line":7,"distance":6271,"station_name":"Ceper","i_long":110.674861,"time":7},{"transit":false,"time":9,"line":7,"i_lat":-7.712087,"i_long":110.602981,"station_name":"Klaten","is_transit":false,"distance":9279,"station_id":"KT"},{"station_id":"SWT","station_name":"Srowot","distance":6738,"is_transit":false,"i_long":110.548972,"transit":false,"line":7,"time":8,"i_lat":-7.74111},{"distance":5850,"station_name":"Brambanan","station_id":"BBN","time":7,"i_lat":-7.756284,"is_transit":false,"transit":false,"line":0,"i_long":110.500451},{"station_name":"Maguwo","i_long":110.436791,"station_id":"MGW","distance":7905,"line":7,"is_transit":false,"i_lat":-7.784476,"transit":false,"time":8},{"time":7,"transit":false,"station_name":"Lempuyangan","is_transit":false,"distance":6799,"station_id":"LPN","i_lat":-7.790018,"line":7,"i_long":110.375434}]]}