{"data":[[{"station_id":"GW","is_transit":false,"line":7,"distance":0,"i_long":110.744432,"transit":false,"station_name":"Gawok","i_lat":-7.589036,"time":0},{"i_lat":-7.62181,"i_long":110.706679,"line":7,"is_transit":false,"station_name":"Delanggu","distance":5543,"transit":false,"station_id":"DL","time":6},{"distance":6271,"station_name":"Ceper","is_transit":false,"station_id":"CE","i_lat":-7.668597,"transit":false,"i_long":110.674861,"line":7,"time":7},{"line":7,"i_long":110.602981,"is_transit":false,"station_id":"KT","time":9,"station_name":"Klaten","i_lat":-7.712087,"distance":9279,"transit":false},{"time":8,"transit":false,"i_long":110.548972,"i_lat":-7.74111,"station_name":"Srowot","station_id":"SWT","line":7,"distance":6738,"is_transit":false},{"distance":5850,"station_name":"Brambanan","i_lat":-7.756284,"line":0,"transit":false,"station_id":"BBN","is_transit":false,"time":7,"i_long":110.500451},{"transit":false,"distance":7905,"time":8,"i_long":110.436791,"i_lat":-7.784476,"station_id":"MGW","is_transit":false,"line":7,"station_name":"Maguwo"}]]}