{"data":[[{"i_lat":-7.589036,"station_name":"Gawok","distance":0,"time":0,"station_id":"GW","i_long":110.744432,"transit":false,"is_transit":false,"line":7},{"station_id":"DL","transit":false,"time":6,"is_transit":false,"i_lat":-7.62181,"i_long":110.706679,"distance":5543,"line":7,"station_name":"Delanggu"},{"station_name":"Ceper","i_long":110.674861,"i_lat":-7.668597,"transit":false,"line":7,"distance":6271,"station_id":"CE","time":7,"is_transit":false},{"station_name":"Klaten","distance":9279,"i_lat":-7.712087,"i_long":110.602981,"station_id":"KT","line":7,"time":9,"is_transit":false,"transit":false},{"i_long":110.548972,"time":8,"i_lat":-7.74111,"station_name":"Srowot","station_id":"SWT","transit":false,"distance":6738,"line":7,"is_transit":false},{"station_name":"Brambanan","station_id":"BBN","i_long":110.500451,"transit":false,"line":0,"time":7,"distance":5850,"i_lat":-7.756284,"is_transit":false},{"transit":false,"i_lat":-7.784476,"distance":7905,"line":7,"is_transit":false,"i_long":110.436791,"time":8,"station_id":"MGW","station_name":"Maguwo"}]]}