{"data":[[{"line":7,"station_name":"Gawok","is_transit":false,"station_id":"GW","i_lat":-7.589036,"time":0,"i_long":110.744432,"distance":0,"transit":false},{"is_transit":false,"line":7,"station_id":"DL","station_name":"Delanggu","time":6,"i_lat":-7.62181,"i_long":110.706679,"transit":false,"distance":5543},{"time":7,"transit":false,"is_transit":false,"i_lat":-7.668597,"station_name":"Ceper","line":7,"distance":6271,"i_long":110.674861,"station_id":"CE"},{"i_lat":-7.712087,"line":7,"station_id":"KT","i_long":110.602981,"transit":false,"distance":9279,"station_name":"Klaten","is_transit":false,"time":9},{"line":7,"is_transit":false,"station_name":"Srowot","time":8,"distance":6738,"i_long":110.548972,"transit":false,"station_id":"SWT","i_lat":-7.74111},{"station_name":"Brambanan","transit":false,"station_id":"BBN","distance":5850,"is_transit":false,"time":7,"i_long":110.500451,"line":0,"i_lat":-7.756284},{"i_lat":-7.784476,"i_long":110.436791,"line":7,"station_id":"MGW","distance":7905,"transit":false,"time":8,"station_name":"Maguwo","is_transit":false}]]}