{"data":[[{"station_name":"Gawok","time":0,"transit":false,"distance":0,"is_transit":false,"station_id":"GW","i_lat":-7.589036,"i_long":110.744432,"line":7},{"distance":5543,"transit":false,"station_name":"Delanggu","station_id":"DL","is_transit":false,"time":6,"line":0,"i_lat":-7.62181,"i_long":110.706679},{"time":7,"i_lat":-7.668597,"transit":false,"distance":6271,"is_transit":false,"i_long":110.674861,"station_id":"CE","line":0,"station_name":"Ceper"},{"i_long":110.602981,"distance":9279,"line":7,"is_transit":false,"transit":false,"station_id":"KT","time":9,"i_lat":-7.712087,"station_name":"Klaten"},{"time":8,"i_lat":-7.74111,"station_id":"SWT","station_name":"Srowot","transit":false,"i_long":110.548972,"distance":6738,"is_transit":false,"line":7},{"station_name":"Brambanan","line":0,"i_long":110.500451,"transit":false,"is_transit":false,"time":7,"station_id":"BBN","i_lat":-7.756284,"distance":5850},{"i_long":110.436791,"line":7,"station_name":"Maguwo","distance":7905,"is_transit":false,"station_id":"MGW","transit":false,"i_lat":-7.784476,"time":8}]]}