{"data":[[{"is_transit":false,"line":2,"i_lat":-6.137569,"station_id":"JAKK","time":0,"distance":0,"station_name":"Jakarta Kota","transit":false,"i_long":106.812439},{"is_transit":false,"transit":false,"station_name":"Jayakarta","i_lat":-6.141205,"i_long":106.820901,"line":2,"distance":1264,"time":4,"station_id":"JAY"},{"station_name":"Manggabesar","i_long":106.82482,"i_lat":-6.149769,"time":2,"line":2,"distance":1080,"station_id":"MGB","is_transit":false,"transit":false},{"distance":906,"station_name":"Sawah Besar","i_long":106.827103,"line":2,"time":2,"is_transit":false,"transit":false,"station_id":"SW","i_lat":-6.160725}],[{"i_long":106.812439,"transit":false,"distance":0,"i_lat":-6.137569,"time":0,"station_id":"JAKK","is_transit":false,"station_name":"Jakarta Kota","line":2},{"station_id":"KPB","is_transit":true,"i_long":106.826365,"distance":1364,"i_lat":-6.132549,"line":4,"time":3,"station_name":"Kampung Bandan","transit":true},{"i_lat":-6.144674,"station_name":"Angke","line":1,"i_long":106.79867,"distance":4102,"transit":false,"station_id":"AK","time":9,"is_transit":false},{"i_lat":-6.155215,"distance":1230,"time":4,"transit":false,"line":1,"station_id":"DU","i_long":106.800832,"is_transit":false,"station_name":"Duri"},{"time":8,"i_long":106.811091,"station_name":"Tanah Abang","distance":3632,"i_lat":-6.185545,"line":1,"transit":false,"is_transit":false,"station_id":"THB"},{"station_id":"KAT","station_name":"Karet","transit":false,"distance":2029,"time":5,"i_lat":-6.20132,"is_transit":false,"i_long":106.816351,"line":1},{"is_transit":false,"line":1,"transit":false,"station_id":"SUDB","i_lat":-6.201433,"distance":471,"i_long":106.819881,"time":1,"station_name":"Sudirman Baru"},{"is_transit":false,"line":1,"station_name":"Sudirman","transit":false,"i_lat":-6.202263,"i_long":106.822649,"distance":280,"station_id":"SUD","time":1},{"i_long":106.84912,"time":4,"station_name":"Manggarai","distance":3186,"transit":true,"i_lat":-6.209883,"line":2,"is_transit":true,"station_id":"MRI"},{"station_name":"Cikini","line":2,"i_lat":-6.198556,"station_id":"CKI","time":4,"i_long":106.840169,"distance":1590,"is_transit":false,"transit":false},{"line":2,"distance":1750,"is_transit":false,"i_long":106.832183,"time":3,"station_name":"Gondangdia","transit":false,"station_id":"GDD","i_lat":-6.186295},{"distance":2015,"line":2,"station_name":"Juanda","is_transit":false,"i_long":106.828284,"i_lat":-6.166716,"time":4,"station_id":"JUA","transit":false},{"station_name":"Sawah Besar","distance":1149,"time":2,"is_transit":false,"i_lat":-6.160725,"line":2,"station_id":"SW","transit":false,"i_long":106.827103}],[{"distance":0,"i_lat":-6.137569,"i_long":106.812439,"station_name":"Jakarta Kota","time":0,"line":2,"station_id":"JAKK","is_transit":false,"transit":false},{"time":3,"station_id":"KPB","station_name":"Kampung Bandan","is_transit":true,"i_long":106.826365,"transit":true,"i_lat":-6.132549,"line":4,"distance":1364},{"i_lat":-6.14505,"distance":1444,"i_long":106.836569,"line":11,"is_transit":false,"time":3,"station_name":"Rajawali","transit":false,"station_id":"RJW"},{"line":11,"transit":false,"distance":1901,"time":5,"station_id":"KMO","is_transit":false,"i_long":106.839204,"station_name":"Kemayoran","i_lat":-6.161728},{"distance":1436,"is_transit":false,"line":11,"i_long":106.84368,"transit":false,"time":4,"station_id":"PSE","i_lat":-6.174784,"station_name":"Pasar Senen"},{"transit":false,"i_lat":-6.185975,"i_long":106.850107,"station_id":"GST","time":8,"distance":1567,"is_transit":false,"station_name":"Gang Sentiong","line":11},{"i_long":106.855437,"is_transit":false,"distance":973,"transit":false,"time":1,"line":11,"station_id":"KMT","station_name":"Kramat","i_lat":-6.193792},{"station_name":"Pondok Jati","time":2,"distance":1829,"is_transit":false,"transit":false,"line":11,"station_id":"POK","i_long":106.861737,"i_lat":-6.209188},{"station_name":"Jatinegara","distance":1236,"time":9,"transit":true,"station_id":"JNG","is_transit":true,"i_lat":-6.215091,"line":1,"i_long":106.86807400000001},{"line":1,"is_transit":false,"i_long":106.858896,"transit":false,"station_id":"MTR","i_lat":-6.212485,"time":2,"distance":1377,"station_name":"Matraman"},{"line":2,"time":2,"i_lat":-6.209883,"i_long":106.84912,"distance":1275,"station_id":"MRI","station_name":"Manggarai","is_transit":true,"transit":true},{"time":4,"distance":1590,"station_id":"CKI","is_transit":false,"station_name":"Cikini","i_lat":-6.198556,"i_long":106.840169,"line":2,"transit":false},{"distance":1750,"time":3,"station_id":"GDD","line":2,"station_name":"Gondangdia","is_transit":false,"transit":false,"i_lat":-6.186295,"i_long":106.832183},{"transit":false,"i_lat":-6.166716,"time":4,"is_transit":false,"station_name":"Juanda","i_long":106.828284,"line":2,"distance":2015,"station_id":"JUA"},{"i_lat":-6.160725,"line":2,"is_transit":false,"station_name":"Sawah Besar","i_long":106.827103,"station_id":"SW","distance":1149,"time":2,"transit":false}]]}