{"data":[[{"station_name":"Jakarta Kota","transit":false,"station_id":"JAKK","time":0,"distance":0,"i_long":106.812439,"i_lat":-6.137569,"is_transit":true,"line":0},{"transit":false,"time":3,"station_name":"Kampung Bandan","line":0,"station_id":"KPB","is_transit":true,"i_lat":-6.132549,"i_long":106.826365,"distance":1364},{"station_id":"AK","is_transit":false,"distance":4102,"i_long":106.79867,"line":0,"transit":false,"time":9,"station_name":"Angke","i_lat":-6.144674},{"is_transit":true,"distance":1230,"line":1,"station_name":"Duri","i_long":106.800832,"transit":true,"station_id":"DU","time":4,"i_lat":-6.155215},{"transit":false,"is_transit":false,"distance":1700,"station_name":"Grogol","line":5,"i_long":106.788277,"i_lat":-6.162021,"station_id":"GGL","time":3},{"transit":false,"station_name":"Pesing","time":2,"station_id":"PSG","distance":2036,"i_long":106.771379,"line":5,"i_lat":-6.161433,"is_transit":false},{"i_long":106.756522,"transit":false,"station_id":"TKO","distance":1614,"is_transit":false,"station_name":"Taman Kota","time":2,"line":5,"i_lat":-6.1587309999999995},{"transit":false,"station_id":"BOI","station_name":"Bojongindah","is_transit":false,"distance":2334,"i_lat":-6.159876,"i_long":106.737035,"line":0,"time":2},{"i_long":106.723064,"line":5,"station_id":"RW","transit":false,"distance":1152,"is_transit":false,"time":4,"station_name":"Rawa Buaya","i_lat":-6.162758},{"distance":2504,"time":3,"is_transit":false,"i_lat":-6.166068,"i_long":106.701612,"station_id":"KDS","station_name":"Kalideres","transit":false,"line":5},{"i_lat":-6.169933,"is_transit":false,"station_name":"Poris","transit":false,"time":3,"i_long":106.679458,"line":5,"station_id":"PI","distance":2548},{"line":0,"time":3,"distance":1834,"station_id":"BPR","transit":false,"station_name":"Batuceper","i_lat":-6.171811,"i_long":106.665036,"is_transit":false},{"line":5,"time":3,"distance":2028,"station_id":"TTI","transit":false,"station_name":"Tanah Tinggi","i_long":106.64657,"is_transit":false,"i_lat":-6.17331}],[{"transit":false,"is_transit":true,"station_id":"JAKK","station_name":"Jakarta Kota","i_lat":-6.137569,"i_long":106.812439,"time":0,"distance":0,"line":0},{"station_id":"JAY","time":4,"is_transit":false,"distance":1264,"i_lat":-6.141205,"transit":false,"i_long":106.820901,"line":7,"station_name":"Jayakarta"},{"station_id":"MGB","time":2,"transit":false,"is_transit":false,"i_long":106.82482,"station_name":"Manggabesar","distance":1080,"i_lat":-6.149769,"line":2},{"line":2,"transit":false,"is_transit":false,"station_id":"SW","station_name":"Sawah Besar","i_lat":-6.160725,"i_long":106.827103,"distance":906,"time":2},{"line":2,"i_lat":-6.166716,"station_name":"Juanda","i_long":106.828284,"station_id":"JUA","time":2,"is_transit":false,"transit":false,"distance":1149},{"time":4,"i_lat":-6.186295,"line":2,"transit":false,"station_name":"Gondangdia","distance":2015,"i_long":106.832183,"station_id":"GDD","is_transit":false},{"is_transit":false,"transit":false,"time":3,"station_id":"CKI","i_lat":-6.198556,"station_name":"Cikini","i_long":106.840169,"distance":1750,"line":0},{"i_lat":-6.209883,"is_transit":true,"distance":1590,"transit":true,"time":4,"station_name":"Manggarai","station_id":"MRI","line":0,"i_long":106.84912},{"i_long":106.822649,"line":1,"i_lat":-6.202263,"time":4,"is_transit":false,"station_id":"SUD","distance":3186,"transit":false,"station_name":"Sudirman"},{"distance":280,"i_long":106.819881,"station_id":"SUDB","transit":false,"i_lat":-6.201433,"time":1,"is_transit":false,"line":1,"station_name":"Sudirman Baru"},{"time":1,"distance":471,"is_transit":false,"station_id":"KAT","i_long":106.816351,"transit":false,"i_lat":-6.20132,"station_name":"Karet","line":1},{"distance":2029,"station_id":"THB","is_transit":true,"station_name":"Tanah Abang","i_lat":-6.185545,"time":5,"i_long":106.811091,"transit":false,"line":1},{"line":1,"i_long":106.800832,"transit":true,"i_lat":-6.155215,"time":8,"station_name":"Duri","is_transit":true,"station_id":"DU","distance":3632},{"i_long":106.788277,"is_transit":false,"station_name":"Grogol","station_id":"GGL","line":5,"time":3,"distance":1700,"i_lat":-6.162021,"transit":false},{"transit":false,"i_lat":-6.161433,"distance":2036,"is_transit":false,"line":5,"station_name":"Pesing","time":2,"i_long":106.771379,"station_id":"PSG"},{"time":2,"station_name":"Taman Kota","is_transit":false,"distance":1614,"i_long":106.756522,"transit":false,"station_id":"TKO","line":5,"i_lat":-6.1587309999999995},{"time":2,"i_lat":-6.159876,"station_name":"Bojongindah","station_id":"BOI","is_transit":false,"distance":2334,"line":0,"transit":false,"i_long":106.737035},{"distance":1152,"i_lat":-6.162758,"is_transit":false,"transit":false,"i_long":106.723064,"time":4,"station_id":"RW","station_name":"Rawa Buaya","line":5},{"distance":2504,"transit":false,"i_long":106.701612,"is_transit":false,"i_lat":-6.166068,"station_id":"KDS","time":3,"station_name":"Kalideres","line":5},{"distance":2548,"i_lat":-6.169933,"i_long":106.679458,"station_id":"PI","line":5,"transit":false,"is_transit":false,"time":3,"station_name":"Poris"},{"i_lat":-6.171811,"line":0,"distance":1834,"transit":false,"station_id":"BPR","time":3,"station_name":"Batuceper","i_long":106.665036,"is_transit":false},{"i_lat":-6.17331,"station_id":"TTI","is_transit":false,"station_name":"Tanah Tinggi","i_long":106.64657,"distance":2028,"transit":false,"line":5,"time":3}],[{"is_transit":true,"i_long":106.812439,"transit":false,"station_id":"JAKK","time":0,"distance":0,"i_lat":-6.137569,"line":0,"station_name":"Jakarta Kota"},{"i_lat":-6.132549,"station_id":"KPB","distance":1364,"line":0,"time":3,"transit":true,"is_transit":true,"station_name":"Kampung Bandan","i_long":106.826365},{"time":3,"distance":1444,"i_lat":-6.14505,"station_id":"RJW","line":11,"transit":false,"station_name":"Rajawali","i_long":106.836569,"is_transit":false},{"line":11,"i_lat":-6.161728,"transit":false,"station_id":"KMO","time":5,"distance":1901,"station_name":"Kemayoran","is_transit":false,"i_long":106.839204},{"station_name":"Pasar Senen","transit":false,"time":4,"station_id":"PSE","is_transit":false,"i_lat":-6.174784,"distance":1436,"i_long":106.84368,"line":11},{"is_transit":false,"i_lat":-6.185975,"station_id":"GST","transit":false,"station_name":"Gang Sentiong","line":11,"distance":1567,"time":8,"i_long":106.850107},{"is_transit":false,"distance":973,"station_id":"KMT","station_name":"Kramat","time":1,"line":11,"transit":false,"i_long":106.855437,"i_lat":-6.193792},{"transit":false,"is_transit":false,"i_lat":-6.209188,"time":2,"station_name":"Pondok Jati","distance":1829,"line":11,"i_long":106.861737,"station_id":"POK"},{"transit":true,"i_lat":-6.215091,"station_id":"JNG","time":9,"line":0,"distance":1236,"station_name":"Jatinegara","is_transit":true,"i_long":106.86807400000001},{"i_lat":-6.212485,"distance":1377,"station_name":"Matraman","station_id":"MTR","i_long":106.858896,"transit":false,"time":2,"is_transit":false,"line":1},{"i_lat":-6.209883,"station_id":"MRI","i_long":106.84912,"station_name":"Manggarai","time":2,"distance":1275,"line":0,"transit":false,"is_transit":true},{"is_transit":false,"station_id":"SUD","time":4,"distance":3186,"station_name":"Sudirman","i_long":106.822649,"i_lat":-6.202263,"line":1,"transit":false},{"station_id":"SUDB","is_transit":false,"distance":280,"transit":false,"time":1,"line":1,"station_name":"Sudirman Baru","i_long":106.819881,"i_lat":-6.201433},{"is_transit":false,"station_name":"Karet","i_long":106.816351,"transit":false,"i_lat":-6.20132,"time":1,"line":1,"distance":471,"station_id":"KAT"},{"transit":false,"distance":2029,"time":5,"station_name":"Tanah Abang","station_id":"THB","i_lat":-6.185545,"i_long":106.811091,"line":1,"is_transit":true},{"is_transit":true,"time":8,"station_name":"Duri","i_lat":-6.155215,"line":1,"station_id":"DU","distance":3632,"transit":true,"i_long":106.800832},{"distance":1700,"i_lat":-6.162021,"line":5,"time":3,"i_long":106.788277,"station_name":"Grogol","transit":false,"is_transit":false,"station_id":"GGL"},{"is_transit":false,"distance":2036,"i_long":106.771379,"time":2,"transit":false,"i_lat":-6.161433,"station_id":"PSG","line":5,"station_name":"Pesing"},{"station_id":"TKO","i_lat":-6.1587309999999995,"line":5,"time":2,"transit":false,"distance":1614,"station_name":"Taman Kota","i_long":106.756522,"is_transit":false},{"i_long":106.737035,"transit":false,"is_transit":false,"distance":2334,"station_id":"BOI","station_name":"Bojongindah","i_lat":-6.159876,"line":0,"time":2},{"distance":1152,"is_transit":false,"i_long":106.723064,"line":5,"i_lat":-6.162758,"station_name":"Rawa Buaya","transit":false,"station_id":"RW","time":4},{"transit":false,"time":3,"line":5,"i_lat":-6.166068,"is_transit":false,"i_long":106.701612,"distance":2504,"station_name":"Kalideres","station_id":"KDS"},{"distance":2548,"station_name":"Poris","line":5,"is_transit":false,"i_lat":-6.169933,"time":3,"i_long":106.679458,"station_id":"PI","transit":false},{"station_id":"BPR","time":3,"i_lat":-6.171811,"is_transit":false,"station_name":"Batuceper","i_long":106.665036,"distance":1834,"transit":false,"line":0},{"station_name":"Tanah Tinggi","distance":2028,"time":3,"i_lat":-6.17331,"line":5,"i_long":106.64657,"is_transit":false,"transit":false,"station_id":"TTI"}],[{"distance":0,"line":0,"station_id":"JAKK","station_name":"Jakarta Kota","is_transit":true,"i_lat":-6.137569,"transit":false,"i_long":106.812439,"time":0},{"transit":false,"station_id":"JAY","station_name":"Jayakarta","is_transit":false,"time":4,"i_lat":-6.141205,"i_long":106.820901,"line":7,"distance":1264},{"station_name":"Manggabesar","station_id":"MGB","line":2,"distance":1080,"i_lat":-6.149769,"is_transit":false,"transit":false,"time":2,"i_long":106.82482},{"time":2,"line":2,"i_long":106.827103,"is_transit":false,"distance":906,"station_name":"Sawah Besar","transit":false,"i_lat":-6.160725,"station_id":"SW"},{"i_lat":-6.166716,"distance":1149,"i_long":106.828284,"transit":false,"station_id":"JUA","is_transit":false,"station_name":"Juanda","time":2,"line":2},{"is_transit":false,"transit":false,"time":4,"i_lat":-6.186295,"station_name":"Gondangdia","station_id":"GDD","line":2,"distance":2015,"i_long":106.832183},{"transit":false,"station_name":"Cikini","i_long":106.840169,"i_lat":-6.198556,"time":3,"station_id":"CKI","distance":1750,"line":0,"is_transit":false},{"transit":true,"is_transit":true,"station_id":"MRI","distance":1590,"i_long":106.84912,"line":0,"station_name":"Manggarai","time":4,"i_lat":-6.209883},{"i_long":106.858896,"i_lat":-6.212485,"transit":false,"is_transit":false,"station_id":"MTR","time":2,"station_name":"Matraman","line":1,"distance":1275},{"transit":true,"i_lat":-6.215091,"i_long":106.86807400000001,"time":8,"is_transit":true,"distance":1377,"line":0,"station_name":"Jatinegara","station_id":"JNG"},{"station_name":"Pondok Jati","time":2,"i_long":106.861737,"i_lat":-6.209188,"transit":false,"station_id":"POK","line":11,"is_transit":false,"distance":1236},{"i_lat":-6.193792,"is_transit":false,"i_long":106.855437,"transit":false,"station_id":"KMT","time":2,"station_name":"Kramat","line":11,"distance":1829},{"distance":973,"is_transit":false,"time":1,"station_name":"Gang Sentiong","i_lat":-6.185975,"transit":false,"station_id":"GST","i_long":106.850107,"line":11},{"distance":1567,"time":8,"transit":false,"station_name":"Pasar Senen","i_long":106.84368,"station_id":"PSE","is_transit":false,"i_lat":-6.174784,"line":11},{"transit":false,"station_id":"KMO","time":4,"station_name":"Kemayoran","i_long":106.839204,"line":11,"i_lat":-6.161728,"is_transit":false,"distance":1436},{"station_id":"RJW","i_long":106.836569,"i_lat":-6.14505,"station_name":"Rajawali","distance":1901,"line":11,"time":5,"transit":false,"is_transit":false},{"station_id":"KPB","i_long":106.826365,"transit":true,"i_lat":-6.132549,"time":3,"distance":1444,"line":0,"is_transit":true,"station_name":"Kampung Bandan"},{"transit":false,"time":9,"distance":4102,"station_name":"Angke","i_lat":-6.144674,"station_id":"AK","line":0,"is_transit":false,"i_long":106.79867},{"i_lat":-6.155215,"time":4,"is_transit":true,"station_name":"Duri","i_long":106.800832,"line":1,"transit":true,"station_id":"DU","distance":1230},{"is_transit":false,"i_lat":-6.162021,"distance":1700,"station_name":"Grogol","i_long":106.788277,"station_id":"GGL","time":3,"line":5,"transit":false},{"i_long":106.771379,"station_id":"PSG","i_lat":-6.161433,"station_name":"Pesing","is_transit":false,"line":5,"distance":2036,"time":2,"transit":false},{"distance":1614,"station_id":"TKO","is_transit":false,"time":2,"i_lat":-6.1587309999999995,"i_long":106.756522,"station_name":"Taman Kota","transit":false,"line":5},{"time":2,"distance":2334,"i_long":106.737035,"is_transit":false,"transit":false,"station_name":"Bojongindah","i_lat":-6.159876,"line":0,"station_id":"BOI"},{"line":5,"transit":false,"station_id":"RW","i_lat":-6.162758,"time":4,"i_long":106.723064,"distance":1152,"station_name":"Rawa Buaya","is_transit":false},{"transit":false,"station_id":"KDS","i_long":106.701612,"station_name":"Kalideres","is_transit":false,"time":3,"line":5,"i_lat":-6.166068,"distance":2504},{"i_long":106.679458,"station_id":"PI","distance":2548,"is_transit":false,"i_lat":-6.169933,"time":3,"transit":false,"station_name":"Poris","line":5},{"distance":1834,"time":3,"station_id":"BPR","is_transit":false,"i_lat":-6.171811,"line":0,"i_long":106.665036,"station_name":"Batuceper","transit":false},{"time":3,"station_id":"TTI","transit":false,"distance":2028,"station_name":"Tanah Tinggi","i_lat":-6.17331,"is_transit":false,"i_long":106.64657,"line":5}]]}