{"data":[[{"i_long":106.812439,"transit":false,"line":0,"is_transit":true,"station_name":"Jakarta Kota","i_lat":-6.137569,"station_id":"JAKK","distance":0,"time":0},{"station_id":"KPB","is_transit":true,"line":0,"station_name":"Kampung Bandan","time":3,"transit":true,"i_lat":-6.132549,"distance":1364,"i_long":106.826365},{"line":11,"distance":1444,"time":3,"i_lat":-6.14505,"is_transit":false,"station_id":"RJW","i_long":106.836569,"station_name":"Rajawali","transit":false},{"transit":false,"time":5,"is_transit":false,"station_name":"Kemayoran","distance":1901,"station_id":"KMO","i_lat":-6.161728,"i_long":106.839204,"line":11},{"station_name":"Pasar Senen","i_long":106.84368,"station_id":"PSE","distance":1436,"line":11,"transit":false,"time":4,"i_lat":-6.174784,"is_transit":false},{"time":8,"station_id":"GST","station_name":"Gang Sentiong","line":11,"distance":1567,"transit":false,"is_transit":false,"i_lat":-6.185975,"i_long":106.850107},{"time":1,"station_id":"KMT","line":11,"station_name":"Kramat","transit":false,"i_lat":-6.193792,"i_long":106.855437,"distance":973,"is_transit":false},{"transit":false,"station_id":"POK","time":2,"distance":1829,"line":11,"i_lat":-6.209188,"station_name":"Pondok Jati","is_transit":false,"i_long":106.861737},{"distance":1236,"i_lat":-6.215091,"is_transit":true,"i_long":106.86807400000001,"station_name":"Jatinegara","time":9,"station_id":"JNG","line":0,"transit":true},{"line":1,"station_name":"Klender","transit":false,"distance":3395,"i_lat":-6.2135,"time":3,"is_transit":false,"station_id":"KLD","i_long":106.899548},{"station_name":"Buaran","line":0,"is_transit":false,"transit":false,"distance":3100,"i_lat":-6.215568,"i_long":106.922662,"time":2,"station_id":"BUA"},{"station_id":"KLDB","distance":1305,"i_long":106.939679,"line":1,"station_name":"Klenderbaru","transit":false,"i_lat":-6.217455,"time":1,"is_transit":false},{"time":8,"station_id":"CUK","i_lat":-6.219053,"distance":1385,"transit":false,"i_long":106.951283,"line":0,"is_transit":false,"station_name":"Cakung"},{"is_transit":false,"distance":3097,"transit":false,"time":3,"station_name":"Kranji","station_id":"KRI","i_long":106.977657,"line":1,"i_lat":-6.224515},{"station_id":"BKS","i_lat":-6.236616,"is_transit":false,"line":0,"distance":2520,"transit":false,"time":4,"station_name":"Bekasi","i_long":106.997013},{"line":0,"i_lat":-6.248029,"i_long":107.016735,"distance":2368,"is_transit":false,"station_name":"Bekasi Timur","time":2,"station_id":"BKST","transit":false}],[{"time":0,"line":0,"station_id":"JAKK","transit":false,"i_lat":-6.137569,"is_transit":true,"distance":0,"station_name":"Jakarta Kota","i_long":106.812439},{"station_name":"Jayakarta","time":4,"line":7,"i_lat":-6.141205,"i_long":106.820901,"is_transit":false,"station_id":"JAY","distance":1264,"transit":false},{"i_long":106.82482,"line":2,"time":2,"transit":false,"i_lat":-6.149769,"station_name":"Manggabesar","station_id":"MGB","is_transit":false,"distance":1080},{"i_long":106.827103,"is_transit":false,"i_lat":-6.160725,"station_id":"SW","distance":906,"station_name":"Sawah Besar","transit":false,"line":2,"time":2},{"station_id":"JUA","distance":1149,"line":2,"is_transit":false,"i_long":106.828284,"time":2,"i_lat":-6.166716,"station_name":"Juanda","transit":false},{"time":4,"is_transit":false,"distance":2015,"transit":false,"line":2,"station_name":"Gondangdia","i_long":106.832183,"station_id":"GDD","i_lat":-6.186295},{"i_long":106.840169,"is_transit":false,"station_name":"Cikini","station_id":"CKI","distance":1750,"time":3,"transit":false,"i_lat":-6.198556,"line":0},{"transit":true,"time":4,"line":0,"i_lat":-6.209883,"station_name":"Manggarai","station_id":"MRI","i_long":106.84912,"is_transit":true,"distance":1590},{"distance":1275,"is_transit":false,"line":1,"station_name":"Matraman","station_id":"MTR","transit":false,"i_lat":-6.212485,"i_long":106.858896,"time":2},{"i_long":106.86807400000001,"i_lat":-6.215091,"station_id":"JNG","transit":false,"distance":1377,"line":0,"is_transit":true,"time":8,"station_name":"Jatinegara"},{"time":3,"transit":false,"is_transit":false,"i_lat":-6.2135,"station_name":"Klender","line":1,"station_id":"KLD","distance":3395,"i_long":106.899548},{"line":0,"distance":3100,"is_transit":false,"i_lat":-6.215568,"i_long":106.922662,"station_name":"Buaran","time":2,"station_id":"BUA","transit":false},{"i_lat":-6.217455,"i_long":106.939679,"transit":false,"station_id":"KLDB","is_transit":false,"line":1,"distance":1305,"time":1,"station_name":"Klenderbaru"},{"i_lat":-6.219053,"line":0,"station_id":"CUK","i_long":106.951283,"is_transit":false,"station_name":"Cakung","time":8,"distance":1385,"transit":false},{"i_long":106.977657,"line":1,"station_id":"KRI","station_name":"Kranji","i_lat":-6.224515,"time":3,"is_transit":false,"distance":3097,"transit":false},{"station_id":"BKS","is_transit":false,"transit":false,"i_lat":-6.236616,"line":0,"distance":2520,"i_long":106.997013,"station_name":"Bekasi","time":4},{"station_id":"BKST","is_transit":false,"line":0,"i_lat":-6.248029,"time":2,"station_name":"Bekasi Timur","distance":2368,"transit":false,"i_long":107.016735}],[{"transit":false,"station_name":"Jakarta Kota","is_transit":true,"distance":0,"i_lat":-6.137569,"i_long":106.812439,"line":0,"time":0,"station_id":"JAKK"},{"distance":1364,"station_name":"Kampung Bandan","transit":false,"is_transit":true,"time":3,"line":0,"i_lat":-6.132549,"station_id":"KPB","i_long":106.826365},{"distance":4102,"transit":false,"time":9,"is_transit":false,"station_name":"Angke","i_long":106.79867,"station_id":"AK","line":0,"i_lat":-6.144674},{"i_lat":-6.155215,"line":1,"is_transit":true,"i_long":106.800832,"station_id":"DU","transit":true,"distance":1230,"station_name":"Duri","time":4},{"i_long":106.811091,"line":1,"time":8,"distance":3632,"station_id":"THB","transit":false,"station_name":"Tanah Abang","is_transit":true,"i_lat":-6.185545},{"station_name":"Karet","transit":false,"line":1,"i_long":106.816351,"time":5,"i_lat":-6.20132,"distance":2029,"station_id":"KAT","is_transit":false},{"station_id":"SUDB","transit":false,"distance":471,"i_lat":-6.201433,"station_name":"Sudirman Baru","time":1,"is_transit":false,"i_long":106.819881,"line":1},{"distance":280,"station_id":"SUD","time":1,"transit":false,"i_long":106.822649,"is_transit":false,"i_lat":-6.202263,"line":1,"station_name":"Sudirman"},{"station_id":"MRI","is_transit":true,"transit":false,"distance":3186,"station_name":"Manggarai","time":4,"i_long":106.84912,"line":0,"i_lat":-6.209883},{"distance":1275,"station_id":"MTR","i_long":106.858896,"is_transit":false,"station_name":"Matraman","time":2,"transit":false,"line":1,"i_lat":-6.212485},{"distance":1377,"station_id":"JNG","is_transit":true,"transit":false,"line":0,"i_long":106.86807400000001,"time":8,"i_lat":-6.215091,"station_name":"Jatinegara"},{"distance":3395,"i_lat":-6.2135,"is_transit":false,"transit":false,"i_long":106.899548,"station_name":"Klender","station_id":"KLD","time":3,"line":1},{"transit":false,"time":2,"line":0,"station_id":"BUA","distance":3100,"i_lat":-6.215568,"station_name":"Buaran","is_transit":false,"i_long":106.922662},{"is_transit":false,"i_lat":-6.217455,"i_long":106.939679,"time":1,"station_id":"KLDB","station_name":"Klenderbaru","distance":1305,"transit":false,"line":1},{"station_id":"CUK","distance":1385,"i_lat":-6.219053,"i_long":106.951283,"time":8,"is_transit":false,"line":0,"station_name":"Cakung","transit":false},{"time":3,"is_transit":false,"line":1,"station_id":"KRI","i_lat":-6.224515,"i_long":106.977657,"distance":3097,"transit":false,"station_name":"Kranji"},{"station_id":"BKS","time":4,"i_long":106.997013,"station_name":"Bekasi","distance":2520,"i_lat":-6.236616,"is_transit":false,"transit":false,"line":0},{"station_id":"BKST","i_lat":-6.248029,"time":2,"is_transit":false,"i_long":107.016735,"station_name":"Bekasi Timur","distance":2368,"transit":false,"line":0}],[{"time":0,"transit":false,"station_name":"Jakarta Kota","station_id":"JAKK","i_lat":-6.137569,"distance":0,"line":0,"i_long":106.812439,"is_transit":true},{"is_transit":false,"station_id":"JAY","time":4,"distance":1264,"station_name":"Jayakarta","i_lat":-6.141205,"i_long":106.820901,"line":7,"transit":false},{"transit":false,"i_long":106.82482,"distance":1080,"station_id":"MGB","is_transit":false,"time":2,"station_name":"Manggabesar","i_lat":-6.149769,"line":2},{"distance":906,"i_lat":-6.160725,"station_id":"SW","i_long":106.827103,"transit":false,"line":2,"station_name":"Sawah Besar","time":2,"is_transit":false},{"i_lat":-6.166716,"station_name":"Juanda","station_id":"JUA","distance":1149,"is_transit":false,"transit":false,"time":2,"line":2,"i_long":106.828284},{"i_lat":-6.186295,"i_long":106.832183,"station_name":"Gondangdia","is_transit":false,"line":2,"transit":false,"distance":2015,"time":4,"station_id":"GDD"},{"time":3,"station_name":"Cikini","i_lat":-6.198556,"is_transit":false,"distance":1750,"transit":false,"line":0,"station_id":"CKI","i_long":106.840169},{"station_name":"Manggarai","station_id":"MRI","distance":1590,"i_lat":-6.209883,"i_long":106.84912,"transit":true,"time":4,"is_transit":true,"line":0},{"time":4,"distance":3186,"transit":false,"is_transit":false,"i_lat":-6.202263,"line":1,"station_name":"Sudirman","station_id":"SUD","i_long":106.822649},{"time":1,"station_id":"SUDB","i_long":106.819881,"line":1,"transit":false,"is_transit":false,"distance":280,"i_lat":-6.201433,"station_name":"Sudirman Baru"},{"i_lat":-6.20132,"transit":false,"line":1,"time":1,"is_transit":false,"station_id":"KAT","distance":471,"i_long":106.816351,"station_name":"Karet"},{"distance":2029,"line":1,"is_transit":true,"station_name":"Tanah Abang","time":5,"transit":false,"i_lat":-6.185545,"station_id":"THB","i_long":106.811091},{"station_id":"DU","line":1,"time":8,"transit":true,"is_transit":true,"distance":3632,"station_name":"Duri","i_lat":-6.155215,"i_long":106.800832},{"station_id":"AK","station_name":"Angke","line":0,"distance":1230,"i_long":106.79867,"transit":false,"time":4,"is_transit":false,"i_lat":-6.144674},{"i_lat":-6.132549,"transit":true,"i_long":106.826365,"time":9,"distance":4102,"station_name":"Kampung Bandan","station_id":"KPB","is_transit":true,"line":0},{"i_lat":-6.14505,"time":3,"is_transit":false,"line":11,"transit":false,"distance":1444,"station_id":"RJW","i_long":106.836569,"station_name":"Rajawali"},{"line":11,"station_name":"Kemayoran","i_long":106.839204,"time":5,"distance":1901,"station_id":"KMO","is_transit":false,"transit":false,"i_lat":-6.161728},{"time":4,"i_lat":-6.174784,"distance":1436,"i_long":106.84368,"station_id":"PSE","line":11,"station_name":"Pasar Senen","is_transit":false,"transit":false},{"station_name":"Gang Sentiong","distance":1567,"i_long":106.850107,"line":11,"time":8,"is_transit":false,"i_lat":-6.185975,"transit":false,"station_id":"GST"},{"time":1,"station_id":"KMT","is_transit":false,"transit":false,"i_lat":-6.193792,"i_long":106.855437,"distance":973,"station_name":"Kramat","line":11},{"is_transit":false,"station_id":"POK","line":11,"time":2,"i_long":106.861737,"i_lat":-6.209188,"distance":1829,"station_name":"Pondok Jati","transit":false},{"distance":1236,"i_long":106.86807400000001,"is_transit":true,"i_lat":-6.215091,"station_name":"Jatinegara","station_id":"JNG","line":0,"transit":true,"time":9},{"station_name":"Klender","station_id":"KLD","distance":3395,"time":3,"i_long":106.899548,"is_transit":false,"i_lat":-6.2135,"transit":false,"line":1},{"i_lat":-6.215568,"time":2,"is_transit":false,"station_id":"BUA","distance":3100,"i_long":106.922662,"station_name":"Buaran","transit":false,"line":0},{"i_long":106.939679,"station_name":"Klenderbaru","station_id":"KLDB","transit":false,"line":1,"distance":1305,"is_transit":false,"time":1,"i_lat":-6.217455},{"station_name":"Cakung","station_id":"CUK","time":8,"distance":1385,"is_transit":false,"transit":false,"line":0,"i_long":106.951283,"i_lat":-6.219053},{"station_name":"Kranji","station_id":"KRI","time":3,"i_lat":-6.224515,"transit":false,"i_long":106.977657,"line":1,"is_transit":false,"distance":3097},{"distance":2520,"i_lat":-6.236616,"station_name":"Bekasi","time":4,"i_long":106.997013,"transit":false,"is_transit":false,"station_id":"BKS","line":0},{"i_lat":-6.248029,"transit":false,"is_transit":false,"line":0,"distance":2368,"station_id":"BKST","i_long":107.016735,"time":2,"station_name":"Bekasi Timur"}]]}