{"data":[[{"i_lat":-6.137569,"transit":false,"is_transit":false,"line":2,"station_name":"Jakarta Kota","distance":0,"station_id":"JAKK","i_long":106.812439,"time":0},{"is_transit":true,"station_name":"Kampung Bandan","distance":1364,"station_id":"KPB","i_long":106.826365,"transit":true,"line":4,"time":3,"i_lat":-6.132549},{"i_long":106.79867,"i_lat":-6.144674,"line":1,"station_name":"Angke","station_id":"AK","transit":false,"is_transit":false,"distance":4102,"time":9},{"station_name":"Duri","distance":1230,"station_id":"DU","is_transit":false,"i_lat":-6.155215,"time":4,"transit":false,"line":1,"i_long":106.800832},{"i_lat":-6.185545,"line":1,"station_name":"Tanah Abang","station_id":"THB","i_long":106.811091,"is_transit":true,"time":8,"distance":3632,"transit":true},{"line":6,"station_id":"PLM","is_transit":false,"i_lat":-6.207404,"i_long":106.79689,"time":6,"distance":3191,"transit":false,"station_name":"Palmerah"},{"time":7,"i_lat":-6.237242,"station_id":"KBY","transit":false,"station_name":"Kebayoran","i_long":106.780334,"is_transit":false,"line":6,"distance":3737}],[{"time":0,"station_name":"Jakarta Kota","distance":0,"i_lat":-6.137569,"i_long":106.812439,"is_transit":false,"line":2,"station_id":"JAKK","transit":false},{"distance":1264,"i_long":106.820901,"station_id":"JAY","time":4,"station_name":"Jayakarta","line":2,"i_lat":-6.141205,"transit":false,"is_transit":false},{"transit":false,"time":2,"station_id":"MGB","i_lat":-6.149769,"is_transit":false,"i_long":106.82482,"line":2,"distance":1080,"station_name":"Manggabesar"},{"time":2,"station_id":"SW","transit":false,"i_lat":-6.160725,"is_transit":false,"i_long":106.827103,"distance":906,"station_name":"Sawah Besar","line":2},{"i_lat":-6.166716,"i_long":106.828284,"station_id":"JUA","line":2,"distance":1149,"transit":false,"time":2,"station_name":"Juanda","is_transit":false},{"distance":2015,"i_lat":-6.186295,"time":4,"is_transit":false,"line":2,"station_id":"GDD","transit":false,"station_name":"Gondangdia","i_long":106.832183},{"transit":false,"is_transit":false,"i_long":106.840169,"i_lat":-6.198556,"station_id":"CKI","distance":1750,"time":3,"station_name":"Cikini","line":2},{"station_id":"MRI","time":4,"station_name":"Manggarai","is_transit":true,"i_lat":-6.209883,"i_long":106.84912,"transit":true,"distance":1590,"line":2},{"i_lat":-6.202263,"i_long":106.822649,"station_name":"Sudirman","line":1,"distance":3186,"transit":false,"time":4,"station_id":"SUD","is_transit":false},{"is_transit":false,"transit":false,"station_name":"Sudirman Baru","time":1,"i_lat":-6.201433,"i_long":106.819881,"line":1,"station_id":"SUDB","distance":280},{"is_transit":false,"i_lat":-6.20132,"distance":471,"transit":false,"station_name":"Karet","time":1,"i_long":106.816351,"line":1,"station_id":"KAT"},{"is_transit":true,"i_long":106.811091,"distance":2029,"transit":true,"time":5,"station_name":"Tanah Abang","station_id":"THB","i_lat":-6.185545,"line":1},{"station_name":"Palmerah","station_id":"PLM","i_long":106.79689,"line":6,"transit":false,"is_transit":false,"distance":3191,"i_lat":-6.207404,"time":6},{"station_id":"KBY","distance":3737,"transit":false,"is_transit":false,"time":7,"line":6,"i_lat":-6.237242,"i_long":106.780334,"station_name":"Kebayoran"}],[{"station_name":"Jakarta Kota","line":2,"station_id":"JAKK","i_long":106.812439,"transit":false,"time":0,"distance":0,"i_lat":-6.137569,"is_transit":false},{"station_name":"Kampung Bandan","distance":1364,"is_transit":true,"station_id":"KPB","i_long":106.826365,"line":4,"transit":true,"time":3,"i_lat":-6.132549},{"i_long":106.836569,"distance":1444,"is_transit":false,"transit":false,"station_name":"Rajawali","station_id":"RJW","i_lat":-6.14505,"time":3,"line":11},{"station_id":"KMO","station_name":"Kemayoran","time":5,"transit":false,"i_long":106.839204,"distance":1901,"line":11,"is_transit":false,"i_lat":-6.161728},{"station_name":"Pasar Senen","i_lat":-6.174784,"is_transit":false,"distance":1436,"transit":false,"i_long":106.84368,"time":4,"line":11,"station_id":"PSE"},{"station_id":"GST","line":11,"transit":false,"distance":1567,"is_transit":false,"i_lat":-6.185975,"i_long":106.850107,"time":8,"station_name":"Gang Sentiong"},{"i_lat":-6.193792,"i_long":106.855437,"station_id":"KMT","station_name":"Kramat","time":1,"distance":973,"line":11,"transit":false,"is_transit":false},{"transit":false,"i_long":106.861737,"line":11,"i_lat":-6.209188,"distance":1829,"station_id":"POK","is_transit":false,"time":2,"station_name":"Pondok Jati"},{"i_lat":-6.215091,"transit":true,"distance":1236,"station_name":"Jatinegara","i_long":106.86807400000001,"line":1,"time":9,"station_id":"JNG","is_transit":true},{"i_long":106.858896,"time":2,"is_transit":false,"station_id":"MTR","transit":false,"line":1,"i_lat":-6.212485,"station_name":"Matraman","distance":1377},{"i_lat":-6.209883,"transit":false,"is_transit":false,"i_long":106.84912,"line":2,"time":2,"distance":1275,"station_id":"MRI","station_name":"Manggarai"},{"line":1,"time":4,"i_lat":-6.202263,"station_name":"Sudirman","transit":false,"is_transit":false,"station_id":"SUD","distance":3186,"i_long":106.822649},{"is_transit":false,"station_id":"SUDB","transit":false,"distance":280,"time":1,"station_name":"Sudirman Baru","i_lat":-6.201433,"line":1,"i_long":106.819881},{"station_id":"KAT","is_transit":false,"station_name":"Karet","i_lat":-6.20132,"transit":false,"time":1,"distance":471,"i_long":106.816351,"line":1},{"i_lat":-6.185545,"time":5,"station_id":"THB","transit":true,"station_name":"Tanah Abang","distance":2029,"is_transit":true,"line":1,"i_long":106.811091},{"station_name":"Palmerah","is_transit":false,"transit":false,"i_lat":-6.207404,"i_long":106.79689,"time":6,"line":6,"station_id":"PLM","distance":3191},{"i_long":106.780334,"time":7,"distance":3737,"transit":false,"is_transit":false,"station_id":"KBY","line":6,"i_lat":-6.237242,"station_name":"Kebayoran"}],[{"time":0,"i_lat":-6.137569,"i_long":106.812439,"station_name":"Jakarta Kota","line":2,"distance":0,"transit":false,"station_id":"JAKK","is_transit":false},{"is_transit":false,"station_id":"JAY","i_long":106.820901,"distance":1264,"station_name":"Jayakarta","line":2,"time":4,"transit":false,"i_lat":-6.141205},{"station_name":"Manggabesar","i_lat":-6.149769,"i_long":106.82482,"transit":false,"is_transit":false,"time":2,"station_id":"MGB","distance":1080,"line":2},{"distance":906,"line":2,"station_name":"Sawah Besar","time":2,"i_lat":-6.160725,"station_id":"SW","is_transit":false,"transit":false,"i_long":106.827103},{"line":2,"i_lat":-6.166716,"station_name":"Juanda","station_id":"JUA","transit":false,"is_transit":false,"i_long":106.828284,"time":2,"distance":1149},{"time":4,"transit":false,"i_lat":-6.186295,"distance":2015,"station_name":"Gondangdia","is_transit":false,"i_long":106.832183,"station_id":"GDD","line":2},{"distance":1750,"transit":false,"time":3,"i_lat":-6.198556,"i_long":106.840169,"line":2,"station_name":"Cikini","station_id":"CKI","is_transit":false},{"time":4,"is_transit":true,"distance":1590,"station_id":"MRI","line":2,"transit":true,"station_name":"Manggarai","i_long":106.84912,"i_lat":-6.209883},{"station_name":"Matraman","transit":false,"is_transit":false,"line":1,"distance":1275,"i_long":106.858896,"time":2,"station_id":"MTR","i_lat":-6.212485},{"station_id":"JNG","i_lat":-6.215091,"line":1,"distance":1377,"i_long":106.86807400000001,"station_name":"Jatinegara","time":8,"is_transit":true,"transit":true},{"station_id":"POK","transit":false,"is_transit":false,"line":11,"distance":1236,"time":2,"i_long":106.861737,"i_lat":-6.209188,"station_name":"Pondok Jati"},{"distance":1829,"is_transit":false,"station_name":"Kramat","transit":false,"station_id":"KMT","i_long":106.855437,"i_lat":-6.193792,"time":2,"line":11},{"transit":false,"station_name":"Gang Sentiong","station_id":"GST","distance":973,"is_transit":false,"i_lat":-6.185975,"i_long":106.850107,"line":11,"time":1},{"is_transit":false,"transit":false,"line":11,"time":8,"station_id":"PSE","distance":1567,"i_lat":-6.174784,"i_long":106.84368,"station_name":"Pasar Senen"},{"line":11,"distance":1436,"station_name":"Kemayoran","is_transit":false,"i_lat":-6.161728,"time":4,"i_long":106.839204,"station_id":"KMO","transit":false},{"i_lat":-6.14505,"line":11,"time":5,"station_id":"RJW","i_long":106.836569,"is_transit":false,"distance":1901,"transit":false,"station_name":"Rajawali"},{"distance":1444,"station_name":"Kampung Bandan","is_transit":true,"transit":true,"time":3,"i_long":106.826365,"station_id":"KPB","i_lat":-6.132549,"line":4},{"i_long":106.79867,"station_name":"Angke","station_id":"AK","line":1,"distance":4102,"transit":false,"time":9,"is_transit":false,"i_lat":-6.144674},{"station_id":"DU","time":4,"line":1,"station_name":"Duri","is_transit":false,"i_long":106.800832,"distance":1230,"transit":false,"i_lat":-6.155215},{"station_name":"Tanah Abang","is_transit":true,"line":1,"distance":3632,"i_lat":-6.185545,"i_long":106.811091,"station_id":"THB","time":8,"transit":true},{"i_lat":-6.207404,"i_long":106.79689,"station_id":"PLM","is_transit":false,"line":6,"transit":false,"distance":3191,"station_name":"Palmerah","time":6},{"transit":false,"station_id":"KBY","is_transit":false,"distance":3737,"station_name":"Kebayoran","time":7,"i_lat":-6.237242,"i_long":106.780334,"line":6}]]}