{"data":[[{"is_transit":true,"i_long":106.812439,"station_id":"JAKK","transit":false,"time":0,"line":0,"distance":0,"i_lat":-6.137569,"station_name":"Jakarta Kota"},{"is_transit":true,"station_name":"Kampung Bandan","i_lat":-6.132549,"line":0,"time":3,"transit":false,"distance":1364,"i_long":106.826365,"station_id":"KPB"},{"line":0,"transit":false,"station_name":"Angke","time":9,"is_transit":false,"distance":4102,"station_id":"AK","i_long":106.79867,"i_lat":-6.144674},{"distance":1230,"i_lat":-6.155215,"i_long":106.800832,"is_transit":true,"station_id":"DU","line":1,"station_name":"Duri","transit":true,"time":4},{"distance":3632,"transit":true,"time":8,"i_long":106.811091,"station_name":"Tanah Abang","line":1,"is_transit":true,"i_lat":-6.185545,"station_id":"THB"},{"station_name":"Palmerah","line":6,"distance":3191,"transit":false,"i_lat":-6.207404,"time":6,"is_transit":false,"i_long":106.79689,"station_id":"PLM"},{"is_transit":false,"transit":false,"i_lat":-6.237242,"station_id":"KBY","i_long":106.780334,"line":6,"distance":3737,"station_name":"Kebayoran","time":7}],[{"time":0,"is_transit":true,"distance":0,"line":0,"station_id":"JAKK","i_long":106.812439,"transit":false,"station_name":"Jakarta Kota","i_lat":-6.137569},{"line":7,"distance":1264,"transit":false,"i_lat":-6.141205,"station_id":"JAY","i_long":106.820901,"station_name":"Jayakarta","is_transit":false,"time":4},{"i_lat":-6.149769,"i_long":106.82482,"station_name":"Manggabesar","station_id":"MGB","line":2,"distance":1080,"time":2,"transit":false,"is_transit":false},{"i_long":106.827103,"is_transit":false,"time":2,"distance":906,"station_id":"SW","line":2,"station_name":"Sawah Besar","transit":false,"i_lat":-6.160725},{"i_long":106.828284,"distance":1149,"time":2,"i_lat":-6.166716,"is_transit":false,"line":2,"station_name":"Juanda","transit":false,"station_id":"JUA"},{"distance":2015,"time":4,"station_name":"Gondangdia","i_long":106.832183,"transit":false,"station_id":"GDD","is_transit":false,"i_lat":-6.186295,"line":2},{"time":3,"transit":false,"station_name":"Cikini","station_id":"CKI","is_transit":false,"i_long":106.840169,"i_lat":-6.198556,"line":0,"distance":1750},{"station_id":"MRI","i_lat":-6.209883,"is_transit":true,"distance":1590,"station_name":"Manggarai","line":0,"time":4,"i_long":106.84912,"transit":true},{"transit":false,"station_id":"SUD","time":4,"i_long":106.822649,"line":1,"distance":3186,"is_transit":false,"station_name":"Sudirman","i_lat":-6.202263},{"transit":false,"is_transit":false,"time":1,"i_lat":-6.201433,"i_long":106.819881,"station_id":"SUDB","line":1,"station_name":"Sudirman Baru","distance":280},{"station_name":"Karet","i_long":106.816351,"time":1,"transit":false,"is_transit":false,"i_lat":-6.20132,"station_id":"KAT","line":1,"distance":471},{"station_name":"Tanah Abang","distance":2029,"is_transit":true,"i_lat":-6.185545,"time":5,"i_long":106.811091,"transit":true,"station_id":"THB","line":1},{"station_name":"Palmerah","transit":false,"i_long":106.79689,"is_transit":false,"station_id":"PLM","line":6,"time":6,"distance":3191,"i_lat":-6.207404},{"station_name":"Kebayoran","i_long":106.780334,"is_transit":false,"distance":3737,"station_id":"KBY","line":6,"time":7,"transit":false,"i_lat":-6.237242}],[{"distance":0,"line":0,"station_id":"JAKK","station_name":"Jakarta Kota","is_transit":true,"i_lat":-6.137569,"transit":false,"time":0,"i_long":106.812439},{"line":0,"station_name":"Kampung Bandan","time":3,"distance":1364,"transit":true,"station_id":"KPB","i_lat":-6.132549,"is_transit":true,"i_long":106.826365},{"station_name":"Rajawali","distance":1444,"is_transit":false,"i_lat":-6.14505,"i_long":106.836569,"line":11,"station_id":"RJW","time":3,"transit":false},{"distance":1901,"line":11,"station_id":"KMO","i_lat":-6.161728,"time":5,"station_name":"Kemayoran","transit":false,"is_transit":false,"i_long":106.839204},{"station_name":"Pasar Senen","is_transit":false,"transit":false,"station_id":"PSE","i_lat":-6.174784,"line":11,"i_long":106.84368,"distance":1436,"time":4},{"i_lat":-6.185975,"time":8,"i_long":106.850107,"transit":false,"is_transit":false,"distance":1567,"station_id":"GST","line":11,"station_name":"Gang Sentiong"},{"distance":973,"i_long":106.855437,"line":11,"station_id":"KMT","transit":false,"time":1,"i_lat":-6.193792,"station_name":"Kramat","is_transit":false},{"distance":1829,"is_transit":false,"station_id":"POK","station_name":"Pondok Jati","i_lat":-6.209188,"transit":false,"i_long":106.861737,"line":11,"time":2},{"transit":true,"distance":1236,"time":9,"line":0,"station_name":"Jatinegara","station_id":"JNG","is_transit":true,"i_lat":-6.215091,"i_long":106.86807400000001},{"i_long":106.858896,"i_lat":-6.212485,"station_name":"Matraman","station_id":"MTR","is_transit":false,"line":1,"transit":false,"time":2,"distance":1377},{"transit":false,"station_id":"MRI","i_lat":-6.209883,"time":2,"distance":1275,"station_name":"Manggarai","is_transit":true,"i_long":106.84912,"line":0},{"i_long":106.822649,"line":1,"i_lat":-6.202263,"distance":3186,"transit":false,"time":4,"is_transit":false,"station_name":"Sudirman","station_id":"SUD"},{"station_name":"Sudirman Baru","is_transit":false,"distance":280,"station_id":"SUDB","i_lat":-6.201433,"i_long":106.819881,"time":1,"line":1,"transit":false},{"is_transit":false,"i_lat":-6.20132,"distance":471,"time":1,"line":1,"station_id":"KAT","i_long":106.816351,"station_name":"Karet","transit":false},{"station_id":"THB","distance":2029,"i_long":106.811091,"station_name":"Tanah Abang","is_transit":true,"i_lat":-6.185545,"transit":true,"time":5,"line":1},{"station_id":"PLM","distance":3191,"station_name":"Palmerah","transit":false,"time":6,"is_transit":false,"i_lat":-6.207404,"i_long":106.79689,"line":6},{"is_transit":false,"transit":false,"i_lat":-6.237242,"distance":3737,"time":7,"station_name":"Kebayoran","station_id":"KBY","line":6,"i_long":106.780334}],[{"transit":false,"i_lat":-6.137569,"station_id":"JAKK","i_long":106.812439,"time":0,"station_name":"Jakarta Kota","is_transit":true,"distance":0,"line":0},{"is_transit":false,"station_name":"Jayakarta","distance":1264,"time":4,"line":7,"i_long":106.820901,"transit":false,"i_lat":-6.141205,"station_id":"JAY"},{"station_name":"Manggabesar","is_transit":false,"i_lat":-6.149769,"transit":false,"time":2,"distance":1080,"line":2,"station_id":"MGB","i_long":106.82482},{"distance":906,"station_id":"SW","time":2,"i_long":106.827103,"line":2,"is_transit":false,"station_name":"Sawah Besar","i_lat":-6.160725,"transit":false},{"is_transit":false,"i_lat":-6.166716,"station_name":"Juanda","line":2,"transit":false,"distance":1149,"time":2,"station_id":"JUA","i_long":106.828284},{"station_id":"GDD","time":4,"i_long":106.832183,"line":2,"is_transit":false,"station_name":"Gondangdia","transit":false,"i_lat":-6.186295,"distance":2015},{"distance":1750,"line":0,"time":3,"i_long":106.840169,"station_id":"CKI","station_name":"Cikini","is_transit":false,"transit":false,"i_lat":-6.198556},{"station_name":"Manggarai","distance":1590,"i_lat":-6.209883,"is_transit":true,"i_long":106.84912,"line":0,"transit":true,"time":4,"station_id":"MRI"},{"i_lat":-6.212485,"distance":1275,"station_name":"Matraman","station_id":"MTR","is_transit":false,"line":1,"i_long":106.858896,"time":2,"transit":false},{"i_lat":-6.215091,"transit":true,"time":8,"is_transit":true,"i_long":106.86807400000001,"station_name":"Jatinegara","distance":1377,"station_id":"JNG","line":0},{"transit":false,"line":11,"time":2,"is_transit":false,"i_lat":-6.209188,"i_long":106.861737,"station_name":"Pondok Jati","distance":1236,"station_id":"POK"},{"station_id":"KMT","time":2,"is_transit":false,"distance":1829,"i_lat":-6.193792,"line":11,"transit":false,"station_name":"Kramat","i_long":106.855437},{"time":1,"i_lat":-6.185975,"line":11,"station_name":"Gang Sentiong","station_id":"GST","distance":973,"transit":false,"i_long":106.850107,"is_transit":false},{"transit":false,"station_name":"Pasar Senen","distance":1567,"i_long":106.84368,"line":11,"time":8,"station_id":"PSE","is_transit":false,"i_lat":-6.174784},{"distance":1436,"line":11,"station_name":"Kemayoran","is_transit":false,"i_long":106.839204,"time":4,"i_lat":-6.161728,"transit":false,"station_id":"KMO"},{"i_long":106.836569,"line":11,"station_name":"Rajawali","station_id":"RJW","is_transit":false,"distance":1901,"time":5,"i_lat":-6.14505,"transit":false},{"i_long":106.826365,"i_lat":-6.132549,"station_name":"Kampung Bandan","transit":true,"time":3,"station_id":"KPB","is_transit":true,"line":0,"distance":1444},{"line":0,"distance":4102,"station_id":"AK","is_transit":false,"i_lat":-6.144674,"station_name":"Angke","transit":false,"i_long":106.79867,"time":9},{"i_long":106.800832,"distance":1230,"time":4,"is_transit":true,"station_name":"Duri","station_id":"DU","i_lat":-6.155215,"line":1,"transit":true},{"station_id":"THB","line":1,"transit":true,"time":8,"i_lat":-6.185545,"station_name":"Tanah Abang","distance":3632,"is_transit":true,"i_long":106.811091},{"time":6,"i_long":106.79689,"distance":3191,"station_name":"Palmerah","i_lat":-6.207404,"is_transit":false,"station_id":"PLM","transit":false,"line":6},{"i_lat":-6.237242,"i_long":106.780334,"station_id":"KBY","is_transit":false,"station_name":"Kebayoran","transit":false,"line":6,"time":7,"distance":3737}]]}