{"data":[[{"distance":0,"time":0,"i_long":106.812439,"transit":false,"station_id":"JAKK","line":2,"station_name":"Jakarta Kota","is_transit":false,"i_lat":-6.137569},{"i_lat":-6.141205,"station_name":"Jayakarta","i_long":106.820901,"distance":1264,"line":2,"time":4,"is_transit":false,"station_id":"JAY","transit":false},{"line":2,"station_name":"Manggabesar","distance":1080,"is_transit":false,"i_lat":-6.149769,"time":2,"i_long":106.82482,"station_id":"MGB","transit":false},{"i_lat":-6.160725,"line":2,"time":2,"station_id":"SW","i_long":106.827103,"is_transit":false,"distance":906,"station_name":"Sawah Besar","transit":false},{"distance":1149,"station_name":"Juanda","is_transit":false,"time":2,"transit":false,"i_long":106.828284,"station_id":"JUA","i_lat":-6.166716,"line":2},{"i_long":106.832183,"station_name":"Gondangdia","station_id":"GDD","line":2,"is_transit":false,"time":4,"distance":2015,"transit":false,"i_lat":-6.186295},{"station_id":"CKI","time":3,"line":2,"station_name":"Cikini","is_transit":false,"i_long":106.840169,"distance":1750,"transit":false,"i_lat":-6.198556},{"transit":true,"is_transit":true,"line":2,"distance":1590,"i_lat":-6.209883,"i_long":106.84912,"station_id":"MRI","station_name":"Manggarai","time":4},{"i_lat":-6.212485,"i_long":106.858896,"station_id":"MTR","is_transit":false,"line":1,"station_name":"Matraman","distance":1275,"transit":false,"time":2}],[{"is_transit":false,"station_id":"JAKK","transit":false,"distance":0,"station_name":"Jakarta Kota","time":0,"i_lat":-6.137569,"i_long":106.812439,"line":2},{"is_transit":true,"time":3,"station_id":"KPB","line":4,"station_name":"Kampung Bandan","distance":1364,"transit":true,"i_lat":-6.132549,"i_long":106.826365},{"i_long":106.79867,"line":1,"station_name":"Angke","is_transit":false,"transit":false,"i_lat":-6.144674,"distance":4102,"time":9,"station_id":"AK"},{"is_transit":false,"i_long":106.800832,"line":1,"distance":1230,"time":4,"station_id":"DU","i_lat":-6.155215,"transit":false,"station_name":"Duri"},{"i_long":106.811091,"line":1,"transit":false,"i_lat":-6.185545,"distance":3632,"station_name":"Tanah Abang","time":8,"is_transit":false,"station_id":"THB"},{"time":5,"i_lat":-6.20132,"station_name":"Karet","is_transit":false,"transit":false,"i_long":106.816351,"line":1,"station_id":"KAT","distance":2029},{"station_id":"SUDB","i_lat":-6.201433,"time":1,"i_long":106.819881,"transit":false,"distance":471,"station_name":"Sudirman Baru","line":1,"is_transit":false},{"station_id":"SUD","transit":false,"station_name":"Sudirman","line":1,"distance":280,"time":1,"i_long":106.822649,"i_lat":-6.202263,"is_transit":false},{"time":4,"is_transit":false,"distance":3186,"transit":false,"i_long":106.84912,"station_id":"MRI","line":2,"station_name":"Manggarai","i_lat":-6.209883},{"station_name":"Matraman","line":1,"i_long":106.858896,"i_lat":-6.212485,"distance":1275,"time":2,"is_transit":false,"station_id":"MTR","transit":false}],[{"is_transit":false,"transit":false,"station_id":"JAKK","time":0,"line":2,"distance":0,"i_lat":-6.137569,"station_name":"Jakarta Kota","i_long":106.812439},{"transit":true,"station_name":"Kampung Bandan","is_transit":true,"i_long":106.826365,"i_lat":-6.132549,"line":4,"time":3,"distance":1364,"station_id":"KPB"},{"distance":1444,"transit":false,"is_transit":false,"time":3,"i_long":106.836569,"station_name":"Rajawali","station_id":"RJW","i_lat":-6.14505,"line":11},{"station_id":"KMO","station_name":"Kemayoran","time":5,"transit":false,"i_long":106.839204,"line":11,"i_lat":-6.161728,"is_transit":false,"distance":1901},{"i_lat":-6.174784,"time":4,"station_name":"Pasar Senen","transit":false,"i_long":106.84368,"station_id":"PSE","line":11,"is_transit":false,"distance":1436},{"is_transit":false,"time":8,"station_name":"Gang Sentiong","distance":1567,"transit":false,"i_long":106.850107,"line":11,"station_id":"GST","i_lat":-6.185975},{"i_long":106.855437,"line":11,"transit":false,"distance":973,"time":1,"i_lat":-6.193792,"station_name":"Kramat","is_transit":false,"station_id":"KMT"},{"line":11,"is_transit":false,"distance":1829,"i_long":106.861737,"i_lat":-6.209188,"station_id":"POK","station_name":"Pondok Jati","time":2,"transit":false},{"i_lat":-6.215091,"transit":true,"time":9,"is_transit":true,"station_name":"Jatinegara","station_id":"JNG","line":1,"i_long":106.86807400000001,"distance":1236},{"station_name":"Matraman","i_lat":-6.212485,"distance":1377,"transit":false,"i_long":106.858896,"is_transit":false,"station_id":"MTR","line":1,"time":2}],[{"is_transit":false,"time":0,"line":2,"transit":false,"i_long":106.812439,"distance":0,"station_name":"Jakarta Kota","station_id":"JAKK","i_lat":-6.137569},{"distance":1264,"time":4,"i_lat":-6.141205,"is_transit":false,"i_long":106.820901,"transit":false,"station_name":"Jayakarta","line":2,"station_id":"JAY"},{"distance":1080,"is_transit":false,"station_id":"MGB","i_long":106.82482,"station_name":"Manggabesar","time":2,"i_lat":-6.149769,"transit":false,"line":2},{"i_long":106.827103,"station_id":"SW","station_name":"Sawah Besar","time":2,"transit":false,"line":2,"is_transit":false,"distance":906,"i_lat":-6.160725},{"i_lat":-6.166716,"i_long":106.828284,"station_name":"Juanda","distance":1149,"station_id":"JUA","transit":false,"is_transit":false,"time":2,"line":2},{"station_id":"GDD","i_lat":-6.186295,"line":2,"station_name":"Gondangdia","time":4,"is_transit":false,"distance":2015,"transit":false,"i_long":106.832183},{"is_transit":false,"i_lat":-6.198556,"station_name":"Cikini","i_long":106.840169,"station_id":"CKI","line":2,"distance":1750,"transit":false,"time":3},{"station_name":"Manggarai","i_lat":-6.209883,"is_transit":true,"line":2,"time":4,"transit":true,"distance":1590,"station_id":"MRI","i_long":106.84912},{"is_transit":false,"station_name":"Sudirman","time":4,"distance":3186,"i_lat":-6.202263,"line":1,"station_id":"SUD","transit":false,"i_long":106.822649},{"time":1,"transit":false,"distance":280,"station_name":"Sudirman Baru","is_transit":false,"station_id":"SUDB","i_long":106.819881,"i_lat":-6.201433,"line":1},{"transit":false,"i_lat":-6.20132,"line":1,"distance":471,"is_transit":false,"time":1,"station_id":"KAT","i_long":106.816351,"station_name":"Karet"},{"distance":2029,"station_id":"THB","transit":false,"time":5,"i_lat":-6.185545,"i_long":106.811091,"is_transit":false,"line":1,"station_name":"Tanah Abang"},{"is_transit":false,"i_lat":-6.155215,"station_id":"DU","i_long":106.800832,"transit":false,"line":1,"time":8,"distance":3632,"station_name":"Duri"},{"distance":1230,"transit":false,"i_lat":-6.144674,"station_name":"Angke","i_long":106.79867,"line":1,"is_transit":false,"station_id":"AK","time":4},{"station_id":"KPB","is_transit":true,"time":9,"i_lat":-6.132549,"station_name":"Kampung Bandan","i_long":106.826365,"transit":true,"distance":4102,"line":4},{"transit":false,"station_name":"Rajawali","is_transit":false,"station_id":"RJW","distance":1444,"i_lat":-6.14505,"i_long":106.836569,"time":3,"line":11},{"distance":1901,"i_long":106.839204,"i_lat":-6.161728,"line":11,"transit":false,"station_name":"Kemayoran","is_transit":false,"time":5,"station_id":"KMO"},{"station_name":"Pasar Senen","time":4,"station_id":"PSE","transit":false,"is_transit":false,"i_lat":-6.174784,"line":11,"i_long":106.84368,"distance":1436},{"station_id":"GST","station_name":"Gang Sentiong","is_transit":false,"i_long":106.850107,"distance":1567,"time":8,"transit":false,"line":11,"i_lat":-6.185975},{"time":1,"distance":973,"transit":false,"line":11,"i_lat":-6.193792,"station_name":"Kramat","station_id":"KMT","i_long":106.855437,"is_transit":false},{"is_transit":false,"line":11,"time":2,"transit":false,"distance":1829,"station_name":"Pondok Jati","i_long":106.861737,"i_lat":-6.209188,"station_id":"POK"},{"line":1,"is_transit":true,"i_long":106.86807400000001,"distance":1236,"station_name":"Jatinegara","station_id":"JNG","transit":true,"i_lat":-6.215091,"time":9},{"station_id":"MTR","line":1,"station_name":"Matraman","time":2,"distance":1377,"is_transit":false,"i_lat":-6.212485,"transit":false,"i_long":106.858896}]]}