{"data":[[{"station_id":"JAKK","transit":false,"is_transit":false,"i_lat":-6.137569,"station_name":"Jakarta Kota","time":0,"distance":0,"i_long":106.812439,"line":2},{"i_long":106.826365,"time":3,"is_transit":true,"station_id":"KPB","transit":true,"i_lat":-6.132549,"station_name":"Kampung Bandan","distance":1364,"line":4},{"station_name":"Angke","is_transit":false,"i_lat":-6.144674,"i_long":106.79867,"time":9,"line":1,"station_id":"AK","transit":false,"distance":4102},{"station_name":"Duri","station_id":"DU","line":1,"i_long":106.800832,"transit":true,"distance":1230,"is_transit":true,"time":4,"i_lat":-6.155215},{"i_long":106.788277,"line":5,"transit":false,"is_transit":false,"i_lat":-6.162021,"distance":1700,"time":3,"station_name":"Grogol","station_id":"GGL"}],[{"transit":false,"time":0,"line":2,"i_long":106.812439,"distance":0,"i_lat":-6.137569,"station_name":"Jakarta Kota","station_id":"JAKK","is_transit":false},{"is_transit":false,"i_long":106.820901,"distance":1264,"station_name":"Jayakarta","time":4,"station_id":"JAY","i_lat":-6.141205,"transit":false,"line":2},{"transit":false,"distance":1080,"i_long":106.82482,"time":2,"is_transit":false,"line":2,"station_name":"Manggabesar","i_lat":-6.149769,"station_id":"MGB"},{"station_id":"SW","time":2,"distance":906,"transit":false,"is_transit":false,"station_name":"Sawah Besar","line":2,"i_lat":-6.160725,"i_long":106.827103},{"line":2,"is_transit":false,"distance":1149,"i_long":106.828284,"time":2,"station_name":"Juanda","station_id":"JUA","transit":false,"i_lat":-6.166716},{"time":4,"i_lat":-6.186295,"station_name":"Gondangdia","line":2,"is_transit":false,"i_long":106.832183,"distance":2015,"station_id":"GDD","transit":false},{"i_long":106.840169,"distance":1750,"station_name":"Cikini","is_transit":false,"time":3,"transit":false,"i_lat":-6.198556,"station_id":"CKI","line":2},{"is_transit":true,"station_name":"Manggarai","distance":1590,"time":4,"station_id":"MRI","i_lat":-6.209883,"i_long":106.84912,"line":2,"transit":true},{"time":4,"is_transit":false,"transit":false,"station_name":"Sudirman","i_long":106.822649,"line":1,"i_lat":-6.202263,"station_id":"SUD","distance":3186},{"transit":false,"i_lat":-6.201433,"line":1,"distance":280,"is_transit":false,"station_name":"Sudirman Baru","time":1,"station_id":"SUDB","i_long":106.819881},{"transit":false,"i_long":106.816351,"i_lat":-6.20132,"distance":471,"station_name":"Karet","station_id":"KAT","is_transit":false,"time":1,"line":1},{"i_lat":-6.185545,"is_transit":false,"time":5,"i_long":106.811091,"distance":2029,"line":1,"transit":false,"station_id":"THB","station_name":"Tanah Abang"},{"transit":true,"i_long":106.800832,"is_transit":true,"station_id":"DU","i_lat":-6.155215,"line":1,"station_name":"Duri","distance":3632,"time":8},{"station_id":"GGL","distance":1700,"i_lat":-6.162021,"station_name":"Grogol","i_long":106.788277,"is_transit":false,"line":5,"transit":false,"time":3}],[{"i_long":106.812439,"station_name":"Jakarta Kota","transit":false,"i_lat":-6.137569,"line":2,"station_id":"JAKK","distance":0,"time":0,"is_transit":false},{"i_long":106.826365,"line":4,"is_transit":true,"station_id":"KPB","time":3,"i_lat":-6.132549,"station_name":"Kampung Bandan","distance":1364,"transit":true},{"i_long":106.836569,"transit":false,"distance":1444,"station_name":"Rajawali","station_id":"RJW","i_lat":-6.14505,"is_transit":false,"line":11,"time":3},{"line":11,"station_name":"Kemayoran","time":5,"i_lat":-6.161728,"station_id":"KMO","transit":false,"distance":1901,"is_transit":false,"i_long":106.839204},{"i_lat":-6.174784,"time":4,"distance":1436,"is_transit":false,"transit":false,"i_long":106.84368,"line":11,"station_name":"Pasar Senen","station_id":"PSE"},{"distance":1567,"transit":false,"i_lat":-6.185975,"station_id":"GST","i_long":106.850107,"station_name":"Gang Sentiong","is_transit":false,"line":11,"time":8},{"distance":973,"i_lat":-6.193792,"station_id":"KMT","line":11,"station_name":"Kramat","is_transit":false,"time":1,"i_long":106.855437,"transit":false},{"is_transit":false,"i_long":106.861737,"line":11,"station_name":"Pondok Jati","time":2,"i_lat":-6.209188,"station_id":"POK","distance":1829,"transit":false},{"is_transit":true,"distance":1236,"transit":true,"i_long":106.86807400000001,"station_id":"JNG","i_lat":-6.215091,"line":1,"station_name":"Jatinegara","time":9},{"station_name":"Matraman","i_lat":-6.212485,"distance":1377,"station_id":"MTR","time":2,"i_long":106.858896,"transit":false,"line":1,"is_transit":false},{"line":2,"transit":false,"station_id":"MRI","station_name":"Manggarai","i_lat":-6.209883,"distance":1275,"time":2,"i_long":106.84912,"is_transit":false},{"line":1,"i_lat":-6.202263,"distance":3186,"station_id":"SUD","time":4,"is_transit":false,"i_long":106.822649,"transit":false,"station_name":"Sudirman"},{"distance":280,"i_lat":-6.201433,"transit":false,"line":1,"station_name":"Sudirman Baru","station_id":"SUDB","i_long":106.819881,"is_transit":false,"time":1},{"i_long":106.816351,"line":1,"distance":471,"station_name":"Karet","station_id":"KAT","transit":false,"time":1,"i_lat":-6.20132,"is_transit":false},{"distance":2029,"i_long":106.811091,"transit":false,"station_name":"Tanah Abang","station_id":"THB","i_lat":-6.185545,"is_transit":false,"line":1,"time":5},{"distance":3632,"transit":true,"is_transit":true,"i_lat":-6.155215,"station_name":"Duri","time":8,"i_long":106.800832,"station_id":"DU","line":1},{"line":5,"i_long":106.788277,"transit":false,"time":3,"station_name":"Grogol","is_transit":false,"station_id":"GGL","i_lat":-6.162021,"distance":1700}],[{"time":0,"station_name":"Jakarta Kota","i_lat":-6.137569,"line":2,"i_long":106.812439,"transit":false,"is_transit":false,"station_id":"JAKK","distance":0},{"time":4,"is_transit":false,"distance":1264,"i_lat":-6.141205,"i_long":106.820901,"line":2,"station_name":"Jayakarta","transit":false,"station_id":"JAY"},{"i_long":106.82482,"is_transit":false,"station_id":"MGB","transit":false,"i_lat":-6.149769,"distance":1080,"line":2,"time":2,"station_name":"Manggabesar"},{"station_id":"SW","time":2,"distance":906,"line":2,"i_lat":-6.160725,"station_name":"Sawah Besar","is_transit":false,"i_long":106.827103,"transit":false},{"station_name":"Juanda","line":2,"i_long":106.828284,"is_transit":false,"time":2,"distance":1149,"station_id":"JUA","transit":false,"i_lat":-6.166716},{"is_transit":false,"station_name":"Gondangdia","distance":2015,"time":4,"station_id":"GDD","i_lat":-6.186295,"transit":false,"i_long":106.832183,"line":2},{"transit":false,"time":3,"distance":1750,"station_name":"Cikini","is_transit":false,"i_lat":-6.198556,"i_long":106.840169,"station_id":"CKI","line":2},{"time":4,"transit":true,"i_long":106.84912,"distance":1590,"i_lat":-6.209883,"is_transit":true,"line":2,"station_id":"MRI","station_name":"Manggarai"},{"station_name":"Matraman","time":2,"distance":1275,"station_id":"MTR","is_transit":false,"i_long":106.858896,"i_lat":-6.212485,"line":1,"transit":false},{"station_name":"Jatinegara","distance":1377,"transit":true,"i_lat":-6.215091,"line":1,"i_long":106.86807400000001,"is_transit":true,"station_id":"JNG","time":8},{"station_id":"POK","time":2,"is_transit":false,"i_lat":-6.209188,"station_name":"Pondok Jati","transit":false,"distance":1236,"i_long":106.861737,"line":11},{"time":2,"is_transit":false,"transit":false,"i_long":106.855437,"line":11,"distance":1829,"station_name":"Kramat","i_lat":-6.193792,"station_id":"KMT"},{"distance":973,"line":11,"time":1,"is_transit":false,"station_name":"Gang Sentiong","station_id":"GST","transit":false,"i_long":106.850107,"i_lat":-6.185975},{"station_id":"PSE","transit":false,"is_transit":false,"distance":1567,"i_long":106.84368,"line":11,"i_lat":-6.174784,"station_name":"Pasar Senen","time":8},{"i_long":106.839204,"line":11,"transit":false,"station_name":"Kemayoran","station_id":"KMO","is_transit":false,"time":4,"distance":1436,"i_lat":-6.161728},{"time":5,"station_id":"RJW","distance":1901,"i_lat":-6.14505,"line":11,"station_name":"Rajawali","is_transit":false,"i_long":106.836569,"transit":false},{"station_id":"KPB","line":4,"is_transit":true,"distance":1444,"i_lat":-6.132549,"station_name":"Kampung Bandan","i_long":106.826365,"transit":true,"time":3},{"transit":false,"station_id":"AK","time":9,"i_lat":-6.144674,"i_long":106.79867,"distance":4102,"line":1,"station_name":"Angke","is_transit":false},{"i_long":106.800832,"time":4,"station_name":"Duri","is_transit":true,"i_lat":-6.155215,"line":1,"station_id":"DU","transit":true,"distance":1230},{"transit":false,"i_long":106.788277,"line":5,"distance":1700,"i_lat":-6.162021,"is_transit":false,"station_id":"GGL","station_name":"Grogol","time":3}]]}