{"data":[[{"station_name":"Jakarta Kota","is_transit":false,"line":2,"i_long":106.812439,"transit":false,"distance":0,"station_id":"JAKK","i_lat":-6.137569,"time":0},{"transit":false,"time":4,"i_lat":-6.141205,"distance":1264,"line":2,"station_name":"Jayakarta","station_id":"JAY","is_transit":false,"i_long":106.820901},{"transit":false,"is_transit":false,"station_name":"Manggabesar","time":2,"distance":1080,"i_lat":-6.149769,"station_id":"MGB","i_long":106.82482,"line":2},{"i_lat":-6.160725,"i_long":106.827103,"line":2,"distance":906,"station_name":"Sawah Besar","transit":false,"time":2,"station_id":"SW","is_transit":false},{"is_transit":false,"i_lat":-6.166716,"station_name":"Juanda","time":2,"line":2,"i_long":106.828284,"transit":false,"station_id":"JUA","distance":1149},{"i_lat":-6.186295,"transit":false,"station_name":"Gondangdia","station_id":"GDD","line":2,"is_transit":false,"time":4,"distance":2015,"i_long":106.832183},{"station_name":"Cikini","station_id":"CKI","i_long":106.840169,"transit":false,"distance":1750,"is_transit":false,"line":2,"time":3,"i_lat":-6.198556},{"station_id":"MRI","time":4,"i_lat":-6.209883,"i_long":106.84912,"transit":false,"line":2,"distance":1590,"station_name":"Manggarai","is_transit":false},{"station_name":"Tebet","transit":false,"distance":2610,"line":2,"i_lat":-6.226659,"time":4,"is_transit":false,"station_id":"TEB","i_long":106.857948},{"i_lat":-6.242512,"is_transit":false,"transit":false,"station_id":"CW","station_name":"Cawang","i_long":106.856607,"line":2,"distance":1230,"time":2},{"transit":false,"time":3,"i_lat":-6.255332,"line":2,"distance":1546,"station_name":"Duren Kalibata","is_transit":false,"station_id":"DRN","i_long":106.85449},{"is_transit":false,"station_id":"PSMB","transit":false,"i_long":106.851577,"line":2,"time":2,"i_lat":-6.263214,"station_name":"Pasar Minggu Baru","distance":824},{"line":2,"i_lat":-6.2842400000000005,"time":2,"station_id":"PSM","i_long":106.843999,"distance":2380,"transit":false,"station_name":"Pasar Minggu","is_transit":false},{"distance":2820,"station_id":"TNT","time":4,"is_transit":false,"station_name":"Tanjung Barat","i_lat":-6.3080680000000005,"i_long":106.838896,"transit":false,"line":2},{"distance":2671,"station_id":"LNA","station_name":"Lenteng Agung","is_transit":false,"transit":false,"i_long":106.832616,"time":3,"i_lat":-6.330363,"line":2},{"transit":false,"line":2,"i_long":106.834175,"station_name":"Univ. Pancasila","time":2,"is_transit":false,"i_lat":-6.339291,"station_id":"UP","distance":1029}],[{"i_long":106.812439,"time":0,"line":2,"is_transit":false,"distance":0,"i_lat":-6.137569,"transit":false,"station_name":"Jakarta Kota","station_id":"JAKK"},{"station_id":"KPB","station_name":"Kampung Bandan","is_transit":true,"transit":true,"i_lat":-6.132549,"line":4,"distance":1364,"i_long":106.826365,"time":3},{"station_name":"Angke","station_id":"AK","transit":false,"distance":4102,"i_lat":-6.144674,"line":1,"is_transit":false,"time":9,"i_long":106.79867},{"station_name":"Duri","is_transit":false,"station_id":"DU","i_long":106.800832,"distance":1230,"line":1,"transit":false,"i_lat":-6.155215,"time":4},{"is_transit":false,"station_id":"THB","distance":3632,"transit":false,"station_name":"Tanah Abang","time":8,"i_long":106.811091,"line":1,"i_lat":-6.185545},{"transit":false,"line":1,"station_name":"Karet","time":5,"i_long":106.816351,"station_id":"KAT","distance":2029,"is_transit":false,"i_lat":-6.20132},{"is_transit":false,"station_id":"SUDB","i_lat":-6.201433,"transit":false,"distance":471,"i_long":106.819881,"line":1,"time":1,"station_name":"Sudirman Baru"},{"i_long":106.822649,"is_transit":false,"distance":280,"station_id":"SUD","time":1,"i_lat":-6.202263,"transit":false,"line":1,"station_name":"Sudirman"},{"i_long":106.84912,"i_lat":-6.209883,"transit":true,"is_transit":true,"station_id":"MRI","station_name":"Manggarai","time":4,"distance":3186,"line":2},{"station_id":"TEB","station_name":"Tebet","i_lat":-6.226659,"is_transit":false,"i_long":106.857948,"line":2,"distance":2610,"time":4,"transit":false},{"distance":1230,"station_id":"CW","is_transit":false,"i_lat":-6.242512,"station_name":"Cawang","line":2,"time":2,"i_long":106.856607,"transit":false},{"station_name":"Duren Kalibata","line":2,"time":3,"is_transit":false,"i_lat":-6.255332,"transit":false,"i_long":106.85449,"station_id":"DRN","distance":1546},{"i_lat":-6.263214,"i_long":106.851577,"line":2,"station_id":"PSMB","is_transit":false,"station_name":"Pasar Minggu Baru","transit":false,"time":2,"distance":824},{"distance":2380,"line":2,"station_name":"Pasar Minggu","i_lat":-6.2842400000000005,"i_long":106.843999,"station_id":"PSM","transit":false,"is_transit":false,"time":2},{"station_id":"TNT","station_name":"Tanjung Barat","i_long":106.838896,"is_transit":false,"line":2,"distance":2820,"i_lat":-6.3080680000000005,"time":4,"transit":false},{"i_lat":-6.330363,"is_transit":false,"transit":false,"station_name":"Lenteng Agung","distance":2671,"line":2,"time":3,"station_id":"LNA","i_long":106.832616},{"i_long":106.834175,"time":2,"line":2,"distance":1029,"transit":false,"is_transit":false,"i_lat":-6.339291,"station_id":"UP","station_name":"Univ. Pancasila"}],[{"i_long":106.812439,"i_lat":-6.137569,"line":2,"time":0,"transit":false,"station_id":"JAKK","station_name":"Jakarta Kota","is_transit":false,"distance":0},{"time":3,"line":4,"i_long":106.826365,"is_transit":true,"station_id":"KPB","i_lat":-6.132549,"distance":1364,"station_name":"Kampung Bandan","transit":true},{"line":11,"is_transit":false,"station_id":"RJW","transit":false,"i_long":106.836569,"time":3,"i_lat":-6.14505,"distance":1444,"station_name":"Rajawali"},{"time":5,"station_id":"KMO","station_name":"Kemayoran","i_lat":-6.161728,"distance":1901,"transit":false,"i_long":106.839204,"is_transit":false,"line":11},{"is_transit":false,"time":4,"station_id":"PSE","i_lat":-6.174784,"i_long":106.84368,"station_name":"Pasar Senen","transit":false,"line":11,"distance":1436},{"distance":1567,"i_lat":-6.185975,"station_name":"Gang Sentiong","station_id":"GST","transit":false,"time":8,"i_long":106.850107,"line":11,"is_transit":false},{"transit":false,"i_long":106.855437,"distance":973,"is_transit":false,"station_name":"Kramat","time":1,"station_id":"KMT","i_lat":-6.193792,"line":11},{"i_lat":-6.209188,"line":11,"i_long":106.861737,"distance":1829,"station_name":"Pondok Jati","time":2,"transit":false,"station_id":"POK","is_transit":false},{"is_transit":true,"station_name":"Jatinegara","time":9,"transit":true,"i_lat":-6.215091,"line":1,"station_id":"JNG","i_long":106.86807400000001,"distance":1236},{"transit":false,"station_name":"Matraman","distance":1377,"i_long":106.858896,"is_transit":false,"station_id":"MTR","i_lat":-6.212485,"time":2,"line":1},{"station_name":"Manggarai","time":2,"transit":true,"distance":1275,"is_transit":true,"i_long":106.84912,"i_lat":-6.209883,"station_id":"MRI","line":2},{"i_long":106.857948,"is_transit":false,"line":2,"time":4,"transit":false,"station_name":"Tebet","distance":2610,"station_id":"TEB","i_lat":-6.226659},{"station_id":"CW","is_transit":false,"time":2,"distance":1230,"transit":false,"i_lat":-6.242512,"i_long":106.856607,"station_name":"Cawang","line":2},{"i_lat":-6.255332,"line":2,"station_name":"Duren Kalibata","station_id":"DRN","transit":false,"i_long":106.85449,"time":3,"distance":1546,"is_transit":false},{"time":2,"station_name":"Pasar Minggu Baru","station_id":"PSMB","i_lat":-6.263214,"distance":824,"transit":false,"i_long":106.851577,"is_transit":false,"line":2},{"transit":false,"station_name":"Pasar Minggu","time":2,"station_id":"PSM","line":2,"is_transit":false,"i_lat":-6.2842400000000005,"distance":2380,"i_long":106.843999},{"station_name":"Tanjung Barat","distance":2820,"transit":false,"time":4,"is_transit":false,"i_lat":-6.3080680000000005,"i_long":106.838896,"line":2,"station_id":"TNT"},{"line":2,"station_name":"Lenteng Agung","i_long":106.832616,"distance":2671,"transit":false,"is_transit":false,"time":3,"station_id":"LNA","i_lat":-6.330363},{"i_lat":-6.339291,"line":2,"distance":1029,"station_id":"UP","time":2,"transit":false,"station_name":"Univ. Pancasila","i_long":106.834175,"is_transit":false}]]}