{"data":[[{"time":0,"station_name":"Jakarta Kota","station_id":"JAKK","i_lat":-6.137569,"transit":false,"is_transit":false,"i_long":106.812439,"distance":0,"line":2},{"station_id":"KPB","i_lat":-6.132549,"distance":1364,"line":4,"is_transit":true,"time":3,"transit":true,"station_name":"Kampung Bandan","i_long":106.826365},{"distance":1444,"i_lat":-6.14505,"station_name":"Rajawali","station_id":"RJW","i_long":106.836569,"line":11,"is_transit":false,"transit":false,"time":3},{"station_id":"KMO","distance":1901,"line":11,"transit":false,"i_long":106.839204,"i_lat":-6.161728,"station_name":"Kemayoran","time":5,"is_transit":false},{"i_long":106.84368,"station_name":"Pasar Senen","station_id":"PSE","is_transit":false,"distance":1436,"i_lat":-6.174784,"time":4,"transit":false,"line":11},{"station_id":"GST","transit":false,"time":8,"line":11,"distance":1567,"i_lat":-6.185975,"i_long":106.850107,"station_name":"Gang Sentiong","is_transit":false},{"time":1,"transit":false,"i_long":106.855437,"station_id":"KMT","is_transit":false,"line":11,"station_name":"Kramat","distance":973,"i_lat":-6.193792},{"time":2,"is_transit":false,"line":11,"i_long":106.861737,"i_lat":-6.209188,"station_id":"POK","distance":1829,"transit":false,"station_name":"Pondok Jati"},{"station_name":"Jatinegara","is_transit":true,"distance":1236,"time":9,"i_long":106.86807400000001,"transit":true,"line":1,"i_lat":-6.215091,"station_id":"JNG"},{"i_lat":-6.2135,"time":3,"distance":3395,"station_name":"Klender","i_long":106.899548,"transit":false,"is_transit":false,"line":1,"station_id":"KLD"},{"transit":false,"station_id":"BUA","distance":3100,"station_name":"Buaran","i_lat":-6.215568,"i_long":106.922662,"is_transit":false,"line":1,"time":2},{"station_id":"KLDB","i_long":106.939679,"distance":1305,"station_name":"Klenderbaru","transit":false,"is_transit":false,"time":1,"i_lat":-6.217455,"line":1},{"transit":false,"i_long":106.951283,"distance":1385,"line":1,"time":8,"i_lat":-6.219053,"station_name":"Cakung","is_transit":false,"station_id":"CUK"},{"i_lat":-6.224515,"i_long":106.977657,"line":1,"station_name":"Kranji","station_id":"KRI","distance":3097,"transit":false,"is_transit":false,"time":3},{"time":4,"is_transit":false,"i_lat":-6.236616,"station_name":"Bekasi","line":1,"station_id":"BKS","transit":false,"i_long":106.997013,"distance":2520},{"line":1,"is_transit":false,"i_long":107.016735,"time":2,"station_id":"BKST","distance":2368,"station_name":"Bekasi Timur","transit":false,"i_lat":-6.248029}],[{"transit":false,"i_long":106.812439,"is_transit":false,"time":0,"line":2,"i_lat":-6.137569,"station_name":"Jakarta Kota","station_id":"JAKK","distance":0},{"i_long":106.820901,"station_name":"Jayakarta","transit":false,"line":2,"station_id":"JAY","distance":1264,"i_lat":-6.141205,"is_transit":false,"time":4},{"i_lat":-6.149769,"i_long":106.82482,"line":2,"time":2,"transit":false,"distance":1080,"is_transit":false,"station_name":"Manggabesar","station_id":"MGB"},{"i_long":106.827103,"transit":false,"is_transit":false,"distance":906,"station_id":"SW","time":2,"station_name":"Sawah Besar","i_lat":-6.160725,"line":2},{"is_transit":false,"time":2,"distance":1149,"station_name":"Juanda","transit":false,"i_lat":-6.166716,"i_long":106.828284,"station_id":"JUA","line":2},{"is_transit":false,"station_id":"GDD","i_long":106.832183,"line":2,"distance":2015,"transit":false,"time":4,"station_name":"Gondangdia","i_lat":-6.186295},{"distance":1750,"line":2,"time":3,"i_long":106.840169,"is_transit":false,"i_lat":-6.198556,"station_id":"CKI","transit":false,"station_name":"Cikini"},{"i_long":106.84912,"line":2,"i_lat":-6.209883,"time":4,"station_id":"MRI","is_transit":true,"distance":1590,"transit":true,"station_name":"Manggarai"},{"i_long":106.858896,"is_transit":false,"station_name":"Matraman","transit":false,"distance":1275,"i_lat":-6.212485,"time":2,"station_id":"MTR","line":1},{"i_lat":-6.215091,"i_long":106.86807400000001,"is_transit":false,"time":8,"distance":1377,"station_id":"JNG","station_name":"Jatinegara","transit":false,"line":1},{"line":1,"station_id":"KLD","i_lat":-6.2135,"transit":false,"station_name":"Klender","distance":3395,"i_long":106.899548,"time":3,"is_transit":false},{"station_name":"Buaran","is_transit":false,"station_id":"BUA","i_lat":-6.215568,"transit":false,"distance":3100,"line":1,"time":2,"i_long":106.922662},{"i_long":106.939679,"is_transit":false,"line":1,"station_id":"KLDB","time":1,"i_lat":-6.217455,"station_name":"Klenderbaru","transit":false,"distance":1305},{"distance":1385,"time":8,"station_id":"CUK","i_lat":-6.219053,"is_transit":false,"line":1,"transit":false,"station_name":"Cakung","i_long":106.951283},{"distance":3097,"time":3,"i_lat":-6.224515,"i_long":106.977657,"station_id":"KRI","is_transit":false,"station_name":"Kranji","line":1,"transit":false},{"is_transit":false,"station_id":"BKS","transit":false,"i_long":106.997013,"station_name":"Bekasi","i_lat":-6.236616,"line":1,"time":4,"distance":2520},{"transit":false,"i_long":107.016735,"station_id":"BKST","time":2,"station_name":"Bekasi Timur","i_lat":-6.248029,"line":1,"is_transit":false,"distance":2368}],[{"i_long":106.812439,"line":2,"station_name":"Jakarta Kota","distance":0,"station_id":"JAKK","is_transit":false,"time":0,"i_lat":-6.137569,"transit":false},{"is_transit":true,"time":3,"i_long":106.826365,"distance":1364,"transit":true,"station_id":"KPB","station_name":"Kampung Bandan","line":4,"i_lat":-6.132549},{"station_name":"Angke","distance":4102,"i_long":106.79867,"time":9,"station_id":"AK","line":1,"transit":false,"i_lat":-6.144674,"is_transit":false},{"time":4,"station_name":"Duri","station_id":"DU","i_lat":-6.155215,"is_transit":false,"i_long":106.800832,"transit":false,"distance":1230,"line":1},{"distance":3632,"is_transit":false,"line":1,"station_name":"Tanah Abang","time":8,"i_lat":-6.185545,"transit":false,"i_long":106.811091,"station_id":"THB"},{"is_transit":false,"station_id":"KAT","i_lat":-6.20132,"time":5,"i_long":106.816351,"station_name":"Karet","distance":2029,"transit":false,"line":1},{"distance":471,"station_id":"SUDB","time":1,"is_transit":false,"line":1,"i_lat":-6.201433,"transit":false,"i_long":106.819881,"station_name":"Sudirman Baru"},{"i_long":106.822649,"line":1,"time":1,"i_lat":-6.202263,"is_transit":false,"transit":false,"station_id":"SUD","distance":280,"station_name":"Sudirman"},{"line":2,"transit":false,"station_name":"Manggarai","is_transit":false,"distance":3186,"i_long":106.84912,"station_id":"MRI","i_lat":-6.209883,"time":4},{"station_name":"Matraman","i_long":106.858896,"i_lat":-6.212485,"transit":false,"station_id":"MTR","is_transit":false,"line":1,"distance":1275,"time":2},{"line":1,"transit":false,"is_transit":false,"time":8,"station_name":"Jatinegara","i_lat":-6.215091,"i_long":106.86807400000001,"station_id":"JNG","distance":1377},{"i_lat":-6.2135,"line":1,"station_id":"KLD","station_name":"Klender","i_long":106.899548,"time":3,"distance":3395,"is_transit":false,"transit":false},{"distance":3100,"transit":false,"i_lat":-6.215568,"time":2,"station_name":"Buaran","line":1,"station_id":"BUA","is_transit":false,"i_long":106.922662},{"station_id":"KLDB","is_transit":false,"line":1,"transit":false,"i_lat":-6.217455,"time":1,"distance":1305,"i_long":106.939679,"station_name":"Klenderbaru"},{"station_id":"CUK","station_name":"Cakung","is_transit":false,"transit":false,"line":1,"distance":1385,"i_long":106.951283,"time":8,"i_lat":-6.219053},{"i_long":106.977657,"is_transit":false,"station_id":"KRI","line":1,"station_name":"Kranji","time":3,"i_lat":-6.224515,"transit":false,"distance":3097},{"is_transit":false,"i_lat":-6.236616,"transit":false,"station_name":"Bekasi","time":4,"distance":2520,"i_long":106.997013,"line":1,"station_id":"BKS"},{"is_transit":false,"i_lat":-6.248029,"distance":2368,"station_name":"Bekasi Timur","station_id":"BKST","time":2,"transit":false,"i_long":107.016735,"line":1}],[{"station_name":"Jakarta Kota","station_id":"JAKK","i_lat":-6.137569,"time":0,"is_transit":false,"transit":false,"line":2,"distance":0,"i_long":106.812439},{"is_transit":false,"i_long":106.820901,"station_name":"Jayakarta","station_id":"JAY","distance":1264,"transit":false,"line":2,"time":4,"i_lat":-6.141205},{"station_name":"Manggabesar","i_lat":-6.149769,"station_id":"MGB","i_long":106.82482,"line":2,"time":2,"transit":false,"is_transit":false,"distance":1080},{"i_long":106.827103,"distance":906,"station_id":"SW","time":2,"transit":false,"is_transit":false,"station_name":"Sawah Besar","line":2,"i_lat":-6.160725},{"line":2,"is_transit":false,"transit":false,"i_lat":-6.166716,"station_name":"Juanda","i_long":106.828284,"station_id":"JUA","time":2,"distance":1149},{"i_long":106.832183,"i_lat":-6.186295,"line":2,"station_id":"GDD","transit":false,"distance":2015,"station_name":"Gondangdia","time":4,"is_transit":false},{"station_name":"Cikini","is_transit":false,"transit":false,"line":2,"i_lat":-6.198556,"i_long":106.840169,"time":3,"station_id":"CKI","distance":1750},{"station_name":"Manggarai","i_long":106.84912,"station_id":"MRI","distance":1590,"time":4,"i_lat":-6.209883,"line":2,"is_transit":true,"transit":true},{"time":4,"station_name":"Sudirman","i_long":106.822649,"distance":3186,"line":1,"is_transit":false,"station_id":"SUD","transit":false,"i_lat":-6.202263},{"time":1,"i_long":106.819881,"transit":false,"is_transit":false,"line":1,"distance":280,"station_name":"Sudirman Baru","i_lat":-6.201433,"station_id":"SUDB"},{"transit":false,"line":1,"station_id":"KAT","is_transit":false,"i_long":106.816351,"i_lat":-6.20132,"distance":471,"time":1,"station_name":"Karet"},{"transit":false,"time":5,"distance":2029,"station_name":"Tanah Abang","i_lat":-6.185545,"line":1,"i_long":106.811091,"is_transit":false,"station_id":"THB"},{"station_name":"Duri","i_lat":-6.155215,"time":8,"line":1,"i_long":106.800832,"distance":3632,"station_id":"DU","transit":false,"is_transit":false},{"i_long":106.79867,"is_transit":false,"transit":false,"station_id":"AK","distance":1230,"station_name":"Angke","line":1,"time":4,"i_lat":-6.144674},{"time":9,"station_name":"Kampung Bandan","line":4,"i_long":106.826365,"transit":true,"distance":4102,"i_lat":-6.132549,"station_id":"KPB","is_transit":true},{"time":3,"is_transit":false,"i_lat":-6.14505,"station_name":"Rajawali","i_long":106.836569,"station_id":"RJW","line":11,"distance":1444,"transit":false},{"station_name":"Kemayoran","i_long":106.839204,"line":11,"time":5,"is_transit":false,"transit":false,"i_lat":-6.161728,"station_id":"KMO","distance":1901},{"distance":1436,"station_id":"PSE","is_transit":false,"station_name":"Pasar Senen","time":4,"transit":false,"i_lat":-6.174784,"line":11,"i_long":106.84368},{"time":8,"station_name":"Gang Sentiong","is_transit":false,"i_long":106.850107,"distance":1567,"station_id":"GST","transit":false,"i_lat":-6.185975,"line":11},{"time":1,"distance":973,"i_long":106.855437,"line":11,"station_id":"KMT","station_name":"Kramat","transit":false,"is_transit":false,"i_lat":-6.193792},{"line":11,"i_long":106.861737,"is_transit":false,"station_id":"POK","time":2,"transit":false,"station_name":"Pondok Jati","i_lat":-6.209188,"distance":1829},{"transit":true,"is_transit":true,"i_long":106.86807400000001,"line":1,"distance":1236,"i_lat":-6.215091,"time":9,"station_id":"JNG","station_name":"Jatinegara"},{"time":3,"station_name":"Klender","i_long":106.899548,"distance":3395,"transit":false,"i_lat":-6.2135,"line":1,"station_id":"KLD","is_transit":false},{"is_transit":false,"line":1,"transit":false,"station_id":"BUA","time":2,"distance":3100,"i_lat":-6.215568,"station_name":"Buaran","i_long":106.922662},{"i_lat":-6.217455,"time":1,"distance":1305,"station_name":"Klenderbaru","station_id":"KLDB","i_long":106.939679,"line":1,"transit":false,"is_transit":false},{"distance":1385,"line":1,"station_name":"Cakung","is_transit":false,"station_id":"CUK","transit":false,"i_lat":-6.219053,"i_long":106.951283,"time":8},{"i_long":106.977657,"station_name":"Kranji","line":1,"distance":3097,"station_id":"KRI","transit":false,"i_lat":-6.224515,"is_transit":false,"time":3},{"distance":2520,"transit":false,"line":1,"is_transit":false,"station_id":"BKS","station_name":"Bekasi","time":4,"i_lat":-6.236616,"i_long":106.997013},{"transit":false,"station_id":"BKST","is_transit":false,"time":2,"i_long":107.016735,"i_lat":-6.248029,"station_name":"Bekasi Timur","line":1,"distance":2368}]]}