{"data":[[{"is_transit":false,"i_lat":-6.137569,"line":2,"station_name":"Jakarta Kota","time":0,"transit":false,"station_id":"JAKK","i_long":106.812439,"distance":0},{"is_transit":true,"i_long":106.826365,"line":4,"time":3,"transit":true,"station_name":"Kampung Bandan","station_id":"KPB","distance":1364,"i_lat":-6.132549},{"transit":false,"distance":4102,"time":9,"line":1,"i_long":106.79867,"station_name":"Angke","i_lat":-6.144674,"is_transit":false,"station_id":"AK"},{"is_transit":false,"time":4,"i_lat":-6.155215,"i_long":106.800832,"line":1,"distance":1230,"station_name":"Duri","transit":false,"station_id":"DU"},{"transit":true,"distance":3632,"is_transit":true,"i_lat":-6.185545,"line":1,"station_name":"Tanah Abang","i_long":106.811091,"time":8,"station_id":"THB"},{"distance":3191,"station_name":"Palmerah","transit":false,"station_id":"PLM","i_lat":-6.207404,"line":6,"time":6,"is_transit":false,"i_long":106.79689},{"i_long":106.780334,"line":6,"distance":3737,"transit":false,"station_name":"Kebayoran","station_id":"KBY","i_lat":-6.237242,"time":7,"is_transit":false},{"i_lat":-6.276362,"is_transit":false,"i_long":106.74273,"transit":false,"distance":6218,"station_name":"Pondokranji","time":8,"station_id":"PDJ","line":6},{"time":3,"line":6,"station_name":"Jurangmangu","station_id":"JMU","transit":false,"is_transit":false,"i_lat":-6.288927,"i_long":106.728916,"distance":2179},{"distance":1994,"transit":false,"time":4,"i_lat":-6.296963,"station_name":"Sudimara","is_transit":false,"i_long":106.712277,"line":6,"station_id":"SDM"},{"transit":false,"i_long":106.675475,"is_transit":false,"i_lat":-6.314823,"station_id":"RU","distance":4566,"line":6,"station_name":"Rawa Buntu","time":6},{"station_id":"SRP","i_long":106.66566,"distance":2413,"station_name":"Serpong","transit":false,"i_lat":-6.319871,"time":4,"line":6,"is_transit":false},{"distance":1784,"station_name":"Cisauk","station_id":"CSK","line":3,"i_long":106.640411,"time":4,"transit":false,"i_lat":-6.32484,"is_transit":false},{"distance":2519,"time":4,"is_transit":false,"station_id":"CC","station_name":"Cicayur","i_long":106.617853,"transit":false,"i_lat":-6.329547,"line":3},{"distance":5968,"i_long":106.568863,"station_id":"PRP","station_name":"Parung Panjang","i_lat":-6.3441410000000005,"is_transit":false,"time":8,"line":6,"transit":false},{"line":3,"distance":7025,"station_name":"Cilejit","is_transit":false,"i_lat":-6.354349,"time":9,"i_long":106.508482,"station_id":"CJT","transit":false},{"i_lat":-6.338021,"line":0,"time":6,"station_id":"DAR","i_long":106.491338,"is_transit":false,"transit":false,"distance":2675,"station_name":"Daru"},{"distance":3902,"station_name":"Tenjo","is_transit":false,"transit":false,"time":5,"i_long":106.460812,"station_id":"TEJ","i_lat":-6.327251,"line":6},{"i_long":106.425991,"station_name":"Tigaraksa","station_id":"TGS","line":6,"distance":2974,"transit":false,"is_transit":false,"time":5,"i_lat":-6.328533}],[{"station_id":"JAKK","time":0,"line":2,"station_name":"Jakarta Kota","is_transit":false,"i_long":106.812439,"transit":false,"distance":0,"i_lat":-6.137569},{"time":4,"is_transit":false,"line":2,"distance":1264,"i_lat":-6.141205,"i_long":106.820901,"station_id":"JAY","station_name":"Jayakarta","transit":false},{"i_lat":-6.149769,"i_long":106.82482,"station_id":"MGB","is_transit":false,"line":2,"transit":false,"distance":1080,"station_name":"Manggabesar","time":2},{"transit":false,"is_transit":false,"station_id":"SW","distance":906,"station_name":"Sawah Besar","time":2,"i_lat":-6.160725,"i_long":106.827103,"line":2},{"is_transit":false,"time":2,"station_id":"JUA","line":2,"distance":1149,"transit":false,"station_name":"Juanda","i_lat":-6.166716,"i_long":106.828284},{"i_long":106.832183,"line":2,"station_name":"Gondangdia","is_transit":false,"transit":false,"i_lat":-6.186295,"distance":2015,"time":4,"station_id":"GDD"},{"is_transit":false,"i_long":106.840169,"line":2,"distance":1750,"time":3,"station_id":"CKI","i_lat":-6.198556,"transit":false,"station_name":"Cikini"},{"i_long":106.84912,"line":2,"transit":true,"i_lat":-6.209883,"distance":1590,"station_name":"Manggarai","time":4,"is_transit":true,"station_id":"MRI"},{"time":4,"i_lat":-6.202263,"station_name":"Sudirman","is_transit":false,"transit":false,"i_long":106.822649,"line":1,"station_id":"SUD","distance":3186},{"station_id":"SUDB","i_lat":-6.201433,"time":1,"i_long":106.819881,"transit":false,"distance":280,"station_name":"Sudirman Baru","line":1,"is_transit":false},{"transit":false,"station_id":"KAT","station_name":"Karet","line":1,"distance":471,"time":1,"i_long":106.816351,"i_lat":-6.20132,"is_transit":false},{"time":5,"distance":2029,"transit":true,"is_transit":true,"i_long":106.811091,"station_id":"THB","line":1,"station_name":"Tanah Abang","i_lat":-6.185545},{"station_name":"Palmerah","line":6,"i_long":106.79689,"i_lat":-6.207404,"distance":3191,"time":6,"is_transit":false,"transit":false,"station_id":"PLM"},{"is_transit":false,"transit":false,"station_id":"KBY","time":7,"line":6,"distance":3737,"i_lat":-6.237242,"station_name":"Kebayoran","i_long":106.780334},{"transit":false,"station_name":"Pondokranji","is_transit":false,"i_long":106.74273,"i_lat":-6.276362,"line":6,"time":8,"distance":6218,"station_id":"PDJ"},{"distance":2179,"transit":false,"is_transit":false,"time":3,"i_long":106.728916,"station_name":"Jurangmangu","station_id":"JMU","i_lat":-6.288927,"line":6},{"station_id":"SDM","station_name":"Sudimara","time":4,"transit":false,"i_long":106.712277,"line":6,"i_lat":-6.296963,"is_transit":false,"distance":1994},{"distance":4566,"i_long":106.675475,"i_lat":-6.314823,"station_name":"Rawa Buntu","station_id":"RU","time":6,"transit":false,"is_transit":false,"line":6},{"is_transit":false,"time":4,"i_long":106.66566,"station_id":"SRP","station_name":"Serpong","transit":false,"line":6,"distance":2413,"i_lat":-6.319871},{"is_transit":false,"distance":1784,"i_long":106.640411,"i_lat":-6.32484,"line":3,"station_name":"Cisauk","station_id":"CSK","time":4,"transit":false},{"i_lat":-6.329547,"station_name":"Cicayur","distance":2519,"is_transit":false,"station_id":"CC","transit":false,"time":4,"i_long":106.617853,"line":3},{"i_lat":-6.3441410000000005,"station_id":"PRP","transit":false,"time":8,"station_name":"Parung Panjang","line":6,"is_transit":false,"distance":5968,"i_long":106.568863},{"is_transit":false,"distance":7025,"station_id":"CJT","station_name":"Cilejit","i_long":106.508482,"time":9,"i_lat":-6.354349,"transit":false,"line":3},{"i_long":106.491338,"station_name":"Daru","distance":2675,"station_id":"DAR","transit":false,"line":0,"time":6,"i_lat":-6.338021,"is_transit":false},{"station_name":"Tenjo","is_transit":false,"line":6,"i_long":106.460812,"i_lat":-6.327251,"time":5,"transit":false,"distance":3902,"station_id":"TEJ"},{"transit":false,"is_transit":false,"time":5,"i_long":106.425991,"station_id":"TGS","line":6,"distance":2974,"station_name":"Tigaraksa","i_lat":-6.328533}],[{"station_name":"Jakarta Kota","transit":false,"i_lat":-6.137569,"is_transit":false,"line":2,"station_id":"JAKK","time":0,"i_long":106.812439,"distance":0},{"station_id":"KPB","transit":true,"i_lat":-6.132549,"line":4,"time":3,"distance":1364,"station_name":"Kampung Bandan","i_long":106.826365,"is_transit":true},{"transit":false,"distance":1444,"is_transit":false,"time":3,"line":11,"station_name":"Rajawali","station_id":"RJW","i_long":106.836569,"i_lat":-6.14505},{"distance":1901,"station_id":"KMO","transit":false,"is_transit":false,"i_lat":-6.161728,"i_long":106.839204,"line":11,"time":5,"station_name":"Kemayoran"},{"transit":false,"distance":1436,"i_long":106.84368,"station_name":"Pasar Senen","time":4,"line":11,"i_lat":-6.174784,"station_id":"PSE","is_transit":false},{"station_id":"GST","line":11,"transit":false,"distance":1567,"i_lat":-6.185975,"i_long":106.850107,"time":8,"station_name":"Gang Sentiong","is_transit":false},{"time":1,"i_lat":-6.193792,"i_long":106.855437,"line":11,"station_id":"KMT","transit":false,"distance":973,"is_transit":false,"station_name":"Kramat"},{"distance":1829,"station_name":"Pondok Jati","time":2,"line":11,"i_lat":-6.209188,"station_id":"POK","i_long":106.861737,"transit":false,"is_transit":false},{"transit":true,"station_name":"Jatinegara","is_transit":true,"station_id":"JNG","distance":1236,"i_long":106.86807400000001,"line":1,"time":9,"i_lat":-6.215091},{"is_transit":false,"i_lat":-6.212485,"distance":1377,"station_name":"Matraman","station_id":"MTR","time":2,"transit":false,"i_long":106.858896,"line":1},{"is_transit":false,"transit":false,"station_name":"Manggarai","i_lat":-6.209883,"i_long":106.84912,"distance":1275,"time":2,"line":2,"station_id":"MRI"},{"distance":3186,"is_transit":false,"i_lat":-6.202263,"i_long":106.822649,"station_id":"SUD","station_name":"Sudirman","transit":false,"time":4,"line":1},{"i_long":106.819881,"i_lat":-6.201433,"station_name":"Sudirman Baru","station_id":"SUDB","is_transit":false,"distance":280,"line":1,"transit":false,"time":1},{"distance":471,"time":1,"is_transit":false,"transit":false,"i_lat":-6.20132,"station_id":"KAT","line":1,"i_long":106.816351,"station_name":"Karet"},{"station_name":"Tanah Abang","time":5,"station_id":"THB","transit":true,"is_transit":true,"i_lat":-6.185545,"line":1,"i_long":106.811091,"distance":2029},{"station_id":"PLM","station_name":"Palmerah","is_transit":false,"i_long":106.79689,"distance":3191,"time":6,"transit":false,"line":6,"i_lat":-6.207404},{"distance":3737,"transit":false,"time":7,"line":6,"i_lat":-6.237242,"station_name":"Kebayoran","station_id":"KBY","i_long":106.780334,"is_transit":false},{"is_transit":false,"i_long":106.74273,"station_id":"PDJ","line":6,"station_name":"Pondokranji","time":8,"transit":false,"distance":6218,"i_lat":-6.276362},{"is_transit":false,"time":3,"transit":false,"i_lat":-6.288927,"station_name":"Jurangmangu","line":6,"station_id":"JMU","distance":2179,"i_long":106.728916},{"is_transit":false,"transit":false,"i_long":106.712277,"line":6,"distance":1994,"time":4,"station_id":"SDM","i_lat":-6.296963,"station_name":"Sudimara"},{"station_name":"Rawa Buntu","station_id":"RU","time":6,"i_lat":-6.314823,"is_transit":false,"distance":4566,"line":6,"transit":false,"i_long":106.675475},{"station_name":"Serpong","distance":2413,"line":6,"time":4,"i_lat":-6.319871,"station_id":"SRP","transit":false,"i_long":106.66566,"is_transit":false},{"i_long":106.640411,"transit":false,"station_id":"CSK","i_lat":-6.32484,"station_name":"Cisauk","line":3,"distance":1784,"is_transit":false,"time":4},{"distance":2519,"transit":false,"i_lat":-6.329547,"is_transit":false,"time":4,"station_name":"Cicayur","station_id":"CC","line":3,"i_long":106.617853},{"is_transit":false,"i_long":106.568863,"time":8,"line":6,"transit":false,"distance":5968,"station_name":"Parung Panjang","station_id":"PRP","i_lat":-6.3441410000000005},{"distance":7025,"time":9,"i_long":106.508482,"is_transit":false,"line":3,"station_id":"CJT","station_name":"Cilejit","i_lat":-6.354349,"transit":false},{"line":0,"time":6,"is_transit":false,"station_id":"DAR","station_name":"Daru","transit":false,"distance":2675,"i_long":106.491338,"i_lat":-6.338021},{"i_long":106.460812,"line":6,"time":5,"transit":false,"is_transit":false,"distance":3902,"station_id":"TEJ","i_lat":-6.327251,"station_name":"Tenjo"},{"time":5,"distance":2974,"station_name":"Tigaraksa","i_long":106.425991,"station_id":"TGS","i_lat":-6.328533,"transit":false,"is_transit":false,"line":6}],[{"transit":false,"is_transit":false,"station_id":"JAKK","station_name":"Jakarta Kota","i_long":106.812439,"distance":0,"i_lat":-6.137569,"line":2,"time":0},{"station_name":"Jayakarta","i_long":106.820901,"station_id":"JAY","i_lat":-6.141205,"is_transit":false,"line":2,"transit":false,"time":4,"distance":1264},{"line":2,"is_transit":false,"time":2,"i_lat":-6.149769,"i_long":106.82482,"station_id":"MGB","station_name":"Manggabesar","distance":1080,"transit":false},{"station_id":"SW","time":2,"transit":false,"i_long":106.827103,"line":2,"station_name":"Sawah Besar","is_transit":false,"distance":906,"i_lat":-6.160725},{"distance":1149,"is_transit":false,"station_id":"JUA","i_lat":-6.166716,"i_long":106.828284,"station_name":"Juanda","time":2,"line":2,"transit":false},{"line":2,"is_transit":false,"transit":false,"i_lat":-6.186295,"distance":2015,"time":4,"station_name":"Gondangdia","i_long":106.832183,"station_id":"GDD"},{"station_id":"CKI","time":3,"station_name":"Cikini","i_long":106.840169,"line":2,"is_transit":false,"distance":1750,"i_lat":-6.198556,"transit":false},{"station_name":"Manggarai","time":4,"transit":true,"is_transit":true,"station_id":"MRI","i_lat":-6.209883,"line":2,"i_long":106.84912,"distance":1590},{"transit":false,"distance":1275,"station_name":"Matraman","time":2,"i_long":106.858896,"station_id":"MTR","is_transit":false,"i_lat":-6.212485,"line":1},{"distance":1377,"station_id":"JNG","i_lat":-6.215091,"transit":true,"is_transit":true,"line":1,"station_name":"Jatinegara","time":8,"i_long":106.86807400000001},{"line":11,"distance":1236,"time":2,"is_transit":false,"i_lat":-6.209188,"transit":false,"station_id":"POK","station_name":"Pondok Jati","i_long":106.861737},{"is_transit":false,"station_name":"Kramat","transit":false,"time":2,"distance":1829,"i_long":106.855437,"i_lat":-6.193792,"station_id":"KMT","line":11},{"station_name":"Gang Sentiong","line":11,"i_lat":-6.185975,"is_transit":false,"station_id":"GST","distance":973,"time":1,"transit":false,"i_long":106.850107},{"line":11,"distance":1567,"time":8,"station_id":"PSE","is_transit":false,"i_lat":-6.174784,"transit":false,"station_name":"Pasar Senen","i_long":106.84368},{"transit":false,"station_id":"KMO","i_lat":-6.161728,"distance":1436,"time":4,"line":11,"station_name":"Kemayoran","is_transit":false,"i_long":106.839204},{"is_transit":false,"time":5,"i_long":106.836569,"line":11,"transit":false,"distance":1901,"i_lat":-6.14505,"station_name":"Rajawali","station_id":"RJW"},{"i_long":106.826365,"transit":true,"station_name":"Kampung Bandan","i_lat":-6.132549,"line":4,"station_id":"KPB","distance":1444,"is_transit":true,"time":3},{"time":9,"station_id":"AK","is_transit":false,"transit":false,"station_name":"Angke","i_lat":-6.144674,"i_long":106.79867,"distance":4102,"line":1},{"i_long":106.800832,"station_id":"DU","transit":false,"distance":1230,"station_name":"Duri","time":4,"i_lat":-6.155215,"is_transit":false,"line":1},{"is_transit":true,"time":8,"transit":true,"station_id":"THB","line":1,"station_name":"Tanah Abang","i_long":106.811091,"distance":3632,"i_lat":-6.185545},{"transit":false,"i_long":106.79689,"i_lat":-6.207404,"station_id":"PLM","time":6,"station_name":"Palmerah","is_transit":false,"distance":3191,"line":6},{"station_name":"Kebayoran","time":7,"transit":false,"distance":3737,"line":6,"is_transit":false,"i_lat":-6.237242,"station_id":"KBY","i_long":106.780334},{"i_long":106.74273,"station_name":"Pondokranji","distance":6218,"transit":false,"i_lat":-6.276362,"is_transit":false,"time":8,"station_id":"PDJ","line":6},{"station_name":"Jurangmangu","line":6,"is_transit":false,"time":3,"i_lat":-6.288927,"i_long":106.728916,"transit":false,"distance":2179,"station_id":"JMU"},{"line":6,"station_id":"SDM","station_name":"Sudimara","is_transit":false,"distance":1994,"i_long":106.712277,"time":4,"transit":false,"i_lat":-6.296963},{"station_id":"RU","distance":4566,"transit":false,"i_lat":-6.314823,"line":6,"time":6,"station_name":"Rawa Buntu","is_transit":false,"i_long":106.675475},{"distance":2413,"i_lat":-6.319871,"station_name":"Serpong","time":4,"i_long":106.66566,"transit":false,"is_transit":false,"line":6,"station_id":"SRP"},{"station_name":"Cisauk","time":4,"distance":1784,"station_id":"CSK","line":3,"i_lat":-6.32484,"transit":false,"i_long":106.640411,"is_transit":false},{"is_transit":false,"i_lat":-6.329547,"transit":false,"station_name":"Cicayur","i_long":106.617853,"line":3,"station_id":"CC","distance":2519,"time":4},{"i_lat":-6.3441410000000005,"distance":5968,"line":6,"station_name":"Parung Panjang","time":8,"is_transit":false,"i_long":106.568863,"transit":false,"station_id":"PRP"},{"station_id":"CJT","i_long":106.508482,"distance":7025,"time":9,"station_name":"Cilejit","is_transit":false,"i_lat":-6.354349,"line":3,"transit":false},{"transit":false,"station_name":"Daru","is_transit":false,"distance":2675,"i_long":106.491338,"station_id":"DAR","i_lat":-6.338021,"line":0,"time":6},{"transit":false,"distance":3902,"time":5,"station_id":"TEJ","is_transit":false,"i_long":106.460812,"line":6,"station_name":"Tenjo","i_lat":-6.327251},{"transit":false,"time":5,"i_lat":-6.328533,"station_id":"TGS","distance":2974,"station_name":"Tigaraksa","is_transit":false,"i_long":106.425991,"line":6}]]}