{"data":[[{"station_name":"Jakarta Kota","i_lat":-6.137569,"i_long":106.812439,"time":0,"distance":0,"station_id":"JAKK","transit":false,"line":2,"is_transit":false},{"transit":true,"is_transit":true,"i_long":106.826365,"distance":1364,"line":4,"station_name":"Kampung Bandan","i_lat":-6.132549,"time":3,"station_id":"KPB"},{"station_id":"RJW","transit":false,"distance":1444,"i_long":106.836569,"time":3,"i_lat":-6.14505,"station_name":"Rajawali","line":11,"is_transit":false},{"distance":1901,"station_name":"Kemayoran","transit":false,"time":5,"station_id":"KMO","i_long":106.839204,"line":11,"is_transit":false,"i_lat":-6.161728},{"time":4,"line":11,"is_transit":false,"i_long":106.84368,"transit":false,"station_name":"Pasar Senen","distance":1436,"station_id":"PSE","i_lat":-6.174784},{"i_lat":-6.185975,"transit":false,"time":8,"station_name":"Gang Sentiong","line":11,"distance":1567,"i_long":106.850107,"is_transit":false,"station_id":"GST"},{"is_transit":false,"i_lat":-6.193792,"transit":false,"station_id":"KMT","time":1,"i_long":106.855437,"distance":973,"station_name":"Kramat","line":11},{"transit":false,"line":11,"time":2,"distance":1829,"station_name":"Pondok Jati","station_id":"POK","is_transit":false,"i_lat":-6.209188,"i_long":106.861737},{"is_transit":true,"time":9,"i_lat":-6.215091,"i_long":106.86807400000001,"station_id":"JNG","transit":true,"distance":1236,"station_name":"Jatinegara","line":1},{"is_transit":false,"station_name":"Klender","i_long":106.899548,"time":3,"distance":3395,"station_id":"KLD","transit":false,"i_lat":-6.2135,"line":1},{"i_long":106.922662,"station_name":"Buaran","time":2,"is_transit":false,"i_lat":-6.215568,"distance":3100,"station_id":"BUA","transit":false,"line":1},{"station_id":"KLDB","time":1,"station_name":"Klenderbaru","i_long":106.939679,"transit":false,"line":1,"is_transit":false,"i_lat":-6.217455,"distance":1305},{"station_name":"Cakung","station_id":"CUK","time":8,"line":1,"is_transit":false,"i_lat":-6.219053,"i_long":106.951283,"distance":1385,"transit":false},{"line":1,"station_name":"Kranji","is_transit":false,"station_id":"KRI","i_long":106.977657,"i_lat":-6.224515,"transit":false,"time":3,"distance":3097},{"line":1,"is_transit":false,"station_id":"BKS","time":4,"distance":2520,"station_name":"Bekasi","i_long":106.997013,"transit":false,"i_lat":-6.236616},{"i_long":107.016735,"station_id":"BKST","time":2,"is_transit":false,"station_name":"Bekasi Timur","line":1,"distance":2368,"i_lat":-6.248029,"transit":false},{"line":1,"time":7,"transit":false,"i_long":107.055722,"station_id":"TB","station_name":"Tambun","is_transit":false,"distance":4460,"i_lat":-6.258864},{"time":3,"i_lat":-6.261877,"i_long":107.083084,"station_id":"CIT","transit":false,"line":1,"is_transit":false,"distance":3420,"station_name":"Cibitung"},{"i_long":107.093313,"station_id":"TLM","is_transit":false,"station_name":"Metland Telaga Murni","distance":2800,"transit":false,"time":2,"i_lat":-6.262938,"line":1},{"station_id":"CKR","i_lat":-6.2553149999999995,"i_long":107.144613,"is_transit":false,"station_name":"Cikarang","line":1,"transit":false,"time":4,"distance":3689}],[{"i_lat":-6.137569,"is_transit":false,"transit":false,"station_id":"JAKK","time":0,"station_name":"Jakarta Kota","distance":0,"i_long":106.812439,"line":2},{"is_transit":false,"line":2,"i_lat":-6.141205,"i_long":106.820901,"time":4,"station_name":"Jayakarta","station_id":"JAY","distance":1264,"transit":false},{"is_transit":false,"time":2,"i_lat":-6.149769,"station_id":"MGB","i_long":106.82482,"line":2,"station_name":"Manggabesar","distance":1080,"transit":false},{"station_name":"Sawah Besar","line":2,"distance":906,"i_lat":-6.160725,"is_transit":false,"transit":false,"station_id":"SW","i_long":106.827103,"time":2},{"station_id":"JUA","is_transit":false,"distance":1149,"time":2,"transit":false,"i_long":106.828284,"line":2,"station_name":"Juanda","i_lat":-6.166716},{"line":2,"i_long":106.832183,"station_id":"GDD","station_name":"Gondangdia","distance":2015,"time":4,"is_transit":false,"transit":false,"i_lat":-6.186295},{"is_transit":false,"transit":false,"time":3,"station_id":"CKI","i_lat":-6.198556,"distance":1750,"i_long":106.840169,"station_name":"Cikini","line":2},{"i_long":106.84912,"line":2,"time":4,"station_name":"Manggarai","is_transit":true,"distance":1590,"transit":true,"i_lat":-6.209883,"station_id":"MRI"},{"is_transit":false,"distance":1275,"station_name":"Matraman","station_id":"MTR","i_long":106.858896,"line":1,"time":2,"i_lat":-6.212485,"transit":false},{"line":1,"time":8,"i_lat":-6.215091,"distance":1377,"is_transit":false,"station_name":"Jatinegara","transit":false,"station_id":"JNG","i_long":106.86807400000001},{"station_id":"KLD","is_transit":false,"i_long":106.899548,"station_name":"Klender","transit":false,"time":3,"line":1,"i_lat":-6.2135,"distance":3395},{"i_long":106.922662,"station_id":"BUA","station_name":"Buaran","distance":3100,"line":1,"transit":false,"time":2,"is_transit":false,"i_lat":-6.215568},{"station_name":"Klenderbaru","transit":false,"is_transit":false,"distance":1305,"line":1,"i_long":106.939679,"station_id":"KLDB","time":1,"i_lat":-6.217455},{"station_id":"CUK","transit":false,"line":1,"distance":1385,"i_lat":-6.219053,"is_transit":false,"time":8,"i_long":106.951283,"station_name":"Cakung"},{"station_id":"KRI","is_transit":false,"transit":false,"i_lat":-6.224515,"i_long":106.977657,"distance":3097,"station_name":"Kranji","line":1,"time":3},{"i_lat":-6.236616,"station_name":"Bekasi","distance":2520,"is_transit":false,"time":4,"station_id":"BKS","transit":false,"line":1,"i_long":106.997013},{"i_lat":-6.248029,"transit":false,"is_transit":false,"time":2,"i_long":107.016735,"station_name":"Bekasi Timur","station_id":"BKST","line":1,"distance":2368},{"transit":false,"station_id":"TB","i_long":107.055722,"distance":4460,"station_name":"Tambun","is_transit":false,"time":7,"i_lat":-6.258864,"line":1},{"distance":3420,"is_transit":false,"time":3,"i_lat":-6.261877,"station_id":"CIT","transit":false,"line":1,"station_name":"Cibitung","i_long":107.083084},{"transit":false,"line":1,"station_id":"TLM","distance":2800,"i_long":107.093313,"i_lat":-6.262938,"time":2,"station_name":"Metland Telaga Murni","is_transit":false},{"time":4,"station_id":"CKR","i_lat":-6.2553149999999995,"distance":3689,"i_long":107.144613,"transit":false,"is_transit":false,"line":1,"station_name":"Cikarang"}],[{"time":0,"station_id":"JAKK","transit":false,"line":2,"distance":0,"i_lat":-6.137569,"is_transit":false,"i_long":106.812439,"station_name":"Jakarta Kota"},{"time":3,"transit":true,"is_transit":true,"station_id":"KPB","i_lat":-6.132549,"distance":1364,"station_name":"Kampung Bandan","i_long":106.826365,"line":4},{"station_id":"AK","time":9,"line":1,"station_name":"Angke","distance":4102,"transit":false,"is_transit":false,"i_lat":-6.144674,"i_long":106.79867},{"station_name":"Duri","distance":1230,"i_lat":-6.155215,"station_id":"DU","is_transit":false,"transit":false,"line":1,"i_long":106.800832,"time":4},{"i_long":106.811091,"line":1,"station_name":"Tanah Abang","is_transit":false,"transit":false,"distance":3632,"i_lat":-6.185545,"station_id":"THB","time":8},{"station_id":"KAT","i_lat":-6.20132,"line":1,"i_long":106.816351,"transit":false,"is_transit":false,"distance":2029,"time":5,"station_name":"Karet"},{"transit":false,"is_transit":false,"time":1,"distance":471,"line":1,"station_id":"SUDB","station_name":"Sudirman Baru","i_lat":-6.201433,"i_long":106.819881},{"is_transit":false,"time":1,"i_lat":-6.202263,"i_long":106.822649,"station_id":"SUD","station_name":"Sudirman","distance":280,"transit":false,"line":1},{"is_transit":false,"distance":3186,"i_lat":-6.209883,"station_name":"Manggarai","transit":false,"station_id":"MRI","line":2,"i_long":106.84912,"time":4},{"transit":false,"is_transit":false,"i_long":106.858896,"distance":1275,"line":1,"i_lat":-6.212485,"station_id":"MTR","time":2,"station_name":"Matraman"},{"i_lat":-6.215091,"is_transit":false,"station_id":"JNG","distance":1377,"transit":false,"i_long":106.86807400000001,"line":1,"time":8,"station_name":"Jatinegara"},{"station_id":"KLD","transit":false,"time":3,"is_transit":false,"distance":3395,"i_lat":-6.2135,"line":1,"i_long":106.899548,"station_name":"Klender"},{"i_lat":-6.215568,"station_id":"BUA","station_name":"Buaran","time":2,"i_long":106.922662,"distance":3100,"is_transit":false,"transit":false,"line":1},{"distance":1305,"i_long":106.939679,"station_name":"Klenderbaru","station_id":"KLDB","transit":false,"is_transit":false,"i_lat":-6.217455,"line":1,"time":1},{"i_lat":-6.219053,"line":1,"i_long":106.951283,"transit":false,"is_transit":false,"station_id":"CUK","station_name":"Cakung","distance":1385,"time":8},{"transit":false,"i_long":106.977657,"time":3,"distance":3097,"station_name":"Kranji","line":1,"station_id":"KRI","i_lat":-6.224515,"is_transit":false},{"i_lat":-6.236616,"i_long":106.997013,"station_id":"BKS","station_name":"Bekasi","is_transit":false,"distance":2520,"line":1,"time":4,"transit":false},{"station_id":"BKST","transit":false,"station_name":"Bekasi Timur","i_long":107.016735,"distance":2368,"i_lat":-6.248029,"time":2,"line":1,"is_transit":false},{"station_name":"Tambun","time":7,"distance":4460,"i_lat":-6.258864,"line":1,"transit":false,"i_long":107.055722,"is_transit":false,"station_id":"TB"},{"i_lat":-6.261877,"distance":3420,"station_id":"CIT","time":3,"station_name":"Cibitung","i_long":107.083084,"is_transit":false,"transit":false,"line":1},{"distance":2800,"time":2,"line":1,"transit":false,"station_id":"TLM","i_lat":-6.262938,"i_long":107.093313,"is_transit":false,"station_name":"Metland Telaga Murni"},{"transit":false,"time":4,"station_name":"Cikarang","line":1,"distance":3689,"station_id":"CKR","i_long":107.144613,"is_transit":false,"i_lat":-6.2553149999999995}],[{"line":2,"transit":false,"station_id":"JAKK","distance":0,"station_name":"Jakarta Kota","i_long":106.812439,"i_lat":-6.137569,"time":0,"is_transit":false},{"i_lat":-6.141205,"line":2,"time":4,"station_id":"JAY","is_transit":false,"distance":1264,"transit":false,"station_name":"Jayakarta","i_long":106.820901},{"distance":1080,"station_id":"MGB","time":2,"transit":false,"is_transit":false,"station_name":"Manggabesar","i_long":106.82482,"i_lat":-6.149769,"line":2},{"transit":false,"station_name":"Sawah Besar","line":2,"is_transit":false,"station_id":"SW","time":2,"distance":906,"i_lat":-6.160725,"i_long":106.827103},{"station_id":"JUA","line":2,"time":2,"i_long":106.828284,"i_lat":-6.166716,"station_name":"Juanda","is_transit":false,"transit":false,"distance":1149},{"station_id":"GDD","time":4,"distance":2015,"is_transit":false,"transit":false,"station_name":"Gondangdia","i_long":106.832183,"line":2,"i_lat":-6.186295},{"transit":false,"distance":1750,"line":2,"i_lat":-6.198556,"station_name":"Cikini","is_transit":false,"i_long":106.840169,"time":3,"station_id":"CKI"},{"station_name":"Manggarai","i_long":106.84912,"time":4,"distance":1590,"is_transit":true,"transit":true,"line":2,"i_lat":-6.209883,"station_id":"MRI"},{"time":4,"station_name":"Sudirman","station_id":"SUD","transit":false,"line":1,"i_lat":-6.202263,"i_long":106.822649,"distance":3186,"is_transit":false},{"station_id":"SUDB","transit":false,"i_long":106.819881,"line":1,"distance":280,"time":1,"i_lat":-6.201433,"is_transit":false,"station_name":"Sudirman Baru"},{"i_long":106.816351,"time":1,"transit":false,"i_lat":-6.20132,"distance":471,"line":1,"station_id":"KAT","station_name":"Karet","is_transit":false},{"is_transit":false,"station_name":"Tanah Abang","distance":2029,"i_long":106.811091,"transit":false,"line":1,"time":5,"i_lat":-6.185545,"station_id":"THB"},{"station_id":"DU","distance":3632,"line":1,"is_transit":false,"station_name":"Duri","i_lat":-6.155215,"transit":false,"i_long":106.800832,"time":8},{"distance":1230,"i_lat":-6.144674,"transit":false,"i_long":106.79867,"is_transit":false,"station_name":"Angke","line":1,"station_id":"AK","time":4},{"station_id":"KPB","time":9,"i_lat":-6.132549,"is_transit":true,"station_name":"Kampung Bandan","distance":4102,"transit":true,"i_long":106.826365,"line":4},{"i_long":106.836569,"station_name":"Rajawali","line":11,"station_id":"RJW","distance":1444,"i_lat":-6.14505,"time":3,"transit":false,"is_transit":false},{"is_transit":false,"transit":false,"distance":1901,"i_lat":-6.161728,"station_name":"Kemayoran","line":11,"station_id":"KMO","time":5,"i_long":106.839204},{"distance":1436,"is_transit":false,"transit":false,"line":11,"time":4,"station_name":"Pasar Senen","station_id":"PSE","i_lat":-6.174784,"i_long":106.84368},{"station_id":"GST","line":11,"time":8,"distance":1567,"is_transit":false,"i_lat":-6.185975,"transit":false,"i_long":106.850107,"station_name":"Gang Sentiong"},{"is_transit":false,"station_name":"Kramat","transit":false,"i_lat":-6.193792,"distance":973,"time":1,"i_long":106.855437,"station_id":"KMT","line":11},{"transit":false,"time":2,"distance":1829,"station_name":"Pondok Jati","i_lat":-6.209188,"station_id":"POK","is_transit":false,"i_long":106.861737,"line":11},{"time":9,"i_long":106.86807400000001,"station_id":"JNG","i_lat":-6.215091,"is_transit":true,"station_name":"Jatinegara","transit":true,"line":1,"distance":1236},{"i_lat":-6.2135,"i_long":106.899548,"transit":false,"distance":3395,"line":1,"station_id":"KLD","is_transit":false,"time":3,"station_name":"Klender"},{"transit":false,"i_lat":-6.215568,"station_id":"BUA","is_transit":false,"station_name":"Buaran","line":1,"time":2,"distance":3100,"i_long":106.922662},{"time":1,"i_lat":-6.217455,"station_id":"KLDB","is_transit":false,"station_name":"Klenderbaru","distance":1305,"transit":false,"line":1,"i_long":106.939679},{"i_long":106.951283,"time":8,"i_lat":-6.219053,"station_name":"Cakung","is_transit":false,"transit":false,"line":1,"station_id":"CUK","distance":1385},{"time":3,"is_transit":false,"transit":false,"i_long":106.977657,"i_lat":-6.224515,"line":1,"station_name":"Kranji","distance":3097,"station_id":"KRI"},{"time":4,"line":1,"distance":2520,"station_name":"Bekasi","i_lat":-6.236616,"station_id":"BKS","transit":false,"is_transit":false,"i_long":106.997013},{"station_id":"BKST","i_lat":-6.248029,"is_transit":false,"time":2,"i_long":107.016735,"transit":false,"line":1,"station_name":"Bekasi Timur","distance":2368},{"line":1,"i_long":107.055722,"station_id":"TB","is_transit":false,"time":7,"transit":false,"station_name":"Tambun","distance":4460,"i_lat":-6.258864},{"distance":3420,"line":1,"transit":false,"station_id":"CIT","time":3,"is_transit":false,"station_name":"Cibitung","i_lat":-6.261877,"i_long":107.083084},{"i_long":107.093313,"is_transit":false,"i_lat":-6.262938,"distance":2800,"station_name":"Metland Telaga Murni","line":1,"time":2,"station_id":"TLM","transit":false},{"station_id":"CKR","i_long":107.144613,"time":4,"line":1,"station_name":"Cikarang","i_lat":-6.2553149999999995,"distance":3689,"transit":false,"is_transit":false}]]}