{"data":[[{"station_name":"Jakarta Kota","line":2,"station_id":"JAKK","distance":0,"i_long":106.812439,"transit":false,"time":0,"is_transit":false,"i_lat":-6.137569},{"i_lat":-6.132549,"time":3,"line":4,"transit":true,"is_transit":true,"i_long":106.826365,"distance":1364,"station_id":"KPB","station_name":"Kampung Bandan"},{"distance":1444,"transit":false,"is_transit":false,"station_name":"Rajawali","i_long":106.836569,"line":11,"station_id":"RJW","time":3,"i_lat":-6.14505},{"distance":1901,"transit":false,"station_name":"Kemayoran","is_transit":false,"station_id":"KMO","i_lat":-6.161728,"i_long":106.839204,"line":11,"time":5},{"station_id":"PSE","is_transit":false,"station_name":"Pasar Senen","time":4,"line":11,"i_lat":-6.174784,"i_long":106.84368,"transit":false,"distance":1436},{"time":8,"i_lat":-6.185975,"i_long":106.850107,"line":11,"station_id":"GST","is_transit":false,"transit":false,"station_name":"Gang Sentiong","distance":1567},{"time":1,"station_id":"KMT","line":11,"transit":false,"is_transit":false,"distance":973,"i_long":106.855437,"station_name":"Kramat","i_lat":-6.193792},{"i_long":106.861737,"distance":1829,"is_transit":false,"time":2,"station_name":"Pondok Jati","station_id":"POK","transit":false,"line":11,"i_lat":-6.209188},{"i_lat":-6.215091,"distance":1236,"station_id":"JNG","time":9,"is_transit":true,"transit":true,"line":1,"i_long":106.86807400000001,"station_name":"Jatinegara"},{"i_long":106.899548,"station_name":"Klender","time":3,"is_transit":false,"distance":3395,"transit":false,"station_id":"KLD","i_lat":-6.2135,"line":1},{"i_lat":-6.215568,"distance":3100,"is_transit":false,"line":1,"time":2,"station_id":"BUA","transit":false,"station_name":"Buaran","i_long":106.922662},{"i_long":106.939679,"is_transit":false,"i_lat":-6.217455,"station_id":"KLDB","time":1,"station_name":"Klenderbaru","line":1,"transit":false,"distance":1305},{"transit":false,"i_long":106.951283,"time":8,"i_lat":-6.219053,"station_id":"CUK","station_name":"Cakung","distance":1385,"is_transit":false,"line":1},{"is_transit":false,"i_lat":-6.224515,"distance":3097,"transit":false,"line":1,"i_long":106.977657,"time":3,"station_name":"Kranji","station_id":"KRI"},{"time":4,"transit":false,"line":1,"i_lat":-6.236616,"is_transit":false,"i_long":106.997013,"station_id":"BKS","distance":2520,"station_name":"Bekasi"},{"i_long":107.016735,"distance":2368,"is_transit":false,"station_name":"Bekasi Timur","i_lat":-6.248029,"line":1,"time":2,"station_id":"BKST","transit":false}],[{"time":0,"is_transit":false,"i_lat":-6.137569,"station_id":"JAKK","transit":false,"i_long":106.812439,"distance":0,"station_name":"Jakarta Kota","line":2},{"i_long":106.820901,"line":2,"is_transit":false,"transit":false,"i_lat":-6.141205,"station_id":"JAY","station_name":"Jayakarta","time":4,"distance":1264},{"station_id":"MGB","i_long":106.82482,"time":2,"transit":false,"is_transit":false,"i_lat":-6.149769,"distance":1080,"station_name":"Manggabesar","line":2},{"station_id":"SW","line":2,"transit":false,"time":2,"station_name":"Sawah Besar","distance":906,"is_transit":false,"i_lat":-6.160725,"i_long":106.827103},{"distance":1149,"transit":false,"time":2,"i_lat":-6.166716,"line":2,"is_transit":false,"station_id":"JUA","station_name":"Juanda","i_long":106.828284},{"distance":2015,"station_name":"Gondangdia","line":2,"transit":false,"i_lat":-6.186295,"is_transit":false,"i_long":106.832183,"station_id":"GDD","time":4},{"station_name":"Cikini","i_long":106.840169,"station_id":"CKI","transit":false,"is_transit":false,"time":3,"distance":1750,"i_lat":-6.198556,"line":2},{"line":2,"time":4,"is_transit":true,"i_lat":-6.209883,"station_name":"Manggarai","distance":1590,"station_id":"MRI","transit":true,"i_long":106.84912},{"line":1,"i_lat":-6.212485,"transit":false,"i_long":106.858896,"time":2,"station_id":"MTR","station_name":"Matraman","distance":1275,"is_transit":false},{"is_transit":false,"i_lat":-6.215091,"distance":1377,"station_id":"JNG","i_long":106.86807400000001,"transit":false,"station_name":"Jatinegara","line":1,"time":8},{"time":3,"station_id":"KLD","i_long":106.899548,"transit":false,"line":1,"i_lat":-6.2135,"station_name":"Klender","distance":3395,"is_transit":false},{"time":2,"distance":3100,"station_id":"BUA","transit":false,"is_transit":false,"i_long":106.922662,"i_lat":-6.215568,"station_name":"Buaran","line":1},{"transit":false,"station_name":"Klenderbaru","distance":1305,"i_long":106.939679,"line":1,"time":1,"station_id":"KLDB","i_lat":-6.217455,"is_transit":false},{"line":1,"time":8,"station_name":"Cakung","i_lat":-6.219053,"station_id":"CUK","is_transit":false,"i_long":106.951283,"distance":1385,"transit":false},{"line":1,"station_id":"KRI","time":3,"i_long":106.977657,"is_transit":false,"transit":false,"i_lat":-6.224515,"station_name":"Kranji","distance":3097},{"distance":2520,"station_id":"BKS","station_name":"Bekasi","is_transit":false,"i_long":106.997013,"time":4,"transit":false,"line":1,"i_lat":-6.236616},{"transit":false,"i_lat":-6.248029,"is_transit":false,"distance":2368,"line":1,"i_long":107.016735,"time":2,"station_id":"BKST","station_name":"Bekasi Timur"}],[{"station_id":"JAKK","is_transit":false,"transit":false,"distance":0,"i_lat":-6.137569,"line":2,"station_name":"Jakarta Kota","i_long":106.812439,"time":0},{"i_lat":-6.132549,"station_name":"Kampung Bandan","transit":true,"station_id":"KPB","i_long":106.826365,"is_transit":true,"time":3,"line":4,"distance":1364},{"station_name":"Angke","transit":false,"station_id":"AK","distance":4102,"i_lat":-6.144674,"is_transit":false,"i_long":106.79867,"time":9,"line":1},{"is_transit":false,"i_long":106.800832,"transit":false,"time":4,"i_lat":-6.155215,"line":1,"distance":1230,"station_name":"Duri","station_id":"DU"},{"time":8,"i_long":106.811091,"line":1,"is_transit":false,"station_id":"THB","distance":3632,"transit":false,"station_name":"Tanah Abang","i_lat":-6.185545},{"line":1,"time":5,"station_id":"KAT","transit":false,"distance":2029,"station_name":"Karet","i_lat":-6.20132,"i_long":106.816351,"is_transit":false},{"station_id":"SUDB","station_name":"Sudirman Baru","i_lat":-6.201433,"i_long":106.819881,"transit":false,"time":1,"distance":471,"line":1,"is_transit":false},{"i_lat":-6.202263,"transit":false,"station_id":"SUD","is_transit":false,"distance":280,"time":1,"line":1,"station_name":"Sudirman","i_long":106.822649},{"is_transit":false,"distance":3186,"i_lat":-6.209883,"i_long":106.84912,"transit":false,"time":4,"station_name":"Manggarai","line":2,"station_id":"MRI"},{"station_id":"MTR","distance":1275,"transit":false,"is_transit":false,"station_name":"Matraman","i_long":106.858896,"line":1,"time":2,"i_lat":-6.212485},{"station_id":"JNG","is_transit":false,"i_lat":-6.215091,"distance":1377,"transit":false,"station_name":"Jatinegara","i_long":106.86807400000001,"line":1,"time":8},{"transit":false,"station_id":"KLD","station_name":"Klender","time":3,"line":1,"i_long":106.899548,"i_lat":-6.2135,"distance":3395,"is_transit":false},{"station_id":"BUA","time":2,"i_long":106.922662,"transit":false,"distance":3100,"i_lat":-6.215568,"station_name":"Buaran","is_transit":false,"line":1},{"station_name":"Klenderbaru","transit":false,"i_lat":-6.217455,"line":1,"is_transit":false,"station_id":"KLDB","distance":1305,"time":1,"i_long":106.939679},{"line":1,"time":8,"is_transit":false,"station_id":"CUK","distance":1385,"transit":false,"i_lat":-6.219053,"station_name":"Cakung","i_long":106.951283},{"line":1,"distance":3097,"time":3,"i_lat":-6.224515,"is_transit":false,"i_long":106.977657,"transit":false,"station_id":"KRI","station_name":"Kranji"},{"distance":2520,"line":1,"time":4,"i_lat":-6.236616,"station_id":"BKS","transit":false,"i_long":106.997013,"station_name":"Bekasi","is_transit":false},{"time":2,"distance":2368,"line":1,"station_id":"BKST","station_name":"Bekasi Timur","i_long":107.016735,"transit":false,"i_lat":-6.248029,"is_transit":false}],[{"i_lat":-6.137569,"time":0,"station_id":"JAKK","station_name":"Jakarta Kota","is_transit":false,"i_long":106.812439,"line":2,"transit":false,"distance":0},{"i_long":106.820901,"time":4,"transit":false,"distance":1264,"station_id":"JAY","station_name":"Jayakarta","i_lat":-6.141205,"line":2,"is_transit":false},{"line":2,"is_transit":false,"distance":1080,"time":2,"i_long":106.82482,"station_id":"MGB","i_lat":-6.149769,"transit":false,"station_name":"Manggabesar"},{"line":2,"i_lat":-6.160725,"station_name":"Sawah Besar","station_id":"SW","transit":false,"is_transit":false,"i_long":106.827103,"distance":906,"time":2},{"transit":false,"is_transit":false,"station_id":"JUA","time":2,"station_name":"Juanda","distance":1149,"i_lat":-6.166716,"i_long":106.828284,"line":2},{"time":4,"transit":false,"i_lat":-6.186295,"station_name":"Gondangdia","distance":2015,"line":2,"is_transit":false,"station_id":"GDD","i_long":106.832183},{"distance":1750,"transit":false,"is_transit":false,"station_name":"Cikini","i_lat":-6.198556,"line":2,"time":3,"station_id":"CKI","i_long":106.840169},{"time":4,"i_long":106.84912,"station_name":"Manggarai","station_id":"MRI","i_lat":-6.209883,"is_transit":true,"line":2,"transit":true,"distance":1590},{"time":4,"transit":false,"i_lat":-6.202263,"distance":3186,"line":1,"is_transit":false,"station_name":"Sudirman","i_long":106.822649,"station_id":"SUD"},{"time":1,"is_transit":false,"station_id":"SUDB","i_long":106.819881,"line":1,"distance":280,"station_name":"Sudirman Baru","transit":false,"i_lat":-6.201433},{"station_name":"Karet","i_lat":-6.20132,"line":1,"is_transit":false,"distance":471,"i_long":106.816351,"transit":false,"station_id":"KAT","time":1},{"transit":false,"distance":2029,"i_lat":-6.185545,"station_id":"THB","i_long":106.811091,"is_transit":false,"station_name":"Tanah Abang","line":1,"time":5},{"station_name":"Duri","is_transit":false,"transit":false,"station_id":"DU","distance":3632,"i_long":106.800832,"line":1,"i_lat":-6.155215,"time":8},{"i_long":106.79867,"station_name":"Angke","i_lat":-6.144674,"time":4,"is_transit":false,"distance":1230,"line":1,"station_id":"AK","transit":false},{"time":9,"station_id":"KPB","i_long":106.826365,"distance":4102,"i_lat":-6.132549,"transit":true,"is_transit":true,"station_name":"Kampung Bandan","line":4},{"station_name":"Rajawali","line":11,"transit":false,"i_lat":-6.14505,"i_long":106.836569,"station_id":"RJW","time":3,"is_transit":false,"distance":1444},{"is_transit":false,"station_id":"KMO","time":5,"distance":1901,"transit":false,"i_lat":-6.161728,"line":11,"i_long":106.839204,"station_name":"Kemayoran"},{"time":4,"line":11,"i_long":106.84368,"is_transit":false,"i_lat":-6.174784,"station_name":"Pasar Senen","distance":1436,"transit":false,"station_id":"PSE"},{"i_lat":-6.185975,"station_id":"GST","i_long":106.850107,"line":11,"station_name":"Gang Sentiong","is_transit":false,"transit":false,"time":8,"distance":1567},{"distance":973,"station_id":"KMT","time":1,"transit":false,"i_lat":-6.193792,"i_long":106.855437,"station_name":"Kramat","is_transit":false,"line":11},{"station_name":"Pondok Jati","line":11,"i_lat":-6.209188,"i_long":106.861737,"distance":1829,"time":2,"transit":false,"is_transit":false,"station_id":"POK"},{"station_id":"JNG","station_name":"Jatinegara","i_lat":-6.215091,"is_transit":true,"line":1,"i_long":106.86807400000001,"distance":1236,"time":9,"transit":true},{"distance":3395,"station_name":"Klender","is_transit":false,"time":3,"i_lat":-6.2135,"transit":false,"station_id":"KLD","i_long":106.899548,"line":1},{"transit":false,"distance":3100,"i_lat":-6.215568,"line":1,"i_long":106.922662,"station_id":"BUA","is_transit":false,"station_name":"Buaran","time":2},{"transit":false,"station_id":"KLDB","station_name":"Klenderbaru","line":1,"time":1,"is_transit":false,"i_lat":-6.217455,"distance":1305,"i_long":106.939679},{"station_id":"CUK","i_lat":-6.219053,"time":8,"station_name":"Cakung","distance":1385,"line":1,"i_long":106.951283,"is_transit":false,"transit":false},{"i_long":106.977657,"i_lat":-6.224515,"time":3,"distance":3097,"station_name":"Kranji","station_id":"KRI","line":1,"transit":false,"is_transit":false},{"distance":2520,"transit":false,"time":4,"i_lat":-6.236616,"station_name":"Bekasi","station_id":"BKS","line":1,"is_transit":false,"i_long":106.997013},{"is_transit":false,"transit":false,"i_long":107.016735,"i_lat":-6.248029,"station_name":"Bekasi Timur","station_id":"BKST","distance":2368,"line":1,"time":2}]]}