{"data":[[{"is_transit":false,"i_lat":-6.137569,"i_long":106.812439,"line":2,"station_name":"Jakarta Kota","transit":false,"time":0,"distance":0,"station_id":"JAKK"},{"station_name":"Kampung Bandan","is_transit":true,"i_lat":-6.132549,"line":4,"station_id":"KPB","transit":true,"i_long":106.826365,"time":3,"distance":1364},{"station_id":"RJW","i_lat":-6.14505,"is_transit":false,"transit":false,"line":11,"time":3,"i_long":106.836569,"distance":1444,"station_name":"Rajawali"},{"i_long":106.839204,"line":11,"station_name":"Kemayoran","transit":false,"i_lat":-6.161728,"distance":1901,"is_transit":false,"time":5,"station_id":"KMO"},{"station_id":"PSE","is_transit":false,"time":4,"transit":false,"i_long":106.84368,"i_lat":-6.174784,"line":11,"distance":1436,"station_name":"Pasar Senen"}],[{"is_transit":false,"transit":false,"distance":0,"line":2,"time":0,"station_name":"Jakarta Kota","i_long":106.812439,"i_lat":-6.137569,"station_id":"JAKK"},{"transit":false,"is_transit":false,"i_lat":-6.141205,"station_id":"JAY","line":2,"distance":1264,"time":4,"i_long":106.820901,"station_name":"Jayakarta"},{"is_transit":false,"station_id":"MGB","transit":false,"i_lat":-6.149769,"time":2,"line":2,"station_name":"Manggabesar","distance":1080,"i_long":106.82482},{"distance":906,"station_id":"SW","time":2,"is_transit":false,"i_lat":-6.160725,"line":2,"station_name":"Sawah Besar","transit":false,"i_long":106.827103},{"distance":1149,"station_name":"Juanda","line":2,"station_id":"JUA","i_long":106.828284,"is_transit":false,"i_lat":-6.166716,"transit":false,"time":2},{"transit":false,"station_name":"Gondangdia","line":2,"is_transit":false,"i_lat":-6.186295,"time":4,"station_id":"GDD","i_long":106.832183,"distance":2015},{"transit":false,"distance":1750,"station_id":"CKI","station_name":"Cikini","is_transit":false,"i_lat":-6.198556,"i_long":106.840169,"time":3,"line":2},{"transit":true,"distance":1590,"time":4,"station_name":"Manggarai","i_lat":-6.209883,"station_id":"MRI","is_transit":true,"i_long":106.84912,"line":2},{"distance":1275,"time":2,"transit":false,"is_transit":false,"i_lat":-6.212485,"i_long":106.858896,"station_id":"MTR","station_name":"Matraman","line":1},{"distance":1377,"i_lat":-6.215091,"is_transit":true,"station_id":"JNG","station_name":"Jatinegara","i_long":106.86807400000001,"line":1,"time":8,"transit":true},{"i_long":106.861737,"is_transit":false,"station_name":"Pondok Jati","distance":1236,"transit":false,"station_id":"POK","time":2,"i_lat":-6.209188,"line":11},{"i_long":106.855437,"i_lat":-6.193792,"distance":1829,"station_id":"KMT","is_transit":false,"line":11,"time":2,"station_name":"Kramat","transit":false},{"line":11,"i_lat":-6.185975,"i_long":106.850107,"time":1,"station_id":"GST","distance":973,"transit":false,"is_transit":false,"station_name":"Gang Sentiong"},{"line":11,"time":8,"distance":1567,"is_transit":false,"i_lat":-6.174784,"station_id":"PSE","station_name":"Pasar Senen","i_long":106.84368,"transit":false}],[{"distance":0,"transit":false,"line":2,"station_id":"JAKK","time":0,"is_transit":false,"i_long":106.812439,"station_name":"Jakarta Kota","i_lat":-6.137569},{"i_lat":-6.132549,"i_long":106.826365,"station_id":"KPB","time":3,"distance":1364,"is_transit":true,"transit":true,"line":4,"station_name":"Kampung Bandan"},{"station_id":"AK","is_transit":false,"i_long":106.79867,"station_name":"Angke","line":1,"distance":4102,"time":9,"transit":false,"i_lat":-6.144674},{"i_lat":-6.155215,"distance":1230,"station_id":"DU","time":4,"is_transit":false,"station_name":"Duri","transit":false,"i_long":106.800832,"line":1},{"time":8,"transit":false,"i_long":106.811091,"line":1,"is_transit":false,"station_id":"THB","distance":3632,"i_lat":-6.185545,"station_name":"Tanah Abang"},{"station_name":"Karet","distance":2029,"i_long":106.816351,"line":1,"is_transit":false,"transit":false,"time":5,"i_lat":-6.20132,"station_id":"KAT"},{"i_lat":-6.201433,"is_transit":false,"line":1,"distance":471,"station_id":"SUDB","i_long":106.819881,"transit":false,"time":1,"station_name":"Sudirman Baru"},{"time":1,"station_id":"SUD","station_name":"Sudirman","distance":280,"is_transit":false,"transit":false,"i_long":106.822649,"line":1,"i_lat":-6.202263},{"distance":3186,"line":2,"i_lat":-6.209883,"is_transit":false,"transit":false,"station_name":"Manggarai","station_id":"MRI","i_long":106.84912,"time":4},{"station_id":"MTR","i_lat":-6.212485,"station_name":"Matraman","i_long":106.858896,"line":1,"time":2,"transit":false,"is_transit":false,"distance":1275},{"is_transit":true,"line":1,"i_lat":-6.215091,"distance":1377,"time":8,"transit":true,"station_name":"Jatinegara","i_long":106.86807400000001,"station_id":"JNG"},{"station_name":"Pondok Jati","i_long":106.861737,"time":2,"station_id":"POK","line":11,"is_transit":false,"transit":false,"i_lat":-6.209188,"distance":1236},{"i_long":106.855437,"transit":false,"i_lat":-6.193792,"time":2,"distance":1829,"is_transit":false,"station_name":"Kramat","line":11,"station_id":"KMT"},{"distance":973,"station_name":"Gang Sentiong","i_long":106.850107,"station_id":"GST","time":1,"transit":false,"i_lat":-6.185975,"line":11,"is_transit":false},{"time":8,"is_transit":false,"station_id":"PSE","transit":false,"i_long":106.84368,"station_name":"Pasar Senen","distance":1567,"i_lat":-6.174784,"line":11}],[{"line":2,"distance":0,"station_name":"Jakarta Kota","transit":false,"i_long":106.812439,"i_lat":-6.137569,"station_id":"JAKK","time":0,"is_transit":false},{"i_lat":-6.141205,"i_long":106.820901,"line":2,"time":4,"station_id":"JAY","distance":1264,"transit":false,"station_name":"Jayakarta","is_transit":false},{"is_transit":false,"station_id":"MGB","transit":false,"distance":1080,"i_long":106.82482,"time":2,"station_name":"Manggabesar","i_lat":-6.149769,"line":2},{"line":2,"time":2,"distance":906,"is_transit":false,"station_name":"Sawah Besar","transit":false,"i_long":106.827103,"station_id":"SW","i_lat":-6.160725},{"station_id":"JUA","i_long":106.828284,"time":2,"i_lat":-6.166716,"distance":1149,"line":2,"transit":false,"station_name":"Juanda","is_transit":false},{"i_long":106.832183,"line":2,"time":4,"is_transit":false,"station_name":"Gondangdia","transit":false,"i_lat":-6.186295,"station_id":"GDD","distance":2015},{"station_name":"Cikini","i_lat":-6.198556,"transit":false,"station_id":"CKI","is_transit":false,"i_long":106.840169,"time":3,"line":2,"distance":1750},{"transit":true,"is_transit":true,"i_lat":-6.209883,"distance":1590,"station_id":"MRI","line":2,"time":4,"station_name":"Manggarai","i_long":106.84912},{"station_name":"Sudirman","transit":false,"distance":3186,"station_id":"SUD","i_lat":-6.202263,"i_long":106.822649,"line":1,"is_transit":false,"time":4},{"distance":280,"time":1,"is_transit":false,"transit":false,"i_lat":-6.201433,"station_id":"SUDB","station_name":"Sudirman Baru","i_long":106.819881,"line":1},{"time":1,"distance":471,"is_transit":false,"station_name":"Karet","i_long":106.816351,"line":1,"station_id":"KAT","i_lat":-6.20132,"transit":false},{"station_name":"Tanah Abang","transit":false,"i_lat":-6.185545,"line":1,"time":5,"distance":2029,"i_long":106.811091,"is_transit":false,"station_id":"THB"},{"is_transit":false,"line":1,"time":8,"i_lat":-6.155215,"distance":3632,"transit":false,"station_id":"DU","station_name":"Duri","i_long":106.800832},{"station_name":"Angke","i_long":106.79867,"station_id":"AK","transit":false,"is_transit":false,"time":4,"i_lat":-6.144674,"distance":1230,"line":1},{"transit":true,"i_long":106.826365,"line":4,"is_transit":true,"station_name":"Kampung Bandan","i_lat":-6.132549,"time":9,"station_id":"KPB","distance":4102},{"is_transit":false,"distance":1444,"station_name":"Rajawali","i_long":106.836569,"line":11,"station_id":"RJW","time":3,"i_lat":-6.14505,"transit":false},{"transit":false,"i_long":106.839204,"is_transit":false,"time":5,"station_name":"Kemayoran","i_lat":-6.161728,"line":11,"station_id":"KMO","distance":1901},{"i_long":106.84368,"distance":1436,"time":4,"station_name":"Pasar Senen","transit":false,"i_lat":-6.174784,"is_transit":false,"line":11,"station_id":"PSE"}]]}