{"data":[[{"station_id":"JAKK","i_lat":-6.137569,"transit":false,"line":2,"time":0,"station_name":"Jakarta Kota","i_long":106.812439,"distance":0,"is_transit":false},{"station_name":"Kampung Bandan","distance":1364,"i_lat":-6.132549,"i_long":106.826365,"line":4,"transit":true,"station_id":"KPB","time":3,"is_transit":true},{"station_id":"AK","station_name":"Angke","i_long":106.79867,"time":9,"distance":4102,"i_lat":-6.144674,"transit":false,"is_transit":false,"line":1},{"i_long":106.800832,"line":1,"time":4,"station_name":"Duri","transit":false,"station_id":"DU","i_lat":-6.155215,"distance":1230,"is_transit":false},{"station_id":"THB","i_lat":-6.185545,"time":8,"transit":true,"station_name":"Tanah Abang","distance":3632,"line":1,"is_transit":true,"i_long":106.811091},{"i_lat":-6.207404,"line":6,"time":6,"i_long":106.79689,"is_transit":false,"station_name":"Palmerah","station_id":"PLM","transit":false,"distance":3191},{"is_transit":false,"i_long":106.780334,"line":6,"transit":false,"station_id":"KBY","distance":3737,"i_lat":-6.237242,"station_name":"Kebayoran","time":7},{"i_long":106.74273,"time":8,"is_transit":false,"line":6,"station_name":"Pondokranji","i_lat":-6.276362,"station_id":"PDJ","transit":false,"distance":6218},{"i_long":106.728916,"line":6,"time":3,"station_id":"JMU","transit":false,"distance":2179,"i_lat":-6.288927,"station_name":"Jurangmangu","is_transit":false},{"transit":false,"i_long":106.712277,"is_transit":false,"time":4,"station_name":"Sudimara","distance":1994,"line":6,"i_lat":-6.296963,"station_id":"SDM"},{"station_name":"Rawa Buntu","distance":4566,"is_transit":false,"station_id":"RU","time":6,"i_lat":-6.314823,"transit":false,"i_long":106.675475,"line":6},{"transit":false,"station_name":"Serpong","line":6,"i_lat":-6.319871,"time":4,"station_id":"SRP","distance":2413,"is_transit":false,"i_long":106.66566},{"station_name":"Cisauk","is_transit":false,"transit":false,"line":3,"distance":1784,"time":4,"i_lat":-6.32484,"station_id":"CSK","i_long":106.640411},{"time":4,"station_id":"CC","station_name":"Cicayur","i_lat":-6.329547,"i_long":106.617853,"is_transit":false,"distance":2519,"line":3,"transit":false},{"station_id":"PRP","time":8,"is_transit":false,"i_lat":-6.3441410000000005,"line":6,"station_name":"Parung Panjang","distance":5968,"i_long":106.568863,"transit":false},{"time":9,"station_name":"Cilejit","transit":false,"distance":7025,"station_id":"CJT","line":3,"i_long":106.508482,"is_transit":false,"i_lat":-6.354349},{"is_transit":false,"time":6,"distance":2675,"line":0,"transit":false,"station_name":"Daru","i_long":106.491338,"station_id":"DAR","i_lat":-6.338021}],[{"transit":false,"distance":0,"line":2,"station_name":"Jakarta Kota","i_long":106.812439,"station_id":"JAKK","is_transit":false,"i_lat":-6.137569,"time":0},{"station_name":"Jayakarta","time":4,"distance":1264,"i_lat":-6.141205,"line":2,"transit":false,"station_id":"JAY","i_long":106.820901,"is_transit":false},{"station_id":"MGB","is_transit":false,"time":2,"transit":false,"i_lat":-6.149769,"station_name":"Manggabesar","distance":1080,"line":2,"i_long":106.82482},{"i_lat":-6.160725,"station_name":"Sawah Besar","line":2,"distance":906,"station_id":"SW","time":2,"transit":false,"is_transit":false,"i_long":106.827103},{"line":2,"station_name":"Juanda","is_transit":false,"station_id":"JUA","i_long":106.828284,"distance":1149,"time":2,"transit":false,"i_lat":-6.166716},{"station_name":"Gondangdia","transit":false,"time":4,"station_id":"GDD","distance":2015,"i_lat":-6.186295,"i_long":106.832183,"line":2,"is_transit":false},{"transit":false,"station_id":"CKI","i_lat":-6.198556,"is_transit":false,"distance":1750,"station_name":"Cikini","i_long":106.840169,"line":2,"time":3},{"time":4,"i_lat":-6.209883,"station_id":"MRI","station_name":"Manggarai","transit":true,"line":2,"i_long":106.84912,"distance":1590,"is_transit":true},{"station_id":"SUD","is_transit":false,"transit":false,"distance":3186,"time":4,"line":1,"station_name":"Sudirman","i_lat":-6.202263,"i_long":106.822649},{"i_long":106.819881,"is_transit":false,"station_name":"Sudirman Baru","i_lat":-6.201433,"transit":false,"distance":280,"line":1,"station_id":"SUDB","time":1},{"is_transit":false,"transit":false,"line":1,"i_long":106.816351,"i_lat":-6.20132,"distance":471,"station_id":"KAT","station_name":"Karet","time":1},{"is_transit":true,"transit":true,"station_name":"Tanah Abang","i_long":106.811091,"line":1,"distance":2029,"i_lat":-6.185545,"time":5,"station_id":"THB"},{"station_id":"PLM","distance":3191,"time":6,"station_name":"Palmerah","i_lat":-6.207404,"transit":false,"i_long":106.79689,"line":6,"is_transit":false},{"station_id":"KBY","i_long":106.780334,"line":6,"transit":false,"i_lat":-6.237242,"distance":3737,"is_transit":false,"station_name":"Kebayoran","time":7},{"line":6,"transit":false,"i_long":106.74273,"station_id":"PDJ","i_lat":-6.276362,"time":8,"station_name":"Pondokranji","is_transit":false,"distance":6218},{"distance":2179,"i_long":106.728916,"line":6,"time":3,"is_transit":false,"transit":false,"i_lat":-6.288927,"station_id":"JMU","station_name":"Jurangmangu"},{"is_transit":false,"transit":false,"distance":1994,"line":6,"station_id":"SDM","time":4,"station_name":"Sudimara","i_long":106.712277,"i_lat":-6.296963},{"time":6,"transit":false,"station_name":"Rawa Buntu","distance":4566,"station_id":"RU","is_transit":false,"line":6,"i_long":106.675475,"i_lat":-6.314823},{"time":4,"i_lat":-6.319871,"line":6,"transit":false,"is_transit":false,"station_id":"SRP","station_name":"Serpong","i_long":106.66566,"distance":2413},{"transit":false,"time":4,"distance":1784,"i_long":106.640411,"station_id":"CSK","station_name":"Cisauk","line":3,"i_lat":-6.32484,"is_transit":false},{"station_id":"CC","transit":false,"line":3,"station_name":"Cicayur","i_lat":-6.329547,"distance":2519,"i_long":106.617853,"is_transit":false,"time":4},{"i_lat":-6.3441410000000005,"i_long":106.568863,"station_id":"PRP","is_transit":false,"transit":false,"station_name":"Parung Panjang","distance":5968,"line":6,"time":8},{"i_lat":-6.354349,"distance":7025,"station_name":"Cilejit","i_long":106.508482,"station_id":"CJT","is_transit":false,"line":3,"time":9,"transit":false},{"distance":2675,"i_lat":-6.338021,"is_transit":false,"transit":false,"station_id":"DAR","line":0,"time":6,"station_name":"Daru","i_long":106.491338}],[{"time":0,"is_transit":false,"station_id":"JAKK","transit":false,"i_lat":-6.137569,"i_long":106.812439,"station_name":"Jakarta Kota","distance":0,"line":2},{"time":3,"distance":1364,"transit":true,"is_transit":true,"i_long":106.826365,"i_lat":-6.132549,"station_name":"Kampung Bandan","line":4,"station_id":"KPB"},{"station_name":"Rajawali","is_transit":false,"distance":1444,"i_lat":-6.14505,"station_id":"RJW","transit":false,"i_long":106.836569,"time":3,"line":11},{"i_long":106.839204,"transit":false,"i_lat":-6.161728,"line":11,"station_id":"KMO","is_transit":false,"distance":1901,"time":5,"station_name":"Kemayoran"},{"line":11,"distance":1436,"i_long":106.84368,"time":4,"i_lat":-6.174784,"is_transit":false,"station_id":"PSE","transit":false,"station_name":"Pasar Senen"},{"station_id":"GST","i_long":106.850107,"time":8,"line":11,"transit":false,"distance":1567,"is_transit":false,"i_lat":-6.185975,"station_name":"Gang Sentiong"},{"time":1,"line":11,"distance":973,"transit":false,"i_lat":-6.193792,"station_name":"Kramat","i_long":106.855437,"is_transit":false,"station_id":"KMT"},{"time":2,"station_name":"Pondok Jati","is_transit":false,"line":11,"transit":false,"i_lat":-6.209188,"station_id":"POK","distance":1829,"i_long":106.861737},{"i_long":106.86807400000001,"station_id":"JNG","i_lat":-6.215091,"time":9,"transit":true,"is_transit":true,"station_name":"Jatinegara","distance":1236,"line":1},{"i_lat":-6.212485,"line":1,"station_id":"MTR","station_name":"Matraman","transit":false,"distance":1377,"is_transit":false,"time":2,"i_long":106.858896},{"distance":1275,"time":2,"station_name":"Manggarai","i_lat":-6.209883,"is_transit":false,"i_long":106.84912,"line":2,"station_id":"MRI","transit":false},{"i_long":106.822649,"station_id":"SUD","line":1,"station_name":"Sudirman","i_lat":-6.202263,"transit":false,"is_transit":false,"distance":3186,"time":4},{"station_name":"Sudirman Baru","i_long":106.819881,"line":1,"is_transit":false,"transit":false,"distance":280,"station_id":"SUDB","i_lat":-6.201433,"time":1},{"i_lat":-6.20132,"station_id":"KAT","i_long":106.816351,"transit":false,"station_name":"Karet","distance":471,"is_transit":false,"line":1,"time":1},{"transit":true,"i_lat":-6.185545,"station_id":"THB","station_name":"Tanah Abang","i_long":106.811091,"time":5,"distance":2029,"line":1,"is_transit":true},{"transit":false,"i_long":106.79689,"line":6,"is_transit":false,"time":6,"station_name":"Palmerah","i_lat":-6.207404,"station_id":"PLM","distance":3191},{"station_name":"Kebayoran","transit":false,"time":7,"station_id":"KBY","distance":3737,"i_long":106.780334,"is_transit":false,"i_lat":-6.237242,"line":6},{"station_name":"Pondokranji","station_id":"PDJ","is_transit":false,"transit":false,"i_lat":-6.276362,"line":6,"time":8,"distance":6218,"i_long":106.74273},{"is_transit":false,"station_id":"JMU","time":3,"i_lat":-6.288927,"line":6,"distance":2179,"station_name":"Jurangmangu","transit":false,"i_long":106.728916},{"i_long":106.712277,"i_lat":-6.296963,"line":6,"distance":1994,"is_transit":false,"transit":false,"station_name":"Sudimara","time":4,"station_id":"SDM"},{"station_name":"Rawa Buntu","distance":4566,"transit":false,"time":6,"is_transit":false,"line":6,"i_lat":-6.314823,"i_long":106.675475,"station_id":"RU"},{"time":4,"i_long":106.66566,"transit":false,"i_lat":-6.319871,"station_name":"Serpong","distance":2413,"is_transit":false,"station_id":"SRP","line":6},{"line":3,"station_name":"Cisauk","distance":1784,"is_transit":false,"i_lat":-6.32484,"time":4,"i_long":106.640411,"station_id":"CSK","transit":false},{"i_lat":-6.329547,"line":3,"time":4,"station_id":"CC","i_long":106.617853,"is_transit":false,"transit":false,"station_name":"Cicayur","distance":2519},{"distance":5968,"is_transit":false,"station_name":"Parung Panjang","time":8,"transit":false,"i_long":106.568863,"station_id":"PRP","i_lat":-6.3441410000000005,"line":6},{"i_long":106.508482,"station_name":"Cilejit","station_id":"CJT","line":3,"is_transit":false,"time":9,"transit":false,"distance":7025,"i_lat":-6.354349},{"station_id":"DAR","time":6,"line":0,"station_name":"Daru","is_transit":false,"i_long":106.491338,"transit":false,"distance":2675,"i_lat":-6.338021}],[{"station_name":"Jakarta Kota","is_transit":false,"line":2,"distance":0,"i_lat":-6.137569,"i_long":106.812439,"station_id":"JAKK","time":0,"transit":false},{"i_lat":-6.141205,"i_long":106.820901,"station_id":"JAY","is_transit":false,"line":2,"transit":false,"station_name":"Jayakarta","distance":1264,"time":4},{"is_transit":false,"station_id":"MGB","transit":false,"distance":1080,"station_name":"Manggabesar","time":2,"i_lat":-6.149769,"i_long":106.82482,"line":2},{"is_transit":false,"time":2,"station_id":"SW","line":2,"station_name":"Sawah Besar","transit":false,"distance":906,"i_lat":-6.160725,"i_long":106.827103},{"i_long":106.828284,"line":2,"station_name":"Juanda","is_transit":false,"transit":false,"i_lat":-6.166716,"station_id":"JUA","time":2,"distance":1149},{"station_name":"Gondangdia","i_long":106.832183,"line":2,"station_id":"GDD","time":4,"distance":2015,"i_lat":-6.186295,"transit":false,"is_transit":false},{"i_long":106.840169,"line":2,"transit":false,"i_lat":-6.198556,"distance":1750,"station_name":"Cikini","time":3,"is_transit":false,"station_id":"CKI"},{"time":4,"i_lat":-6.209883,"station_name":"Manggarai","is_transit":true,"transit":true,"i_long":106.84912,"line":2,"station_id":"MRI","distance":1590},{"station_id":"MTR","i_lat":-6.212485,"time":2,"i_long":106.858896,"transit":false,"distance":1275,"station_name":"Matraman","line":1,"is_transit":false},{"station_id":"JNG","transit":true,"station_name":"Jatinegara","line":1,"distance":1377,"time":8,"i_long":106.86807400000001,"i_lat":-6.215091,"is_transit":true},{"time":2,"is_transit":false,"transit":false,"distance":1236,"i_long":106.861737,"station_id":"POK","line":11,"station_name":"Pondok Jati","i_lat":-6.209188},{"station_name":"Kramat","line":11,"i_long":106.855437,"i_lat":-6.193792,"distance":1829,"time":2,"is_transit":false,"station_id":"KMT","transit":false},{"is_transit":false,"transit":false,"station_id":"GST","time":1,"line":11,"distance":973,"i_lat":-6.185975,"station_name":"Gang Sentiong","i_long":106.850107},{"transit":false,"is_transit":false,"station_name":"Pasar Senen","i_long":106.84368,"i_lat":-6.174784,"line":11,"time":8,"station_id":"PSE","distance":1567},{"distance":1436,"transit":false,"is_transit":false,"time":4,"i_long":106.839204,"station_id":"KMO","station_name":"Kemayoran","i_lat":-6.161728,"line":11},{"station_id":"RJW","time":5,"station_name":"Rajawali","transit":false,"i_long":106.836569,"line":11,"i_lat":-6.14505,"is_transit":false,"distance":1901},{"i_lat":-6.132549,"time":3,"transit":true,"station_name":"Kampung Bandan","i_long":106.826365,"station_id":"KPB","line":4,"is_transit":true,"distance":1444},{"is_transit":false,"time":9,"i_long":106.79867,"station_id":"AK","station_name":"Angke","transit":false,"line":1,"distance":4102,"i_lat":-6.144674},{"transit":false,"distance":1230,"i_long":106.800832,"i_lat":-6.155215,"line":1,"station_name":"Duri","station_id":"DU","time":4,"is_transit":false},{"i_lat":-6.185545,"station_name":"Tanah Abang","distance":3632,"is_transit":true,"station_id":"THB","time":8,"transit":true,"i_long":106.811091,"line":1},{"i_lat":-6.207404,"station_id":"PLM","transit":false,"time":6,"station_name":"Palmerah","line":6,"is_transit":false,"distance":3191,"i_long":106.79689},{"is_transit":false,"station_id":"KBY","distance":3737,"station_name":"Kebayoran","i_long":106.780334,"time":7,"i_lat":-6.237242,"transit":false,"line":6},{"i_long":106.74273,"station_name":"Pondokranji","station_id":"PDJ","distance":6218,"transit":false,"line":6,"time":8,"i_lat":-6.276362,"is_transit":false},{"station_name":"Jurangmangu","is_transit":false,"line":6,"i_long":106.728916,"i_lat":-6.288927,"time":3,"transit":false,"distance":2179,"station_id":"JMU"},{"time":4,"is_transit":false,"transit":false,"i_long":106.712277,"station_id":"SDM","line":6,"distance":1994,"station_name":"Sudimara","i_lat":-6.296963},{"station_name":"Rawa Buntu","transit":false,"i_lat":-6.314823,"is_transit":false,"line":6,"station_id":"RU","time":6,"i_long":106.675475,"distance":4566},{"station_id":"SRP","transit":false,"i_lat":-6.319871,"line":6,"time":4,"station_name":"Serpong","distance":2413,"i_long":106.66566,"is_transit":false},{"time":4,"transit":false,"is_transit":false,"distance":1784,"line":3,"station_id":"CSK","station_name":"Cisauk","i_long":106.640411,"i_lat":-6.32484},{"distance":2519,"station_id":"CC","transit":false,"is_transit":false,"i_lat":-6.329547,"i_long":106.617853,"line":3,"time":4,"station_name":"Cicayur"},{"transit":false,"distance":5968,"i_long":106.568863,"station_name":"Parung Panjang","time":8,"line":6,"i_lat":-6.3441410000000005,"station_id":"PRP","is_transit":false},{"station_name":"Cilejit","line":3,"transit":false,"distance":7025,"i_lat":-6.354349,"i_long":106.508482,"time":9,"station_id":"CJT","is_transit":false},{"time":6,"i_lat":-6.338021,"i_long":106.491338,"line":0,"station_id":"DAR","transit":false,"distance":2675,"is_transit":false,"station_name":"Daru"}]]}