{"data":[[{"transit":false,"time":0,"is_transit":false,"line":2,"station_name":"Jakarta Kota","distance":0,"i_lat":-6.137569,"i_long":106.812439,"station_id":"JAKK"},{"station_id":"KPB","station_name":"Kampung Bandan","i_long":106.826365,"distance":1364,"transit":true,"i_lat":-6.132549,"time":3,"line":4,"is_transit":true},{"station_id":"RJW","time":3,"distance":1444,"is_transit":false,"station_name":"Rajawali","transit":false,"i_lat":-6.14505,"i_long":106.836569,"line":11},{"line":11,"is_transit":false,"i_lat":-6.161728,"i_long":106.839204,"distance":1901,"station_id":"KMO","time":5,"station_name":"Kemayoran","transit":false},{"i_long":106.84368,"line":11,"time":4,"distance":1436,"transit":false,"station_id":"PSE","station_name":"Pasar Senen","is_transit":false,"i_lat":-6.174784}],[{"time":0,"i_lat":-6.137569,"line":2,"distance":0,"is_transit":false,"transit":false,"station_id":"JAKK","station_name":"Jakarta Kota","i_long":106.812439},{"station_id":"JAY","station_name":"Jayakarta","i_long":106.820901,"distance":1264,"i_lat":-6.141205,"is_transit":false,"line":2,"time":4,"transit":false},{"time":2,"is_transit":false,"station_id":"MGB","transit":false,"i_lat":-6.149769,"distance":1080,"station_name":"Manggabesar","line":2,"i_long":106.82482},{"station_name":"Sawah Besar","transit":false,"i_lat":-6.160725,"line":2,"is_transit":false,"station_id":"SW","distance":906,"i_long":106.827103,"time":2},{"is_transit":false,"station_name":"Juanda","i_lat":-6.166716,"station_id":"JUA","transit":false,"distance":1149,"time":2,"i_long":106.828284,"line":2},{"i_lat":-6.186295,"line":2,"distance":2015,"station_name":"Gondangdia","i_long":106.832183,"transit":false,"time":4,"is_transit":false,"station_id":"GDD"},{"is_transit":false,"i_lat":-6.198556,"line":2,"i_long":106.840169,"station_name":"Cikini","distance":1750,"transit":false,"station_id":"CKI","time":3},{"time":4,"station_id":"MRI","station_name":"Manggarai","line":2,"i_lat":-6.209883,"i_long":106.84912,"distance":1590,"transit":true,"is_transit":true},{"line":1,"station_name":"Matraman","i_long":106.858896,"time":2,"transit":false,"station_id":"MTR","distance":1275,"i_lat":-6.212485,"is_transit":false},{"is_transit":true,"time":8,"i_lat":-6.215091,"i_long":106.86807400000001,"transit":true,"line":1,"distance":1377,"station_name":"Jatinegara","station_id":"JNG"},{"line":11,"is_transit":false,"time":2,"station_name":"Pondok Jati","station_id":"POK","distance":1236,"transit":false,"i_lat":-6.209188,"i_long":106.861737},{"station_id":"KMT","i_lat":-6.193792,"station_name":"Kramat","transit":false,"is_transit":false,"i_long":106.855437,"line":11,"time":2,"distance":1829},{"i_long":106.850107,"is_transit":false,"station_id":"GST","time":1,"transit":false,"line":11,"i_lat":-6.185975,"station_name":"Gang Sentiong","distance":973},{"i_lat":-6.174784,"is_transit":false,"transit":false,"i_long":106.84368,"time":8,"distance":1567,"station_id":"PSE","line":11,"station_name":"Pasar Senen"}],[{"transit":false,"station_name":"Jakarta Kota","i_lat":-6.137569,"time":0,"line":2,"is_transit":false,"i_long":106.812439,"distance":0,"station_id":"JAKK"},{"i_lat":-6.132549,"is_transit":true,"station_name":"Kampung Bandan","i_long":106.826365,"station_id":"KPB","line":4,"distance":1364,"time":3,"transit":true},{"station_id":"AK","line":1,"station_name":"Angke","i_long":106.79867,"time":9,"distance":4102,"transit":false,"i_lat":-6.144674,"is_transit":false},{"time":4,"station_name":"Duri","station_id":"DU","transit":false,"i_long":106.800832,"distance":1230,"is_transit":false,"i_lat":-6.155215,"line":1},{"i_lat":-6.185545,"time":8,"station_name":"Tanah Abang","distance":3632,"transit":false,"i_long":106.811091,"line":1,"station_id":"THB","is_transit":false},{"station_id":"KAT","i_lat":-6.20132,"line":1,"distance":2029,"transit":false,"is_transit":false,"station_name":"Karet","i_long":106.816351,"time":5},{"is_transit":false,"i_long":106.819881,"station_id":"SUDB","distance":471,"time":1,"station_name":"Sudirman Baru","i_lat":-6.201433,"line":1,"transit":false},{"station_id":"SUD","distance":280,"station_name":"Sudirman","i_lat":-6.202263,"line":1,"is_transit":false,"transit":false,"i_long":106.822649,"time":1},{"i_lat":-6.209883,"line":2,"is_transit":false,"station_name":"Manggarai","i_long":106.84912,"time":4,"transit":false,"station_id":"MRI","distance":3186},{"station_name":"Matraman","line":1,"distance":1275,"station_id":"MTR","is_transit":false,"transit":false,"i_lat":-6.212485,"time":2,"i_long":106.858896},{"is_transit":true,"station_id":"JNG","i_long":106.86807400000001,"transit":true,"distance":1377,"station_name":"Jatinegara","time":8,"i_lat":-6.215091,"line":1},{"time":2,"i_lat":-6.209188,"distance":1236,"station_name":"Pondok Jati","transit":false,"station_id":"POK","is_transit":false,"i_long":106.861737,"line":11},{"i_long":106.855437,"is_transit":false,"station_id":"KMT","station_name":"Kramat","distance":1829,"transit":false,"i_lat":-6.193792,"line":11,"time":2},{"station_name":"Gang Sentiong","transit":false,"station_id":"GST","is_transit":false,"distance":973,"i_lat":-6.185975,"line":11,"time":1,"i_long":106.850107},{"i_long":106.84368,"is_transit":false,"time":8,"station_name":"Pasar Senen","distance":1567,"station_id":"PSE","transit":false,"line":11,"i_lat":-6.174784}],[{"line":2,"i_long":106.812439,"station_id":"JAKK","is_transit":false,"station_name":"Jakarta Kota","transit":false,"i_lat":-6.137569,"distance":0,"time":0},{"i_lat":-6.141205,"line":2,"time":4,"distance":1264,"i_long":106.820901,"is_transit":false,"station_name":"Jayakarta","station_id":"JAY","transit":false},{"station_id":"MGB","i_lat":-6.149769,"distance":1080,"transit":false,"is_transit":false,"time":2,"i_long":106.82482,"line":2,"station_name":"Manggabesar"},{"is_transit":false,"station_id":"SW","time":2,"transit":false,"i_long":106.827103,"station_name":"Sawah Besar","line":2,"i_lat":-6.160725,"distance":906},{"time":2,"station_id":"JUA","is_transit":false,"i_long":106.828284,"station_name":"Juanda","line":2,"transit":false,"distance":1149,"i_lat":-6.166716},{"i_lat":-6.186295,"i_long":106.832183,"line":2,"distance":2015,"station_id":"GDD","time":4,"is_transit":false,"station_name":"Gondangdia","transit":false},{"i_long":106.840169,"line":2,"time":3,"distance":1750,"transit":false,"station_id":"CKI","is_transit":false,"i_lat":-6.198556,"station_name":"Cikini"},{"station_id":"MRI","distance":1590,"is_transit":true,"time":4,"transit":true,"i_long":106.84912,"line":2,"i_lat":-6.209883,"station_name":"Manggarai"},{"i_lat":-6.202263,"i_long":106.822649,"station_id":"SUD","is_transit":false,"station_name":"Sudirman","transit":false,"time":4,"distance":3186,"line":1},{"is_transit":false,"station_id":"SUDB","distance":280,"time":1,"i_long":106.819881,"line":1,"transit":false,"i_lat":-6.201433,"station_name":"Sudirman Baru"},{"time":1,"station_id":"KAT","station_name":"Karet","i_lat":-6.20132,"is_transit":false,"i_long":106.816351,"transit":false,"line":1,"distance":471},{"time":5,"is_transit":false,"i_long":106.811091,"station_name":"Tanah Abang","transit":false,"line":1,"distance":2029,"station_id":"THB","i_lat":-6.185545},{"station_id":"DU","time":8,"transit":false,"i_lat":-6.155215,"line":1,"distance":3632,"i_long":106.800832,"is_transit":false,"station_name":"Duri"},{"line":1,"transit":false,"i_long":106.79867,"is_transit":false,"time":4,"station_name":"Angke","distance":1230,"station_id":"AK","i_lat":-6.144674},{"time":9,"station_id":"KPB","i_lat":-6.132549,"is_transit":true,"station_name":"Kampung Bandan","i_long":106.826365,"transit":true,"line":4,"distance":4102},{"station_id":"RJW","time":3,"transit":false,"is_transit":false,"distance":1444,"i_long":106.836569,"station_name":"Rajawali","i_lat":-6.14505,"line":11},{"station_id":"KMO","i_lat":-6.161728,"time":5,"i_long":106.839204,"transit":false,"distance":1901,"line":11,"is_transit":false,"station_name":"Kemayoran"},{"time":4,"station_id":"PSE","i_long":106.84368,"line":11,"distance":1436,"i_lat":-6.174784,"is_transit":false,"transit":false,"station_name":"Pasar Senen"}]]}