{"data":[[{"station_id":"JAKK","is_transit":true,"time":0,"transit":false,"station_name":"Jakarta Kota","distance":0,"i_long":106.812439,"i_lat":-6.137569,"line":0},{"station_id":"KPB","is_transit":true,"i_long":106.826365,"line":0,"transit":true,"time":3,"distance":1364,"station_name":"Kampung Bandan","i_lat":-6.132549},{"i_lat":-6.14505,"distance":1444,"is_transit":false,"station_id":"RJW","line":11,"transit":false,"station_name":"Rajawali","i_long":106.836569,"time":3},{"distance":1901,"i_long":106.839204,"time":5,"transit":false,"i_lat":-6.161728,"line":11,"station_name":"Kemayoran","station_id":"KMO","is_transit":false},{"station_id":"PSE","station_name":"Pasar Senen","i_lat":-6.174784,"i_long":106.84368,"time":4,"distance":1436,"line":11,"transit":false,"is_transit":false}],[{"station_name":"Jakarta Kota","line":0,"i_lat":-6.137569,"i_long":106.812439,"time":0,"distance":0,"station_id":"JAKK","transit":false,"is_transit":true},{"station_id":"JAY","distance":1264,"line":7,"is_transit":false,"i_long":106.820901,"time":4,"transit":false,"station_name":"Jayakarta","i_lat":-6.141205},{"transit":false,"time":2,"distance":1080,"line":2,"station_name":"Manggabesar","station_id":"MGB","is_transit":false,"i_lat":-6.149769,"i_long":106.82482},{"is_transit":false,"time":2,"distance":906,"station_id":"SW","i_long":106.827103,"line":2,"i_lat":-6.160725,"transit":false,"station_name":"Sawah Besar"},{"i_long":106.828284,"line":2,"i_lat":-6.166716,"is_transit":false,"station_id":"JUA","distance":1149,"time":2,"station_name":"Juanda","transit":false},{"transit":false,"time":4,"line":2,"distance":2015,"i_lat":-6.186295,"station_id":"GDD","i_long":106.832183,"is_transit":false,"station_name":"Gondangdia"},{"time":3,"distance":1750,"transit":false,"line":0,"i_lat":-6.198556,"station_id":"CKI","is_transit":false,"i_long":106.840169,"station_name":"Cikini"},{"line":0,"station_name":"Manggarai","is_transit":true,"i_long":106.84912,"station_id":"MRI","i_lat":-6.209883,"distance":1590,"transit":true,"time":4},{"time":2,"distance":1275,"line":1,"i_lat":-6.212485,"station_id":"MTR","is_transit":false,"i_long":106.858896,"transit":false,"station_name":"Matraman"},{"is_transit":true,"station_name":"Jatinegara","i_long":106.86807400000001,"station_id":"JNG","distance":1377,"i_lat":-6.215091,"line":0,"transit":true,"time":8},{"distance":1236,"time":2,"i_lat":-6.209188,"station_name":"Pondok Jati","is_transit":false,"station_id":"POK","transit":false,"i_long":106.861737,"line":11},{"is_transit":false,"station_id":"KMT","time":2,"i_long":106.855437,"station_name":"Kramat","transit":false,"i_lat":-6.193792,"distance":1829,"line":11},{"line":11,"time":1,"distance":973,"i_lat":-6.185975,"is_transit":false,"station_name":"Gang Sentiong","transit":false,"station_id":"GST","i_long":106.850107},{"is_transit":false,"line":11,"station_id":"PSE","i_lat":-6.174784,"distance":1567,"station_name":"Pasar Senen","i_long":106.84368,"transit":false,"time":8}],[{"is_transit":true,"station_name":"Jakarta Kota","distance":0,"line":0,"i_lat":-6.137569,"time":0,"station_id":"JAKK","i_long":106.812439,"transit":false},{"distance":1364,"is_transit":true,"time":3,"line":0,"i_long":106.826365,"station_id":"KPB","i_lat":-6.132549,"transit":false,"station_name":"Kampung Bandan"},{"distance":4102,"transit":false,"i_long":106.79867,"line":0,"time":9,"is_transit":false,"station_id":"AK","station_name":"Angke","i_lat":-6.144674},{"transit":true,"line":1,"i_long":106.800832,"time":4,"station_id":"DU","station_name":"Duri","is_transit":true,"i_lat":-6.155215,"distance":1230},{"time":8,"station_name":"Tanah Abang","i_lat":-6.185545,"i_long":106.811091,"transit":false,"is_transit":true,"line":1,"distance":3632,"station_id":"THB"},{"i_lat":-6.20132,"time":5,"transit":false,"station_id":"KAT","is_transit":false,"i_long":106.816351,"line":1,"station_name":"Karet","distance":2029},{"time":1,"station_name":"Sudirman Baru","transit":false,"line":1,"distance":471,"station_id":"SUDB","is_transit":false,"i_long":106.819881,"i_lat":-6.201433},{"station_id":"SUD","i_lat":-6.202263,"i_long":106.822649,"station_name":"Sudirman","is_transit":false,"distance":280,"transit":false,"time":1,"line":1},{"station_name":"Manggarai","transit":false,"is_transit":true,"i_long":106.84912,"i_lat":-6.209883,"line":0,"time":4,"distance":3186,"station_id":"MRI"},{"i_long":106.858896,"station_name":"Matraman","distance":1275,"i_lat":-6.212485,"line":1,"station_id":"MTR","is_transit":false,"transit":false,"time":2},{"i_lat":-6.215091,"is_transit":true,"distance":1377,"time":8,"i_long":106.86807400000001,"transit":true,"station_name":"Jatinegara","station_id":"JNG","line":0},{"transit":false,"line":11,"i_lat":-6.209188,"is_transit":false,"i_long":106.861737,"distance":1236,"station_id":"POK","time":2,"station_name":"Pondok Jati"},{"is_transit":false,"line":11,"time":2,"station_id":"KMT","station_name":"Kramat","transit":false,"i_lat":-6.193792,"distance":1829,"i_long":106.855437},{"i_lat":-6.185975,"is_transit":false,"line":11,"distance":973,"i_long":106.850107,"transit":false,"station_name":"Gang Sentiong","time":1,"station_id":"GST"},{"station_name":"Pasar Senen","transit":false,"i_lat":-6.174784,"line":11,"station_id":"PSE","i_long":106.84368,"is_transit":false,"time":8,"distance":1567}],[{"station_id":"JAKK","line":0,"station_name":"Jakarta Kota","i_lat":-6.137569,"time":0,"is_transit":true,"transit":false,"i_long":106.812439,"distance":0},{"line":7,"time":4,"transit":false,"is_transit":false,"station_name":"Jayakarta","station_id":"JAY","i_lat":-6.141205,"distance":1264,"i_long":106.820901},{"transit":false,"i_long":106.82482,"station_id":"MGB","time":2,"i_lat":-6.149769,"line":2,"distance":1080,"is_transit":false,"station_name":"Manggabesar"},{"station_name":"Sawah Besar","i_long":106.827103,"time":2,"station_id":"SW","is_transit":false,"distance":906,"i_lat":-6.160725,"transit":false,"line":2},{"i_long":106.828284,"line":2,"i_lat":-6.166716,"station_id":"JUA","time":2,"distance":1149,"is_transit":false,"station_name":"Juanda","transit":false},{"i_lat":-6.186295,"line":2,"time":4,"station_id":"GDD","distance":2015,"station_name":"Gondangdia","transit":false,"is_transit":false,"i_long":106.832183},{"station_name":"Cikini","transit":false,"time":3,"is_transit":false,"i_lat":-6.198556,"i_long":106.840169,"station_id":"CKI","distance":1750,"line":0},{"is_transit":true,"i_long":106.84912,"line":0,"distance":1590,"station_name":"Manggarai","transit":true,"i_lat":-6.209883,"time":4,"station_id":"MRI"},{"distance":3186,"station_id":"SUD","is_transit":false,"transit":false,"time":4,"i_lat":-6.202263,"line":1,"i_long":106.822649,"station_name":"Sudirman"},{"i_lat":-6.201433,"line":1,"station_id":"SUDB","i_long":106.819881,"time":1,"distance":280,"station_name":"Sudirman Baru","transit":false,"is_transit":false},{"station_id":"KAT","line":1,"time":1,"transit":false,"is_transit":false,"i_lat":-6.20132,"i_long":106.816351,"station_name":"Karet","distance":471},{"i_long":106.811091,"distance":2029,"station_name":"Tanah Abang","line":1,"transit":false,"time":5,"i_lat":-6.185545,"is_transit":true,"station_id":"THB"},{"i_lat":-6.155215,"transit":true,"station_id":"DU","time":8,"i_long":106.800832,"line":1,"is_transit":true,"distance":3632,"station_name":"Duri"},{"station_id":"AK","i_lat":-6.144674,"distance":1230,"i_long":106.79867,"station_name":"Angke","transit":false,"time":4,"line":0,"is_transit":false},{"transit":true,"time":9,"is_transit":true,"i_lat":-6.132549,"i_long":106.826365,"distance":4102,"station_id":"KPB","station_name":"Kampung Bandan","line":0},{"transit":false,"is_transit":false,"time":3,"station_name":"Rajawali","i_lat":-6.14505,"line":11,"station_id":"RJW","distance":1444,"i_long":106.836569},{"transit":false,"i_long":106.839204,"distance":1901,"is_transit":false,"line":11,"station_id":"KMO","time":5,"station_name":"Kemayoran","i_lat":-6.161728},{"time":4,"is_transit":false,"i_long":106.84368,"distance":1436,"station_name":"Pasar Senen","transit":false,"i_lat":-6.174784,"line":11,"station_id":"PSE"}]]}