{"data":[[{"distance":0,"station_id":"JAKK","station_name":"Jakarta Kota","is_transit":false,"i_long":106.812439,"i_lat":-6.137569,"time":0,"transit":false,"line":2},{"station_id":"KPB","is_transit":true,"distance":1364,"station_name":"Kampung Bandan","i_lat":-6.132549,"transit":true,"time":3,"i_long":106.826365,"line":4},{"i_lat":-6.14505,"station_name":"Rajawali","transit":false,"time":3,"station_id":"RJW","line":11,"distance":1444,"i_long":106.836569,"is_transit":false},{"station_name":"Kemayoran","line":11,"transit":false,"is_transit":false,"time":5,"i_long":106.839204,"station_id":"KMO","i_lat":-6.161728,"distance":1901},{"distance":1436,"i_long":106.84368,"time":4,"station_name":"Pasar Senen","line":11,"i_lat":-6.174784,"transit":false,"is_transit":false,"station_id":"PSE"},{"is_transit":false,"station_id":"GST","time":8,"distance":1567,"transit":false,"station_name":"Gang Sentiong","i_lat":-6.185975,"i_long":106.850107,"line":11},{"station_id":"KMT","i_lat":-6.193792,"line":11,"transit":false,"time":1,"station_name":"Kramat","i_long":106.855437,"is_transit":false,"distance":973},{"i_lat":-6.209188,"is_transit":false,"station_name":"Pondok Jati","station_id":"POK","distance":1829,"line":11,"transit":false,"time":2,"i_long":106.861737},{"i_lat":-6.215091,"is_transit":true,"distance":1236,"station_name":"Jatinegara","i_long":106.86807400000001,"time":9,"line":1,"transit":true,"station_id":"JNG"},{"station_id":"KLD","line":1,"station_name":"Klender","i_lat":-6.2135,"time":3,"distance":3395,"transit":false,"is_transit":false,"i_long":106.899548},{"i_long":106.922662,"is_transit":false,"station_name":"Buaran","time":2,"line":1,"distance":3100,"transit":false,"station_id":"BUA","i_lat":-6.215568},{"distance":1305,"time":1,"line":1,"i_long":106.939679,"is_transit":false,"i_lat":-6.217455,"station_id":"KLDB","transit":false,"station_name":"Klenderbaru"},{"line":1,"station_name":"Cakung","transit":false,"time":8,"distance":1385,"station_id":"CUK","i_lat":-6.219053,"i_long":106.951283,"is_transit":false},{"i_lat":-6.224515,"i_long":106.977657,"line":1,"transit":false,"station_id":"KRI","time":3,"distance":3097,"station_name":"Kranji","is_transit":false},{"distance":2520,"line":1,"transit":false,"is_transit":false,"i_long":106.997013,"i_lat":-6.236616,"time":4,"station_name":"Bekasi","station_id":"BKS"},{"i_lat":-6.248029,"is_transit":false,"transit":false,"station_name":"Bekasi Timur","time":2,"distance":2368,"station_id":"BKST","i_long":107.016735,"line":1},{"time":7,"transit":false,"i_lat":-6.258864,"line":1,"distance":4460,"is_transit":false,"i_long":107.055722,"station_id":"TB","station_name":"Tambun"},{"distance":3420,"station_name":"Cibitung","transit":false,"time":3,"i_long":107.083084,"line":1,"station_id":"CIT","i_lat":-6.261877,"is_transit":false}],[{"i_long":106.812439,"i_lat":-6.137569,"is_transit":false,"time":0,"station_name":"Jakarta Kota","distance":0,"transit":false,"station_id":"JAKK","line":2},{"i_lat":-6.141205,"time":4,"line":2,"station_id":"JAY","is_transit":false,"distance":1264,"station_name":"Jayakarta","i_long":106.820901,"transit":false},{"i_long":106.82482,"line":2,"station_name":"Manggabesar","is_transit":false,"distance":1080,"transit":false,"station_id":"MGB","time":2,"i_lat":-6.149769},{"i_long":106.827103,"i_lat":-6.160725,"is_transit":false,"station_name":"Sawah Besar","time":2,"transit":false,"line":2,"distance":906,"station_id":"SW"},{"is_transit":false,"station_name":"Juanda","transit":false,"time":2,"station_id":"JUA","line":2,"i_long":106.828284,"i_lat":-6.166716,"distance":1149},{"is_transit":false,"distance":2015,"station_name":"Gondangdia","line":2,"transit":false,"i_long":106.832183,"i_lat":-6.186295,"time":4,"station_id":"GDD"},{"line":2,"is_transit":false,"transit":false,"distance":1750,"station_name":"Cikini","station_id":"CKI","time":3,"i_lat":-6.198556,"i_long":106.840169},{"distance":1590,"station_id":"MRI","line":2,"time":4,"transit":true,"i_lat":-6.209883,"station_name":"Manggarai","i_long":106.84912,"is_transit":true},{"distance":1275,"i_lat":-6.212485,"station_id":"MTR","line":1,"station_name":"Matraman","transit":false,"i_long":106.858896,"time":2,"is_transit":false},{"line":1,"is_transit":false,"station_name":"Jatinegara","transit":false,"station_id":"JNG","time":8,"distance":1377,"i_lat":-6.215091,"i_long":106.86807400000001},{"time":3,"station_name":"Klender","i_lat":-6.2135,"is_transit":false,"station_id":"KLD","line":1,"distance":3395,"transit":false,"i_long":106.899548},{"i_lat":-6.215568,"station_name":"Buaran","transit":false,"distance":3100,"station_id":"BUA","i_long":106.922662,"time":2,"is_transit":false,"line":1},{"time":1,"i_lat":-6.217455,"is_transit":false,"line":1,"distance":1305,"i_long":106.939679,"transit":false,"station_name":"Klenderbaru","station_id":"KLDB"},{"station_id":"CUK","line":1,"is_transit":false,"transit":false,"i_lat":-6.219053,"station_name":"Cakung","i_long":106.951283,"distance":1385,"time":8},{"station_name":"Kranji","line":1,"distance":3097,"station_id":"KRI","transit":false,"is_transit":false,"i_lat":-6.224515,"i_long":106.977657,"time":3},{"transit":false,"station_id":"BKS","is_transit":false,"station_name":"Bekasi","distance":2520,"i_lat":-6.236616,"line":1,"i_long":106.997013,"time":4},{"is_transit":false,"transit":false,"i_lat":-6.248029,"time":2,"line":1,"station_id":"BKST","i_long":107.016735,"distance":2368,"station_name":"Bekasi Timur"},{"station_id":"TB","i_lat":-6.258864,"is_transit":false,"distance":4460,"transit":false,"station_name":"Tambun","i_long":107.055722,"line":1,"time":7},{"line":1,"station_name":"Cibitung","i_lat":-6.261877,"transit":false,"i_long":107.083084,"is_transit":false,"time":3,"station_id":"CIT","distance":3420}],[{"transit":false,"is_transit":false,"i_long":106.812439,"station_name":"Jakarta Kota","station_id":"JAKK","time":0,"i_lat":-6.137569,"distance":0,"line":2},{"transit":true,"station_id":"KPB","i_lat":-6.132549,"time":3,"station_name":"Kampung Bandan","line":4,"i_long":106.826365,"is_transit":true,"distance":1364},{"station_name":"Angke","i_long":106.79867,"distance":4102,"i_lat":-6.144674,"is_transit":false,"transit":false,"line":1,"time":9,"station_id":"AK"},{"station_id":"DU","time":4,"is_transit":false,"i_lat":-6.155215,"transit":false,"line":1,"station_name":"Duri","distance":1230,"i_long":106.800832},{"i_lat":-6.185545,"i_long":106.811091,"is_transit":false,"station_name":"Tanah Abang","time":8,"line":1,"distance":3632,"transit":false,"station_id":"THB"},{"distance":2029,"is_transit":false,"i_long":106.816351,"time":5,"station_name":"Karet","i_lat":-6.20132,"transit":false,"station_id":"KAT","line":1},{"time":1,"transit":false,"station_id":"SUDB","line":1,"is_transit":false,"station_name":"Sudirman Baru","distance":471,"i_lat":-6.201433,"i_long":106.819881},{"is_transit":false,"station_name":"Sudirman","transit":false,"time":1,"station_id":"SUD","i_long":106.822649,"line":1,"distance":280,"i_lat":-6.202263},{"i_long":106.84912,"is_transit":false,"distance":3186,"station_name":"Manggarai","time":4,"i_lat":-6.209883,"line":2,"transit":false,"station_id":"MRI"},{"station_id":"MTR","transit":false,"time":2,"i_long":106.858896,"line":1,"is_transit":false,"distance":1275,"station_name":"Matraman","i_lat":-6.212485},{"transit":false,"time":8,"station_name":"Jatinegara","i_long":106.86807400000001,"distance":1377,"i_lat":-6.215091,"is_transit":false,"station_id":"JNG","line":1},{"time":3,"i_lat":-6.2135,"line":1,"distance":3395,"station_name":"Klender","station_id":"KLD","is_transit":false,"transit":false,"i_long":106.899548},{"i_lat":-6.215568,"is_transit":false,"i_long":106.922662,"station_name":"Buaran","station_id":"BUA","distance":3100,"line":1,"time":2,"transit":false},{"i_long":106.939679,"line":1,"station_id":"KLDB","time":1,"distance":1305,"is_transit":false,"station_name":"Klenderbaru","transit":false,"i_lat":-6.217455},{"distance":1385,"station_id":"CUK","is_transit":false,"i_long":106.951283,"station_name":"Cakung","time":8,"i_lat":-6.219053,"line":1,"transit":false},{"transit":false,"i_lat":-6.224515,"distance":3097,"station_id":"KRI","is_transit":false,"i_long":106.977657,"line":1,"time":3,"station_name":"Kranji"},{"line":1,"station_id":"BKS","station_name":"Bekasi","time":4,"distance":2520,"i_lat":-6.236616,"transit":false,"i_long":106.997013,"is_transit":false},{"station_name":"Bekasi Timur","distance":2368,"station_id":"BKST","time":2,"i_long":107.016735,"i_lat":-6.248029,"line":1,"transit":false,"is_transit":false},{"line":1,"i_long":107.055722,"station_name":"Tambun","i_lat":-6.258864,"distance":4460,"is_transit":false,"transit":false,"time":7,"station_id":"TB"},{"distance":3420,"station_name":"Cibitung","time":3,"is_transit":false,"transit":false,"i_lat":-6.261877,"station_id":"CIT","i_long":107.083084,"line":1}],[{"station_name":"Jakarta Kota","is_transit":false,"station_id":"JAKK","transit":false,"time":0,"distance":0,"i_long":106.812439,"i_lat":-6.137569,"line":2},{"time":4,"is_transit":false,"i_lat":-6.141205,"i_long":106.820901,"station_name":"Jayakarta","station_id":"JAY","distance":1264,"line":2,"transit":false},{"time":2,"i_long":106.82482,"station_id":"MGB","line":2,"i_lat":-6.149769,"is_transit":false,"distance":1080,"transit":false,"station_name":"Manggabesar"},{"station_name":"Sawah Besar","i_long":106.827103,"time":2,"is_transit":false,"line":2,"i_lat":-6.160725,"transit":false,"station_id":"SW","distance":906},{"line":2,"is_transit":false,"station_name":"Juanda","transit":false,"i_long":106.828284,"distance":1149,"i_lat":-6.166716,"time":2,"station_id":"JUA"},{"transit":false,"time":4,"station_id":"GDD","station_name":"Gondangdia","i_long":106.832183,"is_transit":false,"line":2,"i_lat":-6.186295,"distance":2015},{"line":2,"i_long":106.840169,"i_lat":-6.198556,"time":3,"distance":1750,"station_id":"CKI","station_name":"Cikini","is_transit":false,"transit":false},{"station_id":"MRI","i_lat":-6.209883,"transit":true,"station_name":"Manggarai","is_transit":true,"i_long":106.84912,"time":4,"line":2,"distance":1590},{"transit":false,"is_transit":false,"distance":3186,"i_long":106.822649,"line":1,"station_name":"Sudirman","time":4,"station_id":"SUD","i_lat":-6.202263},{"transit":false,"station_id":"SUDB","time":1,"is_transit":false,"distance":280,"station_name":"Sudirman Baru","i_lat":-6.201433,"i_long":106.819881,"line":1},{"is_transit":false,"distance":471,"transit":false,"i_long":106.816351,"time":1,"station_id":"KAT","line":1,"station_name":"Karet","i_lat":-6.20132},{"distance":2029,"time":5,"station_id":"THB","line":1,"station_name":"Tanah Abang","is_transit":false,"i_lat":-6.185545,"i_long":106.811091,"transit":false},{"line":1,"i_lat":-6.155215,"station_id":"DU","distance":3632,"station_name":"Duri","i_long":106.800832,"is_transit":false,"transit":false,"time":8},{"distance":1230,"transit":false,"is_transit":false,"i_long":106.79867,"line":1,"station_id":"AK","station_name":"Angke","time":4,"i_lat":-6.144674},{"distance":4102,"station_id":"KPB","station_name":"Kampung Bandan","i_lat":-6.132549,"time":9,"is_transit":true,"i_long":106.826365,"line":4,"transit":true},{"is_transit":false,"distance":1444,"i_long":106.836569,"station_name":"Rajawali","time":3,"line":11,"station_id":"RJW","i_lat":-6.14505,"transit":false},{"station_name":"Kemayoran","transit":false,"i_lat":-6.161728,"i_long":106.839204,"time":5,"is_transit":false,"distance":1901,"station_id":"KMO","line":11},{"i_lat":-6.174784,"line":11,"station_id":"PSE","distance":1436,"time":4,"is_transit":false,"transit":false,"i_long":106.84368,"station_name":"Pasar Senen"},{"line":11,"i_lat":-6.185975,"distance":1567,"is_transit":false,"time":8,"transit":false,"station_name":"Gang Sentiong","station_id":"GST","i_long":106.850107},{"is_transit":false,"distance":973,"i_lat":-6.193792,"station_id":"KMT","i_long":106.855437,"transit":false,"line":11,"time":1,"station_name":"Kramat"},{"station_id":"POK","time":2,"is_transit":false,"i_long":106.861737,"line":11,"i_lat":-6.209188,"station_name":"Pondok Jati","transit":false,"distance":1829},{"station_name":"Jatinegara","i_long":106.86807400000001,"distance":1236,"station_id":"JNG","is_transit":true,"line":1,"time":9,"i_lat":-6.215091,"transit":true},{"is_transit":false,"station_id":"KLD","i_long":106.899548,"time":3,"transit":false,"line":1,"distance":3395,"station_name":"Klender","i_lat":-6.2135},{"i_long":106.922662,"time":2,"station_name":"Buaran","i_lat":-6.215568,"line":1,"transit":false,"station_id":"BUA","distance":3100,"is_transit":false},{"station_name":"Klenderbaru","transit":false,"i_long":106.939679,"is_transit":false,"line":1,"time":1,"distance":1305,"station_id":"KLDB","i_lat":-6.217455},{"time":8,"station_id":"CUK","i_lat":-6.219053,"transit":false,"station_name":"Cakung","i_long":106.951283,"line":1,"distance":1385,"is_transit":false},{"time":3,"line":1,"station_name":"Kranji","station_id":"KRI","i_lat":-6.224515,"distance":3097,"i_long":106.977657,"transit":false,"is_transit":false},{"i_lat":-6.236616,"transit":false,"station_name":"Bekasi","i_long":106.997013,"line":1,"is_transit":false,"time":4,"distance":2520,"station_id":"BKS"},{"i_long":107.016735,"station_name":"Bekasi Timur","time":2,"i_lat":-6.248029,"station_id":"BKST","line":1,"distance":2368,"is_transit":false,"transit":false},{"station_name":"Tambun","is_transit":false,"distance":4460,"transit":false,"i_long":107.055722,"line":1,"time":7,"station_id":"TB","i_lat":-6.258864},{"time":3,"i_lat":-6.261877,"i_long":107.083084,"station_name":"Cibitung","line":1,"distance":3420,"transit":false,"is_transit":false,"station_id":"CIT"}]]}