{"data":[[{"distance":0,"is_transit":true,"transit":false,"station_id":"JAKK","line":0,"time":0,"station_name":"Jakarta Kota","i_long":106.812439,"i_lat":-6.137569},{"i_lat":-6.132549,"transit":false,"time":3,"is_transit":true,"station_name":"Kampung Bandan","station_id":"KPB","line":0,"distance":1364,"i_long":106.826365},{"i_lat":-6.144674,"is_transit":false,"time":9,"distance":4102,"i_long":106.79867,"station_name":"Angke","transit":false,"station_id":"AK","line":0},{"i_long":106.800832,"is_transit":true,"line":1,"transit":true,"station_id":"DU","distance":1230,"station_name":"Duri","i_lat":-6.155215,"time":4},{"distance":1700,"i_long":106.788277,"i_lat":-6.162021,"is_transit":false,"line":5,"station_id":"GGL","time":3,"station_name":"Grogol","transit":false}],[{"i_long":106.812439,"i_lat":-6.137569,"time":0,"transit":false,"station_name":"Jakarta Kota","station_id":"JAKK","line":0,"is_transit":true,"distance":0},{"i_lat":-6.141205,"is_transit":false,"transit":false,"line":7,"station_name":"Jayakarta","i_long":106.820901,"station_id":"JAY","distance":1264,"time":4},{"i_lat":-6.149769,"i_long":106.82482,"station_name":"Manggabesar","station_id":"MGB","time":2,"transit":false,"line":2,"is_transit":false,"distance":1080},{"i_long":106.827103,"distance":906,"transit":false,"station_name":"Sawah Besar","time":2,"station_id":"SW","i_lat":-6.160725,"line":2,"is_transit":false},{"is_transit":false,"station_id":"JUA","time":2,"i_lat":-6.166716,"station_name":"Juanda","i_long":106.828284,"distance":1149,"transit":false,"line":2},{"transit":false,"station_name":"Gondangdia","station_id":"GDD","is_transit":false,"distance":2015,"time":4,"i_long":106.832183,"line":2,"i_lat":-6.186295},{"line":0,"time":3,"distance":1750,"is_transit":false,"transit":false,"station_name":"Cikini","i_lat":-6.198556,"i_long":106.840169,"station_id":"CKI"},{"i_lat":-6.209883,"transit":true,"line":0,"station_id":"MRI","time":4,"is_transit":true,"station_name":"Manggarai","i_long":106.84912,"distance":1590},{"station_name":"Sudirman","distance":3186,"time":4,"station_id":"SUD","transit":false,"i_lat":-6.202263,"line":1,"i_long":106.822649,"is_transit":false},{"time":1,"distance":280,"i_lat":-6.201433,"station_name":"Sudirman Baru","is_transit":false,"line":1,"station_id":"SUDB","transit":false,"i_long":106.819881},{"time":1,"distance":471,"transit":false,"line":1,"station_name":"Karet","i_lat":-6.20132,"station_id":"KAT","is_transit":false,"i_long":106.816351},{"station_id":"THB","is_transit":true,"station_name":"Tanah Abang","distance":2029,"i_long":106.811091,"time":5,"transit":false,"i_lat":-6.185545,"line":1},{"time":8,"is_transit":true,"i_lat":-6.155215,"i_long":106.800832,"transit":true,"line":1,"station_id":"DU","distance":3632,"station_name":"Duri"},{"station_id":"GGL","i_lat":-6.162021,"i_long":106.788277,"line":5,"station_name":"Grogol","transit":false,"distance":1700,"is_transit":false,"time":3}],[{"i_lat":-6.137569,"i_long":106.812439,"time":0,"transit":false,"line":0,"distance":0,"station_id":"JAKK","is_transit":true,"station_name":"Jakarta Kota"},{"distance":1364,"is_transit":true,"i_long":106.826365,"transit":true,"station_name":"Kampung Bandan","line":0,"station_id":"KPB","i_lat":-6.132549,"time":3},{"i_long":106.836569,"i_lat":-6.14505,"distance":1444,"station_id":"RJW","station_name":"Rajawali","line":11,"time":3,"is_transit":false,"transit":false},{"station_id":"KMO","distance":1901,"i_lat":-6.161728,"station_name":"Kemayoran","is_transit":false,"transit":false,"time":5,"line":11,"i_long":106.839204},{"distance":1436,"station_id":"PSE","i_lat":-6.174784,"time":4,"i_long":106.84368,"station_name":"Pasar Senen","line":11,"is_transit":false,"transit":false},{"i_lat":-6.185975,"is_transit":false,"transit":false,"station_name":"Gang Sentiong","distance":1567,"i_long":106.850107,"line":11,"station_id":"GST","time":8},{"is_transit":false,"distance":973,"station_name":"Kramat","line":11,"i_lat":-6.193792,"time":1,"i_long":106.855437,"transit":false,"station_id":"KMT"},{"distance":1829,"station_name":"Pondok Jati","station_id":"POK","line":11,"is_transit":false,"i_lat":-6.209188,"time":2,"transit":false,"i_long":106.861737},{"distance":1236,"time":9,"station_name":"Jatinegara","i_lat":-6.215091,"transit":true,"i_long":106.86807400000001,"is_transit":true,"line":0,"station_id":"JNG"},{"line":1,"is_transit":false,"transit":false,"time":2,"i_long":106.858896,"distance":1377,"station_id":"MTR","i_lat":-6.212485,"station_name":"Matraman"},{"distance":1275,"is_transit":true,"i_long":106.84912,"time":2,"line":0,"station_id":"MRI","i_lat":-6.209883,"transit":false,"station_name":"Manggarai"},{"i_lat":-6.202263,"line":1,"transit":false,"is_transit":false,"station_id":"SUD","distance":3186,"i_long":106.822649,"time":4,"station_name":"Sudirman"},{"station_id":"SUDB","i_long":106.819881,"line":1,"transit":false,"station_name":"Sudirman Baru","i_lat":-6.201433,"is_transit":false,"distance":280,"time":1},{"line":1,"distance":471,"time":1,"transit":false,"station_id":"KAT","is_transit":false,"station_name":"Karet","i_lat":-6.20132,"i_long":106.816351},{"station_id":"THB","i_long":106.811091,"time":5,"station_name":"Tanah Abang","distance":2029,"line":1,"is_transit":true,"transit":false,"i_lat":-6.185545},{"station_name":"Duri","station_id":"DU","line":1,"transit":true,"is_transit":true,"i_long":106.800832,"i_lat":-6.155215,"time":8,"distance":3632},{"transit":false,"i_lat":-6.162021,"station_id":"GGL","i_long":106.788277,"time":3,"station_name":"Grogol","is_transit":false,"line":5,"distance":1700}],[{"station_id":"JAKK","is_transit":true,"distance":0,"i_long":106.812439,"line":0,"time":0,"station_name":"Jakarta Kota","transit":false,"i_lat":-6.137569},{"station_id":"JAY","station_name":"Jayakarta","is_transit":false,"time":4,"i_long":106.820901,"distance":1264,"transit":false,"i_lat":-6.141205,"line":7},{"time":2,"station_id":"MGB","i_long":106.82482,"i_lat":-6.149769,"line":2,"distance":1080,"transit":false,"is_transit":false,"station_name":"Manggabesar"},{"station_id":"SW","line":2,"i_lat":-6.160725,"transit":false,"i_long":106.827103,"station_name":"Sawah Besar","is_transit":false,"time":2,"distance":906},{"station_name":"Juanda","station_id":"JUA","transit":false,"i_long":106.828284,"i_lat":-6.166716,"line":2,"time":2,"distance":1149,"is_transit":false},{"distance":2015,"is_transit":false,"station_id":"GDD","transit":false,"i_lat":-6.186295,"line":2,"time":4,"station_name":"Gondangdia","i_long":106.832183},{"i_lat":-6.198556,"i_long":106.840169,"station_id":"CKI","time":3,"line":0,"is_transit":false,"distance":1750,"transit":false,"station_name":"Cikini"},{"time":4,"line":0,"i_long":106.84912,"transit":true,"is_transit":true,"station_id":"MRI","station_name":"Manggarai","i_lat":-6.209883,"distance":1590},{"station_id":"MTR","transit":false,"station_name":"Matraman","time":2,"distance":1275,"line":1,"i_lat":-6.212485,"is_transit":false,"i_long":106.858896},{"i_long":106.86807400000001,"distance":1377,"is_transit":true,"station_name":"Jatinegara","time":8,"transit":true,"station_id":"JNG","i_lat":-6.215091,"line":0},{"station_name":"Pondok Jati","transit":false,"time":2,"is_transit":false,"station_id":"POK","i_lat":-6.209188,"line":11,"i_long":106.861737,"distance":1236},{"distance":1829,"is_transit":false,"station_name":"Kramat","line":11,"i_lat":-6.193792,"i_long":106.855437,"transit":false,"station_id":"KMT","time":2},{"i_long":106.850107,"station_id":"GST","line":11,"i_lat":-6.185975,"distance":973,"is_transit":false,"transit":false,"time":1,"station_name":"Gang Sentiong"},{"time":8,"is_transit":false,"transit":false,"i_lat":-6.174784,"i_long":106.84368,"line":11,"station_id":"PSE","distance":1567,"station_name":"Pasar Senen"},{"distance":1436,"is_transit":false,"i_lat":-6.161728,"time":4,"station_name":"Kemayoran","transit":false,"station_id":"KMO","i_long":106.839204,"line":11},{"is_transit":false,"time":5,"station_name":"Rajawali","station_id":"RJW","i_lat":-6.14505,"transit":false,"i_long":106.836569,"line":11,"distance":1901},{"i_long":106.826365,"distance":1444,"line":0,"station_name":"Kampung Bandan","station_id":"KPB","i_lat":-6.132549,"transit":true,"is_transit":true,"time":3},{"transit":false,"station_id":"AK","is_transit":false,"distance":4102,"i_lat":-6.144674,"line":0,"i_long":106.79867,"station_name":"Angke","time":9},{"is_transit":true,"distance":1230,"transit":true,"time":4,"station_name":"Duri","station_id":"DU","i_lat":-6.155215,"i_long":106.800832,"line":1},{"time":3,"distance":1700,"i_lat":-6.162021,"transit":false,"is_transit":false,"station_id":"GGL","i_long":106.788277,"line":5,"station_name":"Grogol"}]]}