{"data":[[{"distance":0,"station_name":"Jakarta Kota","is_transit":false,"i_lat":-6.137569,"transit":false,"station_id":"JAKK","time":0,"i_long":106.812439,"line":2},{"station_name":"Kampung Bandan","time":3,"distance":1364,"station_id":"KPB","transit":true,"is_transit":true,"i_lat":-6.132549,"i_long":106.826365,"line":4},{"station_id":"RJW","is_transit":false,"i_long":106.836569,"transit":false,"station_name":"Rajawali","line":11,"distance":1444,"i_lat":-6.14505,"time":3},{"distance":1901,"transit":false,"line":11,"i_lat":-6.161728,"is_transit":false,"station_id":"KMO","station_name":"Kemayoran","i_long":106.839204,"time":5},{"time":4,"station_id":"PSE","i_lat":-6.174784,"is_transit":false,"transit":false,"i_long":106.84368,"line":11,"station_name":"Pasar Senen","distance":1436},{"line":11,"transit":false,"is_transit":false,"station_id":"GST","time":8,"distance":1567,"station_name":"Gang Sentiong","i_lat":-6.185975,"i_long":106.850107},{"i_lat":-6.193792,"i_long":106.855437,"line":11,"station_id":"KMT","distance":973,"station_name":"Kramat","time":1,"transit":false,"is_transit":false},{"i_long":106.861737,"station_name":"Pondok Jati","line":11,"station_id":"POK","i_lat":-6.209188,"time":2,"transit":false,"distance":1829,"is_transit":false},{"i_lat":-6.215091,"station_id":"JNG","i_long":106.86807400000001,"distance":1236,"is_transit":true,"line":1,"time":9,"station_name":"Jatinegara","transit":true},{"station_id":"KLD","is_transit":false,"transit":false,"i_lat":-6.2135,"station_name":"Klender","line":1,"distance":3395,"time":3,"i_long":106.899548},{"station_name":"Buaran","is_transit":false,"line":1,"distance":3100,"i_lat":-6.215568,"i_long":106.922662,"time":2,"station_id":"BUA","transit":false},{"transit":false,"line":1,"i_lat":-6.217455,"i_long":106.939679,"distance":1305,"station_id":"KLDB","station_name":"Klenderbaru","is_transit":false,"time":1},{"i_lat":-6.219053,"time":8,"station_name":"Cakung","distance":1385,"line":1,"station_id":"CUK","transit":false,"i_long":106.951283,"is_transit":false},{"station_id":"KRI","time":3,"i_lat":-6.224515,"line":1,"transit":false,"distance":3097,"station_name":"Kranji","i_long":106.977657,"is_transit":false},{"i_lat":-6.236616,"station_name":"Bekasi","time":4,"station_id":"BKS","i_long":106.997013,"line":1,"distance":2520,"transit":false,"is_transit":false},{"i_long":107.016735,"transit":false,"time":2,"station_name":"Bekasi Timur","is_transit":false,"station_id":"BKST","i_lat":-6.248029,"line":1,"distance":2368},{"line":1,"time":7,"distance":4460,"is_transit":false,"i_lat":-6.258864,"station_id":"TB","transit":false,"station_name":"Tambun","i_long":107.055722},{"station_name":"Cibitung","i_long":107.083084,"line":1,"station_id":"CIT","is_transit":false,"i_lat":-6.261877,"transit":false,"distance":3420,"time":3},{"station_name":"Metland Telaga Murni","time":2,"line":1,"transit":false,"is_transit":false,"i_lat":-6.262938,"station_id":"TLM","i_long":107.093313,"distance":2800},{"station_name":"Cikarang","i_long":107.144613,"time":4,"is_transit":false,"station_id":"CKR","i_lat":-6.2553149999999995,"line":1,"transit":false,"distance":3689}],[{"i_long":106.812439,"i_lat":-6.137569,"transit":false,"station_id":"JAKK","distance":0,"time":0,"station_name":"Jakarta Kota","line":2,"is_transit":false},{"time":4,"station_id":"JAY","transit":false,"station_name":"Jayakarta","i_lat":-6.141205,"line":2,"distance":1264,"i_long":106.820901,"is_transit":false},{"is_transit":false,"distance":1080,"i_lat":-6.149769,"line":2,"station_name":"Manggabesar","time":2,"i_long":106.82482,"station_id":"MGB","transit":false},{"transit":false,"distance":906,"i_lat":-6.160725,"station_name":"Sawah Besar","is_transit":false,"line":2,"i_long":106.827103,"station_id":"SW","time":2},{"station_name":"Juanda","is_transit":false,"transit":false,"i_lat":-6.166716,"i_long":106.828284,"line":2,"distance":1149,"station_id":"JUA","time":2},{"transit":false,"line":2,"station_id":"GDD","i_lat":-6.186295,"station_name":"Gondangdia","time":4,"distance":2015,"is_transit":false,"i_long":106.832183},{"station_name":"Cikini","time":3,"line":2,"distance":1750,"station_id":"CKI","i_long":106.840169,"i_lat":-6.198556,"transit":false,"is_transit":false},{"transit":true,"station_name":"Manggarai","is_transit":true,"i_long":106.84912,"i_lat":-6.209883,"station_id":"MRI","distance":1590,"line":2,"time":4},{"i_lat":-6.212485,"line":1,"distance":1275,"time":2,"station_id":"MTR","i_long":106.858896,"station_name":"Matraman","transit":false,"is_transit":false},{"station_name":"Jatinegara","is_transit":false,"transit":false,"line":1,"time":8,"station_id":"JNG","i_lat":-6.215091,"distance":1377,"i_long":106.86807400000001},{"transit":false,"line":1,"station_id":"KLD","station_name":"Klender","distance":3395,"time":3,"i_lat":-6.2135,"is_transit":false,"i_long":106.899548},{"station_id":"BUA","is_transit":false,"transit":false,"line":1,"time":2,"i_long":106.922662,"i_lat":-6.215568,"distance":3100,"station_name":"Buaran"},{"line":1,"distance":1305,"transit":false,"station_id":"KLDB","station_name":"Klenderbaru","time":1,"is_transit":false,"i_lat":-6.217455,"i_long":106.939679},{"time":8,"station_id":"CUK","transit":false,"is_transit":false,"i_lat":-6.219053,"distance":1385,"line":1,"i_long":106.951283,"station_name":"Cakung"},{"station_id":"KRI","distance":3097,"is_transit":false,"time":3,"i_lat":-6.224515,"line":1,"transit":false,"i_long":106.977657,"station_name":"Kranji"},{"is_transit":false,"i_lat":-6.236616,"station_id":"BKS","i_long":106.997013,"time":4,"distance":2520,"line":1,"station_name":"Bekasi","transit":false},{"station_id":"BKST","transit":false,"time":2,"station_name":"Bekasi Timur","distance":2368,"i_lat":-6.248029,"line":1,"i_long":107.016735,"is_transit":false},{"station_id":"TB","transit":false,"i_lat":-6.258864,"i_long":107.055722,"is_transit":false,"time":7,"station_name":"Tambun","line":1,"distance":4460},{"time":3,"station_id":"CIT","is_transit":false,"i_lat":-6.261877,"transit":false,"station_name":"Cibitung","i_long":107.083084,"line":1,"distance":3420},{"distance":2800,"i_lat":-6.262938,"line":1,"i_long":107.093313,"is_transit":false,"station_id":"TLM","station_name":"Metland Telaga Murni","time":2,"transit":false},{"is_transit":false,"station_name":"Cikarang","line":1,"time":4,"distance":3689,"station_id":"CKR","transit":false,"i_long":107.144613,"i_lat":-6.2553149999999995}],[{"station_name":"Jakarta Kota","time":0,"transit":false,"station_id":"JAKK","i_lat":-6.137569,"distance":0,"line":2,"i_long":106.812439,"is_transit":false},{"i_lat":-6.132549,"distance":1364,"station_id":"KPB","station_name":"Kampung Bandan","is_transit":true,"line":4,"i_long":106.826365,"time":3,"transit":true},{"line":1,"station_name":"Angke","i_lat":-6.144674,"station_id":"AK","distance":4102,"time":9,"is_transit":false,"i_long":106.79867,"transit":false},{"i_lat":-6.155215,"i_long":106.800832,"is_transit":false,"time":4,"station_id":"DU","transit":false,"distance":1230,"station_name":"Duri","line":1},{"line":1,"is_transit":false,"station_name":"Tanah Abang","i_long":106.811091,"station_id":"THB","transit":false,"i_lat":-6.185545,"time":8,"distance":3632},{"station_id":"KAT","distance":2029,"i_long":106.816351,"time":5,"i_lat":-6.20132,"line":1,"transit":false,"station_name":"Karet","is_transit":false},{"line":1,"station_id":"SUDB","station_name":"Sudirman Baru","is_transit":false,"transit":false,"i_lat":-6.201433,"i_long":106.819881,"time":1,"distance":471},{"i_lat":-6.202263,"time":1,"transit":false,"station_name":"Sudirman","i_long":106.822649,"is_transit":false,"line":1,"distance":280,"station_id":"SUD"},{"i_lat":-6.209883,"station_id":"MRI","transit":false,"station_name":"Manggarai","is_transit":false,"distance":3186,"time":4,"line":2,"i_long":106.84912},{"station_name":"Matraman","station_id":"MTR","i_lat":-6.212485,"distance":1275,"is_transit":false,"i_long":106.858896,"time":2,"transit":false,"line":1},{"i_lat":-6.215091,"time":8,"line":1,"distance":1377,"station_name":"Jatinegara","i_long":106.86807400000001,"transit":false,"is_transit":false,"station_id":"JNG"},{"station_id":"KLD","transit":false,"line":1,"i_lat":-6.2135,"i_long":106.899548,"time":3,"station_name":"Klender","is_transit":false,"distance":3395},{"is_transit":false,"station_name":"Buaran","i_long":106.922662,"line":1,"time":2,"transit":false,"station_id":"BUA","distance":3100,"i_lat":-6.215568},{"station_id":"KLDB","transit":false,"is_transit":false,"time":1,"i_long":106.939679,"station_name":"Klenderbaru","line":1,"i_lat":-6.217455,"distance":1305},{"station_name":"Cakung","station_id":"CUK","line":1,"i_lat":-6.219053,"is_transit":false,"i_long":106.951283,"time":8,"distance":1385,"transit":false},{"is_transit":false,"transit":false,"station_id":"KRI","i_long":106.977657,"i_lat":-6.224515,"line":1,"time":3,"distance":3097,"station_name":"Kranji"},{"i_lat":-6.236616,"distance":2520,"transit":false,"station_name":"Bekasi","time":4,"is_transit":false,"line":1,"i_long":106.997013,"station_id":"BKS"},{"distance":2368,"station_id":"BKST","transit":false,"station_name":"Bekasi Timur","time":2,"is_transit":false,"i_lat":-6.248029,"i_long":107.016735,"line":1},{"is_transit":false,"line":1,"transit":false,"time":7,"i_long":107.055722,"i_lat":-6.258864,"station_name":"Tambun","distance":4460,"station_id":"TB"},{"station_name":"Cibitung","is_transit":false,"i_lat":-6.261877,"station_id":"CIT","time":3,"distance":3420,"line":1,"i_long":107.083084,"transit":false},{"distance":2800,"station_id":"TLM","transit":false,"i_long":107.093313,"line":1,"time":2,"is_transit":false,"station_name":"Metland Telaga Murni","i_lat":-6.262938},{"distance":3689,"station_id":"CKR","is_transit":false,"transit":false,"i_lat":-6.2553149999999995,"line":1,"station_name":"Cikarang","time":4,"i_long":107.144613}],[{"i_lat":-6.137569,"time":0,"is_transit":false,"i_long":106.812439,"transit":false,"station_name":"Jakarta Kota","distance":0,"station_id":"JAKK","line":2},{"i_lat":-6.141205,"distance":1264,"line":2,"is_transit":false,"transit":false,"i_long":106.820901,"station_name":"Jayakarta","time":4,"station_id":"JAY"},{"time":2,"transit":false,"is_transit":false,"i_lat":-6.149769,"i_long":106.82482,"distance":1080,"line":2,"station_id":"MGB","station_name":"Manggabesar"},{"i_lat":-6.160725,"station_id":"SW","distance":906,"transit":false,"is_transit":false,"i_long":106.827103,"line":2,"station_name":"Sawah Besar","time":2},{"i_lat":-6.166716,"line":2,"is_transit":false,"time":2,"transit":false,"i_long":106.828284,"station_name":"Juanda","station_id":"JUA","distance":1149},{"distance":2015,"i_long":106.832183,"station_name":"Gondangdia","station_id":"GDD","i_lat":-6.186295,"transit":false,"is_transit":false,"line":2,"time":4},{"station_id":"CKI","i_lat":-6.198556,"i_long":106.840169,"time":3,"line":2,"station_name":"Cikini","distance":1750,"transit":false,"is_transit":false},{"is_transit":true,"i_lat":-6.209883,"station_name":"Manggarai","station_id":"MRI","transit":true,"distance":1590,"i_long":106.84912,"time":4,"line":2},{"transit":false,"distance":3186,"is_transit":false,"i_lat":-6.202263,"i_long":106.822649,"station_id":"SUD","time":4,"line":1,"station_name":"Sudirman"},{"line":1,"distance":280,"station_name":"Sudirman Baru","is_transit":false,"i_lat":-6.201433,"time":1,"i_long":106.819881,"station_id":"SUDB","transit":false},{"i_lat":-6.20132,"line":1,"time":1,"station_id":"KAT","i_long":106.816351,"is_transit":false,"distance":471,"transit":false,"station_name":"Karet"},{"distance":2029,"station_name":"Tanah Abang","is_transit":false,"time":5,"transit":false,"i_long":106.811091,"station_id":"THB","i_lat":-6.185545,"line":1},{"i_long":106.800832,"station_name":"Duri","station_id":"DU","line":1,"distance":3632,"time":8,"transit":false,"is_transit":false,"i_lat":-6.155215},{"station_id":"AK","time":4,"line":1,"station_name":"Angke","is_transit":false,"i_long":106.79867,"distance":1230,"transit":false,"i_lat":-6.144674},{"station_name":"Kampung Bandan","is_transit":true,"line":4,"distance":4102,"i_lat":-6.132549,"i_long":106.826365,"station_id":"KPB","time":9,"transit":true},{"i_lat":-6.14505,"i_long":106.836569,"station_id":"RJW","is_transit":false,"line":11,"transit":false,"distance":1444,"station_name":"Rajawali","time":3},{"station_id":"KMO","transit":false,"is_transit":false,"distance":1901,"station_name":"Kemayoran","time":5,"i_lat":-6.161728,"i_long":106.839204,"line":11},{"is_transit":false,"time":4,"station_id":"PSE","line":11,"distance":1436,"transit":false,"station_name":"Pasar Senen","i_lat":-6.174784,"i_long":106.84368},{"i_long":106.850107,"line":11,"station_name":"Gang Sentiong","is_transit":false,"transit":false,"i_lat":-6.185975,"distance":1567,"time":8,"station_id":"GST"},{"is_transit":false,"i_long":106.855437,"line":11,"distance":973,"time":1,"station_id":"KMT","i_lat":-6.193792,"transit":false,"station_name":"Kramat"},{"i_long":106.861737,"line":11,"transit":false,"i_lat":-6.209188,"distance":1829,"station_name":"Pondok Jati","time":2,"is_transit":false,"station_id":"POK"},{"time":9,"i_lat":-6.215091,"station_name":"Jatinegara","is_transit":true,"transit":true,"i_long":106.86807400000001,"line":1,"station_id":"JNG","distance":1236},{"is_transit":false,"i_lat":-6.2135,"time":3,"i_long":106.899548,"transit":false,"distance":3395,"station_name":"Klender","line":1,"station_id":"KLD"},{"station_id":"BUA","transit":false,"station_name":"Buaran","line":1,"distance":3100,"time":2,"i_long":106.922662,"i_lat":-6.215568,"is_transit":false},{"time":1,"distance":1305,"transit":false,"is_transit":false,"i_long":106.939679,"station_id":"KLDB","line":1,"station_name":"Klenderbaru","i_lat":-6.217455},{"station_name":"Cakung","line":1,"i_long":106.951283,"i_lat":-6.219053,"distance":1385,"time":8,"is_transit":false,"station_id":"CUK","transit":false},{"is_transit":false,"transit":false,"station_id":"KRI","time":3,"line":1,"distance":3097,"i_lat":-6.224515,"station_name":"Kranji","i_long":106.977657},{"transit":false,"station_name":"Bekasi","is_transit":false,"i_long":106.997013,"i_lat":-6.236616,"line":1,"time":4,"distance":2520,"station_id":"BKS"},{"distance":2368,"transit":false,"time":2,"is_transit":false,"i_long":107.016735,"station_id":"BKST","station_name":"Bekasi Timur","i_lat":-6.248029,"line":1},{"station_id":"TB","time":7,"station_name":"Tambun","transit":false,"i_long":107.055722,"line":1,"i_lat":-6.258864,"is_transit":false,"distance":4460},{"i_lat":-6.261877,"time":3,"transit":false,"station_name":"Cibitung","i_long":107.083084,"station_id":"CIT","line":1,"is_transit":false,"distance":3420},{"time":2,"is_transit":false,"station_name":"Metland Telaga Murni","distance":2800,"transit":false,"i_long":107.093313,"line":1,"station_id":"TLM","i_lat":-6.262938},{"i_long":107.144613,"line":1,"transit":false,"distance":3689,"time":4,"i_lat":-6.2553149999999995,"station_id":"CKR","station_name":"Cikarang","is_transit":false}]]}