{"data":[[{"time":0,"transit":false,"i_lat":-6.137569,"line":0,"i_long":106.812439,"distance":0,"station_id":"JAKK","is_transit":true,"station_name":"Jakarta Kota"},{"distance":1364,"i_long":106.826365,"station_name":"Kampung Bandan","transit":false,"is_transit":true,"line":0,"time":3,"station_id":"KPB","i_lat":-6.132549},{"is_transit":false,"time":4,"transit":false,"distance":2185,"station_name":"Ancol","station_id":"AC","i_long":106.84464,"line":0,"i_lat":-6.128023}],[{"is_transit":true,"i_lat":-6.137569,"line":0,"i_long":106.812439,"time":0,"station_name":"Jakarta Kota","station_id":"JAKK","distance":0,"transit":false},{"line":7,"i_lat":-6.141205,"time":4,"transit":false,"i_long":106.820901,"is_transit":false,"station_id":"JAY","station_name":"Jayakarta","distance":1264},{"station_id":"MGB","line":2,"station_name":"Manggabesar","is_transit":false,"time":2,"distance":1080,"transit":false,"i_long":106.82482,"i_lat":-6.149769},{"i_long":106.827103,"time":2,"is_transit":false,"distance":906,"line":2,"transit":false,"station_id":"SW","station_name":"Sawah Besar","i_lat":-6.160725},{"station_name":"Juanda","transit":false,"is_transit":false,"time":2,"i_lat":-6.166716,"station_id":"JUA","i_long":106.828284,"line":2,"distance":1149},{"i_lat":-6.186295,"distance":2015,"line":2,"is_transit":false,"station_name":"Gondangdia","i_long":106.832183,"station_id":"GDD","time":4,"transit":false},{"i_long":106.840169,"is_transit":false,"time":3,"line":0,"transit":false,"station_id":"CKI","station_name":"Cikini","i_lat":-6.198556,"distance":1750},{"line":0,"time":4,"is_transit":true,"station_id":"MRI","transit":true,"i_lat":-6.209883,"i_long":106.84912,"station_name":"Manggarai","distance":1590},{"distance":3186,"time":4,"is_transit":false,"transit":false,"i_long":106.822649,"i_lat":-6.202263,"station_name":"Sudirman","line":1,"station_id":"SUD"},{"time":1,"distance":280,"station_id":"SUDB","i_lat":-6.201433,"station_name":"Sudirman Baru","transit":false,"is_transit":false,"line":1,"i_long":106.819881},{"is_transit":false,"time":1,"distance":471,"station_name":"Karet","transit":false,"i_lat":-6.20132,"station_id":"KAT","line":1,"i_long":106.816351},{"line":1,"is_transit":true,"time":5,"transit":false,"i_lat":-6.185545,"distance":2029,"station_name":"Tanah Abang","i_long":106.811091,"station_id":"THB"},{"transit":true,"distance":3632,"station_id":"DU","station_name":"Duri","is_transit":true,"i_lat":-6.155215,"i_long":106.800832,"time":8,"line":1},{"line":0,"time":4,"station_id":"AK","transit":false,"station_name":"Angke","distance":1230,"is_transit":false,"i_lat":-6.144674,"i_long":106.79867},{"is_transit":true,"time":9,"distance":4102,"line":0,"transit":false,"station_name":"Kampung Bandan","i_long":106.826365,"station_id":"KPB","i_lat":-6.132549},{"time":4,"is_transit":false,"line":0,"i_lat":-6.128023,"station_name":"Ancol","distance":2185,"station_id":"AC","transit":false,"i_long":106.84464}],[{"station_id":"JAKK","time":0,"i_lat":-6.137569,"is_transit":true,"i_long":106.812439,"line":0,"distance":0,"transit":false,"station_name":"Jakarta Kota"},{"line":7,"time":4,"distance":1264,"station_id":"JAY","transit":false,"is_transit":false,"station_name":"Jayakarta","i_long":106.820901,"i_lat":-6.141205},{"transit":false,"station_id":"MGB","time":2,"distance":1080,"station_name":"Manggabesar","is_transit":false,"i_long":106.82482,"i_lat":-6.149769,"line":2},{"time":2,"station_name":"Sawah Besar","i_lat":-6.160725,"line":2,"station_id":"SW","is_transit":false,"transit":false,"i_long":106.827103,"distance":906},{"station_name":"Juanda","line":2,"station_id":"JUA","distance":1149,"i_long":106.828284,"time":2,"is_transit":false,"transit":false,"i_lat":-6.166716},{"line":2,"i_long":106.832183,"station_name":"Gondangdia","time":4,"transit":false,"is_transit":false,"i_lat":-6.186295,"distance":2015,"station_id":"GDD"},{"i_long":106.840169,"time":3,"is_transit":false,"station_id":"CKI","station_name":"Cikini","transit":false,"line":0,"i_lat":-6.198556,"distance":1750},{"transit":true,"i_lat":-6.209883,"i_long":106.84912,"is_transit":true,"station_id":"MRI","time":4,"station_name":"Manggarai","line":0,"distance":1590},{"time":2,"distance":1275,"station_id":"MTR","i_lat":-6.212485,"line":1,"station_name":"Matraman","i_long":106.858896,"is_transit":false,"transit":false},{"station_id":"JNG","time":8,"transit":true,"i_lat":-6.215091,"station_name":"Jatinegara","is_transit":true,"line":0,"i_long":106.86807400000001,"distance":1377},{"i_lat":-6.209188,"line":11,"distance":1236,"transit":false,"i_long":106.861737,"station_name":"Pondok Jati","station_id":"POK","is_transit":false,"time":2},{"distance":1829,"time":2,"station_id":"KMT","station_name":"Kramat","transit":false,"i_lat":-6.193792,"is_transit":false,"i_long":106.855437,"line":11},{"time":1,"station_name":"Gang Sentiong","i_long":106.850107,"line":11,"distance":973,"is_transit":false,"station_id":"GST","i_lat":-6.185975,"transit":false},{"i_lat":-6.174784,"i_long":106.84368,"time":8,"line":11,"transit":false,"station_id":"PSE","distance":1567,"station_name":"Pasar Senen","is_transit":false},{"time":4,"transit":false,"station_id":"KMO","distance":1436,"is_transit":false,"line":11,"i_long":106.839204,"station_name":"Kemayoran","i_lat":-6.161728},{"distance":1901,"time":5,"station_name":"Rajawali","i_long":106.836569,"transit":false,"i_lat":-6.14505,"line":11,"station_id":"RJW","is_transit":false},{"station_id":"KPB","distance":1444,"time":3,"transit":true,"is_transit":true,"i_lat":-6.132549,"station_name":"Kampung Bandan","i_long":106.826365,"line":0},{"i_long":106.84464,"line":0,"station_id":"AC","distance":2185,"i_lat":-6.128023,"transit":false,"time":4,"is_transit":false,"station_name":"Ancol"}]]}