{"data":[[{"station_name":"Jakarta Kota","distance":0,"transit":false,"line":2,"is_transit":false,"time":0,"station_id":"JAKK","i_lat":-6.137569,"i_long":106.812439},{"line":4,"distance":1364,"station_name":"Kampung Bandan","i_long":106.826365,"is_transit":true,"i_lat":-6.132549,"station_id":"KPB","time":3,"transit":true},{"i_long":106.79867,"distance":4102,"station_name":"Angke","i_lat":-6.144674,"station_id":"AK","is_transit":false,"time":9,"line":1,"transit":false},{"distance":1230,"is_transit":false,"i_lat":-6.155215,"i_long":106.800832,"station_name":"Duri","time":4,"station_id":"DU","line":1,"transit":false},{"time":8,"i_lat":-6.185545,"is_transit":true,"i_long":106.811091,"station_name":"Tanah Abang","line":1,"station_id":"THB","distance":3632,"transit":true},{"distance":3191,"transit":false,"time":6,"is_transit":false,"station_id":"PLM","i_long":106.79689,"station_name":"Palmerah","i_lat":-6.207404,"line":6},{"i_long":106.780334,"time":7,"station_name":"Kebayoran","i_lat":-6.237242,"line":6,"is_transit":false,"station_id":"KBY","distance":3737,"transit":false}],[{"station_id":"JAKK","line":2,"transit":false,"station_name":"Jakarta Kota","i_long":106.812439,"time":0,"i_lat":-6.137569,"distance":0,"is_transit":false},{"line":2,"station_id":"JAY","station_name":"Jayakarta","distance":1264,"i_long":106.820901,"time":4,"transit":false,"is_transit":false,"i_lat":-6.141205},{"i_long":106.82482,"line":2,"transit":false,"station_id":"MGB","is_transit":false,"time":2,"distance":1080,"i_lat":-6.149769,"station_name":"Manggabesar"},{"station_id":"SW","transit":false,"is_transit":false,"time":2,"line":2,"i_lat":-6.160725,"i_long":106.827103,"distance":906,"station_name":"Sawah Besar"},{"line":2,"time":2,"distance":1149,"station_name":"Juanda","i_lat":-6.166716,"station_id":"JUA","i_long":106.828284,"transit":false,"is_transit":false},{"is_transit":false,"time":4,"distance":2015,"transit":false,"station_name":"Gondangdia","station_id":"GDD","i_long":106.832183,"i_lat":-6.186295,"line":2},{"line":2,"distance":1750,"transit":false,"is_transit":false,"station_name":"Cikini","i_long":106.840169,"i_lat":-6.198556,"station_id":"CKI","time":3},{"station_id":"MRI","time":4,"line":2,"distance":1590,"i_lat":-6.209883,"is_transit":true,"station_name":"Manggarai","transit":true,"i_long":106.84912},{"i_lat":-6.202263,"station_id":"SUD","time":4,"station_name":"Sudirman","distance":3186,"line":1,"i_long":106.822649,"is_transit":false,"transit":false},{"is_transit":false,"i_lat":-6.201433,"transit":false,"station_name":"Sudirman Baru","i_long":106.819881,"line":1,"station_id":"SUDB","time":1,"distance":280},{"line":1,"time":1,"is_transit":false,"distance":471,"station_name":"Karet","i_lat":-6.20132,"i_long":106.816351,"station_id":"KAT","transit":false},{"station_name":"Tanah Abang","is_transit":true,"transit":true,"time":5,"distance":2029,"station_id":"THB","i_lat":-6.185545,"i_long":106.811091,"line":1},{"is_transit":false,"line":6,"transit":false,"station_name":"Palmerah","distance":3191,"station_id":"PLM","i_long":106.79689,"time":6,"i_lat":-6.207404},{"station_id":"KBY","i_lat":-6.237242,"station_name":"Kebayoran","time":7,"transit":false,"i_long":106.780334,"distance":3737,"is_transit":false,"line":6}],[{"line":2,"i_long":106.812439,"i_lat":-6.137569,"is_transit":false,"station_name":"Jakarta Kota","transit":false,"time":0,"distance":0,"station_id":"JAKK"},{"i_long":106.826365,"station_name":"Kampung Bandan","i_lat":-6.132549,"is_transit":true,"distance":1364,"line":4,"transit":true,"time":3,"station_id":"KPB"},{"station_name":"Rajawali","line":11,"i_lat":-6.14505,"distance":1444,"transit":false,"i_long":106.836569,"is_transit":false,"station_id":"RJW","time":3},{"time":5,"transit":false,"is_transit":false,"station_name":"Kemayoran","i_long":106.839204,"station_id":"KMO","distance":1901,"line":11,"i_lat":-6.161728},{"time":4,"line":11,"station_name":"Pasar Senen","i_long":106.84368,"transit":false,"is_transit":false,"i_lat":-6.174784,"distance":1436,"station_id":"PSE"},{"station_id":"GST","i_lat":-6.185975,"i_long":106.850107,"transit":false,"station_name":"Gang Sentiong","is_transit":false,"distance":1567,"line":11,"time":8},{"station_name":"Kramat","is_transit":false,"distance":973,"station_id":"KMT","i_lat":-6.193792,"time":1,"i_long":106.855437,"transit":false,"line":11},{"transit":false,"i_lat":-6.209188,"is_transit":false,"station_id":"POK","station_name":"Pondok Jati","time":2,"distance":1829,"line":11,"i_long":106.861737},{"station_name":"Jatinegara","i_lat":-6.215091,"transit":true,"time":9,"distance":1236,"is_transit":true,"station_id":"JNG","i_long":106.86807400000001,"line":1},{"is_transit":false,"time":2,"distance":1377,"i_lat":-6.212485,"line":1,"transit":false,"station_name":"Matraman","station_id":"MTR","i_long":106.858896},{"station_id":"MRI","i_long":106.84912,"station_name":"Manggarai","transit":false,"distance":1275,"time":2,"is_transit":false,"i_lat":-6.209883,"line":2},{"i_long":106.822649,"transit":false,"station_id":"SUD","is_transit":false,"time":4,"distance":3186,"i_lat":-6.202263,"station_name":"Sudirman","line":1},{"distance":280,"i_lat":-6.201433,"i_long":106.819881,"transit":false,"time":1,"line":1,"station_name":"Sudirman Baru","is_transit":false,"station_id":"SUDB"},{"i_lat":-6.20132,"transit":false,"station_name":"Karet","i_long":106.816351,"line":1,"is_transit":false,"time":1,"station_id":"KAT","distance":471},{"station_name":"Tanah Abang","i_long":106.811091,"i_lat":-6.185545,"time":5,"distance":2029,"station_id":"THB","is_transit":true,"line":1,"transit":true},{"i_long":106.79689,"line":6,"station_name":"Palmerah","time":6,"distance":3191,"is_transit":false,"i_lat":-6.207404,"transit":false,"station_id":"PLM"},{"i_lat":-6.237242,"time":7,"line":6,"transit":false,"is_transit":false,"distance":3737,"station_name":"Kebayoran","station_id":"KBY","i_long":106.780334}],[{"station_id":"JAKK","line":2,"i_long":106.812439,"is_transit":false,"i_lat":-6.137569,"transit":false,"station_name":"Jakarta Kota","distance":0,"time":0},{"time":4,"station_name":"Jayakarta","i_lat":-6.141205,"line":2,"i_long":106.820901,"station_id":"JAY","distance":1264,"transit":false,"is_transit":false},{"time":2,"line":2,"is_transit":false,"i_lat":-6.149769,"station_id":"MGB","distance":1080,"transit":false,"i_long":106.82482,"station_name":"Manggabesar"},{"i_long":106.827103,"time":2,"line":2,"distance":906,"is_transit":false,"station_name":"Sawah Besar","station_id":"SW","transit":false,"i_lat":-6.160725},{"distance":1149,"station_id":"JUA","station_name":"Juanda","transit":false,"i_lat":-6.166716,"i_long":106.828284,"time":2,"is_transit":false,"line":2},{"time":4,"transit":false,"i_lat":-6.186295,"i_long":106.832183,"is_transit":false,"station_name":"Gondangdia","line":2,"distance":2015,"station_id":"GDD"},{"station_name":"Cikini","transit":false,"line":2,"is_transit":false,"time":3,"i_long":106.840169,"distance":1750,"station_id":"CKI","i_lat":-6.198556},{"i_long":106.84912,"is_transit":true,"line":2,"distance":1590,"station_name":"Manggarai","transit":true,"station_id":"MRI","time":4,"i_lat":-6.209883},{"station_name":"Matraman","time":2,"distance":1275,"is_transit":false,"i_long":106.858896,"station_id":"MTR","i_lat":-6.212485,"line":1,"transit":false},{"i_lat":-6.215091,"line":1,"time":8,"distance":1377,"station_id":"JNG","transit":true,"station_name":"Jatinegara","i_long":106.86807400000001,"is_transit":true},{"station_name":"Pondok Jati","transit":false,"i_long":106.861737,"time":2,"line":11,"i_lat":-6.209188,"station_id":"POK","distance":1236,"is_transit":false},{"i_lat":-6.193792,"i_long":106.855437,"time":2,"transit":false,"is_transit":false,"station_name":"Kramat","distance":1829,"station_id":"KMT","line":11},{"station_name":"Gang Sentiong","station_id":"GST","i_lat":-6.185975,"line":11,"i_long":106.850107,"time":1,"transit":false,"is_transit":false,"distance":973},{"station_name":"Pasar Senen","line":11,"transit":false,"i_lat":-6.174784,"i_long":106.84368,"station_id":"PSE","time":8,"is_transit":false,"distance":1567},{"i_lat":-6.161728,"station_name":"Kemayoran","time":4,"station_id":"KMO","transit":false,"line":11,"is_transit":false,"i_long":106.839204,"distance":1436},{"station_id":"RJW","distance":1901,"time":5,"i_long":106.836569,"line":11,"transit":false,"i_lat":-6.14505,"is_transit":false,"station_name":"Rajawali"},{"transit":true,"is_transit":true,"i_lat":-6.132549,"station_name":"Kampung Bandan","line":4,"station_id":"KPB","i_long":106.826365,"time":3,"distance":1444},{"time":9,"station_id":"AK","transit":false,"line":1,"station_name":"Angke","i_lat":-6.144674,"distance":4102,"i_long":106.79867,"is_transit":false},{"i_long":106.800832,"line":1,"is_transit":false,"distance":1230,"time":4,"i_lat":-6.155215,"transit":false,"station_id":"DU","station_name":"Duri"},{"distance":3632,"i_lat":-6.185545,"transit":true,"is_transit":true,"station_id":"THB","i_long":106.811091,"station_name":"Tanah Abang","time":8,"line":1},{"i_long":106.79689,"transit":false,"distance":3191,"time":6,"station_id":"PLM","i_lat":-6.207404,"line":6,"station_name":"Palmerah","is_transit":false},{"station_name":"Kebayoran","transit":false,"i_lat":-6.237242,"line":6,"i_long":106.780334,"distance":3737,"is_transit":false,"station_id":"KBY","time":7}]]}