{"data":[[{"station_name":"Jakarta Kota","station_id":"JAKK","is_transit":false,"i_lat":-6.137569,"distance":0,"i_long":106.812439,"line":2,"time":0,"transit":false},{"time":3,"transit":true,"i_lat":-6.132549,"line":4,"distance":1364,"i_long":106.826365,"is_transit":true,"station_id":"KPB","station_name":"Kampung Bandan"},{"line":11,"station_id":"RJW","transit":false,"is_transit":false,"distance":1444,"station_name":"Rajawali","i_lat":-6.14505,"time":3,"i_long":106.836569},{"time":5,"station_name":"Kemayoran","transit":false,"i_lat":-6.161728,"station_id":"KMO","line":11,"distance":1901,"i_long":106.839204,"is_transit":false},{"station_name":"Pasar Senen","is_transit":false,"i_lat":-6.174784,"station_id":"PSE","transit":false,"distance":1436,"i_long":106.84368,"line":11,"time":4},{"i_lat":-6.185975,"station_id":"GST","i_long":106.850107,"station_name":"Gang Sentiong","time":8,"is_transit":false,"distance":1567,"transit":false,"line":11},{"time":1,"i_long":106.855437,"station_name":"Kramat","is_transit":false,"i_lat":-6.193792,"line":11,"station_id":"KMT","distance":973,"transit":false},{"i_long":106.861737,"is_transit":false,"line":11,"i_lat":-6.209188,"distance":1829,"station_id":"POK","time":2,"transit":false,"station_name":"Pondok Jati"},{"station_name":"Jatinegara","transit":true,"is_transit":true,"i_long":106.86807400000001,"distance":1236,"i_lat":-6.215091,"line":1,"time":9,"station_id":"JNG"},{"i_lat":-6.2135,"time":3,"station_name":"Klender","transit":false,"is_transit":false,"station_id":"KLD","i_long":106.899548,"distance":3395,"line":1},{"transit":false,"station_name":"Buaran","distance":3100,"station_id":"BUA","line":1,"time":2,"is_transit":false,"i_lat":-6.215568,"i_long":106.922662},{"transit":false,"line":1,"is_transit":false,"station_id":"KLDB","station_name":"Klenderbaru","time":1,"i_long":106.939679,"distance":1305,"i_lat":-6.217455},{"is_transit":false,"transit":false,"time":8,"distance":1385,"i_lat":-6.219053,"i_long":106.951283,"station_name":"Cakung","line":1,"station_id":"CUK"},{"distance":3097,"is_transit":false,"i_lat":-6.224515,"station_name":"Kranji","i_long":106.977657,"transit":false,"line":1,"station_id":"KRI","time":3},{"station_id":"BKS","is_transit":false,"distance":2520,"line":1,"i_long":106.997013,"transit":false,"time":4,"station_name":"Bekasi","i_lat":-6.236616},{"time":2,"distance":2368,"i_long":107.016735,"transit":false,"station_name":"Bekasi Timur","is_transit":false,"line":1,"i_lat":-6.248029,"station_id":"BKST"},{"distance":4460,"is_transit":false,"transit":false,"station_name":"Tambun","i_long":107.055722,"station_id":"TB","time":7,"i_lat":-6.258864,"line":1},{"line":1,"distance":3420,"is_transit":false,"i_lat":-6.261877,"station_name":"Cibitung","station_id":"CIT","i_long":107.083084,"transit":false,"time":3}],[{"distance":0,"is_transit":false,"station_name":"Jakarta Kota","time":0,"transit":false,"i_lat":-6.137569,"line":2,"station_id":"JAKK","i_long":106.812439},{"transit":false,"i_lat":-6.141205,"time":4,"station_name":"Jayakarta","station_id":"JAY","is_transit":false,"i_long":106.820901,"distance":1264,"line":2},{"is_transit":false,"station_name":"Manggabesar","time":2,"distance":1080,"i_long":106.82482,"transit":false,"line":2,"i_lat":-6.149769,"station_id":"MGB"},{"line":2,"distance":906,"is_transit":false,"station_name":"Sawah Besar","time":2,"i_long":106.827103,"transit":false,"station_id":"SW","i_lat":-6.160725},{"transit":false,"i_long":106.828284,"station_id":"JUA","time":2,"is_transit":false,"line":2,"station_name":"Juanda","i_lat":-6.166716,"distance":1149},{"time":4,"station_id":"GDD","is_transit":false,"station_name":"Gondangdia","i_lat":-6.186295,"line":2,"distance":2015,"i_long":106.832183,"transit":false},{"transit":false,"station_name":"Cikini","line":2,"i_long":106.840169,"time":3,"i_lat":-6.198556,"is_transit":false,"station_id":"CKI","distance":1750},{"is_transit":true,"i_long":106.84912,"station_name":"Manggarai","station_id":"MRI","transit":true,"i_lat":-6.209883,"distance":1590,"line":2,"time":4},{"station_id":"MTR","distance":1275,"station_name":"Matraman","line":1,"is_transit":false,"time":2,"i_long":106.858896,"transit":false,"i_lat":-6.212485},{"transit":false,"station_id":"JNG","station_name":"Jatinegara","is_transit":false,"time":8,"distance":1377,"i_lat":-6.215091,"i_long":106.86807400000001,"line":1},{"line":1,"station_name":"Klender","transit":false,"station_id":"KLD","time":3,"is_transit":false,"distance":3395,"i_lat":-6.2135,"i_long":106.899548},{"is_transit":false,"time":2,"station_name":"Buaran","distance":3100,"station_id":"BUA","i_lat":-6.215568,"i_long":106.922662,"transit":false,"line":1},{"is_transit":false,"station_name":"Klenderbaru","i_lat":-6.217455,"station_id":"KLDB","distance":1305,"time":1,"i_long":106.939679,"transit":false,"line":1},{"is_transit":false,"line":1,"station_name":"Cakung","station_id":"CUK","distance":1385,"time":8,"i_long":106.951283,"i_lat":-6.219053,"transit":false},{"time":3,"station_id":"KRI","i_lat":-6.224515,"i_long":106.977657,"station_name":"Kranji","is_transit":false,"distance":3097,"transit":false,"line":1},{"i_lat":-6.236616,"station_name":"Bekasi","time":4,"station_id":"BKS","transit":false,"i_long":106.997013,"distance":2520,"line":1,"is_transit":false},{"station_name":"Bekasi Timur","i_long":107.016735,"i_lat":-6.248029,"is_transit":false,"distance":2368,"line":1,"transit":false,"station_id":"BKST","time":2},{"time":7,"distance":4460,"is_transit":false,"line":1,"station_name":"Tambun","station_id":"TB","transit":false,"i_lat":-6.258864,"i_long":107.055722},{"station_name":"Cibitung","i_lat":-6.261877,"is_transit":false,"transit":false,"station_id":"CIT","time":3,"distance":3420,"i_long":107.083084,"line":1}],[{"station_name":"Jakarta Kota","line":2,"transit":false,"station_id":"JAKK","i_lat":-6.137569,"is_transit":false,"distance":0,"time":0,"i_long":106.812439},{"i_long":106.826365,"time":3,"station_id":"KPB","station_name":"Kampung Bandan","is_transit":true,"line":4,"transit":true,"distance":1364,"i_lat":-6.132549},{"transit":false,"station_name":"Angke","is_transit":false,"i_lat":-6.144674,"time":9,"i_long":106.79867,"line":1,"station_id":"AK","distance":4102},{"transit":false,"station_id":"DU","time":4,"line":1,"distance":1230,"station_name":"Duri","i_lat":-6.155215,"i_long":106.800832,"is_transit":false},{"distance":3632,"i_long":106.811091,"station_name":"Tanah Abang","transit":false,"line":1,"i_lat":-6.185545,"time":8,"station_id":"THB","is_transit":false},{"line":1,"station_name":"Karet","i_lat":-6.20132,"is_transit":false,"i_long":106.816351,"station_id":"KAT","time":5,"distance":2029,"transit":false},{"i_long":106.819881,"line":1,"distance":471,"transit":false,"i_lat":-6.201433,"station_id":"SUDB","station_name":"Sudirman Baru","time":1,"is_transit":false},{"station_name":"Sudirman","is_transit":false,"transit":false,"station_id":"SUD","i_lat":-6.202263,"i_long":106.822649,"line":1,"distance":280,"time":1},{"i_long":106.84912,"time":4,"transit":false,"station_name":"Manggarai","is_transit":false,"i_lat":-6.209883,"distance":3186,"line":2,"station_id":"MRI"},{"distance":1275,"time":2,"station_id":"MTR","line":1,"transit":false,"i_lat":-6.212485,"is_transit":false,"station_name":"Matraman","i_long":106.858896},{"time":8,"distance":1377,"i_lat":-6.215091,"transit":false,"i_long":106.86807400000001,"line":1,"station_id":"JNG","station_name":"Jatinegara","is_transit":false},{"i_lat":-6.2135,"transit":false,"station_id":"KLD","time":3,"distance":3395,"station_name":"Klender","is_transit":false,"i_long":106.899548,"line":1},{"distance":3100,"station_id":"BUA","is_transit":false,"transit":false,"station_name":"Buaran","i_long":106.922662,"line":1,"time":2,"i_lat":-6.215568},{"time":1,"is_transit":false,"i_lat":-6.217455,"i_long":106.939679,"transit":false,"station_name":"Klenderbaru","station_id":"KLDB","line":1,"distance":1305},{"is_transit":false,"i_lat":-6.219053,"line":1,"distance":1385,"i_long":106.951283,"transit":false,"station_name":"Cakung","station_id":"CUK","time":8},{"station_id":"KRI","i_long":106.977657,"line":1,"transit":false,"distance":3097,"i_lat":-6.224515,"time":3,"is_transit":false,"station_name":"Kranji"},{"transit":false,"time":4,"line":1,"is_transit":false,"station_id":"BKS","station_name":"Bekasi","distance":2520,"i_lat":-6.236616,"i_long":106.997013},{"i_lat":-6.248029,"distance":2368,"station_id":"BKST","line":1,"i_long":107.016735,"time":2,"is_transit":false,"transit":false,"station_name":"Bekasi Timur"},{"distance":4460,"line":1,"i_lat":-6.258864,"i_long":107.055722,"station_id":"TB","is_transit":false,"station_name":"Tambun","transit":false,"time":7},{"station_name":"Cibitung","distance":3420,"station_id":"CIT","transit":false,"i_lat":-6.261877,"time":3,"i_long":107.083084,"line":1,"is_transit":false}],[{"distance":0,"is_transit":false,"i_long":106.812439,"line":2,"i_lat":-6.137569,"station_name":"Jakarta Kota","station_id":"JAKK","time":0,"transit":false},{"is_transit":false,"station_name":"Jayakarta","distance":1264,"i_lat":-6.141205,"i_long":106.820901,"transit":false,"line":2,"time":4,"station_id":"JAY"},{"i_lat":-6.149769,"line":2,"i_long":106.82482,"transit":false,"station_name":"Manggabesar","station_id":"MGB","time":2,"distance":1080,"is_transit":false},{"station_id":"SW","is_transit":false,"line":2,"station_name":"Sawah Besar","distance":906,"i_lat":-6.160725,"i_long":106.827103,"transit":false,"time":2},{"station_id":"JUA","i_lat":-6.166716,"is_transit":false,"time":2,"station_name":"Juanda","distance":1149,"line":2,"transit":false,"i_long":106.828284},{"distance":2015,"is_transit":false,"i_long":106.832183,"line":2,"station_id":"GDD","time":4,"i_lat":-6.186295,"transit":false,"station_name":"Gondangdia"},{"i_lat":-6.198556,"i_long":106.840169,"transit":false,"station_name":"Cikini","time":3,"distance":1750,"is_transit":false,"line":2,"station_id":"CKI"},{"is_transit":true,"station_name":"Manggarai","time":4,"distance":1590,"i_long":106.84912,"line":2,"i_lat":-6.209883,"transit":true,"station_id":"MRI"},{"i_lat":-6.202263,"time":4,"transit":false,"station_name":"Sudirman","station_id":"SUD","distance":3186,"is_transit":false,"i_long":106.822649,"line":1},{"i_long":106.819881,"line":1,"station_id":"SUDB","transit":false,"i_lat":-6.201433,"distance":280,"is_transit":false,"station_name":"Sudirman Baru","time":1},{"time":1,"is_transit":false,"transit":false,"i_lat":-6.20132,"line":1,"i_long":106.816351,"distance":471,"station_name":"Karet","station_id":"KAT"},{"station_id":"THB","distance":2029,"transit":false,"line":1,"i_lat":-6.185545,"time":5,"is_transit":false,"station_name":"Tanah Abang","i_long":106.811091},{"station_name":"Duri","time":8,"i_lat":-6.155215,"i_long":106.800832,"line":1,"distance":3632,"station_id":"DU","is_transit":false,"transit":false},{"i_lat":-6.144674,"station_name":"Angke","time":4,"i_long":106.79867,"station_id":"AK","transit":false,"distance":1230,"is_transit":false,"line":1},{"station_id":"KPB","i_lat":-6.132549,"is_transit":true,"i_long":106.826365,"line":4,"transit":true,"station_name":"Kampung Bandan","distance":4102,"time":9},{"distance":1444,"transit":false,"time":3,"line":11,"i_long":106.836569,"station_name":"Rajawali","station_id":"RJW","is_transit":false,"i_lat":-6.14505},{"i_lat":-6.161728,"station_name":"Kemayoran","time":5,"line":11,"station_id":"KMO","transit":false,"is_transit":false,"distance":1901,"i_long":106.839204},{"line":11,"transit":false,"i_lat":-6.174784,"time":4,"is_transit":false,"station_name":"Pasar Senen","distance":1436,"station_id":"PSE","i_long":106.84368},{"distance":1567,"i_lat":-6.185975,"i_long":106.850107,"line":11,"transit":false,"station_name":"Gang Sentiong","station_id":"GST","time":8,"is_transit":false},{"distance":973,"line":11,"i_lat":-6.193792,"time":1,"station_id":"KMT","station_name":"Kramat","transit":false,"is_transit":false,"i_long":106.855437},{"is_transit":false,"i_lat":-6.209188,"station_name":"Pondok Jati","station_id":"POK","line":11,"transit":false,"time":2,"distance":1829,"i_long":106.861737},{"i_long":106.86807400000001,"is_transit":true,"distance":1236,"transit":true,"i_lat":-6.215091,"station_id":"JNG","time":9,"station_name":"Jatinegara","line":1},{"i_lat":-6.2135,"i_long":106.899548,"station_name":"Klender","station_id":"KLD","line":1,"distance":3395,"time":3,"transit":false,"is_transit":false},{"time":2,"line":1,"station_id":"BUA","distance":3100,"is_transit":false,"i_lat":-6.215568,"i_long":106.922662,"station_name":"Buaran","transit":false},{"time":1,"is_transit":false,"distance":1305,"station_id":"KLDB","transit":false,"station_name":"Klenderbaru","i_lat":-6.217455,"i_long":106.939679,"line":1},{"line":1,"i_lat":-6.219053,"i_long":106.951283,"is_transit":false,"time":8,"station_name":"Cakung","transit":false,"station_id":"CUK","distance":1385},{"is_transit":false,"i_lat":-6.224515,"transit":false,"station_name":"Kranji","station_id":"KRI","time":3,"i_long":106.977657,"distance":3097,"line":1},{"station_id":"BKS","station_name":"Bekasi","time":4,"distance":2520,"i_lat":-6.236616,"transit":false,"i_long":106.997013,"is_transit":false,"line":1},{"i_long":107.016735,"transit":false,"station_id":"BKST","i_lat":-6.248029,"distance":2368,"line":1,"time":2,"station_name":"Bekasi Timur","is_transit":false},{"transit":false,"distance":4460,"time":7,"line":1,"station_name":"Tambun","i_long":107.055722,"station_id":"TB","i_lat":-6.258864,"is_transit":false},{"time":3,"distance":3420,"transit":false,"i_lat":-6.261877,"station_name":"Cibitung","i_long":107.083084,"line":1,"station_id":"CIT","is_transit":false}]]}