{"data":[[{"line":2,"i_long":106.812439,"distance":0,"station_id":"JAKK","i_lat":-6.137569,"station_name":"Jakarta Kota","transit":false,"is_transit":false,"time":0},{"is_transit":true,"time":3,"distance":1364,"i_lat":-6.132549,"line":4,"station_id":"KPB","i_long":106.826365,"transit":true,"station_name":"Kampung Bandan"},{"transit":false,"station_id":"AC","time":4,"station_name":"Ancol","is_transit":false,"i_long":106.84464,"distance":2185,"line":4,"i_lat":-6.128023}],[{"transit":false,"station_id":"JAKK","is_transit":false,"line":2,"station_name":"Jakarta Kota","distance":0,"i_long":106.812439,"time":0,"i_lat":-6.137569},{"station_name":"Jayakarta","station_id":"JAY","i_long":106.820901,"transit":false,"distance":1264,"time":4,"i_lat":-6.141205,"is_transit":false,"line":2},{"station_id":"MGB","i_long":106.82482,"line":2,"time":2,"i_lat":-6.149769,"transit":false,"station_name":"Manggabesar","distance":1080,"is_transit":false},{"is_transit":false,"line":2,"time":2,"station_id":"SW","i_long":106.827103,"i_lat":-6.160725,"distance":906,"station_name":"Sawah Besar","transit":false},{"station_name":"Juanda","time":2,"i_lat":-6.166716,"distance":1149,"line":2,"transit":false,"station_id":"JUA","i_long":106.828284,"is_transit":false},{"station_name":"Gondangdia","i_long":106.832183,"transit":false,"i_lat":-6.186295,"is_transit":false,"distance":2015,"time":4,"station_id":"GDD","line":2},{"i_lat":-6.198556,"time":3,"station_name":"Cikini","is_transit":false,"station_id":"CKI","distance":1750,"i_long":106.840169,"transit":false,"line":2},{"station_name":"Manggarai","line":2,"i_long":106.84912,"station_id":"MRI","i_lat":-6.209883,"time":4,"transit":true,"distance":1590,"is_transit":true},{"is_transit":false,"transit":false,"time":4,"station_id":"SUD","i_long":106.822649,"station_name":"Sudirman","distance":3186,"i_lat":-6.202263,"line":1},{"station_name":"Sudirman Baru","station_id":"SUDB","time":1,"i_lat":-6.201433,"distance":280,"transit":false,"line":1,"i_long":106.819881,"is_transit":false},{"station_name":"Karet","time":1,"i_lat":-6.20132,"line":1,"station_id":"KAT","is_transit":false,"distance":471,"i_long":106.816351,"transit":false},{"time":5,"transit":false,"is_transit":false,"i_lat":-6.185545,"station_id":"THB","i_long":106.811091,"station_name":"Tanah Abang","line":1,"distance":2029},{"is_transit":false,"transit":false,"time":8,"distance":3632,"i_long":106.800832,"station_name":"Duri","station_id":"DU","i_lat":-6.155215,"line":1},{"line":1,"time":4,"distance":1230,"station_name":"Angke","is_transit":false,"station_id":"AK","i_long":106.79867,"transit":false,"i_lat":-6.144674},{"time":9,"station_id":"KPB","station_name":"Kampung Bandan","transit":true,"i_lat":-6.132549,"is_transit":true,"i_long":106.826365,"line":4,"distance":4102},{"transit":false,"i_long":106.84464,"time":4,"distance":2185,"is_transit":false,"station_name":"Ancol","station_id":"AC","i_lat":-6.128023,"line":4}],[{"distance":0,"time":0,"i_long":106.812439,"line":2,"transit":false,"is_transit":false,"station_id":"JAKK","i_lat":-6.137569,"station_name":"Jakarta Kota"},{"time":4,"station_name":"Jayakarta","distance":1264,"i_lat":-6.141205,"transit":false,"line":2,"i_long":106.820901,"is_transit":false,"station_id":"JAY"},{"i_lat":-6.149769,"line":2,"time":2,"station_id":"MGB","station_name":"Manggabesar","transit":false,"i_long":106.82482,"is_transit":false,"distance":1080},{"line":2,"i_lat":-6.160725,"is_transit":false,"station_name":"Sawah Besar","distance":906,"i_long":106.827103,"time":2,"station_id":"SW","transit":false},{"station_id":"JUA","is_transit":false,"time":2,"line":2,"transit":false,"distance":1149,"i_long":106.828284,"i_lat":-6.166716,"station_name":"Juanda"},{"station_id":"GDD","is_transit":false,"distance":2015,"line":2,"station_name":"Gondangdia","time":4,"i_lat":-6.186295,"transit":false,"i_long":106.832183},{"time":3,"line":2,"is_transit":false,"i_long":106.840169,"station_id":"CKI","station_name":"Cikini","transit":false,"distance":1750,"i_lat":-6.198556},{"i_long":106.84912,"distance":1590,"is_transit":true,"time":4,"station_name":"Manggarai","i_lat":-6.209883,"station_id":"MRI","transit":true,"line":2},{"station_name":"Matraman","transit":false,"station_id":"MTR","line":1,"time":2,"is_transit":false,"i_lat":-6.212485,"i_long":106.858896,"distance":1275},{"is_transit":true,"station_name":"Jatinegara","transit":true,"i_lat":-6.215091,"line":1,"time":8,"distance":1377,"i_long":106.86807400000001,"station_id":"JNG"},{"station_name":"Pondok Jati","is_transit":false,"i_lat":-6.209188,"station_id":"POK","i_long":106.861737,"transit":false,"distance":1236,"line":11,"time":2},{"transit":false,"distance":1829,"line":11,"is_transit":false,"station_name":"Kramat","time":2,"i_long":106.855437,"station_id":"KMT","i_lat":-6.193792},{"line":11,"i_lat":-6.185975,"i_long":106.850107,"distance":973,"station_name":"Gang Sentiong","station_id":"GST","transit":false,"is_transit":false,"time":1},{"is_transit":false,"distance":1567,"station_id":"PSE","line":11,"station_name":"Pasar Senen","time":8,"transit":false,"i_lat":-6.174784,"i_long":106.84368},{"time":4,"transit":false,"i_long":106.839204,"line":11,"distance":1436,"station_name":"Kemayoran","station_id":"KMO","i_lat":-6.161728,"is_transit":false},{"distance":1901,"station_id":"RJW","i_lat":-6.14505,"i_long":106.836569,"station_name":"Rajawali","line":11,"transit":false,"is_transit":false,"time":5},{"i_long":106.826365,"transit":true,"distance":1444,"i_lat":-6.132549,"is_transit":true,"time":3,"line":4,"station_name":"Kampung Bandan","station_id":"KPB"},{"distance":2185,"i_long":106.84464,"transit":false,"station_name":"Ancol","is_transit":false,"i_lat":-6.128023,"time":4,"line":4,"station_id":"AC"}]]}