{"data":[[{"transit":false,"line":2,"station_id":"JAKK","i_long":106.812439,"distance":0,"station_name":"Jakarta Kota","time":0,"is_transit":false,"i_lat":-6.137569},{"distance":1364,"i_long":106.826365,"line":4,"time":3,"transit":true,"station_name":"Kampung Bandan","i_lat":-6.132549,"is_transit":true,"station_id":"KPB"},{"station_name":"Rajawali","transit":false,"i_long":106.836569,"station_id":"RJW","time":3,"is_transit":false,"distance":1444,"line":11,"i_lat":-6.14505},{"i_long":106.839204,"station_name":"Kemayoran","time":5,"is_transit":false,"transit":false,"i_lat":-6.161728,"distance":1901,"station_id":"KMO","line":11},{"i_long":106.84368,"station_name":"Pasar Senen","time":4,"line":11,"transit":false,"is_transit":false,"distance":1436,"station_id":"PSE","i_lat":-6.174784},{"time":8,"i_lat":-6.185975,"i_long":106.850107,"distance":1567,"station_id":"GST","line":11,"station_name":"Gang Sentiong","transit":false,"is_transit":false},{"distance":973,"time":1,"transit":false,"line":11,"i_long":106.855437,"station_name":"Kramat","station_id":"KMT","is_transit":false,"i_lat":-6.193792},{"i_long":106.861737,"station_id":"POK","is_transit":false,"line":11,"distance":1829,"i_lat":-6.209188,"transit":false,"station_name":"Pondok Jati","time":2},{"station_name":"Jatinegara","time":9,"is_transit":false,"i_long":106.86807400000001,"line":1,"station_id":"JNG","distance":1236,"transit":false,"i_lat":-6.215091}],[{"station_id":"JAKK","time":0,"distance":0,"is_transit":false,"i_long":106.812439,"line":2,"station_name":"Jakarta Kota","i_lat":-6.137569,"transit":false},{"station_id":"JAY","is_transit":false,"line":2,"i_long":106.820901,"station_name":"Jayakarta","transit":false,"time":4,"i_lat":-6.141205,"distance":1264},{"line":2,"transit":false,"distance":1080,"i_lat":-6.149769,"is_transit":false,"station_name":"Manggabesar","station_id":"MGB","i_long":106.82482,"time":2},{"transit":false,"line":2,"station_name":"Sawah Besar","time":2,"distance":906,"is_transit":false,"i_lat":-6.160725,"station_id":"SW","i_long":106.827103},{"station_id":"JUA","distance":1149,"is_transit":false,"i_lat":-6.166716,"time":2,"station_name":"Juanda","i_long":106.828284,"line":2,"transit":false},{"time":4,"is_transit":false,"station_name":"Gondangdia","i_lat":-6.186295,"i_long":106.832183,"station_id":"GDD","line":2,"distance":2015,"transit":false},{"i_lat":-6.198556,"transit":false,"is_transit":false,"i_long":106.840169,"station_name":"Cikini","line":2,"time":3,"station_id":"CKI","distance":1750},{"distance":1590,"line":2,"is_transit":true,"i_lat":-6.209883,"station_id":"MRI","i_long":106.84912,"time":4,"station_name":"Manggarai","transit":true},{"is_transit":false,"time":2,"distance":1275,"station_id":"MTR","i_long":106.858896,"transit":false,"station_name":"Matraman","i_lat":-6.212485,"line":1},{"distance":1377,"i_lat":-6.215091,"time":8,"is_transit":false,"transit":false,"station_id":"JNG","station_name":"Jatinegara","i_long":106.86807400000001,"line":1}],[{"transit":false,"i_long":106.812439,"is_transit":false,"station_id":"JAKK","line":2,"time":0,"station_name":"Jakarta Kota","distance":0,"i_lat":-6.137569},{"distance":1364,"transit":true,"time":3,"is_transit":true,"station_name":"Kampung Bandan","i_long":106.826365,"i_lat":-6.132549,"station_id":"KPB","line":4},{"is_transit":false,"time":9,"distance":4102,"i_long":106.79867,"station_id":"AK","line":1,"i_lat":-6.144674,"station_name":"Angke","transit":false},{"distance":1230,"is_transit":false,"i_long":106.800832,"line":1,"transit":false,"station_name":"Duri","time":4,"station_id":"DU","i_lat":-6.155215},{"station_name":"Tanah Abang","distance":3632,"time":8,"i_lat":-6.185545,"i_long":106.811091,"station_id":"THB","is_transit":false,"transit":false,"line":1},{"transit":false,"station_name":"Karet","i_lat":-6.20132,"distance":2029,"time":5,"line":1,"is_transit":false,"station_id":"KAT","i_long":106.816351},{"station_name":"Sudirman Baru","i_long":106.819881,"line":1,"transit":false,"station_id":"SUDB","i_lat":-6.201433,"is_transit":false,"time":1,"distance":471},{"line":1,"i_lat":-6.202263,"time":1,"is_transit":false,"station_id":"SUD","distance":280,"transit":false,"station_name":"Sudirman","i_long":106.822649},{"station_name":"Manggarai","time":4,"distance":3186,"line":2,"station_id":"MRI","transit":false,"is_transit":false,"i_lat":-6.209883,"i_long":106.84912},{"line":1,"distance":1275,"station_name":"Matraman","is_transit":false,"station_id":"MTR","transit":false,"i_lat":-6.212485,"i_long":106.858896,"time":2},{"distance":1377,"station_name":"Jatinegara","time":8,"is_transit":false,"transit":false,"station_id":"JNG","i_lat":-6.215091,"i_long":106.86807400000001,"line":1}],[{"time":0,"i_lat":-6.137569,"i_long":106.812439,"is_transit":false,"station_id":"JAKK","distance":0,"transit":false,"line":2,"station_name":"Jakarta Kota"},{"distance":1264,"is_transit":false,"station_id":"JAY","transit":false,"i_lat":-6.141205,"line":2,"i_long":106.820901,"time":4,"station_name":"Jayakarta"},{"line":2,"distance":1080,"station_id":"MGB","is_transit":false,"transit":false,"time":2,"station_name":"Manggabesar","i_lat":-6.149769,"i_long":106.82482},{"i_long":106.827103,"station_name":"Sawah Besar","time":2,"station_id":"SW","line":2,"transit":false,"distance":906,"i_lat":-6.160725,"is_transit":false},{"i_lat":-6.166716,"distance":1149,"station_name":"Juanda","line":2,"is_transit":false,"i_long":106.828284,"station_id":"JUA","transit":false,"time":2},{"station_name":"Gondangdia","transit":false,"i_long":106.832183,"time":4,"i_lat":-6.186295,"is_transit":false,"line":2,"station_id":"GDD","distance":2015},{"transit":false,"time":3,"is_transit":false,"station_name":"Cikini","distance":1750,"i_lat":-6.198556,"i_long":106.840169,"station_id":"CKI","line":2},{"i_lat":-6.209883,"i_long":106.84912,"line":2,"distance":1590,"station_id":"MRI","is_transit":true,"station_name":"Manggarai","time":4,"transit":true},{"i_lat":-6.202263,"station_name":"Sudirman","i_long":106.822649,"line":1,"time":4,"transit":false,"is_transit":false,"station_id":"SUD","distance":3186},{"line":1,"station_name":"Sudirman Baru","is_transit":false,"station_id":"SUDB","time":1,"i_long":106.819881,"transit":false,"distance":280,"i_lat":-6.201433},{"station_name":"Karet","distance":471,"station_id":"KAT","time":1,"line":1,"transit":false,"i_long":106.816351,"is_transit":false,"i_lat":-6.20132},{"i_long":106.811091,"i_lat":-6.185545,"is_transit":false,"transit":false,"station_name":"Tanah Abang","station_id":"THB","line":1,"time":5,"distance":2029},{"i_lat":-6.155215,"station_id":"DU","i_long":106.800832,"is_transit":false,"station_name":"Duri","line":1,"transit":false,"distance":3632,"time":8},{"is_transit":false,"station_id":"AK","i_long":106.79867,"transit":false,"station_name":"Angke","i_lat":-6.144674,"line":1,"distance":1230,"time":4},{"distance":4102,"i_lat":-6.132549,"line":4,"station_name":"Kampung Bandan","time":9,"i_long":106.826365,"is_transit":true,"station_id":"KPB","transit":true},{"distance":1444,"i_lat":-6.14505,"station_id":"RJW","station_name":"Rajawali","i_long":106.836569,"time":3,"is_transit":false,"line":11,"transit":false},{"i_long":106.839204,"distance":1901,"station_name":"Kemayoran","station_id":"KMO","time":5,"i_lat":-6.161728,"transit":false,"line":11,"is_transit":false},{"is_transit":false,"transit":false,"i_long":106.84368,"time":4,"line":11,"station_id":"PSE","station_name":"Pasar Senen","i_lat":-6.174784,"distance":1436},{"time":8,"station_name":"Gang Sentiong","i_lat":-6.185975,"is_transit":false,"distance":1567,"station_id":"GST","line":11,"i_long":106.850107,"transit":false},{"i_long":106.855437,"line":11,"station_name":"Kramat","station_id":"KMT","time":1,"is_transit":false,"transit":false,"i_lat":-6.193792,"distance":973},{"i_lat":-6.209188,"i_long":106.861737,"station_id":"POK","transit":false,"station_name":"Pondok Jati","is_transit":false,"time":2,"distance":1829,"line":11},{"station_id":"JNG","transit":false,"is_transit":false,"distance":1236,"i_lat":-6.215091,"line":1,"time":9,"i_long":106.86807400000001,"station_name":"Jatinegara"}]]}