{"data":[[{"i_long":106.812439,"distance":0,"transit":false,"time":0,"line":2,"station_id":"JAKK","i_lat":-6.137569,"station_name":"Jakarta Kota"},{"i_long":106.826365,"distance":1364,"transit":true,"time":3,"line":4,"station_id":"KPB","i_lat":-6.132549,"station_name":"Kampung Bandan"},{"i_long":106.79867,"distance":4102,"transit":false,"time":9,"line":1,"station_id":"AK","i_lat":-6.144674,"station_name":"Angke"},{"i_long":106.800832,"distance":1230,"transit":false,"time":4,"line":1,"station_id":"DU","i_lat":-6.155215,"station_name":"Duri"},{"i_long":106.811091,"distance":3632,"transit":true,"time":8,"line":1,"station_id":"THB","i_lat":-6.185545,"station_name":"Tanah Abang"},{"i_long":106.79689,"distance":3191,"transit":false,"time":6,"line":6,"station_id":"PLM","i_lat":-6.207404,"station_name":"Palmerah"},{"i_long":106.780334,"distance":3737,"transit":false,"time":7,"line":6,"station_id":"KBY","i_lat":-6.237242,"station_name":"Kebayoran"},{"i_long":106.74273,"distance":6218,"transit":false,"time":8,"line":6,"station_id":"PDJ","i_lat":-6.276362,"station_name":"Pondokranji"},{"i_long":106.728916,"distance":2179,"transit":false,"time":3,"line":6,"station_id":"JMU","i_lat":-6.288927,"station_name":"Jurangmangu"},{"i_long":106.712277,"distance":1994,"transit":false,"time":4,"line":6,"station_id":"SDM","i_lat":-6.296963,"station_name":"Sudimara"},{"i_long":106.675475,"distance":4566,"transit":false,"time":6,"line":6,"station_id":"RU","i_lat":-6.314823,"station_name":"Rawa Buntu"},{"i_long":106.66566,"distance":2413,"transit":false,"time":4,"line":6,"station_id":"SRP","i_lat":-6.319871,"station_name":"Serpong"},{"i_long":106.640411,"distance":1784,"transit":false,"time":4,"line":3,"station_id":"CSK","i_lat":-6.32484,"station_name":"Cisauk"},{"i_long":106.617853,"distance":2519,"transit":false,"time":4,"line":3,"station_id":"CC","i_lat":-6.329547,"station_name":"Cicayur"},{"i_long":106.568863,"distance":5968,"transit":false,"time":8,"line":6,"station_id":"PRP","i_lat":-6.3441410000000005,"station_name":"Parung Panjang"},{"i_long":106.508482,"distance":7025,"transit":false,"time":9,"line":3,"station_id":"CJT","i_lat":-6.354349,"station_name":"Cilejit"},{"i_long":106.491338,"distance":2675,"transit":false,"time":6,"line":0,"station_id":"DAR","i_lat":-6.338021,"station_name":"Daru"}],[{"i_long":106.812439,"distance":0,"transit":false,"time":0,"line":2,"station_id":"JAKK","i_lat":-6.137569,"station_name":"Jakarta Kota"},{"i_long":106.820901,"distance":1264,"transit":false,"time":4,"line":2,"station_id":"JAY","i_lat":-6.141205,"station_name":"Jayakarta"},{"i_long":106.82482,"distance":1080,"transit":false,"time":2,"line":2,"station_id":"MGB","i_lat":-6.149769,"station_name":"Manggabesar"},{"i_long":106.827103,"distance":906,"transit":false,"time":2,"line":2,"station_id":"SW","i_lat":-6.160725,"station_name":"Sawah Besar"},{"i_long":106.828284,"distance":1149,"transit":false,"time":2,"line":2,"station_id":"JUA","i_lat":-6.166716,"station_name":"Juanda"},{"i_long":106.832183,"distance":2015,"transit":false,"time":4,"line":2,"station_id":"GDD","i_lat":-6.186295,"station_name":"Gondangdia"},{"i_long":106.840169,"distance":1750,"transit":false,"time":3,"line":2,"station_id":"CKI","i_lat":-6.198556,"station_name":"Cikini"},{"i_long":106.84912,"distance":1590,"transit":true,"time":4,"line":2,"station_id":"MRI","i_lat":-6.209883,"station_name":"Manggarai"},{"i_long":106.822649,"distance":3186,"transit":false,"time":4,"line":1,"station_id":"SUD","i_lat":-6.202263,"station_name":"Sudirman"},{"i_long":106.819881,"distance":280,"transit":false,"time":1,"line":1,"station_id":"SUDB","i_lat":-6.201433,"station_name":"Sudirman Baru"},{"i_long":106.816351,"distance":471,"transit":false,"time":1,"line":1,"station_id":"KAT","i_lat":-6.20132,"station_name":"Karet"},{"i_long":106.811091,"distance":2029,"transit":true,"time":5,"line":1,"station_id":"THB","i_lat":-6.185545,"station_name":"Tanah Abang"},{"i_long":106.79689,"distance":3191,"transit":false,"time":6,"line":6,"station_id":"PLM","i_lat":-6.207404,"station_name":"Palmerah"},{"i_long":106.780334,"distance":3737,"transit":false,"time":7,"line":6,"station_id":"KBY","i_lat":-6.237242,"station_name":"Kebayoran"},{"i_long":106.74273,"distance":6218,"transit":false,"time":8,"line":6,"station_id":"PDJ","i_lat":-6.276362,"station_name":"Pondokranji"},{"i_long":106.728916,"distance":2179,"transit":false,"time":3,"line":6,"station_id":"JMU","i_lat":-6.288927,"station_name":"Jurangmangu"},{"i_long":106.712277,"distance":1994,"transit":false,"time":4,"line":6,"station_id":"SDM","i_lat":-6.296963,"station_name":"Sudimara"},{"i_long":106.675475,"distance":4566,"transit":false,"time":6,"line":6,"station_id":"RU","i_lat":-6.314823,"station_name":"Rawa Buntu"},{"i_long":106.66566,"distance":2413,"transit":false,"time":4,"line":6,"station_id":"SRP","i_lat":-6.319871,"station_name":"Serpong"},{"i_long":106.640411,"distance":1784,"transit":false,"time":4,"line":3,"station_id":"CSK","i_lat":-6.32484,"station_name":"Cisauk"},{"i_long":106.617853,"distance":2519,"transit":false,"time":4,"line":3,"station_id":"CC","i_lat":-6.329547,"station_name":"Cicayur"},{"i_long":106.568863,"distance":5968,"transit":false,"time":8,"line":6,"station_id":"PRP","i_lat":-6.3441410000000005,"station_name":"Parung Panjang"},{"i_long":106.508482,"distance":7025,"transit":false,"time":9,"line":3,"station_id":"CJT","i_lat":-6.354349,"station_name":"Cilejit"},{"i_long":106.491338,"distance":2675,"transit":false,"time":6,"line":0,"station_id":"DAR","i_lat":-6.338021,"station_name":"Daru"}],[{"i_long":106.812439,"distance":0,"transit":false,"time":0,"line":2,"station_id":"JAKK","i_lat":-6.137569,"station_name":"Jakarta Kota"},{"i_long":106.826365,"distance":1364,"transit":true,"time":3,"line":4,"station_id":"KPB","i_lat":-6.132549,"station_name":"Kampung Bandan"},{"i_long":106.836569,"distance":1444,"transit":false,"time":3,"line":11,"station_id":"RJW","i_lat":-6.14505,"station_name":"Rajawali"},{"i_long":106.839204,"distance":1901,"transit":false,"time":5,"line":11,"station_id":"KMO","i_lat":-6.161728,"station_name":"Kemayoran"},{"i_long":106.84368,"distance":1436,"transit":false,"time":4,"line":11,"station_id":"PSE","i_lat":-6.174784,"station_name":"Pasar Senen"},{"i_long":106.850107,"distance":1567,"transit":false,"time":8,"line":11,"station_id":"GST","i_lat":-6.185975,"station_name":"Gang Sentiong"},{"i_long":106.855437,"distance":973,"transit":false,"time":1,"line":11,"station_id":"KMT","i_lat":-6.193792,"station_name":"Kramat"},{"i_long":106.861737,"distance":1829,"transit":false,"time":2,"line":11,"station_id":"POK","i_lat":-6.209188,"station_name":"Pondok Jati"},{"i_long":106.86807400000001,"distance":1236,"transit":true,"time":9,"line":1,"station_id":"JNG","i_lat":-6.215091,"station_name":"Jatinegara"},{"i_long":106.858896,"distance":1377,"transit":false,"time":2,"line":1,"station_id":"MTR","i_lat":-6.212485,"station_name":"Matraman"},{"i_long":106.84912,"distance":1275,"transit":false,"time":2,"line":2,"station_id":"MRI","i_lat":-6.209883,"station_name":"Manggarai"},{"i_long":106.822649,"distance":3186,"transit":false,"time":4,"line":1,"station_id":"SUD","i_lat":-6.202263,"station_name":"Sudirman"},{"i_long":106.819881,"distance":280,"transit":false,"time":1,"line":1,"station_id":"SUDB","i_lat":-6.201433,"station_name":"Sudirman Baru"},{"i_long":106.816351,"distance":471,"transit":false,"time":1,"line":1,"station_id":"KAT","i_lat":-6.20132,"station_name":"Karet"},{"i_long":106.811091,"distance":2029,"transit":true,"time":5,"line":1,"station_id":"THB","i_lat":-6.185545,"station_name":"Tanah Abang"},{"i_long":106.79689,"distance":3191,"transit":false,"time":6,"line":6,"station_id":"PLM","i_lat":-6.207404,"station_name":"Palmerah"},{"i_long":106.780334,"distance":3737,"transit":false,"time":7,"line":6,"station_id":"KBY","i_lat":-6.237242,"station_name":"Kebayoran"},{"i_long":106.74273,"distance":6218,"transit":false,"time":8,"line":6,"station_id":"PDJ","i_lat":-6.276362,"station_name":"Pondokranji"},{"i_long":106.728916,"distance":2179,"transit":false,"time":3,"line":6,"station_id":"JMU","i_lat":-6.288927,"station_name":"Jurangmangu"},{"i_long":106.712277,"distance":1994,"transit":false,"time":4,"line":6,"station_id":"SDM","i_lat":-6.296963,"station_name":"Sudimara"},{"i_long":106.675475,"distance":4566,"transit":false,"time":6,"line":6,"station_id":"RU","i_lat":-6.314823,"station_name":"Rawa Buntu"},{"i_long":106.66566,"distance":2413,"transit":false,"time":4,"line":6,"station_id":"SRP","i_lat":-6.319871,"station_name":"Serpong"},{"i_long":106.640411,"distance":1784,"transit":false,"time":4,"line":3,"station_id":"CSK","i_lat":-6.32484,"station_name":"Cisauk"},{"i_long":106.617853,"distance":2519,"transit":false,"time":4,"line":3,"station_id":"CC","i_lat":-6.329547,"station_name":"Cicayur"},{"i_long":106.568863,"distance":5968,"transit":false,"time":8,"line":6,"station_id":"PRP","i_lat":-6.3441410000000005,"station_name":"Parung Panjang"},{"i_long":106.508482,"distance":7025,"transit":false,"time":9,"line":3,"station_id":"CJT","i_lat":-6.354349,"station_name":"Cilejit"},{"i_long":106.491338,"distance":2675,"transit":false,"time":6,"line":0,"station_id":"DAR","i_lat":-6.338021,"station_name":"Daru"}],[{"i_long":106.812439,"distance":0,"transit":false,"time":0,"line":2,"station_id":"JAKK","i_lat":-6.137569,"station_name":"Jakarta Kota"},{"i_long":106.820901,"distance":1264,"transit":false,"time":4,"line":2,"station_id":"JAY","i_lat":-6.141205,"station_name":"Jayakarta"},{"i_long":106.82482,"distance":1080,"transit":false,"time":2,"line":2,"station_id":"MGB","i_lat":-6.149769,"station_name":"Manggabesar"},{"i_long":106.827103,"distance":906,"transit":false,"time":2,"line":2,"station_id":"SW","i_lat":-6.160725,"station_name":"Sawah Besar"},{"i_long":106.828284,"distance":1149,"transit":false,"time":2,"line":2,"station_id":"JUA","i_lat":-6.166716,"station_name":"Juanda"},{"i_long":106.832183,"distance":2015,"transit":false,"time":4,"line":2,"station_id":"GDD","i_lat":-6.186295,"station_name":"Gondangdia"},{"i_long":106.840169,"distance":1750,"transit":false,"time":3,"line":2,"station_id":"CKI","i_lat":-6.198556,"station_name":"Cikini"},{"i_long":106.84912,"distance":1590,"transit":true,"time":4,"line":2,"station_id":"MRI","i_lat":-6.209883,"station_name":"Manggarai"},{"i_long":106.858896,"distance":1275,"transit":false,"time":2,"line":1,"station_id":"MTR","i_lat":-6.212485,"station_name":"Matraman"},{"i_long":106.86807400000001,"distance":1377,"transit":true,"time":8,"line":1,"station_id":"JNG","i_lat":-6.215091,"station_name":"Jatinegara"},{"i_long":106.861737,"distance":1236,"transit":false,"time":2,"line":11,"station_id":"POK","i_lat":-6.209188,"station_name":"Pondok Jati"},{"i_long":106.855437,"distance":1829,"transit":false,"time":2,"line":11,"station_id":"KMT","i_lat":-6.193792,"station_name":"Kramat"},{"i_long":106.850107,"distance":973,"transit":false,"time":1,"line":11,"station_id":"GST","i_lat":-6.185975,"station_name":"Gang Sentiong"},{"i_long":106.84368,"distance":1567,"transit":false,"time":8,"line":11,"station_id":"PSE","i_lat":-6.174784,"station_name":"Pasar Senen"},{"i_long":106.839204,"distance":1436,"transit":false,"time":4,"line":11,"station_id":"KMO","i_lat":-6.161728,"station_name":"Kemayoran"},{"i_long":106.836569,"distance":1901,"transit":false,"time":5,"line":11,"station_id":"RJW","i_lat":-6.14505,"station_name":"Rajawali"},{"i_long":106.826365,"distance":1444,"transit":true,"time":3,"line":4,"station_id":"KPB","i_lat":-6.132549,"station_name":"Kampung Bandan"},{"i_long":106.79867,"distance":4102,"transit":false,"time":9,"line":1,"station_id":"AK","i_lat":-6.144674,"station_name":"Angke"},{"i_long":106.800832,"distance":1230,"transit":false,"time":4,"line":1,"station_id":"DU","i_lat":-6.155215,"station_name":"Duri"},{"i_long":106.811091,"distance":3632,"transit":true,"time":8,"line":1,"station_id":"THB","i_lat":-6.185545,"station_name":"Tanah Abang"},{"i_long":106.79689,"distance":3191,"transit":false,"time":6,"line":6,"station_id":"PLM","i_lat":-6.207404,"station_name":"Palmerah"},{"i_long":106.780334,"distance":3737,"transit":false,"time":7,"line":6,"station_id":"KBY","i_lat":-6.237242,"station_name":"Kebayoran"},{"i_long":106.74273,"distance":6218,"transit":false,"time":8,"line":6,"station_id":"PDJ","i_lat":-6.276362,"station_name":"Pondokranji"},{"i_long":106.728916,"distance":2179,"transit":false,"time":3,"line":6,"station_id":"JMU","i_lat":-6.288927,"station_name":"Jurangmangu"},{"i_long":106.712277,"distance":1994,"transit":false,"time":4,"line":6,"station_id":"SDM","i_lat":-6.296963,"station_name":"Sudimara"},{"i_long":106.675475,"distance":4566,"transit":false,"time":6,"line":6,"station_id":"RU","i_lat":-6.314823,"station_name":"Rawa Buntu"},{"i_long":106.66566,"distance":2413,"transit":false,"time":4,"line":6,"station_id":"SRP","i_lat":-6.319871,"station_name":"Serpong"},{"i_long":106.640411,"distance":1784,"transit":false,"time":4,"line":3,"station_id":"CSK","i_lat":-6.32484,"station_name":"Cisauk"},{"i_long":106.617853,"distance":2519,"transit":false,"time":4,"line":3,"station_id":"CC","i_lat":-6.329547,"station_name":"Cicayur"},{"i_long":106.568863,"distance":5968,"transit":false,"time":8,"line":6,"station_id":"PRP","i_lat":-6.3441410000000005,"station_name":"Parung Panjang"},{"i_long":106.508482,"distance":7025,"transit":false,"time":9,"line":3,"station_id":"CJT","i_lat":-6.354349,"station_name":"Cilejit"},{"i_long":106.491338,"distance":2675,"transit":false,"time":6,"line":0,"station_id":"DAR","i_lat":-6.338021,"station_name":"Daru"}]]}