{"data":[[{"is_transit":false,"line":2,"distance":0,"i_long":106.812439,"time":0,"transit":false,"i_lat":-6.137569,"station_name":"Jakarta Kota","station_id":"JAKK"},{"station_id":"KPB","station_name":"Kampung Bandan","distance":1364,"transit":true,"i_long":106.826365,"line":4,"time":3,"i_lat":-6.132549,"is_transit":true},{"distance":4102,"time":9,"is_transit":false,"transit":false,"line":1,"i_lat":-6.144674,"station_name":"Angke","station_id":"AK","i_long":106.79867},{"station_id":"DU","transit":false,"line":1,"station_name":"Duri","distance":1230,"is_transit":false,"i_long":106.800832,"i_lat":-6.155215,"time":4},{"station_id":"THB","time":8,"station_name":"Tanah Abang","is_transit":true,"i_long":106.811091,"line":1,"i_lat":-6.185545,"transit":true,"distance":3632},{"distance":3191,"station_id":"PLM","is_transit":false,"i_long":106.79689,"station_name":"Palmerah","transit":false,"time":6,"i_lat":-6.207404,"line":6},{"distance":3737,"transit":false,"station_name":"Kebayoran","i_lat":-6.237242,"i_long":106.780334,"time":7,"station_id":"KBY","is_transit":false,"line":6},{"time":8,"station_id":"PDJ","station_name":"Pondokranji","i_lat":-6.276362,"transit":false,"i_long":106.74273,"line":6,"distance":6218,"is_transit":false},{"distance":2179,"i_long":106.728916,"line":6,"is_transit":false,"time":3,"station_id":"JMU","transit":false,"i_lat":-6.288927,"station_name":"Jurangmangu"},{"time":4,"i_lat":-6.296963,"station_id":"SDM","is_transit":false,"transit":false,"i_long":106.712277,"station_name":"Sudimara","distance":1994,"line":6},{"is_transit":false,"station_name":"Rawa Buntu","i_long":106.675475,"distance":4566,"transit":false,"time":6,"i_lat":-6.314823,"station_id":"RU","line":6},{"transit":false,"station_name":"Serpong","is_transit":false,"i_lat":-6.319871,"distance":2413,"station_id":"SRP","i_long":106.66566,"line":6,"time":4},{"time":4,"is_transit":false,"transit":false,"distance":1784,"station_name":"Cisauk","line":3,"i_lat":-6.32484,"station_id":"CSK","i_long":106.640411},{"time":4,"distance":2519,"i_lat":-6.329547,"line":3,"station_name":"Cicayur","station_id":"CC","is_transit":false,"transit":false,"i_long":106.617853},{"station_id":"PRP","is_transit":false,"distance":5968,"time":8,"i_lat":-6.3441410000000005,"station_name":"Parung Panjang","transit":false,"i_long":106.568863,"line":6},{"station_name":"Cilejit","time":9,"station_id":"CJT","transit":false,"i_long":106.508482,"is_transit":false,"i_lat":-6.354349,"distance":7025,"line":3},{"is_transit":false,"distance":2675,"time":6,"station_name":"Daru","i_long":106.491338,"station_id":"DAR","i_lat":-6.338021,"transit":false,"line":0},{"transit":false,"i_long":106.460812,"i_lat":-6.327251,"line":6,"distance":3902,"is_transit":false,"station_name":"Tenjo","station_id":"TEJ","time":5},{"station_name":"Tigaraksa","i_long":106.425991,"time":5,"transit":false,"station_id":"TGS","is_transit":false,"distance":2974,"i_lat":-6.328533,"line":6}],[{"is_transit":false,"distance":0,"line":2,"transit":false,"i_lat":-6.137569,"station_name":"Jakarta Kota","station_id":"JAKK","time":0,"i_long":106.812439},{"time":4,"station_name":"Jayakarta","transit":false,"distance":1264,"station_id":"JAY","line":2,"i_lat":-6.141205,"is_transit":false,"i_long":106.820901},{"distance":1080,"station_id":"MGB","line":2,"transit":false,"i_lat":-6.149769,"time":2,"is_transit":false,"station_name":"Manggabesar","i_long":106.82482},{"line":2,"station_id":"SW","is_transit":false,"i_lat":-6.160725,"distance":906,"station_name":"Sawah Besar","time":2,"transit":false,"i_long":106.827103},{"i_lat":-6.166716,"distance":1149,"is_transit":false,"station_id":"JUA","transit":false,"i_long":106.828284,"line":2,"time":2,"station_name":"Juanda"},{"transit":false,"station_id":"GDD","time":4,"i_lat":-6.186295,"i_long":106.832183,"distance":2015,"is_transit":false,"line":2,"station_name":"Gondangdia"},{"i_lat":-6.198556,"distance":1750,"line":2,"station_id":"CKI","time":3,"is_transit":false,"transit":false,"i_long":106.840169,"station_name":"Cikini"},{"station_name":"Manggarai","i_long":106.84912,"transit":true,"i_lat":-6.209883,"line":2,"distance":1590,"is_transit":true,"time":4,"station_id":"MRI"},{"is_transit":false,"distance":3186,"station_name":"Sudirman","transit":false,"i_lat":-6.202263,"i_long":106.822649,"station_id":"SUD","line":1,"time":4},{"is_transit":false,"i_long":106.819881,"i_lat":-6.201433,"distance":280,"station_id":"SUDB","station_name":"Sudirman Baru","time":1,"transit":false,"line":1},{"station_name":"Karet","time":1,"i_lat":-6.20132,"line":1,"i_long":106.816351,"distance":471,"is_transit":false,"station_id":"KAT","transit":false},{"distance":2029,"is_transit":true,"station_id":"THB","time":5,"transit":true,"station_name":"Tanah Abang","i_lat":-6.185545,"i_long":106.811091,"line":1},{"time":6,"is_transit":false,"i_long":106.79689,"transit":false,"i_lat":-6.207404,"distance":3191,"station_id":"PLM","station_name":"Palmerah","line":6},{"station_name":"Kebayoran","transit":false,"i_lat":-6.237242,"is_transit":false,"station_id":"KBY","line":6,"distance":3737,"time":7,"i_long":106.780334},{"distance":6218,"line":6,"i_lat":-6.276362,"station_name":"Pondokranji","station_id":"PDJ","time":8,"transit":false,"is_transit":false,"i_long":106.74273},{"station_id":"JMU","is_transit":false,"distance":2179,"station_name":"Jurangmangu","transit":false,"line":6,"i_lat":-6.288927,"i_long":106.728916,"time":3},{"i_long":106.712277,"transit":false,"station_id":"SDM","i_lat":-6.296963,"distance":1994,"station_name":"Sudimara","time":4,"is_transit":false,"line":6},{"is_transit":false,"i_long":106.675475,"line":6,"i_lat":-6.314823,"transit":false,"distance":4566,"station_name":"Rawa Buntu","station_id":"RU","time":6},{"i_long":106.66566,"time":4,"is_transit":false,"station_id":"SRP","i_lat":-6.319871,"line":6,"distance":2413,"transit":false,"station_name":"Serpong"},{"transit":false,"station_name":"Cisauk","is_transit":false,"distance":1784,"station_id":"CSK","i_lat":-6.32484,"time":4,"line":3,"i_long":106.640411},{"i_long":106.617853,"time":4,"transit":false,"i_lat":-6.329547,"station_name":"Cicayur","is_transit":false,"distance":2519,"station_id":"CC","line":3},{"station_name":"Parung Panjang","time":8,"station_id":"PRP","transit":false,"distance":5968,"is_transit":false,"line":6,"i_long":106.568863,"i_lat":-6.3441410000000005},{"time":9,"distance":7025,"station_id":"CJT","transit":false,"i_lat":-6.354349,"is_transit":false,"line":3,"i_long":106.508482,"station_name":"Cilejit"},{"station_name":"Daru","distance":2675,"i_long":106.491338,"line":0,"i_lat":-6.338021,"time":6,"station_id":"DAR","is_transit":false,"transit":false},{"station_name":"Tenjo","time":5,"station_id":"TEJ","transit":false,"i_long":106.460812,"line":6,"i_lat":-6.327251,"distance":3902,"is_transit":false},{"line":6,"i_lat":-6.328533,"transit":false,"station_id":"TGS","time":5,"distance":2974,"i_long":106.425991,"station_name":"Tigaraksa","is_transit":false}],[{"time":0,"is_transit":false,"station_id":"JAKK","line":2,"i_lat":-6.137569,"i_long":106.812439,"transit":false,"distance":0,"station_name":"Jakarta Kota"},{"transit":true,"is_transit":true,"line":4,"i_long":106.826365,"station_id":"KPB","distance":1364,"i_lat":-6.132549,"time":3,"station_name":"Kampung Bandan"},{"station_name":"Rajawali","line":11,"time":3,"is_transit":false,"transit":false,"station_id":"RJW","i_lat":-6.14505,"i_long":106.836569,"distance":1444},{"distance":1901,"station_name":"Kemayoran","time":5,"transit":false,"i_long":106.839204,"i_lat":-6.161728,"station_id":"KMO","line":11,"is_transit":false},{"distance":1436,"is_transit":false,"i_lat":-6.174784,"i_long":106.84368,"station_name":"Pasar Senen","transit":false,"line":11,"time":4,"station_id":"PSE"},{"is_transit":false,"i_lat":-6.185975,"station_name":"Gang Sentiong","station_id":"GST","transit":false,"i_long":106.850107,"line":11,"distance":1567,"time":8},{"time":1,"i_long":106.855437,"is_transit":false,"i_lat":-6.193792,"distance":973,"station_id":"KMT","transit":false,"station_name":"Kramat","line":11},{"distance":1829,"transit":false,"line":11,"is_transit":false,"i_lat":-6.209188,"station_name":"Pondok Jati","station_id":"POK","time":2,"i_long":106.861737},{"distance":1236,"i_lat":-6.215091,"transit":true,"i_long":106.86807400000001,"is_transit":true,"station_name":"Jatinegara","station_id":"JNG","line":1,"time":9},{"time":2,"station_name":"Matraman","is_transit":false,"transit":false,"i_long":106.858896,"line":1,"distance":1377,"station_id":"MTR","i_lat":-6.212485},{"line":2,"is_transit":false,"i_long":106.84912,"i_lat":-6.209883,"transit":false,"station_id":"MRI","time":2,"distance":1275,"station_name":"Manggarai"},{"distance":3186,"time":4,"station_name":"Sudirman","station_id":"SUD","transit":false,"is_transit":false,"i_lat":-6.202263,"i_long":106.822649,"line":1},{"station_id":"SUDB","transit":false,"distance":280,"line":1,"station_name":"Sudirman Baru","is_transit":false,"i_long":106.819881,"i_lat":-6.201433,"time":1},{"is_transit":false,"i_long":106.816351,"transit":false,"station_name":"Karet","i_lat":-6.20132,"line":1,"station_id":"KAT","time":1,"distance":471},{"distance":2029,"time":5,"i_lat":-6.185545,"station_name":"Tanah Abang","station_id":"THB","transit":true,"line":1,"is_transit":true,"i_long":106.811091},{"transit":false,"line":6,"distance":3191,"i_lat":-6.207404,"station_id":"PLM","i_long":106.79689,"time":6,"station_name":"Palmerah","is_transit":false},{"transit":false,"i_long":106.780334,"line":6,"station_id":"KBY","distance":3737,"station_name":"Kebayoran","is_transit":false,"i_lat":-6.237242,"time":7},{"station_name":"Pondokranji","transit":false,"distance":6218,"time":8,"line":6,"station_id":"PDJ","i_lat":-6.276362,"is_transit":false,"i_long":106.74273},{"transit":false,"station_name":"Jurangmangu","i_long":106.728916,"i_lat":-6.288927,"line":6,"station_id":"JMU","distance":2179,"time":3,"is_transit":false},{"is_transit":false,"line":6,"i_long":106.712277,"station_name":"Sudimara","time":4,"transit":false,"distance":1994,"i_lat":-6.296963,"station_id":"SDM"},{"transit":false,"i_lat":-6.314823,"station_id":"RU","i_long":106.675475,"distance":4566,"is_transit":false,"time":6,"station_name":"Rawa Buntu","line":6},{"i_lat":-6.319871,"transit":false,"is_transit":false,"i_long":106.66566,"station_id":"SRP","line":6,"distance":2413,"station_name":"Serpong","time":4},{"i_long":106.640411,"i_lat":-6.32484,"line":3,"station_id":"CSK","is_transit":false,"distance":1784,"station_name":"Cisauk","time":4,"transit":false},{"is_transit":false,"station_id":"CC","transit":false,"line":3,"i_lat":-6.329547,"i_long":106.617853,"distance":2519,"station_name":"Cicayur","time":4},{"is_transit":false,"i_long":106.568863,"line":6,"time":8,"transit":false,"distance":5968,"station_id":"PRP","station_name":"Parung Panjang","i_lat":-6.3441410000000005},{"station_id":"CJT","time":9,"line":3,"station_name":"Cilejit","is_transit":false,"transit":false,"i_lat":-6.354349,"i_long":106.508482,"distance":7025},{"station_name":"Daru","transit":false,"is_transit":false,"distance":2675,"line":0,"time":6,"station_id":"DAR","i_long":106.491338,"i_lat":-6.338021},{"station_id":"TEJ","distance":3902,"time":5,"i_long":106.460812,"is_transit":false,"transit":false,"line":6,"station_name":"Tenjo","i_lat":-6.327251},{"is_transit":false,"line":6,"i_lat":-6.328533,"i_long":106.425991,"time":5,"transit":false,"distance":2974,"station_name":"Tigaraksa","station_id":"TGS"}],[{"is_transit":false,"line":2,"station_name":"Jakarta Kota","transit":false,"i_lat":-6.137569,"distance":0,"station_id":"JAKK","time":0,"i_long":106.812439},{"distance":1264,"i_long":106.820901,"i_lat":-6.141205,"time":4,"is_transit":false,"transit":false,"station_name":"Jayakarta","station_id":"JAY","line":2},{"is_transit":false,"time":2,"station_name":"Manggabesar","i_lat":-6.149769,"i_long":106.82482,"distance":1080,"line":2,"transit":false,"station_id":"MGB"},{"time":2,"distance":906,"line":2,"i_lat":-6.160725,"station_name":"Sawah Besar","transit":false,"is_transit":false,"station_id":"SW","i_long":106.827103},{"distance":1149,"time":2,"i_long":106.828284,"transit":false,"station_id":"JUA","i_lat":-6.166716,"station_name":"Juanda","is_transit":false,"line":2},{"station_name":"Gondangdia","i_lat":-6.186295,"line":2,"distance":2015,"i_long":106.832183,"station_id":"GDD","transit":false,"is_transit":false,"time":4},{"line":2,"i_long":106.840169,"is_transit":false,"station_id":"CKI","station_name":"Cikini","distance":1750,"time":3,"transit":false,"i_lat":-6.198556},{"station_name":"Manggarai","i_lat":-6.209883,"time":4,"transit":true,"i_long":106.84912,"station_id":"MRI","line":2,"is_transit":true,"distance":1590},{"station_id":"MTR","i_lat":-6.212485,"transit":false,"i_long":106.858896,"is_transit":false,"distance":1275,"line":1,"station_name":"Matraman","time":2},{"i_lat":-6.215091,"distance":1377,"i_long":106.86807400000001,"station_id":"JNG","station_name":"Jatinegara","time":8,"is_transit":true,"transit":true,"line":1},{"line":11,"i_lat":-6.209188,"transit":false,"distance":1236,"is_transit":false,"station_id":"POK","station_name":"Pondok Jati","time":2,"i_long":106.861737},{"transit":false,"line":11,"distance":1829,"station_name":"Kramat","station_id":"KMT","time":2,"i_lat":-6.193792,"i_long":106.855437,"is_transit":false},{"station_id":"GST","station_name":"Gang Sentiong","transit":false,"i_lat":-6.185975,"time":1,"i_long":106.850107,"distance":973,"line":11,"is_transit":false},{"station_id":"PSE","is_transit":false,"line":11,"i_long":106.84368,"i_lat":-6.174784,"time":8,"station_name":"Pasar Senen","transit":false,"distance":1567},{"transit":false,"station_name":"Kemayoran","station_id":"KMO","i_long":106.839204,"time":4,"distance":1436,"line":11,"is_transit":false,"i_lat":-6.161728},{"station_name":"Rajawali","i_long":106.836569,"is_transit":false,"line":11,"i_lat":-6.14505,"transit":false,"distance":1901,"time":5,"station_id":"RJW"},{"station_name":"Kampung Bandan","time":3,"i_long":106.826365,"line":4,"i_lat":-6.132549,"distance":1444,"station_id":"KPB","is_transit":true,"transit":true},{"i_lat":-6.144674,"i_long":106.79867,"station_id":"AK","line":1,"transit":false,"is_transit":false,"time":9,"station_name":"Angke","distance":4102},{"station_id":"DU","transit":false,"distance":1230,"line":1,"i_long":106.800832,"i_lat":-6.155215,"station_name":"Duri","is_transit":false,"time":4},{"i_lat":-6.185545,"i_long":106.811091,"transit":true,"line":1,"station_id":"THB","station_name":"Tanah Abang","time":8,"is_transit":true,"distance":3632},{"station_id":"PLM","distance":3191,"is_transit":false,"i_lat":-6.207404,"transit":false,"i_long":106.79689,"line":6,"station_name":"Palmerah","time":6},{"station_id":"KBY","station_name":"Kebayoran","distance":3737,"is_transit":false,"line":6,"time":7,"i_lat":-6.237242,"i_long":106.780334,"transit":false},{"station_id":"PDJ","transit":false,"line":6,"station_name":"Pondokranji","i_lat":-6.276362,"distance":6218,"is_transit":false,"i_long":106.74273,"time":8},{"i_long":106.728916,"transit":false,"station_name":"Jurangmangu","distance":2179,"is_transit":false,"station_id":"JMU","line":6,"time":3,"i_lat":-6.288927},{"station_id":"SDM","line":6,"i_long":106.712277,"i_lat":-6.296963,"station_name":"Sudimara","time":4,"is_transit":false,"transit":false,"distance":1994},{"distance":4566,"station_name":"Rawa Buntu","i_lat":-6.314823,"is_transit":false,"i_long":106.675475,"transit":false,"line":6,"time":6,"station_id":"RU"},{"i_long":106.66566,"distance":2413,"is_transit":false,"i_lat":-6.319871,"line":6,"station_name":"Serpong","time":4,"station_id":"SRP","transit":false},{"station_id":"CSK","time":4,"distance":1784,"line":3,"i_lat":-6.32484,"transit":false,"station_name":"Cisauk","is_transit":false,"i_long":106.640411},{"time":4,"i_lat":-6.329547,"transit":false,"line":3,"i_long":106.617853,"station_id":"CC","is_transit":false,"distance":2519,"station_name":"Cicayur"},{"station_name":"Parung Panjang","transit":false,"i_long":106.568863,"is_transit":false,"time":8,"line":6,"distance":5968,"i_lat":-6.3441410000000005,"station_id":"PRP"},{"station_id":"CJT","distance":7025,"i_lat":-6.354349,"time":9,"transit":false,"is_transit":false,"station_name":"Cilejit","i_long":106.508482,"line":3},{"transit":false,"line":0,"distance":2675,"station_name":"Daru","i_lat":-6.338021,"i_long":106.491338,"is_transit":false,"time":6,"station_id":"DAR"},{"station_id":"TEJ","time":5,"i_long":106.460812,"transit":false,"distance":3902,"line":6,"station_name":"Tenjo","i_lat":-6.327251,"is_transit":false},{"is_transit":false,"time":5,"i_long":106.425991,"distance":2974,"i_lat":-6.328533,"transit":false,"station_name":"Tigaraksa","line":6,"station_id":"TGS"}]]}