{"data":[[{"time":0,"station_id":"JAKK","is_transit":false,"station_name":"Jakarta Kota","distance":0,"i_lat":-6.137569,"transit":false,"i_long":106.812439,"line":2},{"line":4,"transit":true,"station_name":"Kampung Bandan","distance":1364,"station_id":"KPB","time":3,"is_transit":true,"i_lat":-6.132549,"i_long":106.826365},{"distance":1444,"i_lat":-6.14505,"line":11,"transit":false,"i_long":106.836569,"station_name":"Rajawali","station_id":"RJW","is_transit":false,"time":3},{"i_lat":-6.161728,"time":5,"distance":1901,"station_id":"KMO","station_name":"Kemayoran","is_transit":false,"i_long":106.839204,"transit":false,"line":11},{"transit":false,"station_id":"PSE","distance":1436,"line":11,"station_name":"Pasar Senen","time":4,"i_lat":-6.174784,"i_long":106.84368,"is_transit":false},{"line":11,"station_id":"GST","transit":false,"i_long":106.850107,"is_transit":false,"time":8,"station_name":"Gang Sentiong","distance":1567,"i_lat":-6.185975},{"is_transit":false,"station_id":"KMT","i_lat":-6.193792,"time":1,"distance":973,"transit":false,"station_name":"Kramat","line":11,"i_long":106.855437},{"transit":false,"distance":1829,"i_long":106.861737,"is_transit":false,"i_lat":-6.209188,"station_name":"Pondok Jati","line":11,"time":2,"station_id":"POK"},{"distance":1236,"is_transit":true,"i_long":106.86807400000001,"i_lat":-6.215091,"station_id":"JNG","transit":true,"station_name":"Jatinegara","line":1,"time":9},{"transit":false,"i_lat":-6.2135,"station_name":"Klender","is_transit":false,"time":3,"station_id":"KLD","distance":3395,"i_long":106.899548,"line":1},{"distance":3100,"is_transit":false,"transit":false,"station_id":"BUA","time":2,"i_long":106.922662,"i_lat":-6.215568,"station_name":"Buaran","line":1},{"line":1,"transit":false,"is_transit":false,"i_long":106.939679,"distance":1305,"station_id":"KLDB","time":1,"station_name":"Klenderbaru","i_lat":-6.217455},{"time":8,"line":1,"i_lat":-6.219053,"distance":1385,"is_transit":false,"i_long":106.951283,"transit":false,"station_name":"Cakung","station_id":"CUK"},{"time":3,"distance":3097,"transit":false,"station_id":"KRI","is_transit":false,"line":1,"station_name":"Kranji","i_lat":-6.224515,"i_long":106.977657},{"i_long":106.997013,"distance":2520,"i_lat":-6.236616,"station_id":"BKS","is_transit":false,"transit":false,"station_name":"Bekasi","time":4,"line":1}],[{"i_lat":-6.137569,"is_transit":false,"transit":false,"distance":0,"line":2,"station_id":"JAKK","i_long":106.812439,"station_name":"Jakarta Kota","time":0},{"time":4,"station_name":"Jayakarta","i_lat":-6.141205,"distance":1264,"is_transit":false,"line":2,"station_id":"JAY","i_long":106.820901,"transit":false},{"station_name":"Manggabesar","station_id":"MGB","transit":false,"time":2,"distance":1080,"is_transit":false,"i_lat":-6.149769,"i_long":106.82482,"line":2},{"transit":false,"is_transit":false,"distance":906,"station_name":"Sawah Besar","i_lat":-6.160725,"i_long":106.827103,"line":2,"time":2,"station_id":"SW"},{"i_long":106.828284,"station_id":"JUA","distance":1149,"transit":false,"i_lat":-6.166716,"station_name":"Juanda","time":2,"is_transit":false,"line":2},{"i_lat":-6.186295,"transit":false,"is_transit":false,"station_id":"GDD","time":4,"i_long":106.832183,"line":2,"distance":2015,"station_name":"Gondangdia"},{"station_id":"CKI","i_long":106.840169,"line":2,"distance":1750,"time":3,"transit":false,"station_name":"Cikini","i_lat":-6.198556,"is_transit":false},{"i_long":106.84912,"station_name":"Manggarai","time":4,"transit":true,"line":2,"i_lat":-6.209883,"distance":1590,"station_id":"MRI","is_transit":true},{"i_lat":-6.212485,"transit":false,"station_name":"Matraman","distance":1275,"time":2,"i_long":106.858896,"line":1,"station_id":"MTR","is_transit":false},{"transit":false,"is_transit":false,"i_lat":-6.215091,"station_name":"Jatinegara","i_long":106.86807400000001,"station_id":"JNG","line":1,"time":8,"distance":1377},{"time":3,"i_lat":-6.2135,"line":1,"station_name":"Klender","i_long":106.899548,"is_transit":false,"distance":3395,"transit":false,"station_id":"KLD"},{"transit":false,"distance":3100,"is_transit":false,"station_name":"Buaran","station_id":"BUA","time":2,"i_long":106.922662,"line":1,"i_lat":-6.215568},{"is_transit":false,"distance":1305,"i_lat":-6.217455,"time":1,"station_id":"KLDB","i_long":106.939679,"transit":false,"station_name":"Klenderbaru","line":1},{"distance":1385,"is_transit":false,"station_name":"Cakung","i_long":106.951283,"time":8,"station_id":"CUK","transit":false,"line":1,"i_lat":-6.219053},{"is_transit":false,"station_id":"KRI","time":3,"line":1,"station_name":"Kranji","distance":3097,"i_long":106.977657,"transit":false,"i_lat":-6.224515},{"time":4,"distance":2520,"i_long":106.997013,"transit":false,"is_transit":false,"station_name":"Bekasi","i_lat":-6.236616,"station_id":"BKS","line":1}],[{"distance":0,"i_long":106.812439,"station_id":"JAKK","station_name":"Jakarta Kota","i_lat":-6.137569,"time":0,"is_transit":false,"transit":false,"line":2},{"i_lat":-6.132549,"station_id":"KPB","station_name":"Kampung Bandan","i_long":106.826365,"transit":true,"is_transit":true,"time":3,"line":4,"distance":1364},{"station_id":"AK","i_lat":-6.144674,"i_long":106.79867,"line":1,"is_transit":false,"station_name":"Angke","distance":4102,"transit":false,"time":9},{"transit":false,"station_name":"Duri","line":1,"time":4,"distance":1230,"i_lat":-6.155215,"is_transit":false,"i_long":106.800832,"station_id":"DU"},{"line":1,"transit":false,"station_id":"THB","is_transit":false,"distance":3632,"i_long":106.811091,"station_name":"Tanah Abang","time":8,"i_lat":-6.185545},{"station_name":"Karet","station_id":"KAT","is_transit":false,"distance":2029,"i_lat":-6.20132,"i_long":106.816351,"line":1,"time":5,"transit":false},{"time":1,"distance":471,"station_id":"SUDB","i_long":106.819881,"station_name":"Sudirman Baru","i_lat":-6.201433,"is_transit":false,"line":1,"transit":false},{"station_id":"SUD","transit":false,"distance":280,"i_lat":-6.202263,"is_transit":false,"i_long":106.822649,"time":1,"line":1,"station_name":"Sudirman"},{"line":2,"station_id":"MRI","station_name":"Manggarai","transit":false,"time":4,"distance":3186,"is_transit":false,"i_lat":-6.209883,"i_long":106.84912},{"station_id":"MTR","line":1,"transit":false,"station_name":"Matraman","distance":1275,"i_lat":-6.212485,"time":2,"i_long":106.858896,"is_transit":false},{"line":1,"is_transit":false,"station_name":"Jatinegara","time":8,"i_long":106.86807400000001,"station_id":"JNG","i_lat":-6.215091,"transit":false,"distance":1377},{"distance":3395,"station_id":"KLD","i_long":106.899548,"i_lat":-6.2135,"line":1,"is_transit":false,"transit":false,"time":3,"station_name":"Klender"},{"time":2,"line":1,"transit":false,"i_lat":-6.215568,"i_long":106.922662,"station_name":"Buaran","distance":3100,"station_id":"BUA","is_transit":false},{"station_name":"Klenderbaru","transit":false,"distance":1305,"i_long":106.939679,"line":1,"time":1,"station_id":"KLDB","is_transit":false,"i_lat":-6.217455},{"station_id":"CUK","i_long":106.951283,"transit":false,"station_name":"Cakung","i_lat":-6.219053,"time":8,"distance":1385,"is_transit":false,"line":1},{"station_id":"KRI","station_name":"Kranji","time":3,"is_transit":false,"transit":false,"i_long":106.977657,"line":1,"distance":3097,"i_lat":-6.224515},{"station_name":"Bekasi","distance":2520,"i_long":106.997013,"time":4,"is_transit":false,"i_lat":-6.236616,"line":1,"transit":false,"station_id":"BKS"}],[{"i_lat":-6.137569,"station_name":"Jakarta Kota","transit":false,"line":2,"i_long":106.812439,"distance":0,"is_transit":false,"station_id":"JAKK","time":0},{"i_long":106.820901,"transit":false,"station_id":"JAY","station_name":"Jayakarta","is_transit":false,"i_lat":-6.141205,"line":2,"time":4,"distance":1264},{"i_lat":-6.149769,"transit":false,"i_long":106.82482,"time":2,"station_name":"Manggabesar","station_id":"MGB","distance":1080,"is_transit":false,"line":2},{"is_transit":false,"i_long":106.827103,"transit":false,"line":2,"time":2,"distance":906,"i_lat":-6.160725,"station_id":"SW","station_name":"Sawah Besar"},{"station_name":"Juanda","is_transit":false,"time":2,"i_lat":-6.166716,"station_id":"JUA","transit":false,"line":2,"i_long":106.828284,"distance":1149},{"transit":false,"is_transit":false,"time":4,"station_name":"Gondangdia","distance":2015,"line":2,"i_lat":-6.186295,"station_id":"GDD","i_long":106.832183},{"line":2,"is_transit":false,"i_long":106.840169,"time":3,"station_name":"Cikini","transit":false,"station_id":"CKI","distance":1750,"i_lat":-6.198556},{"station_id":"MRI","is_transit":true,"transit":true,"station_name":"Manggarai","i_lat":-6.209883,"line":2,"time":4,"distance":1590,"i_long":106.84912},{"distance":3186,"line":1,"i_lat":-6.202263,"is_transit":false,"i_long":106.822649,"station_name":"Sudirman","transit":false,"station_id":"SUD","time":4},{"transit":false,"line":1,"i_lat":-6.201433,"station_id":"SUDB","time":1,"i_long":106.819881,"is_transit":false,"station_name":"Sudirman Baru","distance":280},{"time":1,"distance":471,"transit":false,"station_name":"Karet","i_long":106.816351,"is_transit":false,"i_lat":-6.20132,"line":1,"station_id":"KAT"},{"i_lat":-6.185545,"time":5,"distance":2029,"transit":false,"i_long":106.811091,"is_transit":false,"station_id":"THB","line":1,"station_name":"Tanah Abang"},{"station_name":"Duri","i_long":106.800832,"time":8,"station_id":"DU","distance":3632,"transit":false,"line":1,"is_transit":false,"i_lat":-6.155215},{"line":1,"i_long":106.79867,"transit":false,"station_id":"AK","station_name":"Angke","distance":1230,"time":4,"i_lat":-6.144674,"is_transit":false},{"line":4,"station_name":"Kampung Bandan","station_id":"KPB","is_transit":true,"distance":4102,"transit":true,"i_long":106.826365,"i_lat":-6.132549,"time":9},{"distance":1444,"time":3,"station_id":"RJW","transit":false,"i_lat":-6.14505,"i_long":106.836569,"is_transit":false,"station_name":"Rajawali","line":11},{"i_lat":-6.161728,"i_long":106.839204,"time":5,"line":11,"transit":false,"distance":1901,"station_id":"KMO","station_name":"Kemayoran","is_transit":false},{"i_long":106.84368,"station_name":"Pasar Senen","transit":false,"time":4,"is_transit":false,"line":11,"station_id":"PSE","distance":1436,"i_lat":-6.174784},{"i_lat":-6.185975,"i_long":106.850107,"transit":false,"time":8,"distance":1567,"station_id":"GST","line":11,"station_name":"Gang Sentiong","is_transit":false},{"is_transit":false,"time":1,"distance":973,"i_lat":-6.193792,"transit":false,"station_id":"KMT","i_long":106.855437,"line":11,"station_name":"Kramat"},{"is_transit":false,"i_long":106.861737,"i_lat":-6.209188,"station_id":"POK","line":11,"transit":false,"station_name":"Pondok Jati","time":2,"distance":1829},{"i_lat":-6.215091,"line":1,"station_id":"JNG","transit":true,"station_name":"Jatinegara","time":9,"i_long":106.86807400000001,"distance":1236,"is_transit":true},{"distance":3395,"i_lat":-6.2135,"line":1,"i_long":106.899548,"station_id":"KLD","transit":false,"is_transit":false,"time":3,"station_name":"Klender"},{"time":2,"i_long":106.922662,"is_transit":false,"distance":3100,"line":1,"transit":false,"station_id":"BUA","station_name":"Buaran","i_lat":-6.215568},{"station_id":"KLDB","line":1,"i_long":106.939679,"station_name":"Klenderbaru","distance":1305,"time":1,"is_transit":false,"i_lat":-6.217455,"transit":false},{"i_lat":-6.219053,"station_name":"Cakung","is_transit":false,"station_id":"CUK","time":8,"distance":1385,"transit":false,"i_long":106.951283,"line":1},{"time":3,"i_lat":-6.224515,"station_id":"KRI","station_name":"Kranji","distance":3097,"is_transit":false,"line":1,"i_long":106.977657,"transit":false},{"station_name":"Bekasi","line":1,"distance":2520,"i_lat":-6.236616,"time":4,"i_long":106.997013,"station_id":"BKS","is_transit":false,"transit":false}]]}