{"data":[[{"station_name":"Jakarta Kota","transit":false,"time":0,"i_long":106.812439,"distance":0,"is_transit":false,"i_lat":-6.137569,"station_id":"JAKK","line":2},{"time":3,"station_name":"Kampung Bandan","transit":true,"is_transit":true,"station_id":"KPB","distance":1364,"i_long":106.826365,"i_lat":-6.132549,"line":4},{"line":11,"distance":1444,"i_lat":-6.14505,"station_name":"Rajawali","is_transit":false,"time":3,"i_long":106.836569,"transit":false,"station_id":"RJW"},{"line":11,"time":5,"is_transit":false,"station_name":"Kemayoran","station_id":"KMO","distance":1901,"transit":false,"i_lat":-6.161728,"i_long":106.839204},{"transit":false,"line":11,"time":4,"distance":1436,"i_long":106.84368,"i_lat":-6.174784,"is_transit":false,"station_name":"Pasar Senen","station_id":"PSE"},{"is_transit":false,"transit":false,"station_id":"GST","i_long":106.850107,"time":8,"line":11,"i_lat":-6.185975,"distance":1567,"station_name":"Gang Sentiong"}],[{"station_name":"Jakarta Kota","is_transit":false,"i_long":106.812439,"time":0,"distance":0,"transit":false,"i_lat":-6.137569,"station_id":"JAKK","line":2},{"i_long":106.820901,"time":4,"station_name":"Jayakarta","station_id":"JAY","i_lat":-6.141205,"line":2,"is_transit":false,"distance":1264,"transit":false},{"station_name":"Manggabesar","transit":false,"i_long":106.82482,"i_lat":-6.149769,"distance":1080,"line":2,"is_transit":false,"time":2,"station_id":"MGB"},{"transit":false,"i_long":106.827103,"line":2,"is_transit":false,"station_id":"SW","distance":906,"i_lat":-6.160725,"time":2,"station_name":"Sawah Besar"},{"transit":false,"line":2,"distance":1149,"i_long":106.828284,"station_id":"JUA","i_lat":-6.166716,"time":2,"is_transit":false,"station_name":"Juanda"},{"line":2,"is_transit":false,"time":4,"station_id":"GDD","transit":false,"i_lat":-6.186295,"station_name":"Gondangdia","distance":2015,"i_long":106.832183},{"time":3,"line":2,"station_name":"Cikini","distance":1750,"i_lat":-6.198556,"i_long":106.840169,"transit":false,"station_id":"CKI","is_transit":false},{"distance":1590,"time":4,"station_id":"MRI","station_name":"Manggarai","i_long":106.84912,"line":2,"i_lat":-6.209883,"transit":true,"is_transit":true},{"station_id":"MTR","transit":false,"is_transit":false,"line":1,"i_lat":-6.212485,"station_name":"Matraman","distance":1275,"i_long":106.858896,"time":2},{"is_transit":true,"line":1,"station_id":"JNG","transit":true,"i_long":106.86807400000001,"distance":1377,"i_lat":-6.215091,"station_name":"Jatinegara","time":8},{"i_long":106.861737,"time":2,"station_name":"Pondok Jati","distance":1236,"line":11,"station_id":"POK","i_lat":-6.209188,"is_transit":false,"transit":false},{"distance":1829,"i_long":106.855437,"station_name":"Kramat","station_id":"KMT","is_transit":false,"time":2,"transit":false,"i_lat":-6.193792,"line":11},{"i_lat":-6.185975,"station_name":"Gang Sentiong","station_id":"GST","i_long":106.850107,"line":11,"transit":false,"distance":973,"time":1,"is_transit":false}],[{"transit":false,"i_lat":-6.137569,"i_long":106.812439,"time":0,"distance":0,"line":2,"station_id":"JAKK","station_name":"Jakarta Kota","is_transit":false},{"time":3,"is_transit":true,"i_long":106.826365,"station_id":"KPB","transit":true,"line":4,"i_lat":-6.132549,"distance":1364,"station_name":"Kampung Bandan"},{"time":9,"station_name":"Angke","line":1,"i_long":106.79867,"is_transit":false,"station_id":"AK","i_lat":-6.144674,"transit":false,"distance":4102},{"time":4,"line":1,"transit":false,"is_transit":false,"distance":1230,"station_id":"DU","station_name":"Duri","i_lat":-6.155215,"i_long":106.800832},{"i_long":106.811091,"is_transit":false,"line":1,"i_lat":-6.185545,"station_name":"Tanah Abang","transit":false,"station_id":"THB","time":8,"distance":3632},{"distance":2029,"station_name":"Karet","is_transit":false,"time":5,"i_lat":-6.20132,"line":1,"transit":false,"i_long":106.816351,"station_id":"KAT"},{"transit":false,"time":1,"station_name":"Sudirman Baru","is_transit":false,"station_id":"SUDB","distance":471,"i_lat":-6.201433,"line":1,"i_long":106.819881},{"station_id":"SUD","is_transit":false,"transit":false,"i_lat":-6.202263,"line":1,"i_long":106.822649,"distance":280,"station_name":"Sudirman","time":1},{"line":2,"i_lat":-6.209883,"transit":false,"is_transit":false,"station_id":"MRI","station_name":"Manggarai","i_long":106.84912,"time":4,"distance":3186},{"distance":1275,"time":2,"station_id":"MTR","is_transit":false,"station_name":"Matraman","transit":false,"i_lat":-6.212485,"i_long":106.858896,"line":1},{"distance":1377,"station_id":"JNG","i_lat":-6.215091,"station_name":"Jatinegara","is_transit":true,"transit":true,"time":8,"i_long":106.86807400000001,"line":1},{"distance":1236,"i_long":106.861737,"station_name":"Pondok Jati","i_lat":-6.209188,"time":2,"transit":false,"station_id":"POK","line":11,"is_transit":false},{"distance":1829,"time":2,"station_id":"KMT","station_name":"Kramat","i_lat":-6.193792,"is_transit":false,"line":11,"transit":false,"i_long":106.855437},{"time":1,"is_transit":false,"i_lat":-6.185975,"distance":973,"station_name":"Gang Sentiong","i_long":106.850107,"line":11,"station_id":"GST","transit":false}],[{"transit":false,"time":0,"i_long":106.812439,"station_id":"JAKK","is_transit":false,"line":2,"distance":0,"i_lat":-6.137569,"station_name":"Jakarta Kota"},{"distance":1264,"station_name":"Jayakarta","transit":false,"i_long":106.820901,"station_id":"JAY","is_transit":false,"time":4,"i_lat":-6.141205,"line":2},{"station_id":"MGB","transit":false,"i_long":106.82482,"station_name":"Manggabesar","time":2,"line":2,"i_lat":-6.149769,"is_transit":false,"distance":1080},{"station_id":"SW","time":2,"i_lat":-6.160725,"i_long":106.827103,"distance":906,"is_transit":false,"line":2,"station_name":"Sawah Besar","transit":false},{"transit":false,"time":2,"distance":1149,"station_name":"Juanda","i_long":106.828284,"station_id":"JUA","i_lat":-6.166716,"line":2,"is_transit":false},{"is_transit":false,"transit":false,"distance":2015,"i_lat":-6.186295,"line":2,"i_long":106.832183,"station_name":"Gondangdia","time":4,"station_id":"GDD"},{"is_transit":false,"distance":1750,"line":2,"transit":false,"i_long":106.840169,"time":3,"station_id":"CKI","station_name":"Cikini","i_lat":-6.198556},{"is_transit":true,"station_id":"MRI","i_lat":-6.209883,"time":4,"transit":true,"line":2,"distance":1590,"station_name":"Manggarai","i_long":106.84912},{"time":4,"station_id":"SUD","i_lat":-6.202263,"is_transit":false,"line":1,"distance":3186,"station_name":"Sudirman","transit":false,"i_long":106.822649},{"i_long":106.819881,"time":1,"transit":false,"station_id":"SUDB","is_transit":false,"line":1,"i_lat":-6.201433,"station_name":"Sudirman Baru","distance":280},{"is_transit":false,"station_name":"Karet","time":1,"i_lat":-6.20132,"transit":false,"distance":471,"i_long":106.816351,"line":1,"station_id":"KAT"},{"distance":2029,"i_lat":-6.185545,"i_long":106.811091,"station_name":"Tanah Abang","line":1,"time":5,"is_transit":false,"transit":false,"station_id":"THB"},{"i_long":106.800832,"i_lat":-6.155215,"transit":false,"distance":3632,"station_name":"Duri","is_transit":false,"line":1,"time":8,"station_id":"DU"},{"line":1,"distance":1230,"station_id":"AK","i_lat":-6.144674,"time":4,"transit":false,"station_name":"Angke","is_transit":false,"i_long":106.79867},{"station_name":"Kampung Bandan","is_transit":true,"i_long":106.826365,"distance":4102,"i_lat":-6.132549,"station_id":"KPB","time":9,"transit":true,"line":4},{"station_id":"RJW","transit":false,"i_lat":-6.14505,"distance":1444,"time":3,"station_name":"Rajawali","is_transit":false,"i_long":106.836569,"line":11},{"i_lat":-6.161728,"transit":false,"time":5,"i_long":106.839204,"station_id":"KMO","station_name":"Kemayoran","is_transit":false,"distance":1901,"line":11},{"transit":false,"distance":1436,"is_transit":false,"i_long":106.84368,"station_id":"PSE","station_name":"Pasar Senen","i_lat":-6.174784,"line":11,"time":4},{"line":11,"station_id":"GST","i_lat":-6.185975,"is_transit":false,"distance":1567,"transit":false,"time":8,"station_name":"Gang Sentiong","i_long":106.850107}]]}