{"data":[[{"distance":0,"time":0,"station_id":"JAKK","station_name":"Jakarta Kota","is_transit":false,"transit":false,"line":2,"i_lat":-6.137569,"i_long":106.812439},{"transit":false,"station_name":"Jayakarta","line":2,"is_transit":false,"station_id":"JAY","distance":1264,"i_lat":-6.141205,"i_long":106.820901,"time":4},{"is_transit":false,"transit":false,"i_lat":-6.149769,"line":2,"station_id":"MGB","station_name":"Manggabesar","distance":1080,"time":2,"i_long":106.82482},{"line":2,"is_transit":false,"station_name":"Sawah Besar","transit":false,"i_long":106.827103,"distance":906,"station_id":"SW","time":2,"i_lat":-6.160725},{"transit":false,"station_name":"Juanda","station_id":"JUA","time":2,"i_long":106.828284,"is_transit":false,"line":2,"i_lat":-6.166716,"distance":1149},{"i_long":106.832183,"station_id":"GDD","is_transit":false,"i_lat":-6.186295,"line":2,"transit":false,"time":4,"distance":2015,"station_name":"Gondangdia"},{"station_id":"CKI","i_long":106.840169,"station_name":"Cikini","i_lat":-6.198556,"is_transit":false,"transit":false,"line":2,"time":3,"distance":1750},{"station_id":"MRI","i_lat":-6.209883,"time":4,"is_transit":true,"line":2,"i_long":106.84912,"station_name":"Manggarai","distance":1590,"transit":true},{"time":2,"i_lat":-6.212485,"line":1,"distance":1275,"station_name":"Matraman","is_transit":false,"transit":false,"i_long":106.858896,"station_id":"MTR"}],[{"i_lat":-6.137569,"line":2,"time":0,"distance":0,"i_long":106.812439,"transit":false,"is_transit":false,"station_id":"JAKK","station_name":"Jakarta Kota"},{"time":3,"station_name":"Kampung Bandan","is_transit":true,"transit":true,"i_lat":-6.132549,"i_long":106.826365,"station_id":"KPB","distance":1364,"line":4},{"time":9,"is_transit":false,"line":1,"i_long":106.79867,"transit":false,"station_id":"AK","distance":4102,"i_lat":-6.144674,"station_name":"Angke"},{"station_name":"Duri","time":4,"transit":false,"i_long":106.800832,"i_lat":-6.155215,"is_transit":false,"line":1,"station_id":"DU","distance":1230},{"distance":3632,"transit":false,"time":8,"line":1,"i_long":106.811091,"is_transit":false,"station_id":"THB","station_name":"Tanah Abang","i_lat":-6.185545},{"time":5,"station_id":"KAT","distance":2029,"transit":false,"i_lat":-6.20132,"station_name":"Karet","line":1,"is_transit":false,"i_long":106.816351},{"is_transit":false,"time":1,"line":1,"transit":false,"station_name":"Sudirman Baru","distance":471,"i_lat":-6.201433,"i_long":106.819881,"station_id":"SUDB"},{"distance":280,"line":1,"is_transit":false,"time":1,"station_id":"SUD","station_name":"Sudirman","transit":false,"i_lat":-6.202263,"i_long":106.822649},{"line":2,"distance":3186,"i_lat":-6.209883,"transit":false,"is_transit":false,"i_long":106.84912,"station_name":"Manggarai","time":4,"station_id":"MRI"},{"distance":1275,"station_name":"Matraman","i_lat":-6.212485,"line":1,"station_id":"MTR","is_transit":false,"time":2,"transit":false,"i_long":106.858896}],[{"transit":false,"line":2,"time":0,"station_name":"Jakarta Kota","is_transit":false,"distance":0,"i_long":106.812439,"station_id":"JAKK","i_lat":-6.137569},{"line":4,"station_id":"KPB","time":3,"transit":true,"distance":1364,"station_name":"Kampung Bandan","i_lat":-6.132549,"is_transit":true,"i_long":106.826365},{"is_transit":false,"i_long":106.836569,"i_lat":-6.14505,"time":3,"station_id":"RJW","station_name":"Rajawali","distance":1444,"line":11,"transit":false},{"station_id":"KMO","station_name":"Kemayoran","distance":1901,"i_lat":-6.161728,"i_long":106.839204,"time":5,"line":11,"transit":false,"is_transit":false},{"station_name":"Pasar Senen","is_transit":false,"transit":false,"i_lat":-6.174784,"i_long":106.84368,"station_id":"PSE","line":11,"distance":1436,"time":4},{"distance":1567,"time":8,"station_name":"Gang Sentiong","is_transit":false,"i_long":106.850107,"transit":false,"station_id":"GST","line":11,"i_lat":-6.185975},{"transit":false,"station_name":"Kramat","is_transit":false,"i_lat":-6.193792,"i_long":106.855437,"line":11,"time":1,"distance":973,"station_id":"KMT"},{"i_long":106.861737,"station_id":"POK","station_name":"Pondok Jati","transit":false,"i_lat":-6.209188,"line":11,"is_transit":false,"time":2,"distance":1829},{"station_id":"JNG","time":9,"station_name":"Jatinegara","transit":true,"is_transit":true,"distance":1236,"i_long":106.86807400000001,"line":1,"i_lat":-6.215091},{"distance":1377,"i_long":106.858896,"station_id":"MTR","i_lat":-6.212485,"transit":false,"station_name":"Matraman","line":1,"is_transit":false,"time":2}],[{"line":2,"transit":false,"time":0,"station_name":"Jakarta Kota","is_transit":false,"i_lat":-6.137569,"distance":0,"i_long":106.812439,"station_id":"JAKK"},{"i_lat":-6.141205,"station_name":"Jayakarta","time":4,"i_long":106.820901,"line":2,"distance":1264,"is_transit":false,"transit":false,"station_id":"JAY"},{"station_name":"Manggabesar","time":2,"is_transit":false,"i_lat":-6.149769,"line":2,"i_long":106.82482,"transit":false,"station_id":"MGB","distance":1080},{"i_long":106.827103,"line":2,"transit":false,"distance":906,"is_transit":false,"time":2,"station_name":"Sawah Besar","station_id":"SW","i_lat":-6.160725},{"is_transit":false,"distance":1149,"i_lat":-6.166716,"i_long":106.828284,"station_name":"Juanda","station_id":"JUA","line":2,"transit":false,"time":2},{"line":2,"station_name":"Gondangdia","is_transit":false,"distance":2015,"station_id":"GDD","i_long":106.832183,"time":4,"transit":false,"i_lat":-6.186295},{"i_lat":-6.198556,"station_id":"CKI","i_long":106.840169,"distance":1750,"line":2,"transit":false,"time":3,"station_name":"Cikini","is_transit":false},{"station_name":"Manggarai","distance":1590,"line":2,"time":4,"transit":true,"is_transit":true,"station_id":"MRI","i_lat":-6.209883,"i_long":106.84912},{"distance":3186,"is_transit":false,"station_id":"SUD","i_long":106.822649,"line":1,"time":4,"transit":false,"station_name":"Sudirman","i_lat":-6.202263},{"station_name":"Sudirman Baru","i_long":106.819881,"transit":false,"line":1,"time":1,"i_lat":-6.201433,"station_id":"SUDB","is_transit":false,"distance":280},{"line":1,"i_lat":-6.20132,"time":1,"distance":471,"station_id":"KAT","station_name":"Karet","is_transit":false,"i_long":106.816351,"transit":false},{"time":5,"i_long":106.811091,"distance":2029,"line":1,"transit":false,"is_transit":false,"station_name":"Tanah Abang","station_id":"THB","i_lat":-6.185545},{"transit":false,"i_long":106.800832,"distance":3632,"time":8,"is_transit":false,"line":1,"i_lat":-6.155215,"station_id":"DU","station_name":"Duri"},{"line":1,"station_id":"AK","distance":1230,"i_lat":-6.144674,"time":4,"transit":false,"is_transit":false,"i_long":106.79867,"station_name":"Angke"},{"station_name":"Kampung Bandan","transit":true,"i_long":106.826365,"i_lat":-6.132549,"distance":4102,"time":9,"line":4,"station_id":"KPB","is_transit":true},{"time":3,"station_name":"Rajawali","transit":false,"distance":1444,"line":11,"is_transit":false,"i_long":106.836569,"i_lat":-6.14505,"station_id":"RJW"},{"time":5,"i_long":106.839204,"station_name":"Kemayoran","is_transit":false,"i_lat":-6.161728,"line":11,"transit":false,"distance":1901,"station_id":"KMO"},{"i_lat":-6.174784,"transit":false,"station_id":"PSE","distance":1436,"is_transit":false,"time":4,"i_long":106.84368,"line":11,"station_name":"Pasar Senen"},{"station_id":"GST","distance":1567,"i_long":106.850107,"transit":false,"station_name":"Gang Sentiong","i_lat":-6.185975,"time":8,"line":11,"is_transit":false},{"station_id":"KMT","station_name":"Kramat","is_transit":false,"i_lat":-6.193792,"line":11,"distance":973,"time":1,"transit":false,"i_long":106.855437},{"line":11,"i_long":106.861737,"station_id":"POK","distance":1829,"transit":false,"station_name":"Pondok Jati","is_transit":false,"time":2,"i_lat":-6.209188},{"distance":1236,"station_name":"Jatinegara","is_transit":true,"transit":true,"i_long":106.86807400000001,"station_id":"JNG","time":9,"line":1,"i_lat":-6.215091},{"distance":1377,"is_transit":false,"station_id":"MTR","transit":false,"station_name":"Matraman","i_lat":-6.212485,"i_long":106.858896,"time":2,"line":1}]]}