{"data":[[{"station_name":"Jakarta Kota","distance":0,"transit":false,"i_lat":-6.137569,"is_transit":true,"station_id":"JAKK","i_long":106.812439,"time":0,"line":0},{"line":0,"time":3,"is_transit":true,"station_name":"Kampung Bandan","transit":true,"i_lat":-6.132549,"i_long":106.826365,"station_id":"KPB","distance":1364},{"transit":false,"i_long":106.836569,"line":11,"is_transit":false,"i_lat":-6.14505,"station_id":"RJW","distance":1444,"station_name":"Rajawali","time":3},{"transit":false,"is_transit":false,"station_id":"KMO","time":5,"station_name":"Kemayoran","line":11,"i_lat":-6.161728,"i_long":106.839204,"distance":1901},{"is_transit":false,"i_long":106.84368,"line":11,"station_name":"Pasar Senen","i_lat":-6.174784,"time":4,"station_id":"PSE","distance":1436,"transit":false},{"is_transit":false,"time":8,"station_name":"Gang Sentiong","i_lat":-6.185975,"line":11,"station_id":"GST","distance":1567,"transit":false,"i_long":106.850107}],[{"distance":0,"transit":false,"i_long":106.812439,"line":0,"station_id":"JAKK","i_lat":-6.137569,"is_transit":true,"station_name":"Jakarta Kota","time":0},{"transit":false,"distance":1264,"i_long":106.820901,"i_lat":-6.141205,"is_transit":false,"line":7,"station_name":"Jayakarta","time":4,"station_id":"JAY"},{"i_long":106.82482,"time":2,"distance":1080,"station_id":"MGB","line":2,"transit":false,"i_lat":-6.149769,"is_transit":false,"station_name":"Manggabesar"},{"time":2,"i_long":106.827103,"station_id":"SW","transit":false,"i_lat":-6.160725,"line":2,"distance":906,"station_name":"Sawah Besar","is_transit":false},{"station_id":"JUA","station_name":"Juanda","time":2,"transit":false,"is_transit":false,"i_lat":-6.166716,"line":2,"distance":1149,"i_long":106.828284},{"transit":false,"time":4,"station_id":"GDD","i_long":106.832183,"line":2,"i_lat":-6.186295,"station_name":"Gondangdia","is_transit":false,"distance":2015},{"distance":1750,"is_transit":false,"time":3,"i_long":106.840169,"i_lat":-6.198556,"station_id":"CKI","station_name":"Cikini","transit":false,"line":0},{"station_name":"Manggarai","is_transit":true,"i_long":106.84912,"distance":1590,"transit":true,"i_lat":-6.209883,"line":0,"station_id":"MRI","time":4},{"distance":1275,"transit":false,"i_lat":-6.212485,"i_long":106.858896,"station_name":"Matraman","line":1,"is_transit":false,"time":2,"station_id":"MTR"},{"line":0,"i_long":106.86807400000001,"station_name":"Jatinegara","is_transit":true,"time":8,"station_id":"JNG","distance":1377,"transit":true,"i_lat":-6.215091},{"is_transit":false,"distance":1236,"i_long":106.861737,"station_id":"POK","i_lat":-6.209188,"station_name":"Pondok Jati","transit":false,"time":2,"line":11},{"line":11,"transit":false,"time":2,"is_transit":false,"i_lat":-6.193792,"i_long":106.855437,"station_name":"Kramat","distance":1829,"station_id":"KMT"},{"i_lat":-6.185975,"time":1,"station_id":"GST","transit":false,"i_long":106.850107,"is_transit":false,"line":11,"station_name":"Gang Sentiong","distance":973}],[{"is_transit":true,"station_id":"JAKK","transit":false,"time":0,"distance":0,"i_lat":-6.137569,"line":0,"station_name":"Jakarta Kota","i_long":106.812439},{"transit":false,"station_id":"KPB","station_name":"Kampung Bandan","i_lat":-6.132549,"is_transit":true,"line":0,"i_long":106.826365,"time":3,"distance":1364},{"is_transit":false,"i_long":106.79867,"station_id":"AK","line":0,"transit":false,"time":9,"station_name":"Angke","i_lat":-6.144674,"distance":4102},{"i_lat":-6.155215,"i_long":106.800832,"line":1,"transit":true,"station_name":"Duri","time":4,"station_id":"DU","is_transit":true,"distance":1230},{"station_name":"Tanah Abang","i_lat":-6.185545,"i_long":106.811091,"is_transit":true,"time":8,"distance":3632,"station_id":"THB","transit":false,"line":1},{"time":5,"i_long":106.816351,"i_lat":-6.20132,"is_transit":false,"station_name":"Karet","station_id":"KAT","line":1,"distance":2029,"transit":false},{"transit":false,"i_long":106.819881,"station_id":"SUDB","station_name":"Sudirman Baru","is_transit":false,"time":1,"i_lat":-6.201433,"distance":471,"line":1},{"i_long":106.822649,"line":1,"transit":false,"i_lat":-6.202263,"station_name":"Sudirman","time":1,"distance":280,"is_transit":false,"station_id":"SUD"},{"i_lat":-6.209883,"line":0,"distance":3186,"transit":false,"station_id":"MRI","time":4,"i_long":106.84912,"station_name":"Manggarai","is_transit":true},{"distance":1275,"i_long":106.858896,"line":1,"station_name":"Matraman","transit":false,"time":2,"is_transit":false,"station_id":"MTR","i_lat":-6.212485},{"station_name":"Jatinegara","i_lat":-6.215091,"line":0,"time":8,"distance":1377,"is_transit":true,"transit":true,"i_long":106.86807400000001,"station_id":"JNG"},{"is_transit":false,"station_name":"Pondok Jati","distance":1236,"line":11,"station_id":"POK","time":2,"i_long":106.861737,"transit":false,"i_lat":-6.209188},{"distance":1829,"i_long":106.855437,"transit":false,"station_id":"KMT","is_transit":false,"i_lat":-6.193792,"time":2,"station_name":"Kramat","line":11},{"is_transit":false,"i_long":106.850107,"transit":false,"station_id":"GST","line":11,"station_name":"Gang Sentiong","distance":973,"i_lat":-6.185975,"time":1}],[{"station_id":"JAKK","station_name":"Jakarta Kota","distance":0,"time":0,"is_transit":true,"transit":false,"i_long":106.812439,"i_lat":-6.137569,"line":0},{"i_long":106.820901,"time":4,"transit":false,"line":7,"station_name":"Jayakarta","distance":1264,"is_transit":false,"i_lat":-6.141205,"station_id":"JAY"},{"i_long":106.82482,"station_name":"Manggabesar","distance":1080,"transit":false,"is_transit":false,"station_id":"MGB","time":2,"i_lat":-6.149769,"line":2},{"i_long":106.827103,"station_name":"Sawah Besar","line":2,"time":2,"station_id":"SW","distance":906,"transit":false,"i_lat":-6.160725,"is_transit":false},{"distance":1149,"station_id":"JUA","is_transit":false,"transit":false,"station_name":"Juanda","i_lat":-6.166716,"i_long":106.828284,"time":2,"line":2},{"line":2,"station_id":"GDD","i_long":106.832183,"i_lat":-6.186295,"time":4,"distance":2015,"transit":false,"station_name":"Gondangdia","is_transit":false},{"time":3,"station_id":"CKI","station_name":"Cikini","i_long":106.840169,"transit":false,"i_lat":-6.198556,"distance":1750,"is_transit":false,"line":0},{"i_lat":-6.209883,"station_id":"MRI","i_long":106.84912,"line":0,"distance":1590,"is_transit":true,"station_name":"Manggarai","time":4,"transit":true},{"time":4,"station_id":"SUD","transit":false,"i_long":106.822649,"i_lat":-6.202263,"line":1,"distance":3186,"station_name":"Sudirman","is_transit":false},{"i_long":106.819881,"station_name":"Sudirman Baru","transit":false,"line":1,"station_id":"SUDB","distance":280,"i_lat":-6.201433,"time":1,"is_transit":false},{"line":1,"transit":false,"station_name":"Karet","is_transit":false,"time":1,"i_lat":-6.20132,"station_id":"KAT","distance":471,"i_long":106.816351},{"is_transit":true,"time":5,"i_lat":-6.185545,"i_long":106.811091,"transit":false,"line":1,"station_id":"THB","distance":2029,"station_name":"Tanah Abang"},{"line":1,"transit":true,"i_long":106.800832,"station_id":"DU","distance":3632,"is_transit":true,"i_lat":-6.155215,"time":8,"station_name":"Duri"},{"distance":1230,"transit":false,"is_transit":false,"station_id":"AK","i_lat":-6.144674,"i_long":106.79867,"line":0,"station_name":"Angke","time":4},{"station_id":"KPB","is_transit":true,"time":9,"distance":4102,"i_lat":-6.132549,"i_long":106.826365,"line":0,"station_name":"Kampung Bandan","transit":true},{"transit":false,"is_transit":false,"distance":1444,"i_lat":-6.14505,"i_long":106.836569,"time":3,"station_id":"RJW","line":11,"station_name":"Rajawali"},{"i_lat":-6.161728,"i_long":106.839204,"transit":false,"station_id":"KMO","distance":1901,"station_name":"Kemayoran","line":11,"is_transit":false,"time":5},{"transit":false,"i_long":106.84368,"distance":1436,"is_transit":false,"station_id":"PSE","line":11,"station_name":"Pasar Senen","time":4,"i_lat":-6.174784},{"station_name":"Gang Sentiong","line":11,"transit":false,"is_transit":false,"i_long":106.850107,"station_id":"GST","time":8,"distance":1567,"i_lat":-6.185975}]]}