{"data":[[{"i_lat":-6.137569,"station_name":"Jakarta Kota","line":2,"distance":0,"i_long":106.812439,"is_transit":false,"station_id":"JAKK","transit":false,"time":0},{"station_name":"Kampung Bandan","is_transit":true,"time":3,"station_id":"KPB","distance":1364,"i_long":106.826365,"transit":true,"i_lat":-6.132549,"line":4},{"time":9,"i_lat":-6.144674,"is_transit":false,"transit":false,"line":1,"station_id":"AK","station_name":"Angke","i_long":106.79867,"distance":4102},{"station_id":"DU","i_long":106.800832,"transit":true,"is_transit":true,"time":4,"station_name":"Duri","line":1,"distance":1230,"i_lat":-6.155215},{"station_name":"Grogol","distance":1700,"transit":false,"time":3,"station_id":"GGL","i_long":106.788277,"i_lat":-6.162021,"line":5,"is_transit":false}],[{"distance":0,"station_name":"Jakarta Kota","station_id":"JAKK","i_lat":-6.137569,"i_long":106.812439,"line":2,"transit":false,"is_transit":false,"time":0},{"i_lat":-6.141205,"is_transit":false,"i_long":106.820901,"line":2,"transit":false,"time":4,"distance":1264,"station_name":"Jayakarta","station_id":"JAY"},{"is_transit":false,"distance":1080,"transit":false,"i_long":106.82482,"time":2,"station_id":"MGB","i_lat":-6.149769,"station_name":"Manggabesar","line":2},{"time":2,"station_id":"SW","transit":false,"distance":906,"is_transit":false,"station_name":"Sawah Besar","i_lat":-6.160725,"i_long":106.827103,"line":2},{"transit":false,"i_lat":-6.166716,"i_long":106.828284,"is_transit":false,"station_id":"JUA","line":2,"station_name":"Juanda","distance":1149,"time":2},{"i_lat":-6.186295,"line":2,"i_long":106.832183,"is_transit":false,"time":4,"distance":2015,"station_id":"GDD","station_name":"Gondangdia","transit":false},{"distance":1750,"station_name":"Cikini","is_transit":false,"time":3,"transit":false,"station_id":"CKI","i_lat":-6.198556,"i_long":106.840169,"line":2},{"is_transit":true,"station_id":"MRI","station_name":"Manggarai","distance":1590,"i_lat":-6.209883,"line":2,"time":4,"transit":true,"i_long":106.84912},{"line":1,"transit":false,"station_id":"SUD","time":4,"i_long":106.822649,"distance":3186,"is_transit":false,"i_lat":-6.202263,"station_name":"Sudirman"},{"transit":false,"time":1,"line":1,"is_transit":false,"i_lat":-6.201433,"station_id":"SUDB","distance":280,"station_name":"Sudirman Baru","i_long":106.819881},{"i_lat":-6.20132,"line":1,"transit":false,"station_id":"KAT","is_transit":false,"distance":471,"i_long":106.816351,"station_name":"Karet","time":1},{"i_long":106.811091,"time":5,"line":1,"is_transit":false,"station_id":"THB","transit":false,"i_lat":-6.185545,"distance":2029,"station_name":"Tanah Abang"},{"transit":true,"i_long":106.800832,"time":8,"distance":3632,"is_transit":true,"station_id":"DU","line":1,"i_lat":-6.155215,"station_name":"Duri"},{"i_long":106.788277,"transit":false,"i_lat":-6.162021,"station_name":"Grogol","time":3,"distance":1700,"station_id":"GGL","line":5,"is_transit":false}],[{"station_id":"JAKK","time":0,"transit":false,"line":2,"station_name":"Jakarta Kota","i_lat":-6.137569,"i_long":106.812439,"is_transit":false,"distance":0},{"line":4,"transit":true,"distance":1364,"station_name":"Kampung Bandan","is_transit":true,"i_lat":-6.132549,"time":3,"i_long":106.826365,"station_id":"KPB"},{"time":3,"station_id":"RJW","station_name":"Rajawali","i_long":106.836569,"distance":1444,"is_transit":false,"i_lat":-6.14505,"line":11,"transit":false},{"station_id":"KMO","transit":false,"i_long":106.839204,"time":5,"distance":1901,"line":11,"i_lat":-6.161728,"is_transit":false,"station_name":"Kemayoran"},{"i_long":106.84368,"station_id":"PSE","distance":1436,"station_name":"Pasar Senen","i_lat":-6.174784,"time":4,"transit":false,"line":11,"is_transit":false},{"station_id":"GST","station_name":"Gang Sentiong","is_transit":false,"distance":1567,"time":8,"transit":false,"i_long":106.850107,"line":11,"i_lat":-6.185975},{"distance":973,"i_long":106.855437,"line":11,"is_transit":false,"station_id":"KMT","transit":false,"i_lat":-6.193792,"station_name":"Kramat","time":1},{"is_transit":false,"line":11,"station_name":"Pondok Jati","transit":false,"station_id":"POK","i_lat":-6.209188,"i_long":106.861737,"time":2,"distance":1829},{"station_id":"JNG","i_long":106.86807400000001,"time":9,"station_name":"Jatinegara","distance":1236,"line":1,"transit":true,"is_transit":true,"i_lat":-6.215091},{"is_transit":false,"transit":false,"i_long":106.858896,"distance":1377,"line":1,"i_lat":-6.212485,"station_name":"Matraman","time":2,"station_id":"MTR"},{"i_lat":-6.209883,"is_transit":false,"time":2,"distance":1275,"station_name":"Manggarai","transit":false,"line":2,"i_long":106.84912,"station_id":"MRI"},{"time":4,"station_name":"Sudirman","distance":3186,"line":1,"station_id":"SUD","transit":false,"i_lat":-6.202263,"i_long":106.822649,"is_transit":false},{"i_lat":-6.201433,"distance":280,"station_id":"SUDB","line":1,"i_long":106.819881,"time":1,"is_transit":false,"transit":false,"station_name":"Sudirman Baru"},{"distance":471,"line":1,"i_lat":-6.20132,"i_long":106.816351,"station_id":"KAT","is_transit":false,"station_name":"Karet","transit":false,"time":1},{"station_name":"Tanah Abang","distance":2029,"station_id":"THB","transit":false,"i_lat":-6.185545,"time":5,"i_long":106.811091,"line":1,"is_transit":false},{"distance":3632,"is_transit":true,"i_long":106.800832,"line":1,"i_lat":-6.155215,"station_id":"DU","time":8,"station_name":"Duri","transit":true},{"station_id":"GGL","station_name":"Grogol","is_transit":false,"i_lat":-6.162021,"i_long":106.788277,"transit":false,"line":5,"time":3,"distance":1700}],[{"is_transit":false,"i_lat":-6.137569,"line":2,"station_id":"JAKK","i_long":106.812439,"transit":false,"distance":0,"station_name":"Jakarta Kota","time":0},{"distance":1264,"station_name":"Jayakarta","i_lat":-6.141205,"i_long":106.820901,"transit":false,"time":4,"station_id":"JAY","line":2,"is_transit":false},{"i_long":106.82482,"station_id":"MGB","distance":1080,"line":2,"station_name":"Manggabesar","is_transit":false,"time":2,"i_lat":-6.149769,"transit":false},{"station_id":"SW","i_long":106.827103,"line":2,"i_lat":-6.160725,"station_name":"Sawah Besar","transit":false,"time":2,"distance":906,"is_transit":false},{"line":2,"i_lat":-6.166716,"station_id":"JUA","time":2,"distance":1149,"is_transit":false,"i_long":106.828284,"transit":false,"station_name":"Juanda"},{"station_name":"Gondangdia","line":2,"station_id":"GDD","distance":2015,"is_transit":false,"i_lat":-6.186295,"i_long":106.832183,"transit":false,"time":4},{"station_id":"CKI","distance":1750,"i_lat":-6.198556,"i_long":106.840169,"is_transit":false,"time":3,"station_name":"Cikini","transit":false,"line":2},{"station_name":"Manggarai","line":2,"station_id":"MRI","transit":true,"i_long":106.84912,"time":4,"i_lat":-6.209883,"distance":1590,"is_transit":true},{"transit":false,"time":2,"distance":1275,"i_long":106.858896,"i_lat":-6.212485,"station_id":"MTR","line":1,"station_name":"Matraman","is_transit":false},{"i_lat":-6.215091,"distance":1377,"station_id":"JNG","is_transit":true,"i_long":106.86807400000001,"line":1,"time":8,"station_name":"Jatinegara","transit":true},{"distance":1236,"station_name":"Pondok Jati","i_lat":-6.209188,"station_id":"POK","line":11,"transit":false,"is_transit":false,"i_long":106.861737,"time":2},{"line":11,"transit":false,"station_name":"Kramat","i_lat":-6.193792,"distance":1829,"i_long":106.855437,"station_id":"KMT","time":2,"is_transit":false},{"i_lat":-6.185975,"is_transit":false,"distance":973,"station_id":"GST","line":11,"station_name":"Gang Sentiong","transit":false,"i_long":106.850107,"time":1},{"i_lat":-6.174784,"transit":false,"station_name":"Pasar Senen","is_transit":false,"line":11,"time":8,"i_long":106.84368,"station_id":"PSE","distance":1567},{"transit":false,"distance":1436,"i_long":106.839204,"station_name":"Kemayoran","line":11,"time":4,"i_lat":-6.161728,"station_id":"KMO","is_transit":false},{"distance":1901,"line":11,"station_name":"Rajawali","time":5,"station_id":"RJW","i_lat":-6.14505,"is_transit":false,"transit":false,"i_long":106.836569},{"transit":true,"line":4,"distance":1444,"i_lat":-6.132549,"time":3,"station_id":"KPB","station_name":"Kampung Bandan","i_long":106.826365,"is_transit":true},{"station_name":"Angke","transit":false,"is_transit":false,"i_lat":-6.144674,"distance":4102,"i_long":106.79867,"station_id":"AK","line":1,"time":9},{"station_id":"DU","station_name":"Duri","i_long":106.800832,"i_lat":-6.155215,"is_transit":true,"transit":true,"time":4,"distance":1230,"line":1},{"i_lat":-6.162021,"station_id":"GGL","is_transit":false,"transit":false,"time":3,"line":5,"distance":1700,"station_name":"Grogol","i_long":106.788277}]]}