{"data":[[{"station_id":"JAKK","distance":0,"i_lat":-6.137569,"i_long":106.812439,"line":0,"time":0,"station_name":"Jakarta Kota","is_transit":true,"transit":false},{"station_id":"KPB","time":3,"transit":true,"is_transit":true,"line":0,"distance":1364,"i_lat":-6.132549,"station_name":"Kampung Bandan","i_long":106.826365},{"station_name":"Rajawali","is_transit":false,"station_id":"RJW","distance":1444,"transit":false,"i_lat":-6.14505,"i_long":106.836569,"time":3,"line":11},{"i_long":106.839204,"time":5,"station_id":"KMO","station_name":"Kemayoran","distance":1901,"transit":false,"i_lat":-6.161728,"is_transit":false,"line":11},{"station_name":"Pasar Senen","i_long":106.84368,"station_id":"PSE","is_transit":false,"distance":1436,"line":11,"i_lat":-6.174784,"time":4,"transit":false},{"i_lat":-6.185975,"i_long":106.850107,"station_id":"GST","distance":1567,"time":8,"transit":false,"line":11,"is_transit":false,"station_name":"Gang Sentiong"},{"is_transit":false,"i_lat":-6.193792,"i_long":106.855437,"station_name":"Kramat","time":1,"transit":false,"line":11,"distance":973,"station_id":"KMT"},{"line":11,"is_transit":false,"time":2,"station_id":"POK","i_lat":-6.209188,"distance":1829,"station_name":"Pondok Jati","transit":false,"i_long":106.861737},{"distance":1236,"station_name":"Jatinegara","station_id":"JNG","time":9,"transit":true,"i_lat":-6.215091,"i_long":106.86807400000001,"line":0,"is_transit":true},{"station_name":"Klender","transit":false,"time":3,"i_lat":-6.2135,"line":1,"distance":3395,"station_id":"KLD","is_transit":false,"i_long":106.899548},{"time":2,"station_id":"BUA","i_long":106.922662,"distance":3100,"i_lat":-6.215568,"is_transit":false,"line":0,"station_name":"Buaran","transit":false},{"distance":1305,"is_transit":false,"station_name":"Klenderbaru","transit":false,"station_id":"KLDB","time":1,"i_long":106.939679,"line":1,"i_lat":-6.217455},{"distance":1385,"transit":false,"is_transit":false,"i_lat":-6.219053,"i_long":106.951283,"station_id":"CUK","time":8,"line":0,"station_name":"Cakung"},{"transit":false,"i_lat":-6.224515,"is_transit":false,"i_long":106.977657,"station_id":"KRI","line":1,"distance":3097,"time":3,"station_name":"Kranji"},{"distance":2520,"is_transit":false,"line":0,"i_lat":-6.236616,"time":4,"station_id":"BKS","station_name":"Bekasi","transit":false,"i_long":106.997013},{"line":0,"time":2,"transit":false,"is_transit":false,"station_name":"Bekasi Timur","distance":2368,"i_long":107.016735,"station_id":"BKST","i_lat":-6.248029},{"station_name":"Tambun","station_id":"TB","transit":false,"is_transit":false,"i_lat":-6.258864,"time":7,"distance":4460,"line":1,"i_long":107.055722},{"time":3,"line":0,"station_name":"Cibitung","is_transit":false,"i_lat":-6.261877,"station_id":"CIT","transit":false,"i_long":107.083084,"distance":3420},{"line":1,"time":2,"distance":2800,"i_lat":-6.262938,"i_long":107.093313,"station_id":"TLM","station_name":"Metland Telaga Murni","is_transit":false,"transit":false},{"i_lat":-6.2553149999999995,"station_name":"Cikarang","transit":false,"distance":3689,"i_long":107.144613,"station_id":"CKR","line":0,"time":4,"is_transit":false}],[{"distance":0,"transit":false,"i_lat":-6.137569,"i_long":106.812439,"line":0,"time":0,"is_transit":true,"station_id":"JAKK","station_name":"Jakarta Kota"},{"transit":false,"line":7,"station_id":"JAY","time":4,"distance":1264,"i_lat":-6.141205,"station_name":"Jayakarta","i_long":106.820901,"is_transit":false},{"i_lat":-6.149769,"transit":false,"station_name":"Manggabesar","distance":1080,"is_transit":false,"i_long":106.82482,"time":2,"line":2,"station_id":"MGB"},{"station_id":"SW","station_name":"Sawah Besar","i_lat":-6.160725,"i_long":106.827103,"is_transit":false,"time":2,"distance":906,"line":2,"transit":false},{"distance":1149,"i_lat":-6.166716,"line":2,"is_transit":false,"transit":false,"station_id":"JUA","station_name":"Juanda","i_long":106.828284,"time":2},{"station_name":"Gondangdia","station_id":"GDD","is_transit":false,"time":4,"transit":false,"i_lat":-6.186295,"distance":2015,"i_long":106.832183,"line":2},{"time":3,"i_lat":-6.198556,"line":0,"transit":false,"station_name":"Cikini","i_long":106.840169,"station_id":"CKI","is_transit":false,"distance":1750},{"time":4,"i_lat":-6.209883,"distance":1590,"station_name":"Manggarai","transit":true,"station_id":"MRI","is_transit":true,"i_long":106.84912,"line":0},{"is_transit":false,"i_long":106.858896,"line":1,"transit":false,"time":2,"distance":1275,"i_lat":-6.212485,"station_name":"Matraman","station_id":"MTR"},{"time":8,"distance":1377,"i_long":106.86807400000001,"station_name":"Jatinegara","is_transit":true,"station_id":"JNG","line":0,"transit":false,"i_lat":-6.215091},{"is_transit":false,"transit":false,"station_id":"KLD","distance":3395,"station_name":"Klender","i_lat":-6.2135,"time":3,"line":1,"i_long":106.899548},{"station_id":"BUA","time":2,"distance":3100,"is_transit":false,"i_long":106.922662,"transit":false,"station_name":"Buaran","i_lat":-6.215568,"line":0},{"station_name":"Klenderbaru","distance":1305,"is_transit":false,"station_id":"KLDB","transit":false,"i_lat":-6.217455,"i_long":106.939679,"time":1,"line":1},{"station_name":"Cakung","i_long":106.951283,"time":8,"i_lat":-6.219053,"distance":1385,"line":0,"station_id":"CUK","is_transit":false,"transit":false},{"station_name":"Kranji","distance":3097,"station_id":"KRI","time":3,"transit":false,"line":1,"i_long":106.977657,"is_transit":false,"i_lat":-6.224515},{"i_lat":-6.236616,"line":0,"distance":2520,"station_id":"BKS","transit":false,"time":4,"i_long":106.997013,"station_name":"Bekasi","is_transit":false},{"is_transit":false,"i_long":107.016735,"line":0,"distance":2368,"transit":false,"station_name":"Bekasi Timur","time":2,"i_lat":-6.248029,"station_id":"BKST"},{"time":7,"station_name":"Tambun","transit":false,"station_id":"TB","line":1,"i_long":107.055722,"is_transit":false,"i_lat":-6.258864,"distance":4460},{"station_id":"CIT","station_name":"Cibitung","time":3,"distance":3420,"i_long":107.083084,"is_transit":false,"transit":false,"i_lat":-6.261877,"line":0},{"station_name":"Metland Telaga Murni","i_long":107.093313,"distance":2800,"i_lat":-6.262938,"transit":false,"line":1,"station_id":"TLM","time":2,"is_transit":false},{"i_long":107.144613,"station_id":"CKR","line":0,"is_transit":false,"transit":false,"time":4,"distance":3689,"station_name":"Cikarang","i_lat":-6.2553149999999995}],[{"distance":0,"line":0,"is_transit":true,"station_id":"JAKK","transit":false,"station_name":"Jakarta Kota","i_long":106.812439,"i_lat":-6.137569,"time":0},{"i_lat":-6.132549,"distance":1364,"line":0,"is_transit":true,"i_long":106.826365,"station_name":"Kampung Bandan","station_id":"KPB","time":3,"transit":false},{"i_long":106.79867,"line":0,"station_name":"Angke","is_transit":false,"transit":false,"i_lat":-6.144674,"distance":4102,"station_id":"AK","time":9},{"line":1,"is_transit":true,"distance":1230,"i_lat":-6.155215,"station_id":"DU","time":4,"i_long":106.800832,"station_name":"Duri","transit":true},{"transit":false,"is_transit":true,"station_id":"THB","station_name":"Tanah Abang","i_lat":-6.185545,"i_long":106.811091,"line":1,"time":8,"distance":3632},{"is_transit":false,"station_name":"Karet","time":5,"i_long":106.816351,"transit":false,"distance":2029,"i_lat":-6.20132,"station_id":"KAT","line":1},{"is_transit":false,"station_id":"SUDB","time":1,"distance":471,"i_long":106.819881,"transit":false,"station_name":"Sudirman Baru","line":1,"i_lat":-6.201433},{"station_id":"SUD","is_transit":false,"station_name":"Sudirman","time":1,"transit":false,"i_long":106.822649,"line":1,"distance":280,"i_lat":-6.202263},{"time":4,"line":0,"station_name":"Manggarai","is_transit":true,"transit":false,"i_lat":-6.209883,"station_id":"MRI","distance":3186,"i_long":106.84912},{"is_transit":false,"line":1,"i_long":106.858896,"transit":false,"time":2,"station_name":"Matraman","i_lat":-6.212485,"distance":1275,"station_id":"MTR"},{"station_name":"Jatinegara","distance":1377,"time":8,"i_long":106.86807400000001,"line":0,"transit":false,"i_lat":-6.215091,"station_id":"JNG","is_transit":true},{"station_name":"Klender","i_lat":-6.2135,"line":1,"transit":false,"is_transit":false,"station_id":"KLD","time":3,"i_long":106.899548,"distance":3395},{"transit":false,"time":2,"is_transit":false,"i_lat":-6.215568,"line":0,"i_long":106.922662,"station_id":"BUA","station_name":"Buaran","distance":3100},{"time":1,"station_id":"KLDB","i_long":106.939679,"line":1,"transit":false,"station_name":"Klenderbaru","distance":1305,"is_transit":false,"i_lat":-6.217455},{"time":8,"i_lat":-6.219053,"is_transit":false,"distance":1385,"i_long":106.951283,"transit":false,"line":0,"station_id":"CUK","station_name":"Cakung"},{"distance":3097,"transit":false,"station_name":"Kranji","line":1,"i_long":106.977657,"is_transit":false,"time":3,"i_lat":-6.224515,"station_id":"KRI"},{"distance":2520,"i_lat":-6.236616,"line":0,"is_transit":false,"station_id":"BKS","station_name":"Bekasi","time":4,"transit":false,"i_long":106.997013},{"line":0,"time":2,"distance":2368,"transit":false,"station_name":"Bekasi Timur","is_transit":false,"i_long":107.016735,"station_id":"BKST","i_lat":-6.248029},{"station_id":"TB","station_name":"Tambun","i_lat":-6.258864,"i_long":107.055722,"line":1,"is_transit":false,"time":7,"transit":false,"distance":4460},{"i_lat":-6.261877,"station_name":"Cibitung","i_long":107.083084,"is_transit":false,"line":0,"time":3,"distance":3420,"transit":false,"station_id":"CIT"},{"i_lat":-6.262938,"station_id":"TLM","line":1,"station_name":"Metland Telaga Murni","i_long":107.093313,"is_transit":false,"distance":2800,"time":2,"transit":false},{"transit":false,"distance":3689,"i_lat":-6.2553149999999995,"is_transit":false,"time":4,"i_long":107.144613,"station_id":"CKR","station_name":"Cikarang","line":0}],[{"i_long":106.812439,"station_name":"Jakarta Kota","is_transit":true,"time":0,"distance":0,"i_lat":-6.137569,"line":0,"station_id":"JAKK","transit":false},{"transit":false,"i_lat":-6.141205,"station_id":"JAY","distance":1264,"i_long":106.820901,"station_name":"Jayakarta","line":7,"is_transit":false,"time":4},{"time":2,"station_id":"MGB","transit":false,"station_name":"Manggabesar","i_lat":-6.149769,"i_long":106.82482,"line":2,"distance":1080,"is_transit":false},{"station_id":"SW","i_lat":-6.160725,"transit":false,"time":2,"distance":906,"station_name":"Sawah Besar","is_transit":false,"i_long":106.827103,"line":2},{"line":2,"distance":1149,"is_transit":false,"time":2,"i_long":106.828284,"station_id":"JUA","transit":false,"station_name":"Juanda","i_lat":-6.166716},{"station_id":"GDD","is_transit":false,"i_lat":-6.186295,"distance":2015,"station_name":"Gondangdia","transit":false,"line":2,"i_long":106.832183,"time":4},{"transit":false,"i_lat":-6.198556,"station_id":"CKI","time":3,"line":0,"is_transit":false,"i_long":106.840169,"distance":1750,"station_name":"Cikini"},{"transit":true,"time":4,"i_long":106.84912,"station_name":"Manggarai","is_transit":true,"line":0,"i_lat":-6.209883,"distance":1590,"station_id":"MRI"},{"i_long":106.822649,"station_id":"SUD","station_name":"Sudirman","is_transit":false,"distance":3186,"transit":false,"i_lat":-6.202263,"time":4,"line":1},{"i_long":106.819881,"time":1,"is_transit":false,"station_name":"Sudirman Baru","transit":false,"station_id":"SUDB","distance":280,"i_lat":-6.201433,"line":1},{"is_transit":false,"station_name":"Karet","i_long":106.816351,"station_id":"KAT","distance":471,"transit":false,"i_lat":-6.20132,"line":1,"time":1},{"i_lat":-6.185545,"line":1,"station_id":"THB","time":5,"transit":false,"i_long":106.811091,"distance":2029,"is_transit":true,"station_name":"Tanah Abang"},{"is_transit":true,"distance":3632,"station_name":"Duri","line":1,"station_id":"DU","i_long":106.800832,"i_lat":-6.155215,"transit":true,"time":8},{"i_long":106.79867,"time":4,"transit":false,"station_id":"AK","distance":1230,"line":0,"i_lat":-6.144674,"station_name":"Angke","is_transit":false},{"station_name":"Kampung Bandan","distance":4102,"is_transit":true,"i_lat":-6.132549,"line":0,"station_id":"KPB","transit":true,"time":9,"i_long":106.826365},{"time":3,"station_name":"Rajawali","station_id":"RJW","is_transit":false,"distance":1444,"i_long":106.836569,"i_lat":-6.14505,"transit":false,"line":11},{"line":11,"i_lat":-6.161728,"time":5,"distance":1901,"station_id":"KMO","i_long":106.839204,"is_transit":false,"station_name":"Kemayoran","transit":false},{"distance":1436,"i_long":106.84368,"station_name":"Pasar Senen","transit":false,"station_id":"PSE","time":4,"is_transit":false,"i_lat":-6.174784,"line":11},{"time":8,"station_name":"Gang Sentiong","distance":1567,"is_transit":false,"i_lat":-6.185975,"i_long":106.850107,"station_id":"GST","transit":false,"line":11},{"i_long":106.855437,"line":11,"station_id":"KMT","time":1,"transit":false,"station_name":"Kramat","distance":973,"is_transit":false,"i_lat":-6.193792},{"station_id":"POK","i_long":106.861737,"station_name":"Pondok Jati","is_transit":false,"time":2,"line":11,"i_lat":-6.209188,"distance":1829,"transit":false},{"i_lat":-6.215091,"time":9,"line":0,"station_name":"Jatinegara","station_id":"JNG","transit":true,"is_transit":true,"distance":1236,"i_long":106.86807400000001},{"transit":false,"station_id":"KLD","distance":3395,"station_name":"Klender","i_long":106.899548,"time":3,"i_lat":-6.2135,"is_transit":false,"line":1},{"i_long":106.922662,"transit":false,"is_transit":false,"distance":3100,"station_id":"BUA","station_name":"Buaran","time":2,"line":0,"i_lat":-6.215568},{"station_id":"KLDB","station_name":"Klenderbaru","line":1,"i_long":106.939679,"distance":1305,"transit":false,"i_lat":-6.217455,"time":1,"is_transit":false},{"i_long":106.951283,"station_id":"CUK","is_transit":false,"time":8,"station_name":"Cakung","i_lat":-6.219053,"line":0,"distance":1385,"transit":false},{"transit":false,"time":3,"station_id":"KRI","distance":3097,"station_name":"Kranji","is_transit":false,"i_lat":-6.224515,"i_long":106.977657,"line":1},{"station_name":"Bekasi","time":4,"is_transit":false,"station_id":"BKS","transit":false,"i_long":106.997013,"i_lat":-6.236616,"line":0,"distance":2520},{"time":2,"i_long":107.016735,"distance":2368,"line":0,"station_name":"Bekasi Timur","station_id":"BKST","is_transit":false,"transit":false,"i_lat":-6.248029},{"distance":4460,"i_lat":-6.258864,"time":7,"i_long":107.055722,"station_name":"Tambun","transit":false,"station_id":"TB","is_transit":false,"line":1},{"line":0,"station_id":"CIT","station_name":"Cibitung","time":3,"distance":3420,"i_lat":-6.261877,"i_long":107.083084,"transit":false,"is_transit":false},{"line":1,"is_transit":false,"station_name":"Metland Telaga Murni","transit":false,"distance":2800,"i_lat":-6.262938,"i_long":107.093313,"time":2,"station_id":"TLM"},{"is_transit":false,"time":4,"line":0,"station_id":"CKR","distance":3689,"i_long":107.144613,"transit":false,"station_name":"Cikarang","i_lat":-6.2553149999999995}]]}