{"data":[[{"station_name":"Jakarta Kota","station_id":"JAKK","i_long":106.812439,"distance":0,"transit":false,"line":2,"i_lat":-6.137569,"time":0,"is_transit":false},{"time":3,"is_transit":true,"i_lat":-6.132549,"line":4,"station_name":"Kampung Bandan","station_id":"KPB","i_long":106.826365,"distance":1364,"transit":true},{"i_long":106.79867,"distance":4102,"station_id":"AK","is_transit":false,"transit":false,"time":9,"i_lat":-6.144674,"line":1,"station_name":"Angke"},{"transit":false,"time":4,"distance":1230,"i_long":106.800832,"station_id":"DU","line":1,"i_lat":-6.155215,"station_name":"Duri","is_transit":false},{"station_name":"Tanah Abang","i_long":106.811091,"transit":true,"distance":3632,"i_lat":-6.185545,"station_id":"THB","line":1,"is_transit":true,"time":8},{"transit":false,"line":6,"time":6,"i_long":106.79689,"distance":3191,"is_transit":false,"station_id":"PLM","station_name":"Palmerah","i_lat":-6.207404},{"station_name":"Kebayoran","station_id":"KBY","transit":false,"is_transit":false,"i_lat":-6.237242,"time":7,"i_long":106.780334,"line":6,"distance":3737},{"transit":false,"line":6,"i_long":106.74273,"time":8,"station_name":"Pondokranji","station_id":"PDJ","is_transit":false,"distance":6218,"i_lat":-6.276362}],[{"transit":false,"distance":0,"i_long":106.812439,"line":2,"i_lat":-6.137569,"station_id":"JAKK","is_transit":false,"time":0,"station_name":"Jakarta Kota"},{"station_id":"JAY","is_transit":false,"i_lat":-6.141205,"i_long":106.820901,"station_name":"Jayakarta","line":2,"time":4,"transit":false,"distance":1264},{"station_name":"Manggabesar","is_transit":false,"time":2,"station_id":"MGB","distance":1080,"i_long":106.82482,"i_lat":-6.149769,"transit":false,"line":2},{"transit":false,"station_name":"Sawah Besar","i_long":106.827103,"line":2,"distance":906,"is_transit":false,"station_id":"SW","i_lat":-6.160725,"time":2},{"i_lat":-6.166716,"station_id":"JUA","transit":false,"distance":1149,"line":2,"i_long":106.828284,"time":2,"is_transit":false,"station_name":"Juanda"},{"line":2,"i_long":106.832183,"distance":2015,"is_transit":false,"transit":false,"station_name":"Gondangdia","station_id":"GDD","i_lat":-6.186295,"time":4},{"line":2,"is_transit":false,"distance":1750,"station_name":"Cikini","transit":false,"i_lat":-6.198556,"time":3,"station_id":"CKI","i_long":106.840169},{"line":2,"transit":true,"station_name":"Manggarai","distance":1590,"time":4,"station_id":"MRI","i_lat":-6.209883,"i_long":106.84912,"is_transit":true},{"time":4,"station_id":"SUD","i_long":106.822649,"line":1,"is_transit":false,"i_lat":-6.202263,"station_name":"Sudirman","transit":false,"distance":3186},{"station_name":"Sudirman Baru","i_long":106.819881,"line":1,"transit":false,"distance":280,"time":1,"station_id":"SUDB","i_lat":-6.201433,"is_transit":false},{"station_name":"Karet","i_lat":-6.20132,"transit":false,"time":1,"i_long":106.816351,"is_transit":false,"distance":471,"line":1,"station_id":"KAT"},{"station_name":"Tanah Abang","time":5,"line":1,"distance":2029,"is_transit":true,"i_long":106.811091,"transit":true,"station_id":"THB","i_lat":-6.185545},{"transit":false,"is_transit":false,"station_name":"Palmerah","distance":3191,"time":6,"i_lat":-6.207404,"i_long":106.79689,"station_id":"PLM","line":6},{"distance":3737,"i_lat":-6.237242,"time":7,"transit":false,"station_id":"KBY","station_name":"Kebayoran","line":6,"is_transit":false,"i_long":106.780334},{"is_transit":false,"i_long":106.74273,"line":6,"station_name":"Pondokranji","transit":false,"station_id":"PDJ","distance":6218,"i_lat":-6.276362,"time":8}],[{"station_id":"JAKK","distance":0,"transit":false,"time":0,"i_lat":-6.137569,"i_long":106.812439,"is_transit":false,"line":2,"station_name":"Jakarta Kota"},{"i_lat":-6.132549,"line":4,"time":3,"station_name":"Kampung Bandan","distance":1364,"transit":true,"i_long":106.826365,"is_transit":true,"station_id":"KPB"},{"transit":false,"i_lat":-6.14505,"station_id":"RJW","i_long":106.836569,"time":3,"distance":1444,"is_transit":false,"station_name":"Rajawali","line":11},{"station_id":"KMO","i_long":106.839204,"is_transit":false,"transit":false,"line":11,"i_lat":-6.161728,"time":5,"distance":1901,"station_name":"Kemayoran"},{"line":11,"transit":false,"time":4,"i_long":106.84368,"is_transit":false,"station_name":"Pasar Senen","station_id":"PSE","distance":1436,"i_lat":-6.174784},{"is_transit":false,"station_name":"Gang Sentiong","i_lat":-6.185975,"time":8,"line":11,"station_id":"GST","i_long":106.850107,"distance":1567,"transit":false},{"is_transit":false,"time":1,"station_name":"Kramat","line":11,"station_id":"KMT","i_lat":-6.193792,"transit":false,"i_long":106.855437,"distance":973},{"transit":false,"time":2,"i_lat":-6.209188,"is_transit":false,"distance":1829,"line":11,"i_long":106.861737,"station_name":"Pondok Jati","station_id":"POK"},{"station_name":"Jatinegara","transit":true,"line":1,"time":9,"station_id":"JNG","i_lat":-6.215091,"i_long":106.86807400000001,"is_transit":true,"distance":1236},{"i_lat":-6.212485,"i_long":106.858896,"station_name":"Matraman","is_transit":false,"time":2,"station_id":"MTR","transit":false,"line":1,"distance":1377},{"i_lat":-6.209883,"time":2,"distance":1275,"is_transit":false,"transit":false,"station_id":"MRI","i_long":106.84912,"line":2,"station_name":"Manggarai"},{"line":1,"station_name":"Sudirman","distance":3186,"is_transit":false,"i_lat":-6.202263,"time":4,"i_long":106.822649,"station_id":"SUD","transit":false},{"i_lat":-6.201433,"line":1,"time":1,"station_id":"SUDB","i_long":106.819881,"is_transit":false,"transit":false,"station_name":"Sudirman Baru","distance":280},{"distance":471,"is_transit":false,"station_name":"Karet","transit":false,"time":1,"i_long":106.816351,"station_id":"KAT","i_lat":-6.20132,"line":1},{"i_long":106.811091,"station_name":"Tanah Abang","station_id":"THB","line":1,"is_transit":true,"transit":true,"time":5,"distance":2029,"i_lat":-6.185545},{"station_id":"PLM","time":6,"line":6,"station_name":"Palmerah","is_transit":false,"i_long":106.79689,"transit":false,"distance":3191,"i_lat":-6.207404},{"station_name":"Kebayoran","is_transit":false,"line":6,"distance":3737,"i_lat":-6.237242,"i_long":106.780334,"station_id":"KBY","time":7,"transit":false},{"line":6,"is_transit":false,"transit":false,"time":8,"station_name":"Pondokranji","distance":6218,"i_long":106.74273,"station_id":"PDJ","i_lat":-6.276362}],[{"is_transit":false,"time":0,"i_lat":-6.137569,"transit":false,"station_id":"JAKK","distance":0,"station_name":"Jakarta Kota","i_long":106.812439,"line":2},{"transit":false,"time":4,"is_transit":false,"line":2,"i_long":106.820901,"station_name":"Jayakarta","station_id":"JAY","distance":1264,"i_lat":-6.141205},{"i_long":106.82482,"station_name":"Manggabesar","station_id":"MGB","is_transit":false,"transit":false,"time":2,"i_lat":-6.149769,"line":2,"distance":1080},{"i_lat":-6.160725,"transit":false,"station_id":"SW","i_long":106.827103,"time":2,"station_name":"Sawah Besar","line":2,"is_transit":false,"distance":906},{"i_lat":-6.166716,"station_name":"Juanda","is_transit":false,"distance":1149,"i_long":106.828284,"transit":false,"time":2,"line":2,"station_id":"JUA"},{"is_transit":false,"i_lat":-6.186295,"station_name":"Gondangdia","station_id":"GDD","distance":2015,"i_long":106.832183,"transit":false,"time":4,"line":2},{"time":3,"i_long":106.840169,"distance":1750,"transit":false,"station_id":"CKI","station_name":"Cikini","i_lat":-6.198556,"line":2,"is_transit":false},{"station_name":"Manggarai","distance":1590,"i_lat":-6.209883,"is_transit":true,"line":2,"transit":true,"i_long":106.84912,"time":4,"station_id":"MRI"},{"station_id":"MTR","i_lat":-6.212485,"distance":1275,"is_transit":false,"transit":false,"time":2,"station_name":"Matraman","line":1,"i_long":106.858896},{"time":8,"station_name":"Jatinegara","i_lat":-6.215091,"station_id":"JNG","distance":1377,"transit":true,"i_long":106.86807400000001,"is_transit":true,"line":1},{"line":11,"time":2,"station_name":"Pondok Jati","station_id":"POK","i_lat":-6.209188,"is_transit":false,"distance":1236,"i_long":106.861737,"transit":false},{"i_lat":-6.193792,"i_long":106.855437,"time":2,"transit":false,"station_id":"KMT","line":11,"is_transit":false,"station_name":"Kramat","distance":1829},{"station_name":"Gang Sentiong","time":1,"distance":973,"i_lat":-6.185975,"station_id":"GST","line":11,"i_long":106.850107,"transit":false,"is_transit":false},{"station_name":"Pasar Senen","i_lat":-6.174784,"line":11,"transit":false,"i_long":106.84368,"station_id":"PSE","is_transit":false,"time":8,"distance":1567},{"distance":1436,"i_long":106.839204,"i_lat":-6.161728,"station_name":"Kemayoran","station_id":"KMO","time":4,"transit":false,"is_transit":false,"line":11},{"is_transit":false,"time":5,"i_long":106.836569,"station_id":"RJW","station_name":"Rajawali","transit":false,"line":11,"distance":1901,"i_lat":-6.14505},{"transit":true,"distance":1444,"i_long":106.826365,"i_lat":-6.132549,"line":4,"station_name":"Kampung Bandan","station_id":"KPB","time":3,"is_transit":true},{"transit":false,"i_long":106.79867,"time":9,"i_lat":-6.144674,"line":1,"is_transit":false,"station_name":"Angke","station_id":"AK","distance":4102},{"station_name":"Duri","station_id":"DU","i_lat":-6.155215,"line":1,"i_long":106.800832,"distance":1230,"transit":false,"is_transit":false,"time":4},{"distance":3632,"station_id":"THB","i_long":106.811091,"i_lat":-6.185545,"line":1,"station_name":"Tanah Abang","transit":true,"is_transit":true,"time":8},{"time":6,"distance":3191,"is_transit":false,"station_name":"Palmerah","i_long":106.79689,"line":6,"transit":false,"station_id":"PLM","i_lat":-6.207404},{"time":7,"i_lat":-6.237242,"i_long":106.780334,"distance":3737,"station_id":"KBY","is_transit":false,"line":6,"station_name":"Kebayoran","transit":false},{"transit":false,"time":8,"distance":6218,"i_lat":-6.276362,"station_name":"Pondokranji","station_id":"PDJ","is_transit":false,"line":6,"i_long":106.74273}]]}