{"data":[[{"transit":false,"station_id":"JAKK","distance":0,"time":0,"station_name":"Jakarta Kota","i_long":106.812439,"is_transit":true,"line":0,"i_lat":-6.137569},{"station_id":"KPB","is_transit":true,"station_name":"Kampung Bandan","distance":1364,"i_long":106.826365,"transit":true,"time":3,"line":0,"i_lat":-6.132549},{"is_transit":false,"distance":1444,"line":11,"transit":false,"time":3,"i_long":106.836569,"station_name":"Rajawali","station_id":"RJW","i_lat":-6.14505},{"time":5,"is_transit":false,"i_long":106.839204,"station_name":"Kemayoran","station_id":"KMO","i_lat":-6.161728,"transit":false,"distance":1901,"line":11},{"transit":false,"time":4,"i_lat":-6.174784,"station_id":"PSE","i_long":106.84368,"is_transit":false,"station_name":"Pasar Senen","distance":1436,"line":11},{"station_id":"GST","transit":false,"is_transit":false,"time":8,"i_lat":-6.185975,"distance":1567,"station_name":"Gang Sentiong","line":11,"i_long":106.850107},{"distance":973,"station_id":"KMT","i_lat":-6.193792,"transit":false,"time":1,"line":11,"station_name":"Kramat","i_long":106.855437,"is_transit":false},{"i_long":106.861737,"station_id":"POK","line":11,"transit":false,"station_name":"Pondok Jati","distance":1829,"time":2,"i_lat":-6.209188,"is_transit":false},{"station_name":"Jatinegara","is_transit":true,"time":9,"i_lat":-6.215091,"line":0,"distance":1236,"i_long":106.86807400000001,"transit":true,"station_id":"JNG"},{"station_id":"KLD","time":3,"line":1,"transit":false,"distance":3395,"is_transit":false,"station_name":"Klender","i_long":106.899548,"i_lat":-6.2135},{"distance":3100,"line":0,"time":2,"i_lat":-6.215568,"i_long":106.922662,"is_transit":false,"station_name":"Buaran","station_id":"BUA","transit":false},{"time":1,"distance":1305,"station_id":"KLDB","is_transit":false,"transit":false,"i_lat":-6.217455,"i_long":106.939679,"station_name":"Klenderbaru","line":1},{"is_transit":false,"station_id":"CUK","transit":false,"distance":1385,"i_lat":-6.219053,"i_long":106.951283,"line":0,"time":8,"station_name":"Cakung"},{"distance":3097,"i_lat":-6.224515,"i_long":106.977657,"transit":false,"line":1,"station_id":"KRI","is_transit":false,"station_name":"Kranji","time":3},{"i_long":106.997013,"time":4,"is_transit":false,"distance":2520,"i_lat":-6.236616,"line":0,"station_id":"BKS","transit":false,"station_name":"Bekasi"}],[{"station_id":"JAKK","is_transit":true,"i_long":106.812439,"line":0,"transit":false,"time":0,"station_name":"Jakarta Kota","i_lat":-6.137569,"distance":0},{"station_id":"JAY","transit":false,"station_name":"Jayakarta","is_transit":false,"time":4,"distance":1264,"i_long":106.820901,"i_lat":-6.141205,"line":7},{"time":2,"station_name":"Manggabesar","distance":1080,"station_id":"MGB","i_long":106.82482,"is_transit":false,"line":2,"transit":false,"i_lat":-6.149769},{"i_long":106.827103,"line":2,"time":2,"i_lat":-6.160725,"station_id":"SW","distance":906,"is_transit":false,"station_name":"Sawah Besar","transit":false},{"station_id":"JUA","transit":false,"i_lat":-6.166716,"i_long":106.828284,"distance":1149,"time":2,"is_transit":false,"line":2,"station_name":"Juanda"},{"i_lat":-6.186295,"i_long":106.832183,"station_id":"GDD","transit":false,"distance":2015,"time":4,"line":2,"is_transit":false,"station_name":"Gondangdia"},{"station_name":"Cikini","i_long":106.840169,"time":3,"station_id":"CKI","transit":false,"i_lat":-6.198556,"is_transit":false,"distance":1750,"line":0},{"station_id":"MRI","transit":true,"time":4,"is_transit":true,"station_name":"Manggarai","i_lat":-6.209883,"i_long":106.84912,"line":0,"distance":1590},{"i_long":106.858896,"station_name":"Matraman","distance":1275,"time":2,"transit":false,"line":1,"is_transit":false,"i_lat":-6.212485,"station_id":"MTR"},{"i_long":106.86807400000001,"station_id":"JNG","transit":false,"distance":1377,"station_name":"Jatinegara","i_lat":-6.215091,"time":8,"is_transit":true,"line":0},{"transit":false,"line":1,"station_id":"KLD","is_transit":false,"i_lat":-6.2135,"i_long":106.899548,"distance":3395,"station_name":"Klender","time":3},{"line":0,"station_id":"BUA","transit":false,"i_long":106.922662,"station_name":"Buaran","time":2,"is_transit":false,"i_lat":-6.215568,"distance":3100},{"distance":1305,"time":1,"is_transit":false,"station_name":"Klenderbaru","i_long":106.939679,"station_id":"KLDB","transit":false,"line":1,"i_lat":-6.217455},{"distance":1385,"time":8,"i_long":106.951283,"station_id":"CUK","station_name":"Cakung","transit":false,"line":0,"i_lat":-6.219053,"is_transit":false},{"time":3,"transit":false,"station_name":"Kranji","i_lat":-6.224515,"station_id":"KRI","i_long":106.977657,"distance":3097,"line":1,"is_transit":false},{"distance":2520,"time":4,"i_long":106.997013,"station_name":"Bekasi","station_id":"BKS","i_lat":-6.236616,"is_transit":false,"line":0,"transit":false}],[{"transit":false,"station_id":"JAKK","distance":0,"i_lat":-6.137569,"i_long":106.812439,"time":0,"line":0,"station_name":"Jakarta Kota","is_transit":true},{"i_lat":-6.132549,"time":3,"distance":1364,"line":0,"is_transit":true,"transit":false,"station_id":"KPB","station_name":"Kampung Bandan","i_long":106.826365},{"i_lat":-6.144674,"line":0,"station_id":"AK","distance":4102,"time":9,"is_transit":false,"i_long":106.79867,"transit":false,"station_name":"Angke"},{"station_name":"Duri","i_long":106.800832,"transit":true,"distance":1230,"station_id":"DU","is_transit":true,"i_lat":-6.155215,"line":1,"time":4},{"station_name":"Tanah Abang","i_long":106.811091,"station_id":"THB","i_lat":-6.185545,"line":1,"transit":false,"time":8,"distance":3632,"is_transit":true},{"station_id":"KAT","is_transit":false,"station_name":"Karet","line":1,"i_long":106.816351,"time":5,"i_lat":-6.20132,"distance":2029,"transit":false},{"is_transit":false,"station_id":"SUDB","line":1,"i_long":106.819881,"station_name":"Sudirman Baru","transit":false,"i_lat":-6.201433,"distance":471,"time":1},{"distance":280,"time":1,"transit":false,"line":1,"i_lat":-6.202263,"station_id":"SUD","i_long":106.822649,"station_name":"Sudirman","is_transit":false},{"station_name":"Manggarai","transit":false,"time":4,"i_lat":-6.209883,"distance":3186,"line":0,"station_id":"MRI","i_long":106.84912,"is_transit":true},{"station_id":"MTR","line":1,"i_long":106.858896,"distance":1275,"station_name":"Matraman","i_lat":-6.212485,"transit":false,"time":2,"is_transit":false},{"station_name":"Jatinegara","line":0,"station_id":"JNG","transit":false,"i_lat":-6.215091,"distance":1377,"i_long":106.86807400000001,"is_transit":true,"time":8},{"is_transit":false,"line":1,"distance":3395,"transit":false,"time":3,"station_id":"KLD","station_name":"Klender","i_long":106.899548,"i_lat":-6.2135},{"station_name":"Buaran","i_long":106.922662,"i_lat":-6.215568,"is_transit":false,"line":0,"transit":false,"time":2,"station_id":"BUA","distance":3100},{"transit":false,"i_lat":-6.217455,"i_long":106.939679,"line":1,"distance":1305,"time":1,"station_id":"KLDB","station_name":"Klenderbaru","is_transit":false},{"is_transit":false,"station_name":"Cakung","station_id":"CUK","line":0,"i_long":106.951283,"distance":1385,"i_lat":-6.219053,"transit":false,"time":8},{"time":3,"distance":3097,"is_transit":false,"transit":false,"station_name":"Kranji","i_lat":-6.224515,"station_id":"KRI","i_long":106.977657,"line":1},{"transit":false,"time":4,"station_name":"Bekasi","is_transit":false,"i_long":106.997013,"line":0,"distance":2520,"i_lat":-6.236616,"station_id":"BKS"}],[{"station_id":"JAKK","time":0,"transit":false,"i_long":106.812439,"line":0,"is_transit":true,"i_lat":-6.137569,"distance":0,"station_name":"Jakarta Kota"},{"distance":1264,"i_long":106.820901,"is_transit":false,"i_lat":-6.141205,"line":7,"time":4,"station_id":"JAY","station_name":"Jayakarta","transit":false},{"transit":false,"time":2,"i_long":106.82482,"i_lat":-6.149769,"distance":1080,"station_name":"Manggabesar","line":2,"station_id":"MGB","is_transit":false},{"time":2,"i_long":106.827103,"is_transit":false,"i_lat":-6.160725,"station_name":"Sawah Besar","station_id":"SW","transit":false,"line":2,"distance":906},{"time":2,"station_id":"JUA","transit":false,"is_transit":false,"distance":1149,"i_lat":-6.166716,"station_name":"Juanda","i_long":106.828284,"line":2},{"distance":2015,"station_id":"GDD","station_name":"Gondangdia","transit":false,"line":2,"time":4,"i_lat":-6.186295,"is_transit":false,"i_long":106.832183},{"station_id":"CKI","time":3,"distance":1750,"transit":false,"station_name":"Cikini","is_transit":false,"line":0,"i_long":106.840169,"i_lat":-6.198556},{"time":4,"i_lat":-6.209883,"station_name":"Manggarai","i_long":106.84912,"is_transit":true,"station_id":"MRI","distance":1590,"transit":true,"line":0},{"i_lat":-6.202263,"distance":3186,"is_transit":false,"station_name":"Sudirman","time":4,"station_id":"SUD","i_long":106.822649,"line":1,"transit":false},{"station_id":"SUDB","i_long":106.819881,"distance":280,"line":1,"i_lat":-6.201433,"time":1,"transit":false,"is_transit":false,"station_name":"Sudirman Baru"},{"time":1,"i_long":106.816351,"line":1,"transit":false,"distance":471,"is_transit":false,"station_name":"Karet","station_id":"KAT","i_lat":-6.20132},{"is_transit":true,"station_name":"Tanah Abang","line":1,"i_lat":-6.185545,"i_long":106.811091,"transit":false,"time":5,"station_id":"THB","distance":2029},{"line":1,"time":8,"i_lat":-6.155215,"transit":true,"station_id":"DU","i_long":106.800832,"is_transit":true,"station_name":"Duri","distance":3632},{"is_transit":false,"distance":1230,"line":0,"station_name":"Angke","transit":false,"time":4,"station_id":"AK","i_long":106.79867,"i_lat":-6.144674},{"station_id":"KPB","distance":4102,"time":9,"station_name":"Kampung Bandan","i_lat":-6.132549,"line":0,"is_transit":true,"transit":true,"i_long":106.826365},{"i_long":106.836569,"time":3,"station_id":"RJW","i_lat":-6.14505,"is_transit":false,"line":11,"transit":false,"distance":1444,"station_name":"Rajawali"},{"time":5,"i_lat":-6.161728,"station_id":"KMO","transit":false,"station_name":"Kemayoran","distance":1901,"is_transit":false,"i_long":106.839204,"line":11},{"transit":false,"is_transit":false,"i_lat":-6.174784,"line":11,"station_id":"PSE","time":4,"distance":1436,"station_name":"Pasar Senen","i_long":106.84368},{"distance":1567,"i_lat":-6.185975,"transit":false,"line":11,"station_id":"GST","time":8,"is_transit":false,"i_long":106.850107,"station_name":"Gang Sentiong"},{"distance":973,"i_lat":-6.193792,"i_long":106.855437,"station_name":"Kramat","transit":false,"line":11,"station_id":"KMT","time":1,"is_transit":false},{"i_long":106.861737,"line":11,"is_transit":false,"i_lat":-6.209188,"time":2,"station_name":"Pondok Jati","station_id":"POK","transit":false,"distance":1829},{"time":9,"transit":true,"i_lat":-6.215091,"is_transit":true,"line":0,"i_long":106.86807400000001,"distance":1236,"station_id":"JNG","station_name":"Jatinegara"},{"time":3,"transit":false,"distance":3395,"is_transit":false,"station_name":"Klender","i_lat":-6.2135,"i_long":106.899548,"line":1,"station_id":"KLD"},{"distance":3100,"i_long":106.922662,"line":0,"transit":false,"station_id":"BUA","time":2,"station_name":"Buaran","i_lat":-6.215568,"is_transit":false},{"distance":1305,"i_long":106.939679,"is_transit":false,"i_lat":-6.217455,"station_name":"Klenderbaru","station_id":"KLDB","transit":false,"line":1,"time":1},{"station_name":"Cakung","distance":1385,"transit":false,"is_transit":false,"station_id":"CUK","i_long":106.951283,"i_lat":-6.219053,"line":0,"time":8},{"station_id":"KRI","distance":3097,"line":1,"i_lat":-6.224515,"station_name":"Kranji","is_transit":false,"time":3,"i_long":106.977657,"transit":false},{"transit":false,"station_id":"BKS","i_lat":-6.236616,"i_long":106.997013,"line":0,"distance":2520,"is_transit":false,"time":4,"station_name":"Bekasi"}]]}