{"data":[[{"distance":0,"station_name":"Jakarta Kota","transit":false,"time":0,"is_transit":false,"i_long":106.812439,"line":2,"station_id":"JAKK","i_lat":-6.137569},{"line":2,"station_name":"Jayakarta","i_lat":-6.141205,"transit":false,"time":4,"i_long":106.820901,"is_transit":false,"station_id":"JAY","distance":1264},{"i_lat":-6.149769,"i_long":106.82482,"station_id":"MGB","is_transit":false,"line":2,"station_name":"Manggabesar","time":2,"distance":1080,"transit":false},{"line":2,"station_id":"SW","distance":906,"transit":false,"time":2,"station_name":"Sawah Besar","i_long":106.827103,"is_transit":false,"i_lat":-6.160725},{"i_lat":-6.166716,"time":2,"is_transit":false,"i_long":106.828284,"station_id":"JUA","station_name":"Juanda","distance":1149,"transit":false,"line":2},{"i_lat":-6.186295,"line":2,"transit":false,"is_transit":false,"station_id":"GDD","i_long":106.832183,"station_name":"Gondangdia","time":4,"distance":2015},{"i_lat":-6.198556,"distance":1750,"line":2,"station_name":"Cikini","is_transit":false,"time":3,"transit":false,"station_id":"CKI","i_long":106.840169},{"transit":true,"line":2,"time":4,"station_id":"MRI","station_name":"Manggarai","is_transit":true,"i_long":106.84912,"distance":1590,"i_lat":-6.209883},{"transit":false,"time":2,"i_long":106.858896,"station_name":"Matraman","is_transit":false,"i_lat":-6.212485,"distance":1275,"station_id":"MTR","line":1}],[{"is_transit":false,"line":2,"i_long":106.812439,"transit":false,"station_name":"Jakarta Kota","time":0,"distance":0,"station_id":"JAKK","i_lat":-6.137569},{"is_transit":true,"time":3,"i_lat":-6.132549,"i_long":106.826365,"station_id":"KPB","transit":true,"line":4,"distance":1364,"station_name":"Kampung Bandan"},{"transit":false,"time":9,"i_long":106.79867,"distance":4102,"station_name":"Angke","i_lat":-6.144674,"is_transit":false,"line":1,"station_id":"AK"},{"is_transit":false,"station_id":"DU","time":4,"distance":1230,"i_long":106.800832,"line":1,"i_lat":-6.155215,"transit":false,"station_name":"Duri"},{"transit":false,"station_id":"THB","i_long":106.811091,"line":1,"station_name":"Tanah Abang","is_transit":false,"i_lat":-6.185545,"distance":3632,"time":8},{"station_id":"KAT","time":5,"distance":2029,"i_lat":-6.20132,"line":1,"i_long":106.816351,"is_transit":false,"station_name":"Karet","transit":false},{"line":1,"time":1,"station_name":"Sudirman Baru","distance":471,"is_transit":false,"i_long":106.819881,"transit":false,"station_id":"SUDB","i_lat":-6.201433},{"i_lat":-6.202263,"distance":280,"i_long":106.822649,"line":1,"station_id":"SUD","time":1,"is_transit":false,"station_name":"Sudirman","transit":false},{"time":4,"i_lat":-6.209883,"station_name":"Manggarai","distance":3186,"station_id":"MRI","i_long":106.84912,"line":2,"transit":false,"is_transit":false},{"i_lat":-6.212485,"transit":false,"time":2,"distance":1275,"is_transit":false,"station_id":"MTR","line":1,"i_long":106.858896,"station_name":"Matraman"}],[{"time":0,"station_name":"Jakarta Kota","is_transit":false,"transit":false,"distance":0,"i_lat":-6.137569,"i_long":106.812439,"station_id":"JAKK","line":2},{"line":4,"station_id":"KPB","i_long":106.826365,"transit":true,"station_name":"Kampung Bandan","is_transit":true,"time":3,"i_lat":-6.132549,"distance":1364},{"station_name":"Rajawali","transit":false,"is_transit":false,"distance":1444,"i_lat":-6.14505,"station_id":"RJW","time":3,"i_long":106.836569,"line":11},{"station_id":"KMO","distance":1901,"i_lat":-6.161728,"is_transit":false,"station_name":"Kemayoran","transit":false,"i_long":106.839204,"time":5,"line":11},{"line":11,"time":4,"distance":1436,"station_name":"Pasar Senen","i_lat":-6.174784,"is_transit":false,"i_long":106.84368,"station_id":"PSE","transit":false},{"time":8,"distance":1567,"station_id":"GST","transit":false,"line":11,"i_long":106.850107,"i_lat":-6.185975,"station_name":"Gang Sentiong","is_transit":false},{"station_id":"KMT","time":1,"distance":973,"station_name":"Kramat","transit":false,"i_long":106.855437,"line":11,"i_lat":-6.193792,"is_transit":false},{"transit":false,"is_transit":false,"time":2,"station_id":"POK","i_lat":-6.209188,"station_name":"Pondok Jati","distance":1829,"line":11,"i_long":106.861737},{"i_long":106.86807400000001,"time":9,"station_id":"JNG","station_name":"Jatinegara","i_lat":-6.215091,"transit":true,"is_transit":true,"line":1,"distance":1236},{"is_transit":false,"distance":1377,"i_long":106.858896,"line":1,"time":2,"station_id":"MTR","station_name":"Matraman","transit":false,"i_lat":-6.212485}],[{"time":0,"distance":0,"station_id":"JAKK","i_lat":-6.137569,"line":2,"station_name":"Jakarta Kota","is_transit":false,"i_long":106.812439,"transit":false},{"time":4,"station_id":"JAY","i_lat":-6.141205,"is_transit":false,"distance":1264,"i_long":106.820901,"line":2,"station_name":"Jayakarta","transit":false},{"is_transit":false,"transit":false,"time":2,"i_long":106.82482,"station_name":"Manggabesar","i_lat":-6.149769,"station_id":"MGB","distance":1080,"line":2},{"transit":false,"is_transit":false,"line":2,"time":2,"distance":906,"i_long":106.827103,"station_name":"Sawah Besar","station_id":"SW","i_lat":-6.160725},{"transit":false,"station_id":"JUA","i_long":106.828284,"i_lat":-6.166716,"line":2,"is_transit":false,"station_name":"Juanda","distance":1149,"time":2},{"station_name":"Gondangdia","station_id":"GDD","distance":2015,"transit":false,"time":4,"i_long":106.832183,"i_lat":-6.186295,"is_transit":false,"line":2},{"i_lat":-6.198556,"i_long":106.840169,"transit":false,"time":3,"distance":1750,"station_id":"CKI","station_name":"Cikini","is_transit":false,"line":2},{"transit":true,"i_lat":-6.209883,"is_transit":true,"i_long":106.84912,"station_id":"MRI","line":2,"station_name":"Manggarai","distance":1590,"time":4},{"line":1,"station_name":"Sudirman","transit":false,"distance":3186,"is_transit":false,"station_id":"SUD","i_lat":-6.202263,"i_long":106.822649,"time":4},{"is_transit":false,"line":1,"time":1,"distance":280,"i_long":106.819881,"station_name":"Sudirman Baru","station_id":"SUDB","i_lat":-6.201433,"transit":false},{"i_long":106.816351,"transit":false,"station_id":"KAT","i_lat":-6.20132,"is_transit":false,"time":1,"station_name":"Karet","distance":471,"line":1},{"time":5,"transit":false,"station_id":"THB","line":1,"i_lat":-6.185545,"is_transit":false,"station_name":"Tanah Abang","i_long":106.811091,"distance":2029},{"i_long":106.800832,"is_transit":false,"station_name":"Duri","time":8,"distance":3632,"transit":false,"station_id":"DU","i_lat":-6.155215,"line":1},{"station_name":"Angke","i_lat":-6.144674,"is_transit":false,"time":4,"distance":1230,"line":1,"i_long":106.79867,"transit":false,"station_id":"AK"},{"time":9,"station_id":"KPB","i_long":106.826365,"line":4,"distance":4102,"transit":true,"is_transit":true,"station_name":"Kampung Bandan","i_lat":-6.132549},{"station_name":"Rajawali","time":3,"distance":1444,"i_lat":-6.14505,"i_long":106.836569,"station_id":"RJW","line":11,"is_transit":false,"transit":false},{"line":11,"transit":false,"station_name":"Kemayoran","is_transit":false,"time":5,"i_lat":-6.161728,"distance":1901,"i_long":106.839204,"station_id":"KMO"},{"station_name":"Pasar Senen","transit":false,"is_transit":false,"distance":1436,"time":4,"station_id":"PSE","line":11,"i_lat":-6.174784,"i_long":106.84368},{"station_id":"GST","transit":false,"i_lat":-6.185975,"distance":1567,"i_long":106.850107,"station_name":"Gang Sentiong","time":8,"is_transit":false,"line":11},{"station_name":"Kramat","station_id":"KMT","distance":973,"is_transit":false,"i_lat":-6.193792,"time":1,"line":11,"transit":false,"i_long":106.855437},{"station_id":"POK","time":2,"is_transit":false,"distance":1829,"i_lat":-6.209188,"i_long":106.861737,"station_name":"Pondok Jati","line":11,"transit":false},{"time":9,"transit":true,"is_transit":true,"station_id":"JNG","line":1,"distance":1236,"i_lat":-6.215091,"station_name":"Jatinegara","i_long":106.86807400000001},{"station_id":"MTR","i_long":106.858896,"transit":false,"i_lat":-6.212485,"line":1,"is_transit":false,"distance":1377,"station_name":"Matraman","time":2}]]}