{"data":[[{"station_id":"JAKK","station_name":"Jakarta Kota","line":2,"i_lat":-6.137569,"transit":false,"i_long":106.812439,"is_transit":false,"distance":0,"time":0},{"distance":1364,"is_transit":true,"station_name":"Kampung Bandan","transit":true,"i_long":106.826365,"line":4,"i_lat":-6.132549,"station_id":"KPB","time":3},{"station_id":"RJW","is_transit":false,"i_lat":-6.14505,"i_long":106.836569,"station_name":"Rajawali","transit":false,"line":11,"time":3,"distance":1444},{"i_long":106.839204,"i_lat":-6.161728,"distance":1901,"station_id":"KMO","transit":false,"time":5,"station_name":"Kemayoran","is_transit":false,"line":11},{"distance":1436,"station_id":"PSE","station_name":"Pasar Senen","time":4,"i_lat":-6.174784,"is_transit":false,"transit":false,"line":11,"i_long":106.84368},{"distance":1567,"time":8,"station_name":"Gang Sentiong","transit":false,"i_long":106.850107,"i_lat":-6.185975,"line":11,"is_transit":false,"station_id":"GST"},{"time":1,"is_transit":false,"transit":false,"i_lat":-6.193792,"line":11,"distance":973,"station_id":"KMT","i_long":106.855437,"station_name":"Kramat"},{"station_id":"POK","time":2,"station_name":"Pondok Jati","i_long":106.861737,"line":11,"is_transit":false,"transit":false,"distance":1829,"i_lat":-6.209188},{"time":9,"i_lat":-6.215091,"line":1,"distance":1236,"i_long":106.86807400000001,"transit":true,"station_id":"JNG","station_name":"Jatinegara","is_transit":true},{"time":3,"station_id":"KLD","i_lat":-6.2135,"distance":3395,"i_long":106.899548,"transit":false,"is_transit":false,"station_name":"Klender","line":1},{"time":2,"station_name":"Buaran","i_lat":-6.215568,"i_long":106.922662,"is_transit":false,"station_id":"BUA","transit":false,"line":1,"distance":3100},{"station_name":"Klenderbaru","distance":1305,"station_id":"KLDB","transit":false,"i_lat":-6.217455,"is_transit":false,"line":1,"i_long":106.939679,"time":1},{"time":8,"line":1,"station_id":"CUK","station_name":"Cakung","i_long":106.951283,"distance":1385,"transit":false,"i_lat":-6.219053,"is_transit":false},{"distance":3097,"i_lat":-6.224515,"i_long":106.977657,"line":1,"is_transit":false,"station_name":"Kranji","transit":false,"station_id":"KRI","time":3},{"station_name":"Bekasi","transit":false,"line":1,"time":4,"is_transit":false,"i_long":106.997013,"station_id":"BKS","distance":2520,"i_lat":-6.236616}],[{"distance":0,"is_transit":false,"station_id":"JAKK","station_name":"Jakarta Kota","line":2,"transit":false,"i_lat":-6.137569,"time":0,"i_long":106.812439},{"i_lat":-6.141205,"station_name":"Jayakarta","transit":false,"time":4,"distance":1264,"is_transit":false,"i_long":106.820901,"line":2,"station_id":"JAY"},{"i_lat":-6.149769,"i_long":106.82482,"line":2,"is_transit":false,"transit":false,"time":2,"distance":1080,"station_id":"MGB","station_name":"Manggabesar"},{"transit":false,"time":2,"distance":906,"i_long":106.827103,"station_id":"SW","is_transit":false,"i_lat":-6.160725,"line":2,"station_name":"Sawah Besar"},{"time":2,"is_transit":false,"transit":false,"station_id":"JUA","distance":1149,"station_name":"Juanda","i_lat":-6.166716,"line":2,"i_long":106.828284},{"distance":2015,"transit":false,"i_lat":-6.186295,"line":2,"is_transit":false,"i_long":106.832183,"time":4,"station_name":"Gondangdia","station_id":"GDD"},{"time":3,"i_long":106.840169,"station_name":"Cikini","is_transit":false,"line":2,"station_id":"CKI","distance":1750,"transit":false,"i_lat":-6.198556},{"distance":1590,"station_id":"MRI","line":2,"is_transit":true,"time":4,"i_long":106.84912,"station_name":"Manggarai","transit":true,"i_lat":-6.209883},{"transit":false,"i_long":106.858896,"i_lat":-6.212485,"line":1,"distance":1275,"time":2,"station_name":"Matraman","is_transit":false,"station_id":"MTR"},{"transit":false,"is_transit":false,"i_lat":-6.215091,"i_long":106.86807400000001,"station_id":"JNG","station_name":"Jatinegara","line":1,"time":8,"distance":1377},{"i_lat":-6.2135,"time":3,"transit":false,"line":1,"station_id":"KLD","i_long":106.899548,"distance":3395,"station_name":"Klender","is_transit":false},{"i_long":106.922662,"is_transit":false,"station_id":"BUA","line":1,"station_name":"Buaran","time":2,"distance":3100,"transit":false,"i_lat":-6.215568},{"line":1,"distance":1305,"time":1,"i_long":106.939679,"station_id":"KLDB","transit":false,"station_name":"Klenderbaru","is_transit":false,"i_lat":-6.217455},{"station_name":"Cakung","line":1,"time":8,"i_lat":-6.219053,"distance":1385,"transit":false,"i_long":106.951283,"station_id":"CUK","is_transit":false},{"distance":3097,"time":3,"is_transit":false,"line":1,"station_id":"KRI","i_long":106.977657,"station_name":"Kranji","i_lat":-6.224515,"transit":false},{"line":1,"distance":2520,"is_transit":false,"i_lat":-6.236616,"station_name":"Bekasi","station_id":"BKS","i_long":106.997013,"time":4,"transit":false}],[{"distance":0,"is_transit":false,"time":0,"station_name":"Jakarta Kota","transit":false,"i_lat":-6.137569,"line":2,"station_id":"JAKK","i_long":106.812439},{"transit":true,"i_lat":-6.132549,"time":3,"station_id":"KPB","station_name":"Kampung Bandan","is_transit":true,"i_long":106.826365,"distance":1364,"line":4},{"is_transit":false,"station_name":"Angke","time":9,"distance":4102,"i_long":106.79867,"transit":false,"line":1,"i_lat":-6.144674,"station_id":"AK"},{"line":1,"distance":1230,"is_transit":false,"station_name":"Duri","time":4,"i_long":106.800832,"transit":false,"station_id":"DU","i_lat":-6.155215},{"transit":false,"i_long":106.811091,"time":8,"station_id":"THB","is_transit":false,"line":1,"station_name":"Tanah Abang","i_lat":-6.185545,"distance":3632},{"time":5,"station_id":"KAT","is_transit":false,"station_name":"Karet","i_lat":-6.20132,"line":1,"distance":2029,"i_long":106.816351,"transit":false},{"transit":false,"station_name":"Sudirman Baru","line":1,"i_long":106.819881,"time":1,"i_lat":-6.201433,"is_transit":false,"distance":471,"station_id":"SUDB"},{"is_transit":false,"i_long":106.822649,"station_name":"Sudirman","station_id":"SUD","transit":false,"i_lat":-6.202263,"distance":280,"line":1,"time":1},{"distance":3186,"station_id":"MRI","station_name":"Manggarai","line":2,"is_transit":false,"time":4,"i_long":106.84912,"transit":false,"i_lat":-6.209883},{"transit":false,"station_id":"MTR","station_name":"Matraman","distance":1275,"time":2,"is_transit":false,"i_lat":-6.212485,"i_long":106.858896,"line":1},{"line":1,"time":8,"distance":1377,"station_id":"JNG","station_name":"Jatinegara","is_transit":false,"transit":false,"i_lat":-6.215091,"i_long":106.86807400000001},{"is_transit":false,"time":3,"distance":3395,"station_name":"Klender","station_id":"KLD","i_lat":-6.2135,"i_long":106.899548,"transit":false,"line":1},{"is_transit":false,"station_name":"Buaran","i_lat":-6.215568,"station_id":"BUA","distance":3100,"time":2,"i_long":106.922662,"transit":false,"line":1},{"is_transit":false,"line":1,"station_id":"KLDB","station_name":"Klenderbaru","distance":1305,"time":1,"i_long":106.939679,"i_lat":-6.217455,"transit":false},{"time":8,"station_id":"CUK","i_lat":-6.219053,"i_long":106.951283,"station_name":"Cakung","is_transit":false,"distance":1385,"transit":false,"line":1},{"i_lat":-6.224515,"station_name":"Kranji","time":3,"station_id":"KRI","transit":false,"i_long":106.977657,"distance":3097,"line":1,"is_transit":false},{"station_name":"Bekasi","i_long":106.997013,"i_lat":-6.236616,"is_transit":false,"distance":2520,"line":1,"transit":false,"station_id":"BKS","time":4}],[{"distance":0,"i_lat":-6.137569,"time":0,"i_long":106.812439,"station_id":"JAKK","transit":false,"station_name":"Jakarta Kota","line":2,"is_transit":false},{"is_transit":false,"i_lat":-6.141205,"i_long":106.820901,"transit":false,"line":2,"time":4,"distance":1264,"station_id":"JAY","station_name":"Jayakarta"},{"distance":1080,"time":2,"transit":false,"line":2,"station_name":"Manggabesar","is_transit":false,"i_lat":-6.149769,"i_long":106.82482,"station_id":"MGB"},{"is_transit":false,"distance":906,"i_long":106.827103,"station_name":"Sawah Besar","i_lat":-6.160725,"line":2,"time":2,"station_id":"SW","transit":false},{"station_name":"Juanda","time":2,"transit":false,"station_id":"JUA","distance":1149,"line":2,"i_long":106.828284,"i_lat":-6.166716,"is_transit":false},{"time":4,"is_transit":false,"transit":false,"station_name":"Gondangdia","i_lat":-6.186295,"i_long":106.832183,"line":2,"station_id":"GDD","distance":2015},{"is_transit":false,"i_long":106.840169,"i_lat":-6.198556,"time":3,"distance":1750,"transit":false,"station_id":"CKI","station_name":"Cikini","line":2},{"is_transit":true,"time":4,"distance":1590,"i_long":106.84912,"i_lat":-6.209883,"line":2,"station_name":"Manggarai","station_id":"MRI","transit":true},{"i_lat":-6.202263,"station_name":"Sudirman","i_long":106.822649,"time":4,"is_transit":false,"distance":3186,"line":1,"transit":false,"station_id":"SUD"},{"i_lat":-6.201433,"is_transit":false,"i_long":106.819881,"line":1,"transit":false,"distance":280,"station_id":"SUDB","station_name":"Sudirman Baru","time":1},{"transit":false,"i_lat":-6.20132,"distance":471,"is_transit":false,"station_name":"Karet","line":1,"time":1,"station_id":"KAT","i_long":106.816351},{"station_id":"THB","station_name":"Tanah Abang","distance":2029,"is_transit":false,"i_long":106.811091,"time":5,"i_lat":-6.185545,"line":1,"transit":false},{"is_transit":false,"station_name":"Duri","i_lat":-6.155215,"line":1,"i_long":106.800832,"distance":3632,"time":8,"station_id":"DU","transit":false},{"is_transit":false,"station_id":"AK","i_long":106.79867,"line":1,"time":4,"transit":false,"i_lat":-6.144674,"station_name":"Angke","distance":1230},{"time":9,"transit":true,"station_id":"KPB","i_lat":-6.132549,"is_transit":true,"distance":4102,"line":4,"station_name":"Kampung Bandan","i_long":106.826365},{"i_long":106.836569,"station_name":"Rajawali","is_transit":false,"transit":false,"i_lat":-6.14505,"time":3,"line":11,"station_id":"RJW","distance":1444},{"station_id":"KMO","transit":false,"time":5,"distance":1901,"station_name":"Kemayoran","is_transit":false,"i_lat":-6.161728,"i_long":106.839204,"line":11},{"transit":false,"i_long":106.84368,"station_id":"PSE","line":11,"i_lat":-6.174784,"is_transit":false,"distance":1436,"time":4,"station_name":"Pasar Senen"},{"i_lat":-6.185975,"distance":1567,"station_id":"GST","time":8,"is_transit":false,"station_name":"Gang Sentiong","line":11,"transit":false,"i_long":106.850107},{"transit":false,"i_lat":-6.193792,"is_transit":false,"i_long":106.855437,"distance":973,"station_id":"KMT","line":11,"time":1,"station_name":"Kramat"},{"time":2,"distance":1829,"transit":false,"station_name":"Pondok Jati","i_long":106.861737,"station_id":"POK","is_transit":false,"line":11,"i_lat":-6.209188},{"is_transit":true,"transit":true,"time":9,"distance":1236,"station_name":"Jatinegara","i_lat":-6.215091,"line":1,"i_long":106.86807400000001,"station_id":"JNG"},{"station_id":"KLD","line":1,"i_lat":-6.2135,"time":3,"is_transit":false,"distance":3395,"transit":false,"station_name":"Klender","i_long":106.899548},{"transit":false,"line":1,"distance":3100,"station_name":"Buaran","station_id":"BUA","is_transit":false,"time":2,"i_lat":-6.215568,"i_long":106.922662},{"time":1,"station_id":"KLDB","i_long":106.939679,"i_lat":-6.217455,"station_name":"Klenderbaru","transit":false,"distance":1305,"is_transit":false,"line":1},{"station_id":"CUK","i_long":106.951283,"i_lat":-6.219053,"time":8,"transit":false,"is_transit":false,"distance":1385,"station_name":"Cakung","line":1},{"i_lat":-6.224515,"is_transit":false,"transit":false,"station_id":"KRI","distance":3097,"station_name":"Kranji","i_long":106.977657,"time":3,"line":1},{"is_transit":false,"station_id":"BKS","transit":false,"distance":2520,"time":4,"station_name":"Bekasi","i_long":106.997013,"i_lat":-6.236616,"line":1}]]}