{"data":[[{"station_name":"Jakarta Kota","i_lat":-6.137569,"station_id":"JAKK","i_long":106.812439,"line":2,"distance":0,"time":0,"is_transit":false,"transit":false},{"line":4,"time":3,"i_long":106.826365,"distance":1364,"i_lat":-6.132549,"station_id":"KPB","is_transit":true,"station_name":"Kampung Bandan","transit":true},{"line":11,"station_id":"RJW","transit":false,"distance":1444,"i_long":106.836569,"station_name":"Rajawali","i_lat":-6.14505,"is_transit":false,"time":3},{"distance":1901,"line":11,"is_transit":false,"transit":false,"time":5,"station_id":"KMO","i_long":106.839204,"i_lat":-6.161728,"station_name":"Kemayoran"},{"line":11,"station_name":"Pasar Senen","station_id":"PSE","i_lat":-6.174784,"is_transit":false,"distance":1436,"transit":false,"time":4,"i_long":106.84368},{"is_transit":false,"time":8,"station_id":"GST","i_lat":-6.185975,"line":11,"transit":false,"distance":1567,"station_name":"Gang Sentiong","i_long":106.850107}],[{"distance":0,"station_name":"Jakarta Kota","time":0,"i_lat":-6.137569,"line":2,"transit":false,"station_id":"JAKK","is_transit":false,"i_long":106.812439},{"time":4,"is_transit":false,"transit":false,"distance":1264,"i_lat":-6.141205,"i_long":106.820901,"station_name":"Jayakarta","line":2,"station_id":"JAY"},{"time":2,"station_id":"MGB","transit":false,"line":2,"i_lat":-6.149769,"distance":1080,"is_transit":false,"i_long":106.82482,"station_name":"Manggabesar"},{"transit":false,"time":2,"station_id":"SW","i_long":106.827103,"station_name":"Sawah Besar","i_lat":-6.160725,"line":2,"is_transit":false,"distance":906},{"distance":1149,"time":2,"station_id":"JUA","i_lat":-6.166716,"transit":false,"station_name":"Juanda","line":2,"is_transit":false,"i_long":106.828284},{"line":2,"station_id":"GDD","i_lat":-6.186295,"distance":2015,"transit":false,"i_long":106.832183,"is_transit":false,"time":4,"station_name":"Gondangdia"},{"station_name":"Cikini","distance":1750,"time":3,"i_long":106.840169,"line":2,"station_id":"CKI","i_lat":-6.198556,"is_transit":false,"transit":false},{"station_name":"Manggarai","line":2,"transit":true,"station_id":"MRI","i_lat":-6.209883,"i_long":106.84912,"distance":1590,"is_transit":true,"time":4},{"station_name":"Matraman","time":2,"line":1,"is_transit":false,"transit":false,"i_lat":-6.212485,"station_id":"MTR","i_long":106.858896,"distance":1275},{"distance":1377,"transit":true,"time":8,"i_lat":-6.215091,"line":1,"station_id":"JNG","i_long":106.86807400000001,"is_transit":true,"station_name":"Jatinegara"},{"is_transit":false,"transit":false,"station_name":"Pondok Jati","station_id":"POK","i_lat":-6.209188,"i_long":106.861737,"time":2,"distance":1236,"line":11},{"i_long":106.855437,"line":11,"distance":1829,"transit":false,"station_name":"Kramat","is_transit":false,"station_id":"KMT","i_lat":-6.193792,"time":2},{"time":1,"station_name":"Gang Sentiong","transit":false,"line":11,"station_id":"GST","i_lat":-6.185975,"distance":973,"is_transit":false,"i_long":106.850107}],[{"transit":false,"i_long":106.812439,"station_id":"JAKK","i_lat":-6.137569,"is_transit":false,"time":0,"line":2,"distance":0,"station_name":"Jakarta Kota"},{"station_name":"Kampung Bandan","line":4,"station_id":"KPB","i_long":106.826365,"i_lat":-6.132549,"distance":1364,"is_transit":true,"transit":true,"time":3},{"i_lat":-6.144674,"time":9,"station_name":"Angke","i_long":106.79867,"is_transit":false,"distance":4102,"line":1,"transit":false,"station_id":"AK"},{"time":4,"station_name":"Duri","station_id":"DU","i_long":106.800832,"line":1,"transit":false,"distance":1230,"i_lat":-6.155215,"is_transit":false},{"transit":false,"i_long":106.811091,"distance":3632,"station_id":"THB","time":8,"station_name":"Tanah Abang","is_transit":false,"i_lat":-6.185545,"line":1},{"i_long":106.816351,"time":5,"i_lat":-6.20132,"transit":false,"station_id":"KAT","is_transit":false,"distance":2029,"line":1,"station_name":"Karet"},{"i_long":106.819881,"is_transit":false,"transit":false,"time":1,"station_id":"SUDB","i_lat":-6.201433,"line":1,"distance":471,"station_name":"Sudirman Baru"},{"i_lat":-6.202263,"line":1,"station_name":"Sudirman","distance":280,"transit":false,"time":1,"is_transit":false,"i_long":106.822649,"station_id":"SUD"},{"station_name":"Manggarai","time":4,"i_long":106.84912,"is_transit":false,"station_id":"MRI","line":2,"transit":false,"i_lat":-6.209883,"distance":3186},{"station_id":"MTR","distance":1275,"time":2,"is_transit":false,"station_name":"Matraman","transit":false,"line":1,"i_long":106.858896,"i_lat":-6.212485},{"time":8,"i_lat":-6.215091,"station_name":"Jatinegara","is_transit":true,"distance":1377,"i_long":106.86807400000001,"station_id":"JNG","line":1,"transit":true},{"distance":1236,"is_transit":false,"station_id":"POK","line":11,"time":2,"transit":false,"station_name":"Pondok Jati","i_long":106.861737,"i_lat":-6.209188},{"i_lat":-6.193792,"is_transit":false,"transit":false,"station_name":"Kramat","station_id":"KMT","time":2,"i_long":106.855437,"line":11,"distance":1829},{"distance":973,"time":1,"transit":false,"station_name":"Gang Sentiong","station_id":"GST","is_transit":false,"i_long":106.850107,"line":11,"i_lat":-6.185975}],[{"i_long":106.812439,"transit":false,"i_lat":-6.137569,"distance":0,"time":0,"station_name":"Jakarta Kota","is_transit":false,"station_id":"JAKK","line":2},{"station_name":"Jayakarta","station_id":"JAY","i_lat":-6.141205,"distance":1264,"i_long":106.820901,"line":2,"is_transit":false,"transit":false,"time":4},{"is_transit":false,"distance":1080,"transit":false,"time":2,"station_name":"Manggabesar","station_id":"MGB","i_long":106.82482,"line":2,"i_lat":-6.149769},{"line":2,"i_long":106.827103,"is_transit":false,"transit":false,"distance":906,"station_id":"SW","station_name":"Sawah Besar","i_lat":-6.160725,"time":2},{"i_long":106.828284,"station_id":"JUA","i_lat":-6.166716,"distance":1149,"line":2,"time":2,"is_transit":false,"transit":false,"station_name":"Juanda"},{"station_name":"Gondangdia","line":2,"i_lat":-6.186295,"transit":false,"distance":2015,"station_id":"GDD","time":4,"i_long":106.832183,"is_transit":false},{"line":2,"station_name":"Cikini","transit":false,"distance":1750,"is_transit":false,"time":3,"station_id":"CKI","i_long":106.840169,"i_lat":-6.198556},{"line":2,"time":4,"i_lat":-6.209883,"is_transit":true,"i_long":106.84912,"transit":true,"station_id":"MRI","station_name":"Manggarai","distance":1590},{"distance":3186,"i_lat":-6.202263,"transit":false,"station_name":"Sudirman","station_id":"SUD","time":4,"is_transit":false,"line":1,"i_long":106.822649},{"i_long":106.819881,"station_id":"SUDB","distance":280,"is_transit":false,"time":1,"i_lat":-6.201433,"line":1,"transit":false,"station_name":"Sudirman Baru"},{"distance":471,"line":1,"i_long":106.816351,"time":1,"is_transit":false,"transit":false,"i_lat":-6.20132,"station_id":"KAT","station_name":"Karet"},{"i_long":106.811091,"station_id":"THB","is_transit":false,"i_lat":-6.185545,"line":1,"station_name":"Tanah Abang","distance":2029,"transit":false,"time":5},{"is_transit":false,"station_id":"DU","time":8,"transit":false,"station_name":"Duri","i_long":106.800832,"line":1,"distance":3632,"i_lat":-6.155215},{"time":4,"is_transit":false,"i_long":106.79867,"station_id":"AK","distance":1230,"i_lat":-6.144674,"line":1,"station_name":"Angke","transit":false},{"station_id":"KPB","is_transit":true,"i_long":106.826365,"time":9,"i_lat":-6.132549,"line":4,"distance":4102,"station_name":"Kampung Bandan","transit":true},{"station_id":"RJW","transit":false,"i_lat":-6.14505,"i_long":106.836569,"line":11,"station_name":"Rajawali","is_transit":false,"time":3,"distance":1444},{"i_long":106.839204,"is_transit":false,"station_name":"Kemayoran","i_lat":-6.161728,"line":11,"transit":false,"distance":1901,"time":5,"station_id":"KMO"},{"line":11,"is_transit":false,"i_lat":-6.174784,"i_long":106.84368,"time":4,"transit":false,"station_name":"Pasar Senen","station_id":"PSE","distance":1436},{"transit":false,"station_name":"Gang Sentiong","distance":1567,"i_lat":-6.185975,"i_long":106.850107,"station_id":"GST","is_transit":false,"line":11,"time":8}]]}