{"data":[[{"station_name":"Jakarta Kota","is_transit":false,"transit":false,"i_long":106.812439,"station_id":"JAKK","time":0,"i_lat":-6.137569,"distance":0,"line":2},{"i_long":106.826365,"line":4,"time":3,"is_transit":true,"distance":1364,"station_id":"KPB","station_name":"Kampung Bandan","transit":true,"i_lat":-6.132549},{"station_name":"Angke","transit":false,"i_lat":-6.144674,"line":1,"station_id":"AK","is_transit":false,"i_long":106.79867,"time":9,"distance":4102},{"time":4,"station_name":"Duri","is_transit":true,"line":1,"i_long":106.800832,"distance":1230,"transit":true,"station_id":"DU","i_lat":-6.155215},{"time":3,"station_id":"GRG","distance":1700,"station_name":"Grogol","is_transit":false,"transit":false,"i_lat":-6.162021,"i_long":106.788277,"line":5},{"time":2,"distance":2036,"station_id":"PSG","i_long":106.771379,"line":5,"transit":false,"station_name":"Pesing","is_transit":false,"i_lat":-6.161433},{"line":5,"distance":1614,"time":2,"station_id":"TKO","i_lat":-6.1587309999999995,"station_name":"Taman Kota","is_transit":false,"i_long":106.756522,"transit":false},{"line":5,"transit":false,"time":2,"distance":2334,"i_lat":-6.159876,"station_id":"BOI","i_long":106.737035,"is_transit":false,"station_name":"Bojongindah"},{"station_id":"RW","line":5,"transit":false,"time":4,"is_transit":false,"i_lat":-6.162758,"i_long":106.723064,"distance":1152,"station_name":"Rawa Buaya"},{"i_lat":-6.166068,"station_name":"Kalideres","time":3,"is_transit":false,"transit":false,"i_long":106.701612,"line":5,"distance":2504,"station_id":"KDS"},{"is_transit":false,"distance":2548,"line":5,"transit":false,"i_lat":-6.169933,"station_id":"PI","i_long":106.679458,"time":3,"station_name":"Poris"},{"station_id":"BPR","transit":false,"distance":1834,"i_lat":-6.171811,"line":5,"station_name":"Batuceper","is_transit":false,"time":3,"i_long":106.665036},{"time":3,"station_name":"Tanah Tinggi","is_transit":false,"transit":false,"i_lat":-6.17331,"station_id":"TTI","line":5,"distance":2028,"i_long":106.64657}],[{"distance":0,"i_lat":-6.137569,"time":0,"i_long":106.812439,"line":2,"station_id":"JAKK","transit":false,"is_transit":false,"station_name":"Jakarta Kota"},{"i_long":106.820901,"transit":false,"station_name":"Jayakarta","distance":1264,"time":4,"station_id":"JAY","is_transit":false,"i_lat":-6.141205,"line":2},{"station_id":"MGB","time":2,"is_transit":false,"distance":1080,"line":2,"i_lat":-6.149769,"station_name":"Manggabesar","i_long":106.82482,"transit":false},{"time":2,"line":2,"transit":false,"distance":906,"is_transit":false,"station_id":"SW","i_lat":-6.160725,"station_name":"Sawah Besar","i_long":106.827103},{"i_long":106.828284,"is_transit":false,"i_lat":-6.166716,"station_name":"Juanda","time":2,"distance":1149,"station_id":"JUA","transit":false,"line":2},{"station_name":"Gondangdia","line":2,"is_transit":false,"transit":false,"time":4,"distance":2015,"i_long":106.832183,"station_id":"GDD","i_lat":-6.186295},{"i_long":106.840169,"distance":1750,"time":3,"station_name":"Cikini","transit":false,"i_lat":-6.198556,"is_transit":false,"line":2,"station_id":"CKI"},{"i_long":106.84912,"line":2,"i_lat":-6.209883,"station_id":"MRI","is_transit":true,"time":4,"distance":1590,"station_name":"Manggarai","transit":true},{"is_transit":false,"line":1,"i_long":106.822649,"i_lat":-6.202263,"time":4,"station_name":"Sudirman","station_id":"SUD","transit":false,"distance":3186},{"distance":280,"i_lat":-6.201433,"is_transit":false,"i_long":106.819881,"line":1,"transit":false,"time":1,"station_id":"SUDB","station_name":"Sudirman Baru"},{"time":1,"distance":471,"transit":false,"station_id":"KAT","i_long":106.816351,"is_transit":false,"station_name":"Karet","i_lat":-6.20132,"line":1},{"i_long":106.811091,"station_name":"Tanah Abang","transit":false,"time":5,"line":1,"station_id":"THB","i_lat":-6.185545,"is_transit":false,"distance":2029},{"time":8,"station_name":"Duri","line":1,"distance":3632,"station_id":"DU","is_transit":true,"i_lat":-6.155215,"transit":true,"i_long":106.800832},{"i_lat":-6.162021,"line":5,"i_long":106.788277,"time":3,"distance":1700,"station_name":"Grogol","is_transit":false,"station_id":"GRG","transit":false},{"station_name":"Pesing","i_long":106.771379,"transit":false,"time":2,"station_id":"PSG","is_transit":false,"i_lat":-6.161433,"line":5,"distance":2036},{"line":5,"station_id":"TKO","is_transit":false,"time":2,"i_lat":-6.1587309999999995,"transit":false,"station_name":"Taman Kota","i_long":106.756522,"distance":1614},{"station_name":"Bojongindah","distance":2334,"is_transit":false,"time":2,"station_id":"BOI","line":5,"i_long":106.737035,"transit":false,"i_lat":-6.159876},{"time":4,"station_name":"Rawa Buaya","transit":false,"distance":1152,"station_id":"RW","i_lat":-6.162758,"is_transit":false,"i_long":106.723064,"line":5},{"i_long":106.701612,"time":3,"line":5,"i_lat":-6.166068,"transit":false,"station_id":"KDS","distance":2504,"station_name":"Kalideres","is_transit":false},{"line":5,"time":3,"transit":false,"station_name":"Poris","station_id":"PI","distance":2548,"is_transit":false,"i_lat":-6.169933,"i_long":106.679458},{"i_long":106.665036,"line":5,"transit":false,"station_name":"Batuceper","distance":1834,"is_transit":false,"station_id":"BPR","time":3,"i_lat":-6.171811},{"station_id":"TTI","i_long":106.64657,"transit":false,"station_name":"Tanah Tinggi","distance":2028,"time":3,"i_lat":-6.17331,"line":5,"is_transit":false}],[{"station_name":"Jakarta Kota","time":0,"transit":false,"i_long":106.812439,"distance":0,"i_lat":-6.137569,"station_id":"JAKK","line":2,"is_transit":false},{"transit":true,"station_name":"Kampung Bandan","distance":1364,"time":3,"i_long":106.826365,"is_transit":true,"station_id":"KPB","i_lat":-6.132549,"line":4},{"i_long":106.836569,"transit":false,"station_name":"Rajawali","time":3,"is_transit":false,"station_id":"RJW","i_lat":-6.14505,"line":11,"distance":1444},{"transit":false,"station_name":"Kemayoran","is_transit":false,"line":11,"station_id":"KMO","distance":1901,"time":5,"i_lat":-6.161728,"i_long":106.839204},{"transit":false,"station_name":"Pasar Senen","i_long":106.84368,"is_transit":false,"i_lat":-6.174784,"station_id":"PSE","line":11,"time":4,"distance":1436},{"station_name":"Gang Sentiong","i_lat":-6.185975,"is_transit":false,"station_id":"GST","i_long":106.850107,"time":8,"transit":false,"line":11,"distance":1567},{"station_name":"Kramat","distance":973,"station_id":"KMT","i_lat":-6.193792,"line":11,"i_long":106.855437,"is_transit":false,"time":1,"transit":false},{"i_long":106.861737,"time":2,"is_transit":false,"transit":false,"distance":1829,"station_id":"POK","line":11,"station_name":"Pondok Jati","i_lat":-6.209188},{"distance":1236,"station_id":"JNG","i_lat":-6.215091,"station_name":"Jatinegara","line":1,"transit":true,"is_transit":true,"i_long":106.86807400000001,"time":9},{"transit":false,"distance":1377,"is_transit":false,"station_name":"Matraman","i_lat":-6.212485,"i_long":106.858896,"line":1,"station_id":"MTR","time":2},{"is_transit":false,"transit":false,"time":2,"distance":1275,"station_id":"MRI","i_lat":-6.209883,"i_long":106.84912,"line":2,"station_name":"Manggarai"},{"i_long":106.822649,"is_transit":false,"station_name":"Sudirman","distance":3186,"transit":false,"i_lat":-6.202263,"station_id":"SUD","line":1,"time":4},{"time":1,"is_transit":false,"i_long":106.819881,"transit":false,"distance":280,"station_id":"SUDB","station_name":"Sudirman Baru","i_lat":-6.201433,"line":1},{"line":1,"i_lat":-6.20132,"i_long":106.816351,"station_id":"KAT","time":1,"distance":471,"station_name":"Karet","transit":false,"is_transit":false},{"transit":false,"is_transit":false,"distance":2029,"i_long":106.811091,"time":5,"line":1,"station_name":"Tanah Abang","i_lat":-6.185545,"station_id":"THB"},{"time":8,"transit":true,"is_transit":true,"distance":3632,"station_name":"Duri","i_lat":-6.155215,"i_long":106.800832,"line":1,"station_id":"DU"},{"time":3,"is_transit":false,"i_lat":-6.162021,"station_id":"GRG","i_long":106.788277,"distance":1700,"station_name":"Grogol","transit":false,"line":5},{"i_long":106.771379,"line":5,"i_lat":-6.161433,"time":2,"station_id":"PSG","distance":2036,"is_transit":false,"transit":false,"station_name":"Pesing"},{"station_name":"Taman Kota","transit":false,"distance":1614,"line":5,"time":2,"is_transit":false,"station_id":"TKO","i_long":106.756522,"i_lat":-6.1587309999999995},{"line":5,"station_name":"Bojongindah","is_transit":false,"distance":2334,"i_lat":-6.159876,"i_long":106.737035,"transit":false,"time":2,"station_id":"BOI"},{"transit":false,"distance":1152,"i_lat":-6.162758,"time":4,"i_long":106.723064,"line":5,"station_name":"Rawa Buaya","is_transit":false,"station_id":"RW"},{"i_long":106.701612,"i_lat":-6.166068,"station_id":"KDS","station_name":"Kalideres","is_transit":false,"line":5,"distance":2504,"transit":false,"time":3},{"distance":2548,"i_long":106.679458,"line":5,"transit":false,"station_id":"PI","station_name":"Poris","time":3,"is_transit":false,"i_lat":-6.169933},{"time":3,"distance":1834,"station_name":"Batuceper","station_id":"BPR","i_lat":-6.171811,"i_long":106.665036,"line":5,"is_transit":false,"transit":false},{"i_lat":-6.17331,"is_transit":false,"i_long":106.64657,"time":3,"line":5,"station_id":"TTI","station_name":"Tanah Tinggi","transit":false,"distance":2028}],[{"is_transit":false,"i_long":106.812439,"station_name":"Jakarta Kota","transit":false,"i_lat":-6.137569,"station_id":"JAKK","distance":0,"time":0,"line":2},{"station_id":"JAY","station_name":"Jayakarta","is_transit":false,"i_lat":-6.141205,"i_long":106.820901,"time":4,"line":2,"transit":false,"distance":1264},{"i_lat":-6.149769,"is_transit":false,"time":2,"station_id":"MGB","i_long":106.82482,"station_name":"Manggabesar","transit":false,"line":2,"distance":1080},{"transit":false,"line":2,"is_transit":false,"station_name":"Sawah Besar","time":2,"distance":906,"i_lat":-6.160725,"i_long":106.827103,"station_id":"SW"},{"is_transit":false,"station_id":"JUA","line":2,"distance":1149,"transit":false,"time":2,"i_lat":-6.166716,"i_long":106.828284,"station_name":"Juanda"},{"station_id":"GDD","is_transit":false,"time":4,"i_lat":-6.186295,"i_long":106.832183,"station_name":"Gondangdia","transit":false,"distance":2015,"line":2},{"station_name":"Cikini","is_transit":false,"station_id":"CKI","i_lat":-6.198556,"i_long":106.840169,"time":3,"transit":false,"line":2,"distance":1750},{"station_name":"Manggarai","station_id":"MRI","i_lat":-6.209883,"time":4,"transit":true,"is_transit":true,"distance":1590,"i_long":106.84912,"line":2},{"transit":false,"distance":1275,"time":2,"line":1,"station_name":"Matraman","station_id":"MTR","is_transit":false,"i_lat":-6.212485,"i_long":106.858896},{"line":1,"distance":1377,"i_long":106.86807400000001,"transit":true,"station_name":"Jatinegara","time":8,"i_lat":-6.215091,"station_id":"JNG","is_transit":true},{"distance":1236,"line":11,"transit":false,"time":2,"i_long":106.861737,"station_id":"POK","i_lat":-6.209188,"station_name":"Pondok Jati","is_transit":false},{"distance":1829,"i_lat":-6.193792,"station_id":"KMT","line":11,"transit":false,"is_transit":false,"i_long":106.855437,"station_name":"Kramat","time":2},{"is_transit":false,"i_long":106.850107,"station_name":"Gang Sentiong","distance":973,"time":1,"station_id":"GST","i_lat":-6.185975,"transit":false,"line":11},{"station_id":"PSE","i_lat":-6.174784,"time":8,"line":11,"distance":1567,"i_long":106.84368,"transit":false,"station_name":"Pasar Senen","is_transit":false},{"transit":false,"distance":1436,"station_name":"Kemayoran","i_lat":-6.161728,"time":4,"line":11,"i_long":106.839204,"is_transit":false,"station_id":"KMO"},{"line":11,"i_long":106.836569,"time":5,"station_id":"RJW","station_name":"Rajawali","i_lat":-6.14505,"transit":false,"is_transit":false,"distance":1901},{"is_transit":true,"distance":1444,"station_id":"KPB","transit":true,"i_long":106.826365,"time":3,"i_lat":-6.132549,"station_name":"Kampung Bandan","line":4},{"transit":false,"distance":4102,"station_name":"Angke","time":9,"station_id":"AK","i_lat":-6.144674,"i_long":106.79867,"line":1,"is_transit":false},{"station_id":"DU","time":4,"i_long":106.800832,"station_name":"Duri","line":1,"transit":true,"i_lat":-6.155215,"is_transit":true,"distance":1230},{"time":3,"transit":false,"is_transit":false,"distance":1700,"line":5,"i_lat":-6.162021,"i_long":106.788277,"station_id":"GRG","station_name":"Grogol"},{"i_lat":-6.161433,"station_name":"Pesing","line":5,"transit":false,"distance":2036,"time":2,"station_id":"PSG","i_long":106.771379,"is_transit":false},{"station_name":"Taman Kota","time":2,"line":5,"distance":1614,"is_transit":false,"i_lat":-6.1587309999999995,"transit":false,"station_id":"TKO","i_long":106.756522},{"station_id":"BOI","transit":false,"line":5,"distance":2334,"i_lat":-6.159876,"station_name":"Bojongindah","i_long":106.737035,"is_transit":false,"time":2},{"station_id":"RW","is_transit":false,"station_name":"Rawa Buaya","distance":1152,"i_lat":-6.162758,"line":5,"transit":false,"time":4,"i_long":106.723064},{"is_transit":false,"station_id":"KDS","station_name":"Kalideres","distance":2504,"transit":false,"line":5,"time":3,"i_lat":-6.166068,"i_long":106.701612},{"station_name":"Poris","is_transit":false,"time":3,"i_lat":-6.169933,"line":5,"station_id":"PI","transit":false,"i_long":106.679458,"distance":2548},{"line":5,"i_long":106.665036,"i_lat":-6.171811,"distance":1834,"is_transit":false,"station_id":"BPR","station_name":"Batuceper","time":3,"transit":false},{"line":5,"i_long":106.64657,"station_name":"Tanah Tinggi","distance":2028,"time":3,"i_lat":-6.17331,"is_transit":false,"station_id":"TTI","transit":false}]]}