{"data":[[{"distance":0,"time":0,"i_lat":-6.137569,"i_long":106.812439,"line":2,"transit":false,"station_id":"JAKK","station_name":"Jakarta Kota","is_transit":false},{"time":4,"station_name":"Jayakarta","i_long":106.820901,"is_transit":false,"distance":1264,"line":2,"transit":false,"station_id":"JAY","i_lat":-6.141205},{"station_name":"Manggabesar","station_id":"MGB","i_lat":-6.149769,"is_transit":false,"i_long":106.82482,"distance":1080,"transit":false,"time":2,"line":2},{"is_transit":false,"i_lat":-6.160725,"time":2,"station_id":"SW","i_long":106.827103,"transit":false,"station_name":"Sawah Besar","line":2,"distance":906}],[{"transit":false,"time":0,"is_transit":false,"station_name":"Jakarta Kota","i_lat":-6.137569,"line":2,"station_id":"JAKK","i_long":106.812439,"distance":0},{"i_lat":-6.132549,"time":3,"station_name":"Kampung Bandan","distance":1364,"i_long":106.826365,"line":4,"transit":true,"is_transit":true,"station_id":"KPB"},{"i_long":106.79867,"is_transit":false,"line":1,"time":9,"station_name":"Angke","transit":false,"distance":4102,"i_lat":-6.144674,"station_id":"AK"},{"station_name":"Duri","i_lat":-6.155215,"line":1,"station_id":"DU","is_transit":false,"time":4,"distance":1230,"i_long":106.800832,"transit":false},{"distance":3632,"line":1,"i_long":106.811091,"is_transit":false,"i_lat":-6.185545,"transit":false,"station_id":"THB","time":8,"station_name":"Tanah Abang"},{"distance":2029,"i_long":106.816351,"i_lat":-6.20132,"line":1,"time":5,"is_transit":false,"station_name":"Karet","station_id":"KAT","transit":false},{"station_name":"Sudirman Baru","time":1,"station_id":"SUDB","i_long":106.819881,"transit":false,"line":1,"i_lat":-6.201433,"distance":471,"is_transit":false},{"time":1,"distance":280,"i_long":106.822649,"line":1,"station_name":"Sudirman","i_lat":-6.202263,"station_id":"SUD","is_transit":false,"transit":false},{"time":4,"station_id":"MRI","i_lat":-6.209883,"distance":3186,"i_long":106.84912,"line":2,"station_name":"Manggarai","is_transit":true,"transit":true},{"time":4,"station_name":"Cikini","transit":false,"i_lat":-6.198556,"distance":1590,"station_id":"CKI","i_long":106.840169,"line":2,"is_transit":false},{"i_lat":-6.186295,"transit":false,"i_long":106.832183,"is_transit":false,"time":3,"distance":1750,"station_id":"GDD","line":2,"station_name":"Gondangdia"},{"i_lat":-6.166716,"distance":2015,"station_name":"Juanda","transit":false,"i_long":106.828284,"line":2,"is_transit":false,"station_id":"JUA","time":4},{"transit":false,"is_transit":false,"i_lat":-6.160725,"distance":1149,"i_long":106.827103,"station_name":"Sawah Besar","time":2,"station_id":"SW","line":2}],[{"transit":false,"station_id":"JAKK","is_transit":false,"station_name":"Jakarta Kota","distance":0,"i_lat":-6.137569,"i_long":106.812439,"line":2,"time":0},{"is_transit":true,"i_long":106.826365,"station_name":"Kampung Bandan","station_id":"KPB","transit":true,"distance":1364,"line":4,"i_lat":-6.132549,"time":3},{"i_lat":-6.14505,"i_long":106.836569,"is_transit":false,"time":3,"transit":false,"distance":1444,"station_id":"RJW","station_name":"Rajawali","line":11},{"station_name":"Kemayoran","distance":1901,"station_id":"KMO","i_long":106.839204,"transit":false,"is_transit":false,"i_lat":-6.161728,"time":5,"line":11},{"line":11,"station_name":"Pasar Senen","distance":1436,"is_transit":false,"i_lat":-6.174784,"time":4,"i_long":106.84368,"station_id":"PSE","transit":false},{"i_lat":-6.185975,"line":11,"time":8,"station_id":"GST","i_long":106.850107,"is_transit":false,"transit":false,"station_name":"Gang Sentiong","distance":1567},{"distance":973,"is_transit":false,"station_name":"Kramat","transit":false,"time":1,"i_long":106.855437,"station_id":"KMT","i_lat":-6.193792,"line":11},{"i_long":106.861737,"station_name":"Pondok Jati","station_id":"POK","line":11,"is_transit":false,"transit":false,"time":2,"distance":1829,"i_lat":-6.209188},{"station_id":"JNG","time":9,"line":1,"station_name":"Jatinegara","is_transit":true,"i_long":106.86807400000001,"transit":true,"distance":1236,"i_lat":-6.215091},{"station_name":"Matraman","is_transit":false,"line":1,"distance":1377,"i_lat":-6.212485,"i_long":106.858896,"station_id":"MTR","time":2,"transit":false},{"i_lat":-6.209883,"i_long":106.84912,"station_id":"MRI","is_transit":true,"line":2,"transit":true,"station_name":"Manggarai","distance":1275,"time":2},{"transit":false,"is_transit":false,"station_id":"CKI","distance":1590,"station_name":"Cikini","time":4,"i_lat":-6.198556,"i_long":106.840169,"line":2},{"is_transit":false,"time":3,"station_id":"GDD","line":2,"station_name":"Gondangdia","transit":false,"distance":1750,"i_lat":-6.186295,"i_long":106.832183},{"i_long":106.828284,"line":2,"station_name":"Juanda","is_transit":false,"transit":false,"i_lat":-6.166716,"distance":2015,"time":4,"station_id":"JUA"},{"station_name":"Sawah Besar","i_long":106.827103,"line":2,"distance":1149,"time":2,"station_id":"SW","i_lat":-6.160725,"transit":false,"is_transit":false}]]}