{"data":[[{"distance":0,"station_id":"JAKK","time":0,"i_long":106.812439,"transit":false,"line":2,"i_lat":-6.137569,"is_transit":false,"station_name":"Jakarta Kota"},{"i_lat":-6.132549,"is_transit":true,"station_id":"KPB","transit":true,"station_name":"Kampung Bandan","distance":1364,"time":3,"line":4,"i_long":106.826365},{"transit":false,"time":3,"i_long":106.836569,"distance":1444,"line":11,"is_transit":false,"station_id":"RJW","station_name":"Rajawali","i_lat":-6.14505},{"station_id":"KMO","time":5,"station_name":"Kemayoran","distance":1901,"i_long":106.839204,"line":11,"i_lat":-6.161728,"transit":false,"is_transit":false},{"is_transit":false,"station_name":"Pasar Senen","i_long":106.84368,"station_id":"PSE","transit":false,"i_lat":-6.174784,"time":4,"distance":1436,"line":11},{"is_transit":false,"time":8,"i_lat":-6.185975,"line":11,"station_name":"Gang Sentiong","i_long":106.850107,"station_id":"GST","transit":false,"distance":1567},{"time":1,"i_lat":-6.193792,"station_id":"KMT","line":11,"distance":973,"transit":false,"station_name":"Kramat","i_long":106.855437,"is_transit":false},{"station_id":"POK","transit":false,"station_name":"Pondok Jati","distance":1829,"is_transit":false,"i_lat":-6.209188,"i_long":106.861737,"line":11,"time":2},{"station_name":"Jatinegara","station_id":"JNG","time":9,"transit":false,"is_transit":false,"i_long":106.86807400000001,"i_lat":-6.215091,"line":1,"distance":1236}],[{"is_transit":false,"transit":false,"station_name":"Jakarta Kota","station_id":"JAKK","time":0,"i_lat":-6.137569,"i_long":106.812439,"line":2,"distance":0},{"line":2,"station_id":"JAY","time":4,"distance":1264,"station_name":"Jayakarta","transit":false,"is_transit":false,"i_long":106.820901,"i_lat":-6.141205},{"time":2,"station_id":"MGB","station_name":"Manggabesar","line":2,"is_transit":false,"i_lat":-6.149769,"transit":false,"distance":1080,"i_long":106.82482},{"transit":false,"distance":906,"is_transit":false,"i_long":106.827103,"line":2,"station_id":"SW","time":2,"station_name":"Sawah Besar","i_lat":-6.160725},{"transit":false,"is_transit":false,"i_lat":-6.166716,"time":2,"station_name":"Juanda","line":2,"station_id":"JUA","distance":1149,"i_long":106.828284},{"transit":false,"i_lat":-6.186295,"i_long":106.832183,"time":4,"line":2,"distance":2015,"is_transit":false,"station_id":"GDD","station_name":"Gondangdia"},{"distance":1750,"time":3,"station_name":"Cikini","i_lat":-6.198556,"is_transit":false,"i_long":106.840169,"line":2,"transit":false,"station_id":"CKI"},{"i_lat":-6.209883,"transit":true,"i_long":106.84912,"station_name":"Manggarai","distance":1590,"is_transit":true,"line":2,"time":4,"station_id":"MRI"},{"is_transit":false,"i_long":106.858896,"distance":1275,"line":1,"transit":false,"i_lat":-6.212485,"station_id":"MTR","station_name":"Matraman","time":2},{"station_id":"JNG","station_name":"Jatinegara","is_transit":false,"i_long":106.86807400000001,"time":8,"distance":1377,"line":1,"i_lat":-6.215091,"transit":false}],[{"i_lat":-6.137569,"station_id":"JAKK","is_transit":false,"i_long":106.812439,"line":2,"transit":false,"distance":0,"station_name":"Jakarta Kota","time":0},{"i_lat":-6.132549,"station_id":"KPB","is_transit":true,"station_name":"Kampung Bandan","distance":1364,"line":4,"transit":true,"time":3,"i_long":106.826365},{"distance":4102,"i_long":106.79867,"is_transit":false,"line":1,"transit":false,"i_lat":-6.144674,"station_name":"Angke","station_id":"AK","time":9},{"line":1,"station_name":"Duri","station_id":"DU","i_lat":-6.155215,"distance":1230,"time":4,"transit":false,"is_transit":false,"i_long":106.800832},{"i_long":106.811091,"line":1,"station_name":"Tanah Abang","time":8,"station_id":"THB","distance":3632,"i_lat":-6.185545,"is_transit":false,"transit":false},{"i_long":106.816351,"transit":false,"i_lat":-6.20132,"line":1,"is_transit":false,"station_id":"KAT","time":5,"station_name":"Karet","distance":2029},{"i_long":106.819881,"station_name":"Sudirman Baru","time":1,"is_transit":false,"station_id":"SUDB","i_lat":-6.201433,"line":1,"distance":471,"transit":false},{"time":1,"line":1,"transit":false,"distance":280,"is_transit":false,"i_long":106.822649,"station_id":"SUD","i_lat":-6.202263,"station_name":"Sudirman"},{"i_lat":-6.209883,"i_long":106.84912,"line":2,"distance":3186,"time":4,"station_id":"MRI","is_transit":false,"station_name":"Manggarai","transit":false},{"i_lat":-6.212485,"transit":false,"line":1,"distance":1275,"station_id":"MTR","i_long":106.858896,"station_name":"Matraman","time":2,"is_transit":false},{"i_long":106.86807400000001,"is_transit":false,"line":1,"station_id":"JNG","transit":false,"time":8,"i_lat":-6.215091,"station_name":"Jatinegara","distance":1377}],[{"is_transit":false,"time":0,"i_lat":-6.137569,"station_id":"JAKK","distance":0,"line":2,"transit":false,"station_name":"Jakarta Kota","i_long":106.812439},{"is_transit":false,"station_id":"JAY","time":4,"distance":1264,"line":2,"i_lat":-6.141205,"station_name":"Jayakarta","transit":false,"i_long":106.820901},{"station_id":"MGB","station_name":"Manggabesar","time":2,"distance":1080,"i_lat":-6.149769,"i_long":106.82482,"transit":false,"is_transit":false,"line":2},{"time":2,"distance":906,"station_id":"SW","i_long":106.827103,"transit":false,"is_transit":false,"station_name":"Sawah Besar","i_lat":-6.160725,"line":2},{"station_id":"JUA","i_long":106.828284,"line":2,"time":2,"station_name":"Juanda","is_transit":false,"transit":false,"distance":1149,"i_lat":-6.166716},{"is_transit":false,"distance":2015,"transit":false,"i_lat":-6.186295,"station_id":"GDD","line":2,"station_name":"Gondangdia","i_long":106.832183,"time":4},{"distance":1750,"is_transit":false,"station_id":"CKI","time":3,"i_lat":-6.198556,"line":2,"station_name":"Cikini","transit":false,"i_long":106.840169},{"i_lat":-6.209883,"transit":true,"distance":1590,"station_name":"Manggarai","station_id":"MRI","i_long":106.84912,"time":4,"is_transit":true,"line":2},{"i_lat":-6.202263,"is_transit":false,"i_long":106.822649,"station_id":"SUD","station_name":"Sudirman","time":4,"transit":false,"line":1,"distance":3186},{"i_lat":-6.201433,"station_id":"SUDB","is_transit":false,"station_name":"Sudirman Baru","distance":280,"i_long":106.819881,"transit":false,"line":1,"time":1},{"station_id":"KAT","line":1,"is_transit":false,"i_lat":-6.20132,"distance":471,"i_long":106.816351,"transit":false,"station_name":"Karet","time":1},{"line":1,"station_name":"Tanah Abang","is_transit":false,"time":5,"station_id":"THB","distance":2029,"transit":false,"i_long":106.811091,"i_lat":-6.185545},{"time":8,"distance":3632,"i_long":106.800832,"line":1,"station_name":"Duri","i_lat":-6.155215,"transit":false,"station_id":"DU","is_transit":false},{"i_lat":-6.144674,"time":4,"i_long":106.79867,"distance":1230,"line":1,"station_name":"Angke","station_id":"AK","transit":false,"is_transit":false},{"line":4,"distance":4102,"is_transit":true,"i_long":106.826365,"station_id":"KPB","station_name":"Kampung Bandan","i_lat":-6.132549,"transit":true,"time":9},{"time":3,"station_name":"Rajawali","is_transit":false,"i_long":106.836569,"i_lat":-6.14505,"line":11,"station_id":"RJW","transit":false,"distance":1444},{"time":5,"transit":false,"i_long":106.839204,"station_id":"KMO","is_transit":false,"station_name":"Kemayoran","i_lat":-6.161728,"distance":1901,"line":11},{"transit":false,"station_name":"Pasar Senen","time":4,"i_lat":-6.174784,"i_long":106.84368,"line":11,"distance":1436,"is_transit":false,"station_id":"PSE"},{"time":8,"i_long":106.850107,"i_lat":-6.185975,"line":11,"distance":1567,"is_transit":false,"transit":false,"station_id":"GST","station_name":"Gang Sentiong"},{"transit":false,"station_id":"KMT","i_long":106.855437,"station_name":"Kramat","distance":973,"line":11,"is_transit":false,"i_lat":-6.193792,"time":1},{"i_lat":-6.209188,"i_long":106.861737,"line":11,"distance":1829,"station_name":"Pondok Jati","is_transit":false,"transit":false,"time":2,"station_id":"POK"},{"time":9,"i_lat":-6.215091,"i_long":106.86807400000001,"transit":false,"station_name":"Jatinegara","station_id":"JNG","distance":1236,"is_transit":false,"line":1}]]}