{"data":[[{"transit":false,"i_lat":-6.137569,"line":0,"station_id":"JAKK","i_long":106.812439,"station_name":"Jakarta Kota","is_transit":true,"time":0,"distance":0},{"i_lat":-6.141205,"station_id":"JAY","distance":1264,"time":4,"transit":false,"is_transit":false,"station_name":"Jayakarta","i_long":106.820901,"line":7},{"is_transit":false,"station_id":"MGB","i_long":106.82482,"distance":1080,"transit":false,"i_lat":-6.149769,"line":2,"time":2,"station_name":"Manggabesar"},{"is_transit":false,"i_lat":-6.160725,"i_long":106.827103,"distance":906,"line":2,"station_id":"SW","time":2,"station_name":"Sawah Besar","transit":false},{"is_transit":false,"i_long":106.828284,"time":2,"distance":1149,"station_id":"JUA","i_lat":-6.166716,"line":2,"station_name":"Juanda","transit":false},{"station_id":"GDD","is_transit":false,"station_name":"Gondangdia","time":4,"i_lat":-6.186295,"transit":false,"i_long":106.832183,"line":2,"distance":2015},{"distance":1750,"is_transit":false,"station_name":"Cikini","i_long":106.840169,"i_lat":-6.198556,"transit":false,"station_id":"CKI","line":0,"time":3},{"i_long":106.84912,"station_name":"Manggarai","time":4,"transit":true,"distance":1590,"is_transit":true,"line":0,"station_id":"MRI","i_lat":-6.209883},{"i_lat":-6.212485,"i_long":106.858896,"line":1,"transit":false,"is_transit":false,"time":2,"distance":1275,"station_id":"MTR","station_name":"Matraman"}],[{"time":0,"station_id":"JAKK","is_transit":true,"station_name":"Jakarta Kota","distance":0,"transit":false,"i_lat":-6.137569,"i_long":106.812439,"line":0},{"transit":true,"is_transit":true,"station_name":"Kampung Bandan","time":3,"distance":1364,"i_lat":-6.132549,"i_long":106.826365,"station_id":"KPB","line":0},{"station_id":"RJW","transit":false,"i_lat":-6.14505,"i_long":106.836569,"station_name":"Rajawali","is_transit":false,"time":3,"distance":1444,"line":11},{"i_lat":-6.161728,"i_long":106.839204,"station_name":"Kemayoran","station_id":"KMO","distance":1901,"line":11,"time":5,"transit":false,"is_transit":false},{"is_transit":false,"i_lat":-6.174784,"line":11,"transit":false,"station_id":"PSE","i_long":106.84368,"time":4,"distance":1436,"station_name":"Pasar Senen"},{"distance":1567,"time":8,"is_transit":false,"i_long":106.850107,"transit":false,"station_id":"GST","i_lat":-6.185975,"station_name":"Gang Sentiong","line":11},{"station_id":"KMT","line":11,"transit":false,"is_transit":false,"station_name":"Kramat","distance":973,"time":1,"i_lat":-6.193792,"i_long":106.855437},{"distance":1829,"transit":false,"i_long":106.861737,"is_transit":false,"station_name":"Pondok Jati","i_lat":-6.209188,"station_id":"POK","time":2,"line":11},{"i_long":106.86807400000001,"transit":true,"station_name":"Jatinegara","distance":1236,"station_id":"JNG","time":9,"is_transit":true,"line":0,"i_lat":-6.215091},{"station_name":"Matraman","station_id":"MTR","transit":false,"line":1,"time":2,"is_transit":false,"distance":1377,"i_lat":-6.212485,"i_long":106.858896}],[{"line":0,"is_transit":true,"time":0,"distance":0,"i_long":106.812439,"station_name":"Jakarta Kota","station_id":"JAKK","transit":false,"i_lat":-6.137569},{"i_lat":-6.132549,"transit":false,"line":0,"i_long":106.826365,"station_name":"Kampung Bandan","time":3,"is_transit":true,"distance":1364,"station_id":"KPB"},{"is_transit":false,"i_long":106.79867,"station_name":"Angke","line":0,"time":9,"transit":false,"distance":4102,"station_id":"AK","i_lat":-6.144674},{"line":1,"distance":1230,"station_name":"Duri","is_transit":true,"station_id":"DU","time":4,"transit":true,"i_lat":-6.155215,"i_long":106.800832},{"station_id":"THB","station_name":"Tanah Abang","distance":3632,"transit":false,"i_long":106.811091,"line":1,"time":8,"is_transit":true,"i_lat":-6.185545},{"line":1,"distance":2029,"i_long":106.816351,"station_id":"KAT","is_transit":false,"time":5,"transit":false,"station_name":"Karet","i_lat":-6.20132},{"line":1,"is_transit":false,"distance":471,"transit":false,"station_id":"SUDB","time":1,"i_long":106.819881,"station_name":"Sudirman Baru","i_lat":-6.201433},{"i_lat":-6.202263,"is_transit":false,"distance":280,"station_name":"Sudirman","line":1,"station_id":"SUD","time":1,"transit":false,"i_long":106.822649},{"station_name":"Manggarai","distance":3186,"time":4,"is_transit":true,"transit":false,"i_lat":-6.209883,"station_id":"MRI","i_long":106.84912,"line":0},{"line":1,"station_name":"Matraman","is_transit":false,"transit":false,"distance":1275,"i_lat":-6.212485,"time":2,"i_long":106.858896,"station_id":"MTR"}],[{"transit":false,"line":0,"i_lat":-6.137569,"station_id":"JAKK","is_transit":true,"station_name":"Jakarta Kota","distance":0,"i_long":106.812439,"time":0},{"transit":false,"distance":1264,"time":4,"line":7,"station_id":"JAY","is_transit":false,"station_name":"Jayakarta","i_lat":-6.141205,"i_long":106.820901},{"distance":1080,"station_id":"MGB","station_name":"Manggabesar","i_long":106.82482,"i_lat":-6.149769,"time":2,"line":2,"transit":false,"is_transit":false},{"i_lat":-6.160725,"time":2,"station_id":"SW","is_transit":false,"distance":906,"station_name":"Sawah Besar","transit":false,"i_long":106.827103,"line":2},{"transit":false,"line":2,"i_lat":-6.166716,"is_transit":false,"time":2,"station_name":"Juanda","station_id":"JUA","i_long":106.828284,"distance":1149},{"distance":2015,"is_transit":false,"station_id":"GDD","time":4,"transit":false,"station_name":"Gondangdia","i_long":106.832183,"i_lat":-6.186295,"line":2},{"time":3,"i_lat":-6.198556,"is_transit":false,"station_id":"CKI","station_name":"Cikini","distance":1750,"transit":false,"i_long":106.840169,"line":0},{"i_lat":-6.209883,"station_name":"Manggarai","transit":true,"line":0,"station_id":"MRI","is_transit":true,"i_long":106.84912,"time":4,"distance":1590},{"distance":3186,"transit":false,"i_long":106.822649,"line":1,"is_transit":false,"station_name":"Sudirman","station_id":"SUD","time":4,"i_lat":-6.202263},{"station_id":"SUDB","is_transit":false,"i_long":106.819881,"line":1,"station_name":"Sudirman Baru","i_lat":-6.201433,"transit":false,"time":1,"distance":280},{"i_lat":-6.20132,"transit":false,"distance":471,"is_transit":false,"station_id":"KAT","line":1,"i_long":106.816351,"station_name":"Karet","time":1},{"distance":2029,"i_lat":-6.185545,"line":1,"is_transit":true,"station_name":"Tanah Abang","transit":false,"i_long":106.811091,"station_id":"THB","time":5},{"is_transit":true,"line":1,"time":8,"i_lat":-6.155215,"distance":3632,"transit":true,"i_long":106.800832,"station_id":"DU","station_name":"Duri"},{"time":4,"distance":1230,"i_lat":-6.144674,"station_id":"AK","is_transit":false,"station_name":"Angke","line":0,"transit":false,"i_long":106.79867},{"station_id":"KPB","is_transit":true,"transit":true,"time":9,"station_name":"Kampung Bandan","i_lat":-6.132549,"distance":4102,"line":0,"i_long":106.826365},{"station_id":"RJW","i_lat":-6.14505,"i_long":106.836569,"time":3,"station_name":"Rajawali","transit":false,"is_transit":false,"line":11,"distance":1444},{"time":5,"i_long":106.839204,"station_name":"Kemayoran","station_id":"KMO","is_transit":false,"transit":false,"i_lat":-6.161728,"line":11,"distance":1901},{"is_transit":false,"i_lat":-6.174784,"station_name":"Pasar Senen","i_long":106.84368,"line":11,"time":4,"station_id":"PSE","distance":1436,"transit":false},{"transit":false,"distance":1567,"time":8,"i_long":106.850107,"station_id":"GST","line":11,"is_transit":false,"station_name":"Gang Sentiong","i_lat":-6.185975},{"is_transit":false,"station_name":"Kramat","transit":false,"time":1,"distance":973,"i_lat":-6.193792,"station_id":"KMT","i_long":106.855437,"line":11},{"is_transit":false,"time":2,"line":11,"station_id":"POK","i_long":106.861737,"station_name":"Pondok Jati","distance":1829,"transit":false,"i_lat":-6.209188},{"time":9,"i_long":106.86807400000001,"is_transit":true,"station_name":"Jatinegara","transit":true,"distance":1236,"i_lat":-6.215091,"line":0,"station_id":"JNG"},{"station_id":"MTR","is_transit":false,"i_lat":-6.212485,"i_long":106.858896,"time":2,"transit":false,"station_name":"Matraman","line":1,"distance":1377}]]}