{"data":[[{"transit":false,"i_lat":-6.137569,"distance":0,"is_transit":false,"time":0,"station_id":"JAKK","i_long":106.812439,"line":2,"station_name":"Jakarta Kota"},{"transit":true,"time":3,"i_lat":-6.132549,"is_transit":true,"station_id":"KPB","distance":1364,"station_name":"Kampung Bandan","i_long":106.826365,"line":4},{"is_transit":false,"transit":false,"time":9,"distance":4102,"station_id":"AK","line":1,"i_lat":-6.144674,"station_name":"Angke","i_long":106.79867},{"transit":false,"i_long":106.800832,"distance":1230,"time":4,"station_id":"DU","is_transit":false,"station_name":"Duri","i_lat":-6.155215,"line":1},{"i_lat":-6.185545,"distance":3632,"station_name":"Tanah Abang","is_transit":true,"station_id":"THB","transit":true,"line":1,"time":8,"i_long":106.811091},{"station_id":"PLM","line":6,"i_long":106.79689,"time":6,"distance":3191,"transit":false,"station_name":"Palmerah","i_lat":-6.207404,"is_transit":false},{"is_transit":false,"station_id":"KBY","line":6,"i_long":106.780334,"time":7,"station_name":"Kebayoran","distance":3737,"transit":false,"i_lat":-6.237242},{"i_lat":-6.276362,"time":8,"transit":false,"station_id":"PDJ","is_transit":false,"i_long":106.74273,"station_name":"Pondokranji","line":6,"distance":6218}],[{"distance":0,"i_long":106.812439,"station_id":"JAKK","time":0,"station_name":"Jakarta Kota","is_transit":false,"transit":false,"i_lat":-6.137569,"line":2},{"i_long":106.820901,"distance":1264,"time":4,"transit":false,"i_lat":-6.141205,"line":2,"station_name":"Jayakarta","is_transit":false,"station_id":"JAY"},{"line":2,"station_id":"MGB","i_long":106.82482,"station_name":"Manggabesar","i_lat":-6.149769,"is_transit":false,"distance":1080,"transit":false,"time":2},{"i_long":106.827103,"line":2,"i_lat":-6.160725,"station_name":"Sawah Besar","station_id":"SW","is_transit":false,"distance":906,"time":2,"transit":false},{"line":2,"station_id":"JUA","time":2,"i_lat":-6.166716,"distance":1149,"station_name":"Juanda","is_transit":false,"i_long":106.828284,"transit":false},{"transit":false,"station_name":"Gondangdia","is_transit":false,"i_long":106.832183,"station_id":"GDD","time":4,"line":2,"distance":2015,"i_lat":-6.186295},{"time":3,"i_long":106.840169,"i_lat":-6.198556,"line":2,"distance":1750,"station_id":"CKI","station_name":"Cikini","is_transit":false,"transit":false},{"i_lat":-6.209883,"i_long":106.84912,"line":2,"transit":true,"station_name":"Manggarai","time":4,"distance":1590,"station_id":"MRI","is_transit":true},{"i_lat":-6.202263,"is_transit":false,"line":1,"station_id":"SUD","time":4,"station_name":"Sudirman","transit":false,"distance":3186,"i_long":106.822649},{"i_long":106.819881,"is_transit":false,"station_id":"SUDB","time":1,"station_name":"Sudirman Baru","i_lat":-6.201433,"distance":280,"transit":false,"line":1},{"line":1,"distance":471,"i_lat":-6.20132,"station_id":"KAT","time":1,"transit":false,"station_name":"Karet","i_long":106.816351,"is_transit":false},{"is_transit":true,"i_lat":-6.185545,"time":5,"distance":2029,"transit":true,"station_name":"Tanah Abang","i_long":106.811091,"line":1,"station_id":"THB"},{"distance":3191,"line":6,"station_name":"Palmerah","i_long":106.79689,"is_transit":false,"time":6,"station_id":"PLM","transit":false,"i_lat":-6.207404},{"distance":3737,"i_long":106.780334,"i_lat":-6.237242,"transit":false,"station_name":"Kebayoran","is_transit":false,"time":7,"station_id":"KBY","line":6},{"distance":6218,"station_name":"Pondokranji","is_transit":false,"station_id":"PDJ","i_long":106.74273,"transit":false,"time":8,"i_lat":-6.276362,"line":6}],[{"time":0,"is_transit":false,"i_lat":-6.137569,"distance":0,"transit":false,"station_id":"JAKK","line":2,"i_long":106.812439,"station_name":"Jakarta Kota"},{"station_id":"KPB","is_transit":true,"time":3,"distance":1364,"transit":true,"i_long":106.826365,"line":4,"station_name":"Kampung Bandan","i_lat":-6.132549},{"distance":1444,"transit":false,"station_id":"RJW","is_transit":false,"time":3,"i_lat":-6.14505,"i_long":106.836569,"station_name":"Rajawali","line":11},{"distance":1901,"station_id":"KMO","time":5,"i_long":106.839204,"is_transit":false,"line":11,"station_name":"Kemayoran","i_lat":-6.161728,"transit":false},{"time":4,"station_id":"PSE","is_transit":false,"transit":false,"station_name":"Pasar Senen","i_lat":-6.174784,"line":11,"i_long":106.84368,"distance":1436},{"is_transit":false,"transit":false,"station_id":"GST","distance":1567,"time":8,"station_name":"Gang Sentiong","i_long":106.850107,"i_lat":-6.185975,"line":11},{"is_transit":false,"distance":973,"station_name":"Kramat","i_long":106.855437,"time":1,"i_lat":-6.193792,"line":11,"station_id":"KMT","transit":false},{"i_long":106.861737,"station_id":"POK","is_transit":false,"i_lat":-6.209188,"time":2,"distance":1829,"station_name":"Pondok Jati","transit":false,"line":11},{"station_name":"Jatinegara","station_id":"JNG","distance":1236,"time":9,"is_transit":true,"i_lat":-6.215091,"i_long":106.86807400000001,"line":1,"transit":true},{"distance":1377,"station_id":"MTR","is_transit":false,"transit":false,"i_long":106.858896,"station_name":"Matraman","i_lat":-6.212485,"time":2,"line":1},{"line":2,"distance":1275,"station_id":"MRI","i_lat":-6.209883,"station_name":"Manggarai","is_transit":false,"transit":false,"time":2,"i_long":106.84912},{"distance":3186,"i_long":106.822649,"is_transit":false,"station_id":"SUD","station_name":"Sudirman","line":1,"transit":false,"time":4,"i_lat":-6.202263},{"i_long":106.819881,"line":1,"station_name":"Sudirman Baru","distance":280,"is_transit":false,"i_lat":-6.201433,"transit":false,"time":1,"station_id":"SUDB"},{"i_lat":-6.20132,"station_name":"Karet","line":1,"distance":471,"transit":false,"i_long":106.816351,"time":1,"is_transit":false,"station_id":"KAT"},{"i_lat":-6.185545,"distance":2029,"station_name":"Tanah Abang","line":1,"station_id":"THB","is_transit":true,"i_long":106.811091,"transit":true,"time":5},{"station_name":"Palmerah","transit":false,"i_lat":-6.207404,"station_id":"PLM","is_transit":false,"i_long":106.79689,"time":6,"distance":3191,"line":6},{"station_name":"Kebayoran","time":7,"distance":3737,"line":6,"transit":false,"station_id":"KBY","i_lat":-6.237242,"is_transit":false,"i_long":106.780334},{"time":8,"line":6,"station_id":"PDJ","is_transit":false,"transit":false,"station_name":"Pondokranji","distance":6218,"i_lat":-6.276362,"i_long":106.74273}],[{"station_name":"Jakarta Kota","line":2,"distance":0,"time":0,"i_lat":-6.137569,"i_long":106.812439,"transit":false,"station_id":"JAKK","is_transit":false},{"transit":false,"is_transit":false,"station_name":"Jayakarta","i_lat":-6.141205,"distance":1264,"station_id":"JAY","i_long":106.820901,"time":4,"line":2},{"transit":false,"is_transit":false,"time":2,"i_lat":-6.149769,"station_id":"MGB","distance":1080,"station_name":"Manggabesar","i_long":106.82482,"line":2},{"transit":false,"is_transit":false,"time":2,"distance":906,"line":2,"i_long":106.827103,"station_id":"SW","station_name":"Sawah Besar","i_lat":-6.160725},{"i_long":106.828284,"transit":false,"station_name":"Juanda","line":2,"station_id":"JUA","distance":1149,"time":2,"is_transit":false,"i_lat":-6.166716},{"station_name":"Gondangdia","time":4,"distance":2015,"is_transit":false,"transit":false,"i_lat":-6.186295,"station_id":"GDD","line":2,"i_long":106.832183},{"station_id":"CKI","distance":1750,"time":3,"transit":false,"i_long":106.840169,"is_transit":false,"station_name":"Cikini","i_lat":-6.198556,"line":2},{"i_long":106.84912,"time":4,"line":2,"transit":true,"is_transit":true,"i_lat":-6.209883,"station_name":"Manggarai","station_id":"MRI","distance":1590},{"time":2,"distance":1275,"is_transit":false,"transit":false,"station_name":"Matraman","station_id":"MTR","i_long":106.858896,"line":1,"i_lat":-6.212485},{"i_lat":-6.215091,"is_transit":true,"time":8,"i_long":106.86807400000001,"transit":true,"station_id":"JNG","station_name":"Jatinegara","line":1,"distance":1377},{"time":2,"is_transit":false,"distance":1236,"i_long":106.861737,"station_name":"Pondok Jati","i_lat":-6.209188,"line":11,"transit":false,"station_id":"POK"},{"time":2,"i_lat":-6.193792,"i_long":106.855437,"transit":false,"distance":1829,"station_id":"KMT","station_name":"Kramat","line":11,"is_transit":false},{"station_id":"GST","station_name":"Gang Sentiong","i_lat":-6.185975,"distance":973,"i_long":106.850107,"transit":false,"time":1,"is_transit":false,"line":11},{"transit":false,"distance":1567,"station_name":"Pasar Senen","i_lat":-6.174784,"line":11,"station_id":"PSE","time":8,"i_long":106.84368,"is_transit":false},{"i_long":106.839204,"line":11,"i_lat":-6.161728,"time":4,"distance":1436,"transit":false,"is_transit":false,"station_name":"Kemayoran","station_id":"KMO"},{"i_lat":-6.14505,"distance":1901,"station_name":"Rajawali","transit":false,"i_long":106.836569,"time":5,"is_transit":false,"station_id":"RJW","line":11},{"station_id":"KPB","distance":1444,"time":3,"station_name":"Kampung Bandan","i_lat":-6.132549,"i_long":106.826365,"line":4,"transit":true,"is_transit":true},{"transit":false,"station_name":"Angke","time":9,"i_long":106.79867,"station_id":"AK","distance":4102,"i_lat":-6.144674,"line":1,"is_transit":false},{"station_id":"DU","time":4,"transit":false,"line":1,"distance":1230,"is_transit":false,"i_lat":-6.155215,"i_long":106.800832,"station_name":"Duri"},{"i_long":106.811091,"distance":3632,"transit":true,"is_transit":true,"time":8,"line":1,"station_name":"Tanah Abang","station_id":"THB","i_lat":-6.185545},{"i_long":106.79689,"station_id":"PLM","distance":3191,"is_transit":false,"station_name":"Palmerah","line":6,"time":6,"transit":false,"i_lat":-6.207404},{"distance":3737,"station_id":"KBY","transit":false,"station_name":"Kebayoran","i_lat":-6.237242,"is_transit":false,"i_long":106.780334,"time":7,"line":6},{"i_lat":-6.276362,"distance":6218,"line":6,"station_name":"Pondokranji","is_transit":false,"i_long":106.74273,"station_id":"PDJ","time":8,"transit":false}]]}