{"data":[[{"i_long":106.812439,"station_id":"JAKK","time":0,"i_lat":-6.137569,"distance":0,"station_name":"Jakarta Kota","transit":false,"line":0,"is_transit":true},{"transit":false,"line":7,"time":4,"distance":1264,"i_lat":-6.141205,"station_name":"Jayakarta","i_long":106.820901,"station_id":"JAY","is_transit":false},{"is_transit":false,"i_long":106.82482,"station_id":"MGB","line":2,"time":2,"distance":1080,"station_name":"Manggabesar","transit":false,"i_lat":-6.149769},{"station_name":"Sawah Besar","time":2,"station_id":"SW","i_lat":-6.160725,"is_transit":false,"distance":906,"transit":false,"line":2,"i_long":106.827103}],[{"transit":false,"line":0,"i_lat":-6.137569,"distance":0,"i_long":106.812439,"station_id":"JAKK","is_transit":true,"time":0,"station_name":"Jakarta Kota"},{"i_long":106.826365,"line":0,"distance":1364,"i_lat":-6.132549,"transit":false,"station_id":"KPB","is_transit":true,"time":3,"station_name":"Kampung Bandan"},{"is_transit":false,"time":9,"i_long":106.79867,"transit":false,"line":0,"station_id":"AK","station_name":"Angke","distance":4102,"i_lat":-6.144674},{"i_long":106.800832,"line":1,"station_id":"DU","station_name":"Duri","distance":1230,"is_transit":true,"i_lat":-6.155215,"time":4,"transit":true},{"line":1,"is_transit":true,"time":8,"station_name":"Tanah Abang","transit":false,"distance":3632,"station_id":"THB","i_lat":-6.185545,"i_long":106.811091},{"line":1,"time":5,"distance":2029,"station_name":"Karet","station_id":"KAT","is_transit":false,"transit":false,"i_long":106.816351,"i_lat":-6.20132},{"station_id":"SUDB","time":1,"station_name":"Sudirman Baru","transit":false,"i_lat":-6.201433,"i_long":106.819881,"line":1,"distance":471,"is_transit":false},{"station_id":"SUD","station_name":"Sudirman","is_transit":false,"time":1,"transit":false,"i_lat":-6.202263,"i_long":106.822649,"line":1,"distance":280},{"distance":3186,"i_lat":-6.209883,"is_transit":true,"station_name":"Manggarai","station_id":"MRI","line":0,"time":4,"transit":true,"i_long":106.84912},{"is_transit":false,"transit":false,"i_long":106.840169,"station_name":"Cikini","time":4,"i_lat":-6.198556,"line":0,"station_id":"CKI","distance":1590},{"station_name":"Gondangdia","station_id":"GDD","distance":1750,"i_long":106.832183,"transit":false,"i_lat":-6.186295,"is_transit":false,"time":3,"line":2},{"station_name":"Juanda","station_id":"JUA","distance":2015,"transit":false,"i_long":106.828284,"time":4,"line":2,"is_transit":false,"i_lat":-6.166716},{"time":2,"station_id":"SW","is_transit":false,"distance":1149,"line":2,"transit":false,"station_name":"Sawah Besar","i_lat":-6.160725,"i_long":106.827103}],[{"transit":false,"time":0,"is_transit":true,"station_name":"Jakarta Kota","distance":0,"i_long":106.812439,"i_lat":-6.137569,"line":0,"station_id":"JAKK"},{"is_transit":true,"station_id":"KPB","station_name":"Kampung Bandan","transit":true,"i_lat":-6.132549,"line":0,"time":3,"distance":1364,"i_long":106.826365},{"station_id":"RJW","i_lat":-6.14505,"is_transit":false,"distance":1444,"time":3,"station_name":"Rajawali","transit":false,"line":11,"i_long":106.836569},{"distance":1901,"station_name":"Kemayoran","transit":false,"station_id":"KMO","is_transit":false,"line":11,"i_lat":-6.161728,"time":5,"i_long":106.839204},{"time":4,"station_id":"PSE","distance":1436,"is_transit":false,"line":11,"station_name":"Pasar Senen","transit":false,"i_lat":-6.174784,"i_long":106.84368},{"i_lat":-6.185975,"i_long":106.850107,"line":11,"time":8,"is_transit":false,"station_id":"GST","distance":1567,"station_name":"Gang Sentiong","transit":false},{"is_transit":false,"station_id":"KMT","i_long":106.855437,"time":1,"station_name":"Kramat","i_lat":-6.193792,"transit":false,"distance":973,"line":11},{"time":2,"transit":false,"distance":1829,"station_name":"Pondok Jati","line":11,"station_id":"POK","is_transit":false,"i_lat":-6.209188,"i_long":106.861737},{"distance":1236,"i_lat":-6.215091,"line":0,"time":9,"station_id":"JNG","station_name":"Jatinegara","transit":true,"is_transit":true,"i_long":106.86807400000001},{"time":2,"is_transit":false,"station_name":"Matraman","i_lat":-6.212485,"line":1,"station_id":"MTR","distance":1377,"transit":false,"i_long":106.858896},{"is_transit":true,"line":0,"i_long":106.84912,"time":2,"station_name":"Manggarai","distance":1275,"transit":true,"i_lat":-6.209883,"station_id":"MRI"},{"transit":false,"i_lat":-6.198556,"line":0,"station_id":"CKI","station_name":"Cikini","is_transit":false,"distance":1590,"i_long":106.840169,"time":4},{"station_name":"Gondangdia","i_long":106.832183,"line":2,"station_id":"GDD","is_transit":false,"time":3,"distance":1750,"i_lat":-6.186295,"transit":false},{"time":4,"station_name":"Juanda","station_id":"JUA","transit":false,"i_lat":-6.166716,"line":2,"i_long":106.828284,"is_transit":false,"distance":2015},{"time":2,"transit":false,"i_lat":-6.160725,"line":2,"station_id":"SW","i_long":106.827103,"distance":1149,"is_transit":false,"station_name":"Sawah Besar"}]]}