{"data":[[{"is_transit":false,"time":0,"transit":false,"line":2,"station_name":"Jakarta Kota","distance":0,"station_id":"JAKK","i_lat":-6.137569,"i_long":106.812439},{"distance":1364,"station_name":"Kampung Bandan","transit":true,"station_id":"KPB","i_lat":-6.132549,"is_transit":true,"line":4,"i_long":106.826365,"time":3},{"is_transit":false,"time":3,"i_long":106.836569,"i_lat":-6.14505,"transit":false,"station_id":"RJW","line":11,"distance":1444,"station_name":"Rajawali"},{"station_id":"KMO","station_name":"Kemayoran","time":5,"is_transit":false,"i_lat":-6.161728,"distance":1901,"i_long":106.839204,"line":11,"transit":false},{"i_long":106.84368,"transit":false,"station_name":"Pasar Senen","distance":1436,"station_id":"PSE","line":11,"is_transit":false,"i_lat":-6.174784,"time":4},{"i_lat":-6.185975,"is_transit":false,"station_id":"GST","transit":false,"station_name":"Gang Sentiong","line":11,"distance":1567,"time":8,"i_long":106.850107},{"is_transit":false,"distance":973,"i_lat":-6.193792,"station_name":"Kramat","station_id":"KMT","line":11,"time":1,"i_long":106.855437,"transit":false},{"i_long":106.861737,"station_id":"POK","station_name":"Pondok Jati","distance":1829,"i_lat":-6.209188,"line":11,"is_transit":false,"time":2,"transit":false},{"line":1,"transit":false,"station_name":"Jatinegara","i_lat":-6.215091,"time":9,"station_id":"JNG","i_long":106.86807400000001,"is_transit":false,"distance":1236}],[{"i_lat":-6.137569,"is_transit":false,"time":0,"distance":0,"station_name":"Jakarta Kota","i_long":106.812439,"station_id":"JAKK","transit":false,"line":2},{"is_transit":false,"i_long":106.820901,"time":4,"i_lat":-6.141205,"transit":false,"line":2,"distance":1264,"station_id":"JAY","station_name":"Jayakarta"},{"i_long":106.82482,"station_id":"MGB","station_name":"Manggabesar","is_transit":false,"transit":false,"time":2,"i_lat":-6.149769,"distance":1080,"line":2},{"time":2,"is_transit":false,"line":2,"transit":false,"station_id":"SW","i_lat":-6.160725,"i_long":106.827103,"station_name":"Sawah Besar","distance":906},{"station_name":"Juanda","distance":1149,"i_lat":-6.166716,"is_transit":false,"line":2,"station_id":"JUA","time":2,"transit":false,"i_long":106.828284},{"transit":false,"line":2,"station_name":"Gondangdia","i_lat":-6.186295,"is_transit":false,"i_long":106.832183,"station_id":"GDD","distance":2015,"time":4},{"transit":false,"station_name":"Cikini","time":3,"distance":1750,"is_transit":false,"i_lat":-6.198556,"line":2,"station_id":"CKI","i_long":106.840169},{"time":4,"is_transit":true,"station_id":"MRI","station_name":"Manggarai","i_lat":-6.209883,"transit":true,"line":2,"distance":1590,"i_long":106.84912},{"time":2,"i_long":106.858896,"line":1,"station_id":"MTR","distance":1275,"transit":false,"station_name":"Matraman","is_transit":false,"i_lat":-6.212485},{"transit":false,"station_name":"Jatinegara","i_lat":-6.215091,"time":8,"distance":1377,"i_long":106.86807400000001,"is_transit":false,"station_id":"JNG","line":1}],[{"transit":false,"is_transit":false,"distance":0,"i_lat":-6.137569,"station_id":"JAKK","station_name":"Jakarta Kota","i_long":106.812439,"time":0,"line":2},{"is_transit":true,"distance":1364,"station_id":"KPB","station_name":"Kampung Bandan","time":3,"transit":true,"i_long":106.826365,"line":4,"i_lat":-6.132549},{"transit":false,"i_lat":-6.144674,"i_long":106.79867,"line":1,"station_name":"Angke","is_transit":false,"station_id":"AK","time":9,"distance":4102},{"is_transit":false,"station_id":"DU","distance":1230,"line":1,"i_lat":-6.155215,"i_long":106.800832,"time":4,"transit":false,"station_name":"Duri"},{"station_id":"THB","station_name":"Tanah Abang","time":8,"i_long":106.811091,"distance":3632,"line":1,"is_transit":false,"i_lat":-6.185545,"transit":false},{"station_name":"Karet","time":5,"distance":2029,"is_transit":false,"i_lat":-6.20132,"line":1,"station_id":"KAT","transit":false,"i_long":106.816351},{"i_long":106.819881,"line":1,"distance":471,"is_transit":false,"time":1,"transit":false,"station_id":"SUDB","station_name":"Sudirman Baru","i_lat":-6.201433},{"i_long":106.822649,"station_id":"SUD","distance":280,"i_lat":-6.202263,"transit":false,"line":1,"time":1,"station_name":"Sudirman","is_transit":false},{"is_transit":false,"transit":false,"station_id":"MRI","time":4,"line":2,"i_lat":-6.209883,"i_long":106.84912,"distance":3186,"station_name":"Manggarai"},{"i_long":106.858896,"transit":false,"distance":1275,"station_name":"Matraman","i_lat":-6.212485,"time":2,"station_id":"MTR","is_transit":false,"line":1},{"transit":false,"i_lat":-6.215091,"station_id":"JNG","time":8,"is_transit":false,"distance":1377,"station_name":"Jatinegara","line":1,"i_long":106.86807400000001}],[{"i_lat":-6.137569,"line":2,"station_id":"JAKK","station_name":"Jakarta Kota","transit":false,"is_transit":false,"distance":0,"time":0,"i_long":106.812439},{"time":4,"i_long":106.820901,"is_transit":false,"transit":false,"station_id":"JAY","i_lat":-6.141205,"distance":1264,"station_name":"Jayakarta","line":2},{"i_long":106.82482,"distance":1080,"station_name":"Manggabesar","i_lat":-6.149769,"is_transit":false,"transit":false,"line":2,"station_id":"MGB","time":2},{"distance":906,"i_lat":-6.160725,"is_transit":false,"station_id":"SW","line":2,"i_long":106.827103,"transit":false,"time":2,"station_name":"Sawah Besar"},{"transit":false,"is_transit":false,"i_lat":-6.166716,"line":2,"time":2,"i_long":106.828284,"station_name":"Juanda","distance":1149,"station_id":"JUA"},{"i_lat":-6.186295,"i_long":106.832183,"station_id":"GDD","line":2,"distance":2015,"station_name":"Gondangdia","time":4,"is_transit":false,"transit":false},{"distance":1750,"station_name":"Cikini","is_transit":false,"i_lat":-6.198556,"line":2,"station_id":"CKI","i_long":106.840169,"time":3,"transit":false},{"distance":1590,"line":2,"i_long":106.84912,"station_name":"Manggarai","i_lat":-6.209883,"time":4,"transit":true,"station_id":"MRI","is_transit":true},{"transit":false,"is_transit":false,"time":4,"i_long":106.822649,"station_id":"SUD","line":1,"station_name":"Sudirman","distance":3186,"i_lat":-6.202263},{"station_id":"SUDB","station_name":"Sudirman Baru","distance":280,"time":1,"i_long":106.819881,"is_transit":false,"i_lat":-6.201433,"line":1,"transit":false},{"station_id":"KAT","transit":false,"i_lat":-6.20132,"distance":471,"i_long":106.816351,"is_transit":false,"time":1,"line":1,"station_name":"Karet"},{"station_id":"THB","i_long":106.811091,"line":1,"transit":false,"is_transit":false,"i_lat":-6.185545,"station_name":"Tanah Abang","time":5,"distance":2029},{"transit":false,"is_transit":false,"station_name":"Duri","distance":3632,"i_lat":-6.155215,"i_long":106.800832,"station_id":"DU","time":8,"line":1},{"transit":false,"station_id":"AK","station_name":"Angke","is_transit":false,"i_lat":-6.144674,"time":4,"distance":1230,"i_long":106.79867,"line":1},{"station_id":"KPB","transit":true,"station_name":"Kampung Bandan","time":9,"is_transit":true,"distance":4102,"line":4,"i_lat":-6.132549,"i_long":106.826365},{"distance":1444,"i_lat":-6.14505,"i_long":106.836569,"station_name":"Rajawali","station_id":"RJW","time":3,"line":11,"is_transit":false,"transit":false},{"i_lat":-6.161728,"i_long":106.839204,"line":11,"transit":false,"time":5,"distance":1901,"station_id":"KMO","station_name":"Kemayoran","is_transit":false},{"i_lat":-6.174784,"station_id":"PSE","station_name":"Pasar Senen","distance":1436,"line":11,"is_transit":false,"time":4,"i_long":106.84368,"transit":false},{"station_name":"Gang Sentiong","transit":false,"line":11,"station_id":"GST","i_lat":-6.185975,"is_transit":false,"i_long":106.850107,"time":8,"distance":1567},{"i_long":106.855437,"i_lat":-6.193792,"line":11,"is_transit":false,"transit":false,"time":1,"distance":973,"station_name":"Kramat","station_id":"KMT"},{"line":11,"transit":false,"station_name":"Pondok Jati","is_transit":false,"station_id":"POK","distance":1829,"i_long":106.861737,"time":2,"i_lat":-6.209188},{"line":1,"is_transit":false,"i_long":106.86807400000001,"distance":1236,"transit":false,"station_name":"Jatinegara","time":9,"station_id":"JNG","i_lat":-6.215091}]]}