{"data":[[{"is_transit":false,"distance":0,"transit":false,"time":0,"i_long":106.812439,"station_id":"JAKK","i_lat":-6.137569,"line":2,"station_name":"Jakarta Kota"},{"line":4,"i_long":106.826365,"i_lat":-6.132549,"time":3,"is_transit":true,"transit":true,"station_id":"KPB","station_name":"Kampung Bandan","distance":1364},{"i_lat":-6.128023,"station_name":"Ancol","i_long":106.84464,"is_transit":false,"transit":false,"line":4,"time":4,"distance":2185,"station_id":"AC"}],[{"i_long":106.812439,"station_id":"JAKK","transit":false,"time":0,"distance":0,"station_name":"Jakarta Kota","is_transit":false,"i_lat":-6.137569,"line":2},{"distance":1264,"station_id":"JAY","station_name":"Jayakarta","is_transit":false,"transit":false,"i_lat":-6.141205,"i_long":106.820901,"line":2,"time":4},{"time":2,"i_lat":-6.149769,"distance":1080,"station_id":"MGB","transit":false,"line":2,"station_name":"Manggabesar","is_transit":false,"i_long":106.82482},{"is_transit":false,"line":2,"i_long":106.827103,"transit":false,"i_lat":-6.160725,"distance":906,"time":2,"station_name":"Sawah Besar","station_id":"SW"},{"i_long":106.828284,"line":2,"i_lat":-6.166716,"distance":1149,"station_id":"JUA","time":2,"station_name":"Juanda","is_transit":false,"transit":false},{"station_id":"GDD","i_long":106.832183,"transit":false,"time":4,"is_transit":false,"i_lat":-6.186295,"line":2,"distance":2015,"station_name":"Gondangdia"},{"transit":false,"station_id":"CKI","i_lat":-6.198556,"i_long":106.840169,"line":2,"time":3,"distance":1750,"station_name":"Cikini","is_transit":false},{"distance":1590,"is_transit":true,"i_lat":-6.209883,"transit":true,"i_long":106.84912,"station_name":"Manggarai","line":2,"station_id":"MRI","time":4},{"i_lat":-6.202263,"distance":3186,"station_id":"SUD","station_name":"Sudirman","transit":false,"is_transit":false,"i_long":106.822649,"line":1,"time":4},{"station_name":"Sudirman Baru","i_lat":-6.201433,"time":1,"transit":false,"station_id":"SUDB","is_transit":false,"line":1,"distance":280,"i_long":106.819881},{"i_long":106.816351,"distance":471,"station_name":"Karet","transit":false,"line":1,"i_lat":-6.20132,"station_id":"KAT","time":1,"is_transit":false},{"station_id":"THB","distance":2029,"time":5,"station_name":"Tanah Abang","is_transit":false,"i_lat":-6.185545,"line":1,"i_long":106.811091,"transit":false},{"transit":false,"line":1,"is_transit":false,"station_name":"Duri","i_long":106.800832,"i_lat":-6.155215,"time":8,"distance":3632,"station_id":"DU"},{"station_id":"AK","time":4,"is_transit":false,"station_name":"Angke","i_lat":-6.144674,"i_long":106.79867,"line":1,"transit":false,"distance":1230},{"i_lat":-6.132549,"station_name":"Kampung Bandan","line":4,"station_id":"KPB","is_transit":true,"i_long":106.826365,"distance":4102,"time":9,"transit":true},{"distance":2185,"is_transit":false,"transit":false,"i_lat":-6.128023,"station_id":"AC","time":4,"station_name":"Ancol","i_long":106.84464,"line":4}],[{"station_id":"JAKK","station_name":"Jakarta Kota","time":0,"distance":0,"transit":false,"is_transit":false,"line":2,"i_lat":-6.137569,"i_long":106.812439},{"time":4,"transit":false,"i_lat":-6.141205,"distance":1264,"is_transit":false,"station_id":"JAY","station_name":"Jayakarta","i_long":106.820901,"line":2},{"distance":1080,"station_id":"MGB","is_transit":false,"transit":false,"station_name":"Manggabesar","line":2,"i_long":106.82482,"i_lat":-6.149769,"time":2},{"time":2,"distance":906,"station_id":"SW","line":2,"station_name":"Sawah Besar","transit":false,"i_lat":-6.160725,"i_long":106.827103,"is_transit":false},{"line":2,"station_id":"JUA","time":2,"distance":1149,"i_lat":-6.166716,"i_long":106.828284,"is_transit":false,"transit":false,"station_name":"Juanda"},{"i_long":106.832183,"i_lat":-6.186295,"is_transit":false,"time":4,"station_name":"Gondangdia","transit":false,"distance":2015,"station_id":"GDD","line":2},{"distance":1750,"transit":false,"station_id":"CKI","line":2,"i_lat":-6.198556,"time":3,"station_name":"Cikini","is_transit":false,"i_long":106.840169},{"line":2,"time":4,"is_transit":true,"i_long":106.84912,"station_name":"Manggarai","transit":true,"distance":1590,"station_id":"MRI","i_lat":-6.209883},{"station_id":"MTR","line":1,"i_long":106.858896,"i_lat":-6.212485,"station_name":"Matraman","time":2,"distance":1275,"is_transit":false,"transit":false},{"transit":true,"station_id":"JNG","station_name":"Jatinegara","line":1,"i_lat":-6.215091,"i_long":106.86807400000001,"distance":1377,"time":8,"is_transit":true},{"is_transit":false,"line":11,"time":2,"i_long":106.861737,"transit":false,"distance":1236,"station_id":"POK","i_lat":-6.209188,"station_name":"Pondok Jati"},{"is_transit":false,"station_id":"KMT","i_lat":-6.193792,"i_long":106.855437,"station_name":"Kramat","line":11,"distance":1829,"time":2,"transit":false},{"station_id":"GST","is_transit":false,"i_long":106.850107,"time":1,"line":11,"i_lat":-6.185975,"distance":973,"station_name":"Gang Sentiong","transit":false},{"distance":1567,"station_id":"PSE","line":11,"transit":false,"i_lat":-6.174784,"i_long":106.84368,"station_name":"Pasar Senen","is_transit":false,"time":8},{"transit":false,"i_long":106.839204,"station_id":"KMO","station_name":"Kemayoran","is_transit":false,"i_lat":-6.161728,"time":4,"distance":1436,"line":11},{"is_transit":false,"distance":1901,"station_name":"Rajawali","i_long":106.836569,"line":11,"transit":false,"time":5,"station_id":"RJW","i_lat":-6.14505},{"i_long":106.826365,"distance":1444,"is_transit":true,"station_name":"Kampung Bandan","station_id":"KPB","time":3,"i_lat":-6.132549,"line":4,"transit":true},{"i_long":106.84464,"station_id":"AC","is_transit":false,"transit":false,"station_name":"Ancol","time":4,"line":4,"distance":2185,"i_lat":-6.128023}]]}