{"data":[[{"transit":false,"i_lat":-6.137569,"line":2,"i_long":106.812439,"station_id":"JAKK","station_name":"Jakarta Kota","distance":0,"time":0,"is_transit":false},{"station_id":"KPB","is_transit":true,"line":4,"distance":1364,"time":3,"station_name":"Kampung Bandan","transit":true,"i_long":106.826365,"i_lat":-6.132549},{"line":4,"transit":false,"station_id":"AC","distance":2185,"i_long":106.84464,"station_name":"Ancol","is_transit":false,"time":4,"i_lat":-6.128023}],[{"station_id":"JAKK","is_transit":false,"time":0,"i_lat":-6.137569,"transit":false,"i_long":106.812439,"line":2,"distance":0,"station_name":"Jakarta Kota"},{"transit":false,"station_id":"JAY","distance":1264,"i_lat":-6.141205,"i_long":106.820901,"is_transit":false,"line":2,"time":4,"station_name":"Jayakarta"},{"i_lat":-6.149769,"is_transit":false,"line":2,"i_long":106.82482,"time":2,"station_id":"MGB","distance":1080,"station_name":"Manggabesar","transit":false},{"is_transit":false,"distance":906,"transit":false,"time":2,"i_lat":-6.160725,"station_id":"SW","line":2,"i_long":106.827103,"station_name":"Sawah Besar"},{"transit":false,"station_id":"JUA","station_name":"Juanda","i_long":106.828284,"is_transit":false,"distance":1149,"time":2,"i_lat":-6.166716,"line":2},{"i_long":106.832183,"time":4,"station_name":"Gondangdia","is_transit":false,"distance":2015,"station_id":"GDD","i_lat":-6.186295,"line":2,"transit":false},{"line":2,"i_long":106.840169,"station_name":"Cikini","time":3,"transit":false,"station_id":"CKI","is_transit":false,"i_lat":-6.198556,"distance":1750},{"transit":true,"i_lat":-6.209883,"i_long":106.84912,"line":2,"is_transit":true,"station_name":"Manggarai","time":4,"distance":1590,"station_id":"MRI"},{"time":4,"line":1,"station_id":"SUD","is_transit":false,"transit":false,"i_long":106.822649,"distance":3186,"station_name":"Sudirman","i_lat":-6.202263},{"time":1,"distance":280,"i_long":106.819881,"station_name":"Sudirman Baru","transit":false,"station_id":"SUDB","i_lat":-6.201433,"line":1,"is_transit":false},{"transit":false,"distance":471,"time":1,"station_id":"KAT","i_lat":-6.20132,"i_long":106.816351,"is_transit":false,"station_name":"Karet","line":1},{"station_id":"THB","time":5,"i_lat":-6.185545,"is_transit":false,"station_name":"Tanah Abang","i_long":106.811091,"distance":2029,"transit":false,"line":1},{"line":1,"distance":3632,"time":8,"transit":false,"is_transit":false,"station_id":"DU","station_name":"Duri","i_lat":-6.155215,"i_long":106.800832},{"is_transit":false,"line":1,"i_lat":-6.144674,"i_long":106.79867,"station_name":"Angke","distance":1230,"station_id":"AK","time":4,"transit":false},{"i_lat":-6.132549,"i_long":106.826365,"is_transit":true,"transit":true,"line":4,"station_id":"KPB","station_name":"Kampung Bandan","distance":4102,"time":9},{"station_id":"AC","is_transit":false,"time":4,"distance":2185,"station_name":"Ancol","i_long":106.84464,"transit":false,"line":4,"i_lat":-6.128023}],[{"line":2,"station_name":"Jakarta Kota","i_lat":-6.137569,"i_long":106.812439,"is_transit":false,"transit":false,"distance":0,"station_id":"JAKK","time":0},{"distance":1264,"time":4,"is_transit":false,"station_name":"Jayakarta","i_long":106.820901,"transit":false,"station_id":"JAY","i_lat":-6.141205,"line":2},{"i_long":106.82482,"time":2,"i_lat":-6.149769,"is_transit":false,"transit":false,"distance":1080,"station_id":"MGB","line":2,"station_name":"Manggabesar"},{"line":2,"i_lat":-6.160725,"i_long":106.827103,"time":2,"distance":906,"is_transit":false,"transit":false,"station_id":"SW","station_name":"Sawah Besar"},{"distance":1149,"transit":false,"station_name":"Juanda","time":2,"i_long":106.828284,"line":2,"station_id":"JUA","i_lat":-6.166716,"is_transit":false},{"i_long":106.832183,"i_lat":-6.186295,"is_transit":false,"time":4,"station_name":"Gondangdia","distance":2015,"transit":false,"station_id":"GDD","line":2},{"i_lat":-6.198556,"time":3,"line":2,"station_id":"CKI","is_transit":false,"distance":1750,"station_name":"Cikini","i_long":106.840169,"transit":false},{"i_long":106.84912,"line":2,"station_name":"Manggarai","is_transit":true,"distance":1590,"transit":true,"station_id":"MRI","time":4,"i_lat":-6.209883},{"i_long":106.858896,"i_lat":-6.212485,"is_transit":false,"transit":false,"time":2,"station_name":"Matraman","line":1,"distance":1275,"station_id":"MTR"},{"is_transit":true,"transit":true,"station_id":"JNG","time":8,"station_name":"Jatinegara","line":1,"i_long":106.86807400000001,"i_lat":-6.215091,"distance":1377},{"is_transit":false,"distance":1236,"station_name":"Pondok Jati","line":11,"transit":false,"i_long":106.861737,"i_lat":-6.209188,"time":2,"station_id":"POK"},{"line":11,"is_transit":false,"transit":false,"distance":1829,"station_id":"KMT","station_name":"Kramat","time":2,"i_lat":-6.193792,"i_long":106.855437},{"distance":973,"station_id":"GST","line":11,"time":1,"transit":false,"i_lat":-6.185975,"station_name":"Gang Sentiong","i_long":106.850107,"is_transit":false},{"distance":1567,"i_lat":-6.174784,"station_id":"PSE","line":11,"transit":false,"station_name":"Pasar Senen","i_long":106.84368,"time":8,"is_transit":false},{"line":11,"is_transit":false,"transit":false,"station_name":"Kemayoran","station_id":"KMO","time":4,"distance":1436,"i_lat":-6.161728,"i_long":106.839204},{"time":5,"station_name":"Rajawali","i_lat":-6.14505,"is_transit":false,"station_id":"RJW","line":11,"distance":1901,"transit":false,"i_long":106.836569},{"i_lat":-6.132549,"transit":true,"station_name":"Kampung Bandan","distance":1444,"station_id":"KPB","i_long":106.826365,"time":3,"is_transit":true,"line":4},{"transit":false,"i_lat":-6.128023,"time":4,"line":4,"i_long":106.84464,"is_transit":false,"station_id":"AC","distance":2185,"station_name":"Ancol"}]]}