{"data":[[{"line":0,"station_name":"Jakarta Kota","is_transit":true,"station_id":"JAKK","i_long":106.812439,"transit":false,"distance":0,"i_lat":-6.137569,"time":0},{"line":0,"i_lat":-6.132549,"distance":1364,"i_long":106.826365,"station_name":"Kampung Bandan","is_transit":true,"time":3,"transit":true,"station_id":"KPB"},{"station_id":"RJW","station_name":"Rajawali","i_long":106.836569,"line":11,"i_lat":-6.14505,"time":3,"distance":1444,"is_transit":false,"transit":false},{"station_name":"Kemayoran","distance":1901,"transit":false,"i_long":106.839204,"station_id":"KMO","is_transit":false,"time":5,"i_lat":-6.161728,"line":11},{"distance":1436,"time":4,"transit":false,"station_id":"PSE","i_lat":-6.174784,"station_name":"Pasar Senen","is_transit":false,"i_long":106.84368,"line":11},{"station_name":"Gang Sentiong","distance":1567,"i_lat":-6.185975,"i_long":106.850107,"station_id":"GST","line":11,"transit":false,"is_transit":false,"time":8},{"transit":false,"distance":973,"i_lat":-6.193792,"is_transit":false,"station_id":"KMT","i_long":106.855437,"line":11,"time":1,"station_name":"Kramat"},{"is_transit":false,"i_lat":-6.209188,"i_long":106.861737,"time":2,"transit":false,"line":11,"station_id":"POK","distance":1829,"station_name":"Pondok Jati"},{"transit":false,"station_name":"Jatinegara","i_long":106.86807400000001,"distance":1236,"is_transit":true,"line":0,"i_lat":-6.215091,"station_id":"JNG","time":9}],[{"i_long":106.812439,"i_lat":-6.137569,"station_id":"JAKK","station_name":"Jakarta Kota","line":0,"is_transit":true,"time":0,"distance":0,"transit":false},{"line":7,"distance":1264,"station_name":"Jayakarta","is_transit":false,"time":4,"transit":false,"station_id":"JAY","i_lat":-6.141205,"i_long":106.820901},{"station_id":"MGB","transit":false,"i_lat":-6.149769,"line":2,"time":2,"station_name":"Manggabesar","is_transit":false,"distance":1080,"i_long":106.82482},{"transit":false,"i_lat":-6.160725,"i_long":106.827103,"line":2,"station_name":"Sawah Besar","station_id":"SW","distance":906,"time":2,"is_transit":false},{"time":2,"transit":false,"station_id":"JUA","distance":1149,"station_name":"Juanda","i_long":106.828284,"is_transit":false,"line":2,"i_lat":-6.166716},{"i_lat":-6.186295,"time":4,"is_transit":false,"line":2,"station_name":"Gondangdia","station_id":"GDD","transit":false,"distance":2015,"i_long":106.832183},{"station_id":"CKI","is_transit":false,"distance":1750,"transit":false,"station_name":"Cikini","line":0,"time":3,"i_lat":-6.198556,"i_long":106.840169},{"is_transit":true,"time":4,"line":0,"i_lat":-6.209883,"distance":1590,"i_long":106.84912,"station_id":"MRI","station_name":"Manggarai","transit":true},{"is_transit":false,"station_name":"Matraman","transit":false,"distance":1275,"i_lat":-6.212485,"line":1,"station_id":"MTR","time":2,"i_long":106.858896},{"line":0,"i_lat":-6.215091,"distance":1377,"time":8,"transit":false,"is_transit":true,"i_long":106.86807400000001,"station_id":"JNG","station_name":"Jatinegara"}],[{"station_name":"Jakarta Kota","transit":false,"distance":0,"line":0,"time":0,"is_transit":true,"i_lat":-6.137569,"station_id":"JAKK","i_long":106.812439},{"distance":1364,"line":0,"i_lat":-6.132549,"is_transit":true,"station_name":"Kampung Bandan","station_id":"KPB","transit":false,"time":3,"i_long":106.826365},{"time":9,"station_id":"AK","station_name":"Angke","is_transit":false,"line":0,"distance":4102,"i_lat":-6.144674,"i_long":106.79867,"transit":false},{"transit":true,"i_long":106.800832,"is_transit":true,"time":4,"line":1,"distance":1230,"station_id":"DU","i_lat":-6.155215,"station_name":"Duri"},{"i_lat":-6.185545,"line":1,"station_id":"THB","time":8,"is_transit":true,"transit":false,"i_long":106.811091,"station_name":"Tanah Abang","distance":3632},{"transit":false,"time":5,"station_id":"KAT","distance":2029,"is_transit":false,"line":1,"i_long":106.816351,"i_lat":-6.20132,"station_name":"Karet"},{"transit":false,"distance":471,"time":1,"is_transit":false,"i_lat":-6.201433,"i_long":106.819881,"line":1,"station_id":"SUDB","station_name":"Sudirman Baru"},{"line":1,"station_id":"SUD","is_transit":false,"i_long":106.822649,"transit":false,"time":1,"distance":280,"i_lat":-6.202263,"station_name":"Sudirman"},{"line":0,"station_name":"Manggarai","is_transit":true,"transit":false,"distance":3186,"time":4,"i_lat":-6.209883,"station_id":"MRI","i_long":106.84912},{"station_name":"Matraman","time":2,"is_transit":false,"distance":1275,"i_lat":-6.212485,"line":1,"i_long":106.858896,"transit":false,"station_id":"MTR"},{"time":8,"i_long":106.86807400000001,"i_lat":-6.215091,"transit":false,"station_id":"JNG","is_transit":true,"line":0,"station_name":"Jatinegara","distance":1377}],[{"is_transit":true,"distance":0,"station_id":"JAKK","transit":false,"i_long":106.812439,"time":0,"line":0,"i_lat":-6.137569,"station_name":"Jakarta Kota"},{"i_lat":-6.141205,"station_id":"JAY","station_name":"Jayakarta","transit":false,"line":7,"i_long":106.820901,"distance":1264,"time":4,"is_transit":false},{"line":2,"is_transit":false,"station_id":"MGB","i_long":106.82482,"time":2,"i_lat":-6.149769,"transit":false,"distance":1080,"station_name":"Manggabesar"},{"is_transit":false,"line":2,"distance":906,"transit":false,"station_name":"Sawah Besar","station_id":"SW","i_lat":-6.160725,"time":2,"i_long":106.827103},{"distance":1149,"time":2,"station_name":"Juanda","line":2,"station_id":"JUA","is_transit":false,"transit":false,"i_long":106.828284,"i_lat":-6.166716},{"i_long":106.832183,"i_lat":-6.186295,"is_transit":false,"time":4,"transit":false,"line":2,"station_name":"Gondangdia","distance":2015,"station_id":"GDD"},{"distance":1750,"station_name":"Cikini","i_long":106.840169,"i_lat":-6.198556,"is_transit":false,"station_id":"CKI","time":3,"transit":false,"line":0},{"station_name":"Manggarai","time":4,"i_lat":-6.209883,"i_long":106.84912,"is_transit":true,"station_id":"MRI","line":0,"distance":1590,"transit":true},{"station_name":"Sudirman","i_long":106.822649,"transit":false,"time":4,"i_lat":-6.202263,"is_transit":false,"distance":3186,"station_id":"SUD","line":1},{"is_transit":false,"line":1,"station_name":"Sudirman Baru","distance":280,"station_id":"SUDB","time":1,"transit":false,"i_lat":-6.201433,"i_long":106.819881},{"line":1,"i_lat":-6.20132,"time":1,"distance":471,"station_id":"KAT","station_name":"Karet","transit":false,"i_long":106.816351,"is_transit":false},{"is_transit":true,"transit":false,"i_long":106.811091,"time":5,"station_id":"THB","line":1,"distance":2029,"i_lat":-6.185545,"station_name":"Tanah Abang"},{"station_id":"DU","is_transit":true,"i_long":106.800832,"station_name":"Duri","transit":true,"line":1,"i_lat":-6.155215,"distance":3632,"time":8},{"station_id":"AK","distance":1230,"i_lat":-6.144674,"transit":false,"station_name":"Angke","i_long":106.79867,"line":0,"is_transit":false,"time":4},{"time":9,"distance":4102,"transit":true,"is_transit":true,"station_name":"Kampung Bandan","i_long":106.826365,"line":0,"i_lat":-6.132549,"station_id":"KPB"},{"is_transit":false,"line":11,"time":3,"transit":false,"station_id":"RJW","station_name":"Rajawali","i_long":106.836569,"i_lat":-6.14505,"distance":1444},{"distance":1901,"is_transit":false,"transit":false,"line":11,"i_lat":-6.161728,"i_long":106.839204,"time":5,"station_id":"KMO","station_name":"Kemayoran"},{"station_name":"Pasar Senen","time":4,"is_transit":false,"distance":1436,"i_long":106.84368,"i_lat":-6.174784,"line":11,"transit":false,"station_id":"PSE"},{"transit":false,"time":8,"line":11,"i_lat":-6.185975,"station_name":"Gang Sentiong","station_id":"GST","is_transit":false,"i_long":106.850107,"distance":1567},{"station_name":"Kramat","station_id":"KMT","is_transit":false,"time":1,"transit":false,"distance":973,"i_lat":-6.193792,"i_long":106.855437,"line":11},{"i_long":106.861737,"time":2,"station_id":"POK","is_transit":false,"station_name":"Pondok Jati","transit":false,"i_lat":-6.209188,"line":11,"distance":1829},{"is_transit":true,"station_name":"Jatinegara","transit":false,"distance":1236,"line":0,"time":9,"i_long":106.86807400000001,"i_lat":-6.215091,"station_id":"JNG"}]]}