{"data":[[{"i_lat":-6.137569,"line":2,"station_name":"Jakarta Kota","is_transit":false,"distance":0,"time":0,"station_id":"JAKK","transit":false,"i_long":106.812439},{"station_name":"Kampung Bandan","line":4,"distance":1364,"i_long":106.826365,"transit":true,"is_transit":true,"time":3,"station_id":"KPB","i_lat":-6.132549},{"station_name":"Rajawali","i_long":106.836569,"i_lat":-6.14505,"is_transit":false,"distance":1444,"transit":false,"time":3,"station_id":"RJW","line":11},{"i_lat":-6.161728,"distance":1901,"is_transit":false,"transit":false,"station_name":"Kemayoran","station_id":"KMO","time":5,"i_long":106.839204,"line":11},{"distance":1436,"station_id":"PSE","transit":false,"is_transit":false,"i_lat":-6.174784,"time":4,"i_long":106.84368,"station_name":"Pasar Senen","line":11},{"is_transit":false,"transit":false,"time":8,"i_long":106.850107,"station_name":"Gang Sentiong","station_id":"GST","i_lat":-6.185975,"line":11,"distance":1567},{"i_long":106.855437,"station_id":"KMT","station_name":"Kramat","time":1,"i_lat":-6.193792,"transit":false,"is_transit":false,"distance":973,"line":11},{"transit":false,"station_name":"Pondok Jati","is_transit":false,"distance":1829,"station_id":"POK","i_lat":-6.209188,"line":11,"i_long":106.861737,"time":2},{"line":1,"transit":true,"i_lat":-6.215091,"is_transit":true,"station_name":"Jatinegara","distance":1236,"time":9,"station_id":"JNG","i_long":106.86807400000001},{"transit":false,"distance":3395,"line":1,"i_long":106.899548,"time":3,"station_id":"KLD","station_name":"Klender","is_transit":false,"i_lat":-6.2135},{"i_long":106.922662,"line":1,"station_name":"Buaran","is_transit":false,"distance":3100,"transit":false,"i_lat":-6.215568,"station_id":"BUA","time":2},{"i_lat":-6.217455,"i_long":106.939679,"is_transit":false,"station_name":"Klenderbaru","line":1,"distance":1305,"station_id":"KLDB","transit":false,"time":1},{"i_lat":-6.219053,"line":1,"transit":false,"i_long":106.951283,"station_name":"Cakung","distance":1385,"is_transit":false,"station_id":"CUK","time":8},{"i_lat":-6.224515,"distance":3097,"station_name":"Kranji","station_id":"KRI","is_transit":false,"line":1,"transit":false,"time":3,"i_long":106.977657},{"station_id":"BKS","time":4,"i_lat":-6.236616,"distance":2520,"line":1,"i_long":106.997013,"is_transit":false,"transit":false,"station_name":"Bekasi"},{"line":1,"transit":false,"time":2,"i_lat":-6.248029,"i_long":107.016735,"is_transit":false,"distance":2368,"station_id":"BKST","station_name":"Bekasi Timur"}],[{"i_long":106.812439,"distance":0,"transit":false,"station_id":"JAKK","time":0,"i_lat":-6.137569,"station_name":"Jakarta Kota","line":2,"is_transit":false},{"station_name":"Jayakarta","time":4,"transit":false,"station_id":"JAY","is_transit":false,"distance":1264,"i_lat":-6.141205,"i_long":106.820901,"line":2},{"line":2,"distance":1080,"transit":false,"is_transit":false,"i_lat":-6.149769,"station_name":"Manggabesar","station_id":"MGB","i_long":106.82482,"time":2},{"i_lat":-6.160725,"station_name":"Sawah Besar","i_long":106.827103,"line":2,"is_transit":false,"station_id":"SW","time":2,"transit":false,"distance":906},{"is_transit":false,"line":2,"station_name":"Juanda","transit":false,"time":2,"distance":1149,"station_id":"JUA","i_long":106.828284,"i_lat":-6.166716},{"transit":false,"station_name":"Gondangdia","station_id":"GDD","i_long":106.832183,"line":2,"i_lat":-6.186295,"time":4,"distance":2015,"is_transit":false},{"time":3,"i_lat":-6.198556,"is_transit":false,"distance":1750,"station_id":"CKI","station_name":"Cikini","line":2,"transit":false,"i_long":106.840169},{"i_long":106.84912,"station_name":"Manggarai","i_lat":-6.209883,"transit":true,"is_transit":true,"time":4,"distance":1590,"station_id":"MRI","line":2},{"distance":1275,"is_transit":false,"time":2,"line":1,"transit":false,"i_lat":-6.212485,"station_id":"MTR","station_name":"Matraman","i_long":106.858896},{"transit":false,"station_name":"Jatinegara","line":1,"i_lat":-6.215091,"i_long":106.86807400000001,"is_transit":false,"time":8,"distance":1377,"station_id":"JNG"},{"i_long":106.899548,"time":3,"distance":3395,"line":1,"station_name":"Klender","i_lat":-6.2135,"transit":false,"is_transit":false,"station_id":"KLD"},{"station_id":"BUA","i_lat":-6.215568,"i_long":106.922662,"station_name":"Buaran","distance":3100,"line":1,"is_transit":false,"transit":false,"time":2},{"time":1,"transit":false,"station_name":"Klenderbaru","is_transit":false,"distance":1305,"station_id":"KLDB","i_long":106.939679,"line":1,"i_lat":-6.217455},{"transit":false,"station_name":"Cakung","time":8,"i_long":106.951283,"i_lat":-6.219053,"station_id":"CUK","distance":1385,"line":1,"is_transit":false},{"station_name":"Kranji","station_id":"KRI","i_long":106.977657,"line":1,"transit":false,"is_transit":false,"i_lat":-6.224515,"time":3,"distance":3097},{"distance":2520,"station_name":"Bekasi","time":4,"transit":false,"i_lat":-6.236616,"is_transit":false,"station_id":"BKS","line":1,"i_long":106.997013},{"line":1,"i_lat":-6.248029,"station_id":"BKST","transit":false,"station_name":"Bekasi Timur","is_transit":false,"distance":2368,"i_long":107.016735,"time":2}],[{"i_long":106.812439,"station_name":"Jakarta Kota","line":2,"i_lat":-6.137569,"distance":0,"time":0,"transit":false,"is_transit":false,"station_id":"JAKK"},{"i_lat":-6.132549,"line":4,"distance":1364,"is_transit":true,"station_id":"KPB","time":3,"transit":true,"i_long":106.826365,"station_name":"Kampung Bandan"},{"is_transit":false,"station_name":"Angke","time":9,"i_lat":-6.144674,"line":1,"transit":false,"station_id":"AK","distance":4102,"i_long":106.79867},{"station_id":"DU","is_transit":false,"transit":false,"station_name":"Duri","line":1,"i_long":106.800832,"time":4,"distance":1230,"i_lat":-6.155215},{"is_transit":false,"time":8,"station_name":"Tanah Abang","transit":false,"i_long":106.811091,"station_id":"THB","i_lat":-6.185545,"line":1,"distance":3632},{"i_lat":-6.20132,"transit":false,"station_name":"Karet","is_transit":false,"time":5,"distance":2029,"station_id":"KAT","i_long":106.816351,"line":1},{"is_transit":false,"i_lat":-6.201433,"transit":false,"i_long":106.819881,"station_id":"SUDB","line":1,"distance":471,"station_name":"Sudirman Baru","time":1},{"distance":280,"i_lat":-6.202263,"station_id":"SUD","i_long":106.822649,"time":1,"line":1,"station_name":"Sudirman","is_transit":false,"transit":false},{"time":4,"transit":false,"distance":3186,"is_transit":false,"line":2,"station_id":"MRI","station_name":"Manggarai","i_long":106.84912,"i_lat":-6.209883},{"line":1,"time":2,"i_long":106.858896,"station_name":"Matraman","station_id":"MTR","is_transit":false,"i_lat":-6.212485,"distance":1275,"transit":false},{"distance":1377,"station_name":"Jatinegara","time":8,"station_id":"JNG","line":1,"transit":false,"is_transit":false,"i_lat":-6.215091,"i_long":106.86807400000001},{"station_id":"KLD","i_long":106.899548,"time":3,"transit":false,"is_transit":false,"line":1,"distance":3395,"station_name":"Klender","i_lat":-6.2135},{"transit":false,"i_long":106.922662,"distance":3100,"station_id":"BUA","is_transit":false,"time":2,"station_name":"Buaran","i_lat":-6.215568,"line":1},{"distance":1305,"station_name":"Klenderbaru","time":1,"transit":false,"i_lat":-6.217455,"line":1,"is_transit":false,"i_long":106.939679,"station_id":"KLDB"},{"i_lat":-6.219053,"line":1,"i_long":106.951283,"distance":1385,"station_id":"CUK","transit":false,"is_transit":false,"time":8,"station_name":"Cakung"},{"time":3,"distance":3097,"station_name":"Kranji","is_transit":false,"transit":false,"i_long":106.977657,"station_id":"KRI","i_lat":-6.224515,"line":1},{"distance":2520,"is_transit":false,"station_name":"Bekasi","time":4,"station_id":"BKS","i_lat":-6.236616,"i_long":106.997013,"line":1,"transit":false},{"station_name":"Bekasi Timur","station_id":"BKST","transit":false,"distance":2368,"i_lat":-6.248029,"line":1,"is_transit":false,"time":2,"i_long":107.016735}],[{"station_name":"Jakarta Kota","station_id":"JAKK","is_transit":false,"i_long":106.812439,"distance":0,"line":2,"transit":false,"i_lat":-6.137569,"time":0},{"is_transit":false,"station_id":"JAY","distance":1264,"transit":false,"station_name":"Jayakarta","time":4,"i_long":106.820901,"line":2,"i_lat":-6.141205},{"transit":false,"line":2,"station_name":"Manggabesar","time":2,"i_long":106.82482,"station_id":"MGB","distance":1080,"is_transit":false,"i_lat":-6.149769},{"is_transit":false,"station_id":"SW","i_lat":-6.160725,"transit":false,"distance":906,"i_long":106.827103,"line":2,"time":2,"station_name":"Sawah Besar"},{"i_long":106.828284,"station_id":"JUA","is_transit":false,"distance":1149,"time":2,"i_lat":-6.166716,"transit":false,"line":2,"station_name":"Juanda"},{"i_long":106.832183,"i_lat":-6.186295,"transit":false,"station_id":"GDD","is_transit":false,"station_name":"Gondangdia","time":4,"distance":2015,"line":2},{"station_id":"CKI","station_name":"Cikini","i_lat":-6.198556,"is_transit":false,"i_long":106.840169,"line":2,"distance":1750,"time":3,"transit":false},{"transit":true,"distance":1590,"is_transit":true,"i_lat":-6.209883,"station_name":"Manggarai","line":2,"time":4,"i_long":106.84912,"station_id":"MRI"},{"station_name":"Sudirman","line":1,"time":4,"is_transit":false,"i_lat":-6.202263,"transit":false,"i_long":106.822649,"station_id":"SUD","distance":3186},{"i_lat":-6.201433,"i_long":106.819881,"line":1,"station_id":"SUDB","is_transit":false,"station_name":"Sudirman Baru","transit":false,"time":1,"distance":280},{"distance":471,"line":1,"station_name":"Karet","i_lat":-6.20132,"i_long":106.816351,"station_id":"KAT","transit":false,"is_transit":false,"time":1},{"transit":false,"station_name":"Tanah Abang","i_long":106.811091,"is_transit":false,"line":1,"distance":2029,"i_lat":-6.185545,"time":5,"station_id":"THB"},{"i_lat":-6.155215,"is_transit":false,"transit":false,"station_name":"Duri","distance":3632,"line":1,"time":8,"station_id":"DU","i_long":106.800832},{"i_long":106.79867,"time":4,"line":1,"distance":1230,"transit":false,"is_transit":false,"i_lat":-6.144674,"station_id":"AK","station_name":"Angke"},{"i_long":106.826365,"i_lat":-6.132549,"line":4,"time":9,"station_id":"KPB","transit":true,"station_name":"Kampung Bandan","is_transit":true,"distance":4102},{"time":3,"line":11,"i_long":106.836569,"is_transit":false,"station_id":"RJW","i_lat":-6.14505,"station_name":"Rajawali","distance":1444,"transit":false},{"line":11,"is_transit":false,"station_id":"KMO","transit":false,"i_long":106.839204,"time":5,"i_lat":-6.161728,"distance":1901,"station_name":"Kemayoran"},{"i_lat":-6.174784,"i_long":106.84368,"station_name":"Pasar Senen","transit":false,"is_transit":false,"station_id":"PSE","time":4,"line":11,"distance":1436},{"station_id":"GST","i_long":106.850107,"time":8,"transit":false,"i_lat":-6.185975,"station_name":"Gang Sentiong","is_transit":false,"distance":1567,"line":11},{"is_transit":false,"transit":false,"time":1,"line":11,"i_long":106.855437,"station_name":"Kramat","distance":973,"i_lat":-6.193792,"station_id":"KMT"},{"is_transit":false,"transit":false,"i_long":106.861737,"time":2,"distance":1829,"i_lat":-6.209188,"station_id":"POK","station_name":"Pondok Jati","line":11},{"time":9,"station_id":"JNG","distance":1236,"station_name":"Jatinegara","is_transit":true,"line":1,"i_long":106.86807400000001,"i_lat":-6.215091,"transit":true},{"i_lat":-6.2135,"line":1,"time":3,"transit":false,"is_transit":false,"distance":3395,"station_id":"KLD","i_long":106.899548,"station_name":"Klender"},{"is_transit":false,"line":1,"transit":false,"i_long":106.922662,"i_lat":-6.215568,"station_name":"Buaran","station_id":"BUA","time":2,"distance":3100},{"station_id":"KLDB","distance":1305,"line":1,"station_name":"Klenderbaru","is_transit":false,"time":1,"i_lat":-6.217455,"i_long":106.939679,"transit":false},{"station_name":"Cakung","distance":1385,"station_id":"CUK","transit":false,"is_transit":false,"time":8,"i_long":106.951283,"i_lat":-6.219053,"line":1},{"i_long":106.977657,"station_name":"Kranji","i_lat":-6.224515,"distance":3097,"line":1,"station_id":"KRI","transit":false,"is_transit":false,"time":3},{"transit":false,"distance":2520,"i_long":106.997013,"i_lat":-6.236616,"is_transit":false,"time":4,"station_name":"Bekasi","station_id":"BKS","line":1},{"line":1,"transit":false,"i_long":107.016735,"time":2,"is_transit":false,"station_id":"BKST","distance":2368,"i_lat":-6.248029,"station_name":"Bekasi Timur"}]]}