{"data":[[{"distance":0,"station_id":"JAKK","is_transit":true,"transit":false,"i_lat":-6.137569,"time":0,"i_long":106.812439,"line":0,"station_name":"Jakarta Kota"},{"is_transit":true,"i_lat":-6.132549,"distance":1364,"time":3,"i_long":106.826365,"station_id":"KPB","transit":false,"line":0,"station_name":"Kampung Bandan"},{"transit":false,"time":9,"i_lat":-6.144674,"distance":4102,"i_long":106.79867,"line":0,"station_id":"AK","station_name":"Angke","is_transit":false},{"i_lat":-6.155215,"transit":true,"station_id":"DU","station_name":"Duri","is_transit":true,"time":4,"distance":1230,"i_long":106.800832,"line":1},{"distance":3632,"station_id":"THB","is_transit":true,"i_lat":-6.185545,"time":8,"line":1,"transit":true,"i_long":106.811091,"station_name":"Tanah Abang"},{"time":6,"station_name":"Palmerah","i_lat":-6.207404,"distance":3191,"i_long":106.79689,"line":6,"station_id":"PLM","is_transit":false,"transit":false},{"is_transit":false,"transit":false,"line":6,"i_lat":-6.237242,"station_id":"KBY","station_name":"Kebayoran","distance":3737,"time":7,"i_long":106.780334},{"i_lat":-6.276362,"distance":6218,"station_name":"Pondokranji","station_id":"PDJ","i_long":106.74273,"transit":false,"is_transit":false,"line":6,"time":8},{"i_lat":-6.288927,"line":6,"transit":false,"i_long":106.728916,"station_id":"JMU","time":3,"is_transit":false,"station_name":"Jurangmangu","distance":2179},{"time":4,"distance":1994,"i_lat":-6.296963,"station_name":"Sudimara","i_long":106.712277,"is_transit":false,"transit":false,"line":6,"station_id":"SDM"},{"transit":false,"station_name":"Rawa Buntu","is_transit":false,"time":6,"i_long":106.675475,"station_id":"RU","i_lat":-6.314823,"line":6,"distance":4566},{"i_lat":-6.319871,"transit":false,"time":4,"is_transit":false,"station_id":"SRP","line":6,"distance":2413,"i_long":106.66566,"station_name":"Serpong"},{"station_name":"Cisauk","is_transit":false,"transit":false,"station_id":"CSK","i_lat":-6.32484,"distance":1784,"line":0,"i_long":106.640411,"time":4},{"is_transit":false,"distance":2519,"i_lat":-6.329547,"i_long":106.617853,"station_name":"Cicayur","time":4,"station_id":"CC","transit":false,"line":0},{"transit":false,"i_long":106.568863,"distance":5968,"time":8,"line":6,"station_id":"PRP","station_name":"Parung Panjang","i_lat":-6.3441410000000005,"is_transit":false},{"station_id":"CJT","i_lat":-6.354349,"station_name":"Cilejit","i_long":106.508482,"line":0,"distance":7025,"time":9,"transit":false,"is_transit":false},{"station_name":"Daru","transit":false,"time":6,"i_lat":-6.338021,"is_transit":false,"line":0,"i_long":106.491338,"distance":2675,"station_id":"DAR"}],[{"station_name":"Jakarta Kota","is_transit":true,"i_long":106.812439,"line":0,"time":0,"distance":0,"transit":false,"i_lat":-6.137569,"station_id":"JAKK"},{"i_lat":-6.141205,"time":4,"i_long":106.820901,"station_id":"JAY","distance":1264,"transit":false,"station_name":"Jayakarta","is_transit":false,"line":7},{"transit":false,"time":2,"station_name":"Manggabesar","is_transit":false,"i_lat":-6.149769,"i_long":106.82482,"line":2,"distance":1080,"station_id":"MGB"},{"i_lat":-6.160725,"line":2,"distance":906,"i_long":106.827103,"station_name":"Sawah Besar","is_transit":false,"time":2,"transit":false,"station_id":"SW"},{"line":2,"distance":1149,"station_name":"Juanda","i_lat":-6.166716,"time":2,"station_id":"JUA","is_transit":false,"transit":false,"i_long":106.828284},{"distance":2015,"station_name":"Gondangdia","time":4,"line":2,"i_lat":-6.186295,"transit":false,"i_long":106.832183,"is_transit":false,"station_id":"GDD"},{"time":3,"is_transit":false,"i_lat":-6.198556,"line":0,"i_long":106.840169,"station_name":"Cikini","distance":1750,"transit":false,"station_id":"CKI"},{"time":4,"station_id":"MRI","is_transit":true,"i_lat":-6.209883,"transit":true,"station_name":"Manggarai","i_long":106.84912,"line":0,"distance":1590},{"line":1,"transit":false,"station_name":"Sudirman","station_id":"SUD","is_transit":false,"time":4,"distance":3186,"i_long":106.822649,"i_lat":-6.202263},{"i_lat":-6.201433,"i_long":106.819881,"transit":false,"distance":280,"time":1,"station_id":"SUDB","line":1,"is_transit":false,"station_name":"Sudirman Baru"},{"time":1,"station_id":"KAT","line":1,"i_long":106.816351,"station_name":"Karet","transit":false,"is_transit":false,"distance":471,"i_lat":-6.20132},{"i_long":106.811091,"transit":true,"distance":2029,"i_lat":-6.185545,"time":5,"station_name":"Tanah Abang","is_transit":true,"line":1,"station_id":"THB"},{"time":6,"i_lat":-6.207404,"i_long":106.79689,"distance":3191,"line":6,"transit":false,"station_name":"Palmerah","is_transit":false,"station_id":"PLM"},{"distance":3737,"is_transit":false,"i_lat":-6.237242,"station_name":"Kebayoran","time":7,"station_id":"KBY","i_long":106.780334,"line":6,"transit":false},{"i_lat":-6.276362,"is_transit":false,"transit":false,"line":6,"station_name":"Pondokranji","station_id":"PDJ","i_long":106.74273,"distance":6218,"time":8},{"time":3,"distance":2179,"transit":false,"station_id":"JMU","line":6,"i_lat":-6.288927,"station_name":"Jurangmangu","i_long":106.728916,"is_transit":false},{"transit":false,"distance":1994,"is_transit":false,"line":6,"i_long":106.712277,"i_lat":-6.296963,"station_id":"SDM","station_name":"Sudimara","time":4},{"is_transit":false,"line":6,"station_name":"Rawa Buntu","transit":false,"time":6,"i_lat":-6.314823,"i_long":106.675475,"distance":4566,"station_id":"RU"},{"transit":false,"station_id":"SRP","i_lat":-6.319871,"i_long":106.66566,"is_transit":false,"station_name":"Serpong","distance":2413,"line":6,"time":4},{"station_name":"Cisauk","time":4,"i_long":106.640411,"station_id":"CSK","is_transit":false,"transit":false,"distance":1784,"i_lat":-6.32484,"line":0},{"station_id":"CC","is_transit":false,"transit":false,"line":0,"station_name":"Cicayur","i_long":106.617853,"time":4,"distance":2519,"i_lat":-6.329547},{"distance":5968,"line":6,"is_transit":false,"i_long":106.568863,"station_id":"PRP","transit":false,"time":8,"i_lat":-6.3441410000000005,"station_name":"Parung Panjang"},{"distance":7025,"i_long":106.508482,"station_id":"CJT","time":9,"transit":false,"station_name":"Cilejit","is_transit":false,"i_lat":-6.354349,"line":0},{"station_id":"DAR","transit":false,"i_lat":-6.338021,"station_name":"Daru","distance":2675,"line":0,"is_transit":false,"i_long":106.491338,"time":6}],[{"station_name":"Jakarta Kota","i_long":106.812439,"i_lat":-6.137569,"is_transit":true,"station_id":"JAKK","line":0,"time":0,"transit":false,"distance":0},{"distance":1364,"i_lat":-6.132549,"i_long":106.826365,"station_id":"KPB","time":3,"line":0,"transit":true,"is_transit":true,"station_name":"Kampung Bandan"},{"station_id":"RJW","distance":1444,"line":11,"transit":false,"i_long":106.836569,"time":3,"is_transit":false,"station_name":"Rajawali","i_lat":-6.14505},{"station_id":"KMO","time":5,"transit":false,"i_lat":-6.161728,"distance":1901,"i_long":106.839204,"station_name":"Kemayoran","is_transit":false,"line":11},{"i_lat":-6.174784,"station_id":"PSE","line":11,"station_name":"Pasar Senen","transit":false,"is_transit":false,"time":4,"i_long":106.84368,"distance":1436},{"time":8,"station_id":"GST","is_transit":false,"i_long":106.850107,"distance":1567,"i_lat":-6.185975,"transit":false,"line":11,"station_name":"Gang Sentiong"},{"i_long":106.855437,"distance":973,"i_lat":-6.193792,"is_transit":false,"line":11,"station_name":"Kramat","station_id":"KMT","transit":false,"time":1},{"station_name":"Pondok Jati","line":11,"is_transit":false,"i_lat":-6.209188,"station_id":"POK","time":2,"transit":false,"i_long":106.861737,"distance":1829},{"distance":1236,"i_lat":-6.215091,"line":0,"transit":true,"is_transit":true,"i_long":106.86807400000001,"time":9,"station_name":"Jatinegara","station_id":"JNG"},{"distance":1377,"station_name":"Matraman","i_lat":-6.212485,"is_transit":false,"time":2,"line":1,"transit":false,"station_id":"MTR","i_long":106.858896},{"station_id":"MRI","time":2,"transit":false,"station_name":"Manggarai","distance":1275,"line":0,"i_lat":-6.209883,"i_long":106.84912,"is_transit":true},{"distance":3186,"is_transit":false,"i_long":106.822649,"transit":false,"station_id":"SUD","line":1,"i_lat":-6.202263,"station_name":"Sudirman","time":4},{"time":1,"distance":280,"i_long":106.819881,"station_name":"Sudirman Baru","is_transit":false,"station_id":"SUDB","transit":false,"i_lat":-6.201433,"line":1},{"station_id":"KAT","is_transit":false,"time":1,"transit":false,"i_lat":-6.20132,"i_long":106.816351,"line":1,"distance":471,"station_name":"Karet"},{"is_transit":true,"distance":2029,"i_lat":-6.185545,"station_name":"Tanah Abang","i_long":106.811091,"line":1,"station_id":"THB","time":5,"transit":true},{"transit":false,"station_id":"PLM","is_transit":false,"line":6,"station_name":"Palmerah","distance":3191,"i_lat":-6.207404,"time":6,"i_long":106.79689},{"transit":false,"station_id":"KBY","distance":3737,"is_transit":false,"line":6,"station_name":"Kebayoran","i_lat":-6.237242,"time":7,"i_long":106.780334},{"line":6,"i_long":106.74273,"i_lat":-6.276362,"is_transit":false,"transit":false,"distance":6218,"station_id":"PDJ","station_name":"Pondokranji","time":8},{"i_lat":-6.288927,"distance":2179,"station_id":"JMU","station_name":"Jurangmangu","time":3,"i_long":106.728916,"line":6,"transit":false,"is_transit":false},{"station_name":"Sudimara","distance":1994,"is_transit":false,"transit":false,"i_long":106.712277,"station_id":"SDM","time":4,"i_lat":-6.296963,"line":6},{"line":6,"station_id":"RU","transit":false,"time":6,"i_lat":-6.314823,"i_long":106.675475,"is_transit":false,"distance":4566,"station_name":"Rawa Buntu"},{"is_transit":false,"station_name":"Serpong","transit":false,"time":4,"i_lat":-6.319871,"station_id":"SRP","i_long":106.66566,"distance":2413,"line":6},{"i_long":106.640411,"distance":1784,"station_id":"CSK","station_name":"Cisauk","time":4,"i_lat":-6.32484,"line":0,"is_transit":false,"transit":false},{"line":0,"i_lat":-6.329547,"i_long":106.617853,"time":4,"station_id":"CC","distance":2519,"is_transit":false,"station_name":"Cicayur","transit":false},{"is_transit":false,"time":8,"distance":5968,"i_long":106.568863,"transit":false,"line":6,"station_id":"PRP","i_lat":-6.3441410000000005,"station_name":"Parung Panjang"},{"time":9,"i_long":106.508482,"station_name":"Cilejit","transit":false,"is_transit":false,"station_id":"CJT","line":0,"i_lat":-6.354349,"distance":7025},{"station_id":"DAR","i_long":106.491338,"time":6,"i_lat":-6.338021,"line":0,"is_transit":false,"transit":false,"station_name":"Daru","distance":2675}],[{"transit":false,"i_lat":-6.137569,"station_name":"Jakarta Kota","is_transit":true,"time":0,"i_long":106.812439,"line":0,"station_id":"JAKK","distance":0},{"distance":1264,"station_name":"Jayakarta","is_transit":false,"time":4,"transit":false,"i_lat":-6.141205,"line":7,"i_long":106.820901,"station_id":"JAY"},{"is_transit":false,"i_lat":-6.149769,"distance":1080,"station_id":"MGB","station_name":"Manggabesar","time":2,"transit":false,"i_long":106.82482,"line":2},{"is_transit":false,"i_long":106.827103,"line":2,"station_id":"SW","time":2,"transit":false,"distance":906,"i_lat":-6.160725,"station_name":"Sawah Besar"},{"is_transit":false,"i_lat":-6.166716,"line":2,"time":2,"transit":false,"station_id":"JUA","i_long":106.828284,"distance":1149,"station_name":"Juanda"},{"station_id":"GDD","transit":false,"time":4,"i_lat":-6.186295,"station_name":"Gondangdia","i_long":106.832183,"is_transit":false,"distance":2015,"line":2},{"time":3,"is_transit":false,"station_id":"CKI","station_name":"Cikini","i_lat":-6.198556,"transit":false,"i_long":106.840169,"distance":1750,"line":0},{"time":4,"i_long":106.84912,"station_name":"Manggarai","is_transit":true,"line":0,"distance":1590,"station_id":"MRI","transit":true,"i_lat":-6.209883},{"line":1,"station_id":"MTR","i_lat":-6.212485,"time":2,"is_transit":false,"i_long":106.858896,"transit":false,"station_name":"Matraman","distance":1275},{"station_name":"Jatinegara","time":8,"i_lat":-6.215091,"i_long":106.86807400000001,"is_transit":true,"transit":true,"distance":1377,"station_id":"JNG","line":0},{"station_name":"Pondok Jati","is_transit":false,"distance":1236,"time":2,"i_long":106.861737,"station_id":"POK","i_lat":-6.209188,"line":11,"transit":false},{"time":2,"station_id":"KMT","i_lat":-6.193792,"is_transit":false,"line":11,"station_name":"Kramat","transit":false,"distance":1829,"i_long":106.855437},{"distance":973,"i_lat":-6.185975,"is_transit":false,"station_id":"GST","transit":false,"time":1,"i_long":106.850107,"line":11,"station_name":"Gang Sentiong"},{"transit":false,"i_lat":-6.174784,"distance":1567,"i_long":106.84368,"time":8,"is_transit":false,"station_id":"PSE","line":11,"station_name":"Pasar Senen"},{"time":4,"distance":1436,"transit":false,"station_name":"Kemayoran","i_lat":-6.161728,"line":11,"i_long":106.839204,"is_transit":false,"station_id":"KMO"},{"i_long":106.836569,"is_transit":false,"station_id":"RJW","time":5,"i_lat":-6.14505,"line":11,"station_name":"Rajawali","distance":1901,"transit":false},{"time":3,"station_name":"Kampung Bandan","is_transit":true,"station_id":"KPB","distance":1444,"transit":true,"line":0,"i_long":106.826365,"i_lat":-6.132549},{"station_id":"AK","time":9,"is_transit":false,"i_lat":-6.144674,"i_long":106.79867,"distance":4102,"station_name":"Angke","line":0,"transit":false},{"line":1,"i_long":106.800832,"time":4,"station_name":"Duri","station_id":"DU","is_transit":true,"distance":1230,"transit":true,"i_lat":-6.155215},{"transit":true,"is_transit":true,"i_lat":-6.185545,"time":8,"distance":3632,"station_name":"Tanah Abang","station_id":"THB","line":1,"i_long":106.811091},{"time":6,"transit":false,"line":6,"station_name":"Palmerah","i_long":106.79689,"station_id":"PLM","is_transit":false,"i_lat":-6.207404,"distance":3191},{"distance":3737,"is_transit":false,"line":6,"station_id":"KBY","time":7,"i_lat":-6.237242,"station_name":"Kebayoran","transit":false,"i_long":106.780334},{"station_name":"Pondokranji","is_transit":false,"i_long":106.74273,"time":8,"station_id":"PDJ","distance":6218,"i_lat":-6.276362,"transit":false,"line":6},{"time":3,"i_lat":-6.288927,"transit":false,"line":6,"i_long":106.728916,"distance":2179,"station_id":"JMU","station_name":"Jurangmangu","is_transit":false},{"station_id":"SDM","station_name":"Sudimara","distance":1994,"i_long":106.712277,"transit":false,"time":4,"i_lat":-6.296963,"is_transit":false,"line":6},{"time":6,"i_long":106.675475,"transit":false,"distance":4566,"station_id":"RU","is_transit":false,"i_lat":-6.314823,"station_name":"Rawa Buntu","line":6},{"i_long":106.66566,"line":6,"station_name":"Serpong","is_transit":false,"transit":false,"distance":2413,"i_lat":-6.319871,"time":4,"station_id":"SRP"},{"distance":1784,"i_long":106.640411,"i_lat":-6.32484,"transit":false,"station_id":"CSK","line":0,"station_name":"Cisauk","is_transit":false,"time":4},{"transit":false,"line":0,"distance":2519,"station_id":"CC","time":4,"is_transit":false,"i_lat":-6.329547,"i_long":106.617853,"station_name":"Cicayur"},{"is_transit":false,"station_id":"PRP","station_name":"Parung Panjang","line":6,"time":8,"distance":5968,"transit":false,"i_long":106.568863,"i_lat":-6.3441410000000005},{"station_name":"Cilejit","is_transit":false,"transit":false,"distance":7025,"line":0,"time":9,"station_id":"CJT","i_lat":-6.354349,"i_long":106.508482},{"station_id":"DAR","is_transit":false,"line":0,"transit":false,"station_name":"Daru","i_lat":-6.338021,"distance":2675,"time":6,"i_long":106.491338}]]}