{"data":[[{"transit":false,"station_id":"JAKK","time":0,"station_name":"Jakarta Kota","distance":0,"line":2,"i_long":106.812439,"is_transit":false,"i_lat":-6.137569},{"transit":true,"i_lat":-6.132549,"station_id":"KPB","is_transit":true,"time":3,"station_name":"Kampung Bandan","distance":1364,"i_long":106.826365,"line":4},{"is_transit":false,"transit":false,"distance":4102,"line":1,"station_id":"AK","time":9,"station_name":"Angke","i_long":106.79867,"i_lat":-6.144674},{"i_lat":-6.155215,"distance":1230,"transit":true,"station_id":"DU","time":4,"line":1,"i_long":106.800832,"is_transit":true,"station_name":"Duri"},{"station_id":"GGL","distance":1700,"transit":false,"i_lat":-6.162021,"i_long":106.788277,"is_transit":false,"line":5,"time":3,"station_name":"Grogol"},{"time":2,"station_name":"Pesing","station_id":"PSG","distance":2036,"i_lat":-6.161433,"is_transit":false,"line":5,"i_long":106.771379,"transit":false},{"i_long":106.756522,"distance":1614,"station_name":"Taman Kota","station_id":"TKO","line":5,"i_lat":-6.1587309999999995,"transit":false,"time":2,"is_transit":false},{"line":5,"station_name":"Bojongindah","distance":2334,"is_transit":false,"i_lat":-6.159876,"time":2,"i_long":106.737035,"station_id":"BOI","transit":false},{"i_lat":-6.162758,"line":5,"time":4,"station_id":"RW","i_long":106.723064,"is_transit":false,"transit":false,"station_name":"Rawa Buaya","distance":1152},{"distance":2504,"is_transit":false,"station_name":"Kalideres","transit":false,"time":3,"i_long":106.701612,"station_id":"KDS","i_lat":-6.166068,"line":5},{"i_long":106.679458,"station_name":"Poris","station_id":"PI","line":5,"is_transit":false,"transit":false,"time":3,"distance":2548,"i_lat":-6.169933},{"station_id":"BPR","time":3,"line":5,"station_name":"Batuceper","is_transit":false,"i_long":106.665036,"transit":false,"distance":1834,"i_lat":-6.171811},{"station_name":"Tanah Tinggi","is_transit":false,"line":5,"distance":2028,"i_lat":-6.17331,"i_long":106.64657,"station_id":"TTI","time":3,"transit":false}],[{"i_lat":-6.137569,"i_long":106.812439,"station_id":"JAKK","is_transit":false,"line":2,"transit":false,"station_name":"Jakarta Kota","distance":0,"time":0},{"transit":false,"station_id":"JAY","is_transit":false,"distance":1264,"station_name":"Jayakarta","time":4,"i_lat":-6.141205,"i_long":106.820901,"line":2},{"is_transit":false,"time":2,"station_id":"MGB","line":2,"station_name":"Manggabesar","transit":false,"distance":1080,"i_lat":-6.149769,"i_long":106.82482},{"i_long":106.827103,"line":2,"station_name":"Sawah Besar","is_transit":false,"transit":false,"i_lat":-6.160725,"station_id":"SW","time":2,"distance":906},{"station_name":"Juanda","i_long":106.828284,"line":2,"station_id":"JUA","time":2,"distance":1149,"i_lat":-6.166716,"transit":false,"is_transit":false},{"i_long":106.832183,"line":2,"transit":false,"i_lat":-6.186295,"distance":2015,"station_name":"Gondangdia","time":4,"is_transit":false,"station_id":"GDD"},{"time":3,"i_lat":-6.198556,"station_name":"Cikini","is_transit":false,"transit":false,"i_long":106.840169,"line":2,"station_id":"CKI","distance":1750},{"is_transit":true,"i_lat":-6.209883,"time":4,"i_long":106.84912,"transit":true,"distance":1590,"station_name":"Manggarai","line":2,"station_id":"MRI"},{"transit":false,"station_id":"SUD","station_name":"Sudirman","line":1,"distance":3186,"time":4,"i_long":106.822649,"i_lat":-6.202263,"is_transit":false},{"time":1,"is_transit":false,"transit":false,"distance":280,"i_long":106.819881,"station_id":"SUDB","line":1,"station_name":"Sudirman Baru","i_lat":-6.201433},{"station_name":"Karet","line":1,"i_long":106.816351,"i_lat":-6.20132,"distance":471,"time":1,"is_transit":false,"transit":false,"station_id":"KAT"},{"is_transit":false,"transit":false,"station_id":"THB","time":5,"line":1,"distance":2029,"i_lat":-6.185545,"station_name":"Tanah Abang","i_long":106.811091},{"transit":true,"is_transit":true,"station_name":"Duri","i_long":106.800832,"i_lat":-6.155215,"line":1,"station_id":"DU","time":8,"distance":3632},{"distance":1700,"transit":false,"is_transit":false,"time":3,"i_long":106.788277,"station_id":"GGL","station_name":"Grogol","i_lat":-6.162021,"line":5},{"station_id":"PSG","time":2,"station_name":"Pesing","transit":false,"i_long":106.771379,"line":5,"i_lat":-6.161433,"is_transit":false,"distance":2036},{"i_lat":-6.1587309999999995,"transit":false,"time":2,"station_name":"Taman Kota","i_long":106.756522,"station_id":"TKO","line":5,"is_transit":false,"distance":1614},{"is_transit":false,"time":2,"station_name":"Bojongindah","distance":2334,"transit":false,"i_long":106.737035,"line":5,"station_id":"BOI","i_lat":-6.159876},{"is_transit":false,"distance":1152,"i_long":106.723064,"i_lat":-6.162758,"line":5,"station_name":"Rawa Buaya","station_id":"RW","time":4,"transit":false},{"i_lat":-6.166068,"station_name":"Kalideres","distance":2504,"station_id":"KDS","is_transit":false,"transit":false,"time":3,"i_long":106.701612,"line":5},{"i_lat":-6.169933,"station_id":"PI","transit":false,"time":3,"station_name":"Poris","line":5,"is_transit":false,"distance":2548,"i_long":106.679458},{"is_transit":false,"station_id":"BPR","distance":1834,"station_name":"Batuceper","i_long":106.665036,"time":3,"i_lat":-6.171811,"transit":false,"line":5},{"i_long":106.64657,"station_name":"Tanah Tinggi","station_id":"TTI","distance":2028,"transit":false,"line":5,"time":3,"i_lat":-6.17331,"is_transit":false}],[{"station_name":"Jakarta Kota","is_transit":false,"line":2,"i_long":106.812439,"i_lat":-6.137569,"time":0,"transit":false,"distance":0,"station_id":"JAKK"},{"transit":true,"is_transit":true,"time":3,"i_long":106.826365,"station_id":"KPB","line":4,"distance":1364,"station_name":"Kampung Bandan","i_lat":-6.132549},{"station_name":"Rajawali","transit":false,"i_lat":-6.14505,"is_transit":false,"line":11,"station_id":"RJW","time":3,"i_long":106.836569,"distance":1444},{"station_id":"KMO","transit":false,"i_lat":-6.161728,"line":11,"time":5,"station_name":"Kemayoran","distance":1901,"i_long":106.839204,"is_transit":false},{"transit":false,"time":4,"is_transit":false,"distance":1436,"line":11,"station_id":"PSE","station_name":"Pasar Senen","i_long":106.84368,"i_lat":-6.174784},{"distance":1567,"station_id":"GST","transit":false,"is_transit":false,"i_lat":-6.185975,"i_long":106.850107,"line":11,"time":8,"station_name":"Gang Sentiong"},{"transit":false,"distance":973,"i_long":106.855437,"station_name":"Kramat","time":1,"line":11,"i_lat":-6.193792,"station_id":"KMT","is_transit":false},{"station_name":"Pondok Jati","line":11,"transit":false,"distance":1829,"i_lat":-6.209188,"i_long":106.861737,"time":2,"station_id":"POK","is_transit":false},{"time":9,"i_lat":-6.215091,"i_long":106.86807400000001,"line":1,"station_id":"JNG","transit":true,"distance":1236,"is_transit":true,"station_name":"Jatinegara"},{"time":2,"station_name":"Matraman","distance":1377,"line":1,"i_lat":-6.212485,"station_id":"MTR","i_long":106.858896,"transit":false,"is_transit":false},{"transit":false,"station_id":"MRI","is_transit":false,"station_name":"Manggarai","distance":1275,"i_long":106.84912,"line":2,"time":2,"i_lat":-6.209883},{"is_transit":false,"i_lat":-6.202263,"station_id":"SUD","station_name":"Sudirman","distance":3186,"time":4,"transit":false,"i_long":106.822649,"line":1},{"is_transit":false,"transit":false,"station_name":"Sudirman Baru","i_lat":-6.201433,"i_long":106.819881,"distance":280,"time":1,"line":1,"station_id":"SUDB"},{"is_transit":false,"distance":471,"i_lat":-6.20132,"i_long":106.816351,"station_id":"KAT","station_name":"Karet","transit":false,"time":1,"line":1},{"i_long":106.811091,"i_lat":-6.185545,"station_id":"THB","station_name":"Tanah Abang","is_transit":false,"distance":2029,"line":1,"transit":false,"time":5},{"distance":3632,"time":8,"is_transit":true,"transit":true,"i_lat":-6.155215,"station_id":"DU","line":1,"i_long":106.800832,"station_name":"Duri"},{"station_name":"Grogol","time":3,"station_id":"GGL","transit":false,"is_transit":false,"i_lat":-6.162021,"line":5,"i_long":106.788277,"distance":1700},{"i_long":106.771379,"transit":false,"station_id":"PSG","distance":2036,"line":5,"time":2,"is_transit":false,"station_name":"Pesing","i_lat":-6.161433},{"line":5,"i_lat":-6.1587309999999995,"station_name":"Taman Kota","i_long":106.756522,"distance":1614,"station_id":"TKO","time":2,"transit":false,"is_transit":false},{"is_transit":false,"i_long":106.737035,"station_id":"BOI","line":5,"time":2,"station_name":"Bojongindah","transit":false,"distance":2334,"i_lat":-6.159876},{"is_transit":false,"time":4,"transit":false,"i_lat":-6.162758,"station_name":"Rawa Buaya","line":5,"station_id":"RW","distance":1152,"i_long":106.723064},{"is_transit":false,"transit":false,"i_long":106.701612,"line":5,"station_id":"KDS","time":3,"distance":2504,"i_lat":-6.166068,"station_name":"Kalideres"},{"station_id":"PI","station_name":"Poris","time":3,"i_lat":-6.169933,"is_transit":false,"distance":2548,"line":5,"transit":false,"i_long":106.679458},{"station_name":"Batuceper","distance":1834,"line":5,"time":3,"i_lat":-6.171811,"station_id":"BPR","transit":false,"i_long":106.665036,"is_transit":false},{"i_long":106.64657,"transit":false,"station_id":"TTI","i_lat":-6.17331,"station_name":"Tanah Tinggi","line":5,"distance":2028,"is_transit":false,"time":3}],[{"distance":0,"transit":false,"i_lat":-6.137569,"station_id":"JAKK","is_transit":false,"time":0,"station_name":"Jakarta Kota","line":2,"i_long":106.812439},{"is_transit":false,"i_long":106.820901,"time":4,"line":2,"transit":false,"station_id":"JAY","station_name":"Jayakarta","distance":1264,"i_lat":-6.141205},{"time":2,"distance":1080,"i_long":106.82482,"is_transit":false,"line":2,"station_id":"MGB","station_name":"Manggabesar","i_lat":-6.149769,"transit":false},{"line":2,"time":2,"station_id":"SW","is_transit":false,"station_name":"Sawah Besar","transit":false,"distance":906,"i_long":106.827103,"i_lat":-6.160725},{"i_long":106.828284,"line":2,"time":2,"transit":false,"is_transit":false,"station_id":"JUA","distance":1149,"i_lat":-6.166716,"station_name":"Juanda"},{"time":4,"distance":2015,"station_name":"Gondangdia","i_long":106.832183,"station_id":"GDD","i_lat":-6.186295,"transit":false,"is_transit":false,"line":2},{"transit":false,"is_transit":false,"station_id":"CKI","station_name":"Cikini","i_long":106.840169,"distance":1750,"i_lat":-6.198556,"line":2,"time":3},{"station_name":"Manggarai","i_long":106.84912,"station_id":"MRI","i_lat":-6.209883,"is_transit":true,"line":2,"transit":true,"time":4,"distance":1590},{"line":1,"is_transit":false,"time":2,"i_lat":-6.212485,"i_long":106.858896,"station_id":"MTR","station_name":"Matraman","distance":1275,"transit":false},{"station_id":"JNG","time":8,"transit":true,"i_long":106.86807400000001,"line":1,"is_transit":true,"station_name":"Jatinegara","distance":1377,"i_lat":-6.215091},{"distance":1236,"is_transit":false,"station_id":"POK","i_lat":-6.209188,"i_long":106.861737,"station_name":"Pondok Jati","time":2,"line":11,"transit":false},{"line":11,"is_transit":false,"transit":false,"i_lat":-6.193792,"distance":1829,"time":2,"station_name":"Kramat","i_long":106.855437,"station_id":"KMT"},{"station_id":"GST","time":1,"station_name":"Gang Sentiong","i_long":106.850107,"line":11,"is_transit":false,"distance":973,"i_lat":-6.185975,"transit":false},{"station_id":"PSE","station_name":"Pasar Senen","transit":false,"is_transit":false,"distance":1567,"i_lat":-6.174784,"line":11,"i_long":106.84368,"time":8},{"transit":false,"time":4,"station_name":"Kemayoran","distance":1436,"i_long":106.839204,"station_id":"KMO","is_transit":false,"i_lat":-6.161728,"line":11},{"station_id":"RJW","distance":1901,"i_lat":-6.14505,"transit":false,"is_transit":false,"line":11,"station_name":"Rajawali","time":5,"i_long":106.836569},{"line":4,"distance":1444,"time":3,"is_transit":true,"i_lat":-6.132549,"transit":true,"station_id":"KPB","station_name":"Kampung Bandan","i_long":106.826365},{"transit":false,"is_transit":false,"station_id":"AK","distance":4102,"line":1,"time":9,"station_name":"Angke","i_lat":-6.144674,"i_long":106.79867},{"time":4,"i_long":106.800832,"is_transit":true,"i_lat":-6.155215,"station_name":"Duri","station_id":"DU","line":1,"distance":1230,"transit":true},{"station_id":"GGL","i_lat":-6.162021,"time":3,"station_name":"Grogol","line":5,"transit":false,"i_long":106.788277,"is_transit":false,"distance":1700},{"i_long":106.771379,"i_lat":-6.161433,"is_transit":false,"station_name":"Pesing","station_id":"PSG","distance":2036,"transit":false,"time":2,"line":5},{"station_name":"Taman Kota","time":2,"station_id":"TKO","transit":false,"i_long":106.756522,"line":5,"is_transit":false,"distance":1614,"i_lat":-6.1587309999999995},{"transit":false,"station_name":"Bojongindah","i_lat":-6.159876,"station_id":"BOI","time":2,"i_long":106.737035,"is_transit":false,"distance":2334,"line":5},{"time":4,"station_id":"RW","is_transit":false,"transit":false,"station_name":"Rawa Buaya","i_lat":-6.162758,"i_long":106.723064,"distance":1152,"line":5},{"i_long":106.701612,"station_id":"KDS","transit":false,"station_name":"Kalideres","distance":2504,"time":3,"i_lat":-6.166068,"is_transit":false,"line":5},{"is_transit":false,"time":3,"transit":false,"station_id":"PI","line":5,"station_name":"Poris","i_long":106.679458,"distance":2548,"i_lat":-6.169933},{"transit":false,"i_long":106.665036,"i_lat":-6.171811,"station_id":"BPR","time":3,"is_transit":false,"station_name":"Batuceper","distance":1834,"line":5},{"time":3,"station_name":"Tanah Tinggi","transit":false,"distance":2028,"line":5,"is_transit":false,"i_lat":-6.17331,"station_id":"TTI","i_long":106.64657}]]}