{"data":[[{"is_transit":true,"transit":false,"station_id":"JAKK","distance":0,"line":0,"i_long":106.812439,"time":0,"station_name":"Jakarta Kota","i_lat":-6.137569},{"distance":1364,"is_transit":true,"station_name":"Kampung Bandan","station_id":"KPB","i_long":106.826365,"i_lat":-6.132549,"line":0,"transit":false,"time":3},{"line":0,"time":9,"distance":4102,"station_name":"Angke","transit":false,"i_lat":-6.144674,"is_transit":false,"station_id":"AK","i_long":106.79867},{"is_transit":true,"transit":true,"time":4,"i_long":106.800832,"line":1,"distance":1230,"station_id":"DU","i_lat":-6.155215,"station_name":"Duri"},{"time":8,"is_transit":true,"distance":3632,"i_lat":-6.185545,"i_long":106.811091,"station_name":"Tanah Abang","transit":true,"line":1,"station_id":"THB"},{"is_transit":false,"i_lat":-6.207404,"distance":3191,"time":6,"i_long":106.79689,"transit":false,"station_id":"PLM","station_name":"Palmerah","line":6},{"transit":false,"line":6,"is_transit":false,"i_long":106.780334,"station_id":"KBY","distance":3737,"i_lat":-6.237242,"time":7,"station_name":"Kebayoran"},{"i_long":106.74273,"station_id":"PDJ","station_name":"Pondokranji","distance":6218,"time":8,"line":6,"is_transit":false,"i_lat":-6.276362,"transit":false},{"station_name":"Jurangmangu","distance":2179,"station_id":"JMU","transit":false,"i_lat":-6.288927,"line":6,"is_transit":false,"time":3,"i_long":106.728916},{"i_long":106.712277,"i_lat":-6.296963,"station_name":"Sudimara","is_transit":false,"distance":1994,"line":6,"station_id":"SDM","time":4,"transit":false},{"transit":false,"i_long":106.675475,"line":6,"station_id":"RU","station_name":"Rawa Buntu","is_transit":false,"distance":4566,"i_lat":-6.314823,"time":6},{"i_long":106.66566,"station_id":"SRP","station_name":"Serpong","transit":false,"line":6,"is_transit":false,"time":4,"i_lat":-6.319871,"distance":2413},{"transit":false,"distance":1784,"line":0,"is_transit":false,"station_id":"CSK","i_lat":-6.32484,"i_long":106.640411,"station_name":"Cisauk","time":4},{"i_long":106.617853,"is_transit":false,"transit":false,"station_name":"Cicayur","distance":2519,"time":4,"station_id":"CC","i_lat":-6.329547,"line":0},{"station_name":"Parung Panjang","time":8,"station_id":"PRP","i_lat":-6.3441410000000005,"i_long":106.568863,"transit":false,"distance":5968,"line":6,"is_transit":false},{"station_name":"Cilejit","time":9,"i_lat":-6.354349,"i_long":106.508482,"station_id":"CJT","line":0,"is_transit":false,"distance":7025,"transit":false},{"i_long":106.491338,"line":0,"distance":2675,"station_id":"DAR","i_lat":-6.338021,"station_name":"Daru","is_transit":false,"transit":false,"time":6},{"is_transit":false,"station_id":"TEJ","i_long":106.460812,"time":5,"station_name":"Tenjo","i_lat":-6.327251,"transit":false,"distance":3902,"line":6},{"time":5,"transit":false,"distance":2974,"station_name":"Tigaraksa","line":6,"station_id":"TGS","is_transit":false,"i_lat":-6.328533,"i_long":106.425991}],[{"distance":0,"i_lat":-6.137569,"line":0,"time":0,"station_id":"JAKK","station_name":"Jakarta Kota","transit":false,"is_transit":true,"i_long":106.812439},{"time":4,"is_transit":false,"station_name":"Jayakarta","i_lat":-6.141205,"line":7,"station_id":"JAY","distance":1264,"transit":false,"i_long":106.820901},{"is_transit":false,"line":2,"i_long":106.82482,"time":2,"station_name":"Manggabesar","distance":1080,"transit":false,"i_lat":-6.149769,"station_id":"MGB"},{"transit":false,"i_lat":-6.160725,"line":2,"station_id":"SW","station_name":"Sawah Besar","is_transit":false,"distance":906,"i_long":106.827103,"time":2},{"station_name":"Juanda","i_long":106.828284,"line":2,"station_id":"JUA","is_transit":false,"time":2,"distance":1149,"i_lat":-6.166716,"transit":false},{"time":4,"station_name":"Gondangdia","station_id":"GDD","transit":false,"i_lat":-6.186295,"line":2,"i_long":106.832183,"is_transit":false,"distance":2015},{"time":3,"transit":false,"i_lat":-6.198556,"line":0,"station_id":"CKI","i_long":106.840169,"distance":1750,"is_transit":false,"station_name":"Cikini"},{"station_name":"Manggarai","station_id":"MRI","is_transit":true,"time":4,"i_long":106.84912,"i_lat":-6.209883,"transit":true,"distance":1590,"line":0},{"distance":3186,"i_lat":-6.202263,"time":4,"i_long":106.822649,"station_id":"SUD","transit":false,"line":1,"is_transit":false,"station_name":"Sudirman"},{"i_long":106.819881,"time":1,"transit":false,"is_transit":false,"distance":280,"line":1,"station_name":"Sudirman Baru","station_id":"SUDB","i_lat":-6.201433},{"distance":471,"station_id":"KAT","station_name":"Karet","transit":false,"is_transit":false,"i_long":106.816351,"line":1,"time":1,"i_lat":-6.20132},{"station_name":"Tanah Abang","station_id":"THB","time":5,"line":1,"i_lat":-6.185545,"is_transit":true,"transit":true,"i_long":106.811091,"distance":2029},{"distance":3191,"station_name":"Palmerah","transit":false,"i_lat":-6.207404,"station_id":"PLM","is_transit":false,"time":6,"line":6,"i_long":106.79689},{"is_transit":false,"station_id":"KBY","i_long":106.780334,"time":7,"transit":false,"station_name":"Kebayoran","distance":3737,"i_lat":-6.237242,"line":6},{"i_long":106.74273,"transit":false,"i_lat":-6.276362,"distance":6218,"line":6,"station_id":"PDJ","station_name":"Pondokranji","is_transit":false,"time":8},{"station_id":"JMU","distance":2179,"is_transit":false,"transit":false,"i_long":106.728916,"line":6,"station_name":"Jurangmangu","time":3,"i_lat":-6.288927},{"i_lat":-6.296963,"i_long":106.712277,"is_transit":false,"line":6,"time":4,"distance":1994,"station_id":"SDM","station_name":"Sudimara","transit":false},{"is_transit":false,"station_id":"RU","distance":4566,"station_name":"Rawa Buntu","time":6,"transit":false,"i_long":106.675475,"i_lat":-6.314823,"line":6},{"i_long":106.66566,"station_id":"SRP","station_name":"Serpong","is_transit":false,"i_lat":-6.319871,"distance":2413,"line":6,"time":4,"transit":false},{"is_transit":false,"distance":1784,"time":4,"station_name":"Cisauk","line":0,"transit":false,"i_lat":-6.32484,"station_id":"CSK","i_long":106.640411},{"is_transit":false,"transit":false,"time":4,"i_lat":-6.329547,"line":0,"i_long":106.617853,"distance":2519,"station_id":"CC","station_name":"Cicayur"},{"distance":5968,"is_transit":false,"station_name":"Parung Panjang","i_lat":-6.3441410000000005,"i_long":106.568863,"line":6,"transit":false,"station_id":"PRP","time":8},{"station_name":"Cilejit","transit":false,"time":9,"distance":7025,"line":0,"i_lat":-6.354349,"i_long":106.508482,"station_id":"CJT","is_transit":false},{"i_long":106.491338,"time":6,"station_name":"Daru","is_transit":false,"station_id":"DAR","i_lat":-6.338021,"transit":false,"line":0,"distance":2675},{"is_transit":false,"distance":3902,"station_name":"Tenjo","i_long":106.460812,"time":5,"line":6,"i_lat":-6.327251,"transit":false,"station_id":"TEJ"},{"is_transit":false,"i_long":106.425991,"station_id":"TGS","time":5,"i_lat":-6.328533,"line":6,"transit":false,"distance":2974,"station_name":"Tigaraksa"}],[{"is_transit":true,"time":0,"distance":0,"station_name":"Jakarta Kota","i_lat":-6.137569,"transit":false,"station_id":"JAKK","i_long":106.812439,"line":0},{"station_id":"KPB","time":3,"is_transit":true,"distance":1364,"i_long":106.826365,"station_name":"Kampung Bandan","transit":true,"i_lat":-6.132549,"line":0},{"is_transit":false,"station_id":"RJW","time":3,"transit":false,"line":11,"i_lat":-6.14505,"station_name":"Rajawali","distance":1444,"i_long":106.836569},{"distance":1901,"i_lat":-6.161728,"transit":false,"time":5,"is_transit":false,"station_name":"Kemayoran","i_long":106.839204,"line":11,"station_id":"KMO"},{"i_lat":-6.174784,"line":11,"is_transit":false,"station_id":"PSE","time":4,"i_long":106.84368,"station_name":"Pasar Senen","transit":false,"distance":1436},{"is_transit":false,"distance":1567,"i_long":106.850107,"i_lat":-6.185975,"station_name":"Gang Sentiong","transit":false,"line":11,"station_id":"GST","time":8},{"station_id":"KMT","distance":973,"i_lat":-6.193792,"line":11,"station_name":"Kramat","i_long":106.855437,"is_transit":false,"time":1,"transit":false},{"station_name":"Pondok Jati","i_long":106.861737,"station_id":"POK","is_transit":false,"line":11,"distance":1829,"time":2,"i_lat":-6.209188,"transit":false},{"time":9,"is_transit":true,"distance":1236,"i_lat":-6.215091,"i_long":106.86807400000001,"transit":true,"line":0,"station_name":"Jatinegara","station_id":"JNG"},{"line":1,"station_name":"Matraman","time":2,"distance":1377,"transit":false,"is_transit":false,"station_id":"MTR","i_lat":-6.212485,"i_long":106.858896},{"station_id":"MRI","time":2,"line":0,"station_name":"Manggarai","is_transit":true,"i_long":106.84912,"transit":false,"distance":1275,"i_lat":-6.209883},{"distance":3186,"is_transit":false,"station_name":"Sudirman","station_id":"SUD","line":1,"i_lat":-6.202263,"transit":false,"time":4,"i_long":106.822649},{"station_id":"SUDB","i_long":106.819881,"i_lat":-6.201433,"transit":false,"time":1,"is_transit":false,"station_name":"Sudirman Baru","line":1,"distance":280},{"station_name":"Karet","i_lat":-6.20132,"distance":471,"i_long":106.816351,"transit":false,"station_id":"KAT","time":1,"line":1,"is_transit":false},{"station_id":"THB","time":5,"transit":true,"is_transit":true,"i_long":106.811091,"distance":2029,"i_lat":-6.185545,"line":1,"station_name":"Tanah Abang"},{"i_lat":-6.207404,"station_id":"PLM","station_name":"Palmerah","i_long":106.79689,"line":6,"transit":false,"time":6,"distance":3191,"is_transit":false},{"i_long":106.780334,"time":7,"line":6,"distance":3737,"is_transit":false,"station_name":"Kebayoran","i_lat":-6.237242,"transit":false,"station_id":"KBY"},{"is_transit":false,"i_long":106.74273,"time":8,"i_lat":-6.276362,"distance":6218,"line":6,"station_name":"Pondokranji","station_id":"PDJ","transit":false},{"station_name":"Jurangmangu","i_lat":-6.288927,"transit":false,"station_id":"JMU","is_transit":false,"line":6,"time":3,"distance":2179,"i_long":106.728916},{"station_name":"Sudimara","i_lat":-6.296963,"station_id":"SDM","time":4,"transit":false,"i_long":106.712277,"line":6,"is_transit":false,"distance":1994},{"i_long":106.675475,"distance":4566,"line":6,"station_name":"Rawa Buntu","is_transit":false,"station_id":"RU","transit":false,"time":6,"i_lat":-6.314823},{"station_id":"SRP","distance":2413,"line":6,"i_long":106.66566,"is_transit":false,"station_name":"Serpong","i_lat":-6.319871,"transit":false,"time":4},{"line":0,"station_id":"CSK","station_name":"Cisauk","transit":false,"i_lat":-6.32484,"i_long":106.640411,"time":4,"is_transit":false,"distance":1784},{"is_transit":false,"transit":false,"i_long":106.617853,"time":4,"line":0,"station_name":"Cicayur","i_lat":-6.329547,"distance":2519,"station_id":"CC"},{"i_lat":-6.3441410000000005,"station_id":"PRP","distance":5968,"i_long":106.568863,"line":6,"time":8,"station_name":"Parung Panjang","is_transit":false,"transit":false},{"line":0,"time":9,"transit":false,"i_long":106.508482,"station_id":"CJT","distance":7025,"i_lat":-6.354349,"is_transit":false,"station_name":"Cilejit"},{"transit":false,"is_transit":false,"station_id":"DAR","i_lat":-6.338021,"i_long":106.491338,"line":0,"time":6,"distance":2675,"station_name":"Daru"},{"station_id":"TEJ","distance":3902,"station_name":"Tenjo","is_transit":false,"transit":false,"time":5,"i_lat":-6.327251,"i_long":106.460812,"line":6},{"time":5,"transit":false,"station_name":"Tigaraksa","line":6,"is_transit":false,"station_id":"TGS","distance":2974,"i_long":106.425991,"i_lat":-6.328533}],[{"is_transit":true,"station_name":"Jakarta Kota","transit":false,"i_lat":-6.137569,"i_long":106.812439,"distance":0,"line":0,"station_id":"JAKK","time":0},{"distance":1264,"station_id":"JAY","i_long":106.820901,"transit":false,"time":4,"station_name":"Jayakarta","is_transit":false,"line":7,"i_lat":-6.141205},{"station_id":"MGB","i_lat":-6.149769,"time":2,"line":2,"distance":1080,"is_transit":false,"i_long":106.82482,"station_name":"Manggabesar","transit":false},{"time":2,"distance":906,"station_name":"Sawah Besar","station_id":"SW","transit":false,"line":2,"i_lat":-6.160725,"i_long":106.827103,"is_transit":false},{"time":2,"station_name":"Juanda","station_id":"JUA","i_long":106.828284,"is_transit":false,"i_lat":-6.166716,"line":2,"distance":1149,"transit":false},{"transit":false,"station_name":"Gondangdia","i_lat":-6.186295,"is_transit":false,"time":4,"station_id":"GDD","distance":2015,"i_long":106.832183,"line":2},{"line":0,"distance":1750,"station_name":"Cikini","is_transit":false,"station_id":"CKI","i_lat":-6.198556,"transit":false,"i_long":106.840169,"time":3},{"transit":true,"is_transit":true,"station_id":"MRI","distance":1590,"station_name":"Manggarai","i_long":106.84912,"time":4,"i_lat":-6.209883,"line":0},{"i_long":106.858896,"transit":false,"line":1,"i_lat":-6.212485,"station_id":"MTR","is_transit":false,"time":2,"distance":1275,"station_name":"Matraman"},{"time":8,"station_id":"JNG","transit":true,"distance":1377,"i_lat":-6.215091,"i_long":106.86807400000001,"station_name":"Jatinegara","line":0,"is_transit":true},{"station_id":"POK","distance":1236,"time":2,"i_lat":-6.209188,"line":11,"transit":false,"i_long":106.861737,"is_transit":false,"station_name":"Pondok Jati"},{"station_id":"KMT","i_lat":-6.193792,"line":11,"station_name":"Kramat","distance":1829,"i_long":106.855437,"is_transit":false,"time":2,"transit":false},{"station_id":"GST","time":1,"station_name":"Gang Sentiong","transit":false,"distance":973,"i_lat":-6.185975,"line":11,"i_long":106.850107,"is_transit":false},{"i_lat":-6.174784,"time":8,"i_long":106.84368,"line":11,"station_id":"PSE","distance":1567,"station_name":"Pasar Senen","is_transit":false,"transit":false},{"is_transit":false,"distance":1436,"i_lat":-6.161728,"i_long":106.839204,"line":11,"station_name":"Kemayoran","time":4,"station_id":"KMO","transit":false},{"i_lat":-6.14505,"transit":false,"i_long":106.836569,"station_id":"RJW","station_name":"Rajawali","line":11,"is_transit":false,"time":5,"distance":1901},{"station_name":"Kampung Bandan","line":0,"time":3,"i_lat":-6.132549,"transit":true,"station_id":"KPB","is_transit":true,"distance":1444,"i_long":106.826365},{"station_id":"AK","distance":4102,"transit":false,"i_lat":-6.144674,"is_transit":false,"i_long":106.79867,"time":9,"station_name":"Angke","line":0},{"line":1,"is_transit":true,"time":4,"i_long":106.800832,"transit":true,"station_name":"Duri","station_id":"DU","distance":1230,"i_lat":-6.155215},{"is_transit":true,"distance":3632,"station_id":"THB","transit":true,"i_lat":-6.185545,"line":1,"time":8,"station_name":"Tanah Abang","i_long":106.811091},{"i_lat":-6.207404,"is_transit":false,"time":6,"station_name":"Palmerah","station_id":"PLM","i_long":106.79689,"line":6,"distance":3191,"transit":false},{"i_lat":-6.237242,"time":7,"transit":false,"distance":3737,"station_id":"KBY","station_name":"Kebayoran","is_transit":false,"i_long":106.780334,"line":6},{"i_lat":-6.276362,"is_transit":false,"station_id":"PDJ","station_name":"Pondokranji","transit":false,"distance":6218,"line":6,"time":8,"i_long":106.74273},{"is_transit":false,"distance":2179,"i_lat":-6.288927,"transit":false,"line":6,"station_id":"JMU","station_name":"Jurangmangu","i_long":106.728916,"time":3},{"station_name":"Sudimara","line":6,"transit":false,"i_long":106.712277,"i_lat":-6.296963,"time":4,"is_transit":false,"station_id":"SDM","distance":1994},{"line":6,"time":6,"station_name":"Rawa Buntu","station_id":"RU","is_transit":false,"i_long":106.675475,"transit":false,"distance":4566,"i_lat":-6.314823},{"station_name":"Serpong","distance":2413,"i_long":106.66566,"transit":false,"station_id":"SRP","i_lat":-6.319871,"time":4,"is_transit":false,"line":6},{"station_name":"Cisauk","i_long":106.640411,"distance":1784,"time":4,"i_lat":-6.32484,"line":0,"station_id":"CSK","transit":false,"is_transit":false},{"distance":2519,"line":0,"station_name":"Cicayur","time":4,"is_transit":false,"i_lat":-6.329547,"station_id":"CC","transit":false,"i_long":106.617853},{"station_id":"PRP","line":6,"transit":false,"i_lat":-6.3441410000000005,"time":8,"is_transit":false,"distance":5968,"i_long":106.568863,"station_name":"Parung Panjang"},{"is_transit":false,"station_id":"CJT","line":0,"transit":false,"i_lat":-6.354349,"station_name":"Cilejit","i_long":106.508482,"distance":7025,"time":9},{"is_transit":false,"time":6,"i_lat":-6.338021,"station_id":"DAR","distance":2675,"station_name":"Daru","transit":false,"i_long":106.491338,"line":0},{"i_lat":-6.327251,"station_name":"Tenjo","time":5,"i_long":106.460812,"transit":false,"station_id":"TEJ","distance":3902,"line":6,"is_transit":false},{"i_long":106.425991,"transit":false,"distance":2974,"station_id":"TGS","station_name":"Tigaraksa","time":5,"line":6,"is_transit":false,"i_lat":-6.328533}]]}