{"data":[[{"i_long":106.812439,"station_id":"JAKK","station_name":"Jakarta Kota","i_lat":-6.137569,"line":2,"is_transit":false,"transit":false,"time":0,"distance":0},{"station_name":"Kampung Bandan","i_lat":-6.132549,"distance":1364,"time":3,"is_transit":true,"station_id":"KPB","line":4,"transit":true,"i_long":106.826365},{"transit":false,"i_long":106.79867,"station_name":"Angke","distance":4102,"i_lat":-6.144674,"line":1,"station_id":"AK","time":9,"is_transit":false},{"i_lat":-6.155215,"line":1,"distance":1230,"is_transit":false,"station_name":"Duri","transit":false,"i_long":106.800832,"time":4,"station_id":"DU"},{"station_id":"THB","station_name":"Tanah Abang","i_long":106.811091,"line":1,"time":8,"distance":3632,"transit":true,"is_transit":true,"i_lat":-6.185545},{"is_transit":false,"station_name":"Palmerah","station_id":"PLM","i_lat":-6.207404,"distance":3191,"i_long":106.79689,"line":6,"transit":false,"time":6},{"transit":false,"i_lat":-6.237242,"distance":3737,"is_transit":false,"station_id":"KBY","i_long":106.780334,"line":6,"station_name":"Kebayoran","time":7},{"time":8,"i_lat":-6.276362,"line":6,"transit":false,"is_transit":false,"i_long":106.74273,"station_id":"PDJ","distance":6218,"station_name":"Pondokranji"},{"is_transit":false,"time":3,"i_lat":-6.288927,"i_long":106.728916,"line":6,"transit":false,"distance":2179,"station_name":"Jurangmangu","station_id":"JMU"},{"transit":false,"station_id":"SDM","distance":1994,"i_long":106.712277,"time":4,"station_name":"Sudimara","line":6,"is_transit":false,"i_lat":-6.296963},{"distance":4566,"station_name":"Rawa Buntu","time":6,"i_long":106.675475,"station_id":"RU","is_transit":false,"transit":false,"line":6,"i_lat":-6.314823},{"time":4,"i_lat":-6.319871,"i_long":106.66566,"is_transit":false,"line":6,"station_name":"Serpong","transit":false,"distance":2413,"station_id":"SRP"},{"time":4,"line":3,"is_transit":false,"i_long":106.640411,"station_id":"CSK","i_lat":-6.32484,"distance":1784,"transit":false,"station_name":"Cisauk"},{"station_name":"Cicayur","i_lat":-6.329547,"is_transit":false,"distance":2519,"station_id":"CC","i_long":106.617853,"transit":false,"time":4,"line":3},{"time":8,"station_name":"Parung Panjang","line":6,"distance":5968,"i_lat":-6.3441410000000005,"transit":false,"station_id":"PRP","is_transit":false,"i_long":106.568863},{"time":9,"station_id":"CJT","i_lat":-6.354349,"station_name":"Cilejit","distance":7025,"is_transit":false,"i_long":106.508482,"transit":false,"line":3},{"distance":2675,"i_lat":-6.338021,"transit":false,"is_transit":false,"time":6,"station_name":"Daru","i_long":106.491338,"station_id":"DAR","line":0}],[{"i_lat":-6.137569,"transit":false,"i_long":106.812439,"station_id":"JAKK","station_name":"Jakarta Kota","is_transit":false,"distance":0,"line":2,"time":0},{"i_long":106.820901,"is_transit":false,"station_name":"Jayakarta","transit":false,"distance":1264,"station_id":"JAY","i_lat":-6.141205,"line":2,"time":4},{"i_lat":-6.149769,"distance":1080,"is_transit":false,"line":2,"station_name":"Manggabesar","i_long":106.82482,"station_id":"MGB","time":2,"transit":false},{"i_long":106.827103,"line":2,"i_lat":-6.160725,"station_name":"Sawah Besar","is_transit":false,"distance":906,"time":2,"station_id":"SW","transit":false},{"distance":1149,"station_name":"Juanda","line":2,"i_long":106.828284,"is_transit":false,"i_lat":-6.166716,"station_id":"JUA","transit":false,"time":2},{"transit":false,"station_id":"GDD","time":4,"distance":2015,"i_lat":-6.186295,"i_long":106.832183,"line":2,"station_name":"Gondangdia","is_transit":false},{"is_transit":false,"distance":1750,"transit":false,"line":2,"i_lat":-6.198556,"i_long":106.840169,"station_name":"Cikini","time":3,"station_id":"CKI"},{"i_lat":-6.209883,"station_id":"MRI","station_name":"Manggarai","distance":1590,"i_long":106.84912,"is_transit":true,"line":2,"time":4,"transit":true},{"transit":false,"distance":3186,"time":4,"is_transit":false,"i_lat":-6.202263,"i_long":106.822649,"line":1,"station_id":"SUD","station_name":"Sudirman"},{"i_long":106.819881,"is_transit":false,"station_id":"SUDB","i_lat":-6.201433,"transit":false,"time":1,"line":1,"distance":280,"station_name":"Sudirman Baru"},{"line":1,"distance":471,"station_id":"KAT","i_lat":-6.20132,"transit":false,"time":1,"i_long":106.816351,"station_name":"Karet","is_transit":false},{"i_lat":-6.185545,"line":1,"station_name":"Tanah Abang","is_transit":true,"distance":2029,"time":5,"i_long":106.811091,"transit":true,"station_id":"THB"},{"station_name":"Palmerah","time":6,"distance":3191,"i_lat":-6.207404,"transit":false,"station_id":"PLM","i_long":106.79689,"is_transit":false,"line":6},{"time":7,"transit":false,"station_name":"Kebayoran","line":6,"i_long":106.780334,"distance":3737,"is_transit":false,"station_id":"KBY","i_lat":-6.237242},{"station_name":"Pondokranji","station_id":"PDJ","distance":6218,"line":6,"i_long":106.74273,"is_transit":false,"transit":false,"i_lat":-6.276362,"time":8},{"transit":false,"time":3,"is_transit":false,"i_lat":-6.288927,"distance":2179,"station_name":"Jurangmangu","station_id":"JMU","i_long":106.728916,"line":6},{"transit":false,"station_id":"SDM","time":4,"distance":1994,"is_transit":false,"i_lat":-6.296963,"i_long":106.712277,"line":6,"station_name":"Sudimara"},{"station_id":"RU","i_lat":-6.314823,"line":6,"distance":4566,"i_long":106.675475,"station_name":"Rawa Buntu","transit":false,"time":6,"is_transit":false},{"i_lat":-6.319871,"station_name":"Serpong","distance":2413,"is_transit":false,"time":4,"transit":false,"line":6,"station_id":"SRP","i_long":106.66566},{"time":4,"line":3,"i_lat":-6.32484,"station_name":"Cisauk","distance":1784,"station_id":"CSK","i_long":106.640411,"transit":false,"is_transit":false},{"distance":2519,"station_name":"Cicayur","is_transit":false,"i_lat":-6.329547,"time":4,"station_id":"CC","i_long":106.617853,"line":3,"transit":false},{"line":6,"station_id":"PRP","station_name":"Parung Panjang","transit":false,"distance":5968,"is_transit":false,"time":8,"i_lat":-6.3441410000000005,"i_long":106.568863},{"time":9,"station_id":"CJT","i_lat":-6.354349,"station_name":"Cilejit","distance":7025,"line":3,"transit":false,"i_long":106.508482,"is_transit":false},{"time":6,"station_id":"DAR","i_lat":-6.338021,"is_transit":false,"i_long":106.491338,"line":0,"distance":2675,"transit":false,"station_name":"Daru"}],[{"line":2,"station_id":"JAKK","station_name":"Jakarta Kota","transit":false,"i_lat":-6.137569,"i_long":106.812439,"distance":0,"is_transit":false,"time":0},{"station_name":"Kampung Bandan","is_transit":true,"transit":true,"station_id":"KPB","line":4,"time":3,"distance":1364,"i_lat":-6.132549,"i_long":106.826365},{"transit":false,"i_lat":-6.14505,"i_long":106.836569,"line":11,"distance":1444,"station_name":"Rajawali","is_transit":false,"time":3,"station_id":"RJW"},{"is_transit":false,"distance":1901,"time":5,"station_name":"Kemayoran","line":11,"transit":false,"station_id":"KMO","i_long":106.839204,"i_lat":-6.161728},{"station_name":"Pasar Senen","station_id":"PSE","distance":1436,"transit":false,"is_transit":false,"i_lat":-6.174784,"time":4,"i_long":106.84368,"line":11},{"i_lat":-6.185975,"i_long":106.850107,"time":8,"station_name":"Gang Sentiong","line":11,"station_id":"GST","distance":1567,"is_transit":false,"transit":false},{"is_transit":false,"i_lat":-6.193792,"station_name":"Kramat","time":1,"transit":false,"station_id":"KMT","i_long":106.855437,"line":11,"distance":973},{"line":11,"station_id":"POK","i_lat":-6.209188,"is_transit":false,"transit":false,"distance":1829,"time":2,"station_name":"Pondok Jati","i_long":106.861737},{"station_name":"Jatinegara","transit":true,"distance":1236,"time":9,"station_id":"JNG","i_long":106.86807400000001,"line":1,"is_transit":true,"i_lat":-6.215091},{"distance":1377,"station_id":"MTR","transit":false,"time":2,"i_lat":-6.212485,"i_long":106.858896,"is_transit":false,"station_name":"Matraman","line":1},{"is_transit":false,"time":2,"station_name":"Manggarai","transit":false,"line":2,"station_id":"MRI","i_lat":-6.209883,"i_long":106.84912,"distance":1275},{"transit":false,"distance":3186,"i_lat":-6.202263,"time":4,"station_id":"SUD","station_name":"Sudirman","i_long":106.822649,"line":1,"is_transit":false},{"transit":false,"distance":280,"is_transit":false,"station_name":"Sudirman Baru","i_long":106.819881,"time":1,"i_lat":-6.201433,"line":1,"station_id":"SUDB"},{"station_name":"Karet","line":1,"is_transit":false,"transit":false,"time":1,"i_long":106.816351,"distance":471,"station_id":"KAT","i_lat":-6.20132},{"station_id":"THB","i_long":106.811091,"time":5,"line":1,"transit":true,"station_name":"Tanah Abang","distance":2029,"i_lat":-6.185545,"is_transit":true},{"line":6,"transit":false,"station_name":"Palmerah","station_id":"PLM","time":6,"is_transit":false,"distance":3191,"i_lat":-6.207404,"i_long":106.79689},{"is_transit":false,"time":7,"i_lat":-6.237242,"station_name":"Kebayoran","station_id":"KBY","distance":3737,"i_long":106.780334,"line":6,"transit":false},{"is_transit":false,"time":8,"i_long":106.74273,"distance":6218,"transit":false,"station_id":"PDJ","line":6,"i_lat":-6.276362,"station_name":"Pondokranji"},{"transit":false,"station_id":"JMU","i_lat":-6.288927,"line":6,"distance":2179,"station_name":"Jurangmangu","time":3,"i_long":106.728916,"is_transit":false},{"transit":false,"i_long":106.712277,"station_id":"SDM","is_transit":false,"line":6,"station_name":"Sudimara","i_lat":-6.296963,"distance":1994,"time":4},{"i_lat":-6.314823,"station_name":"Rawa Buntu","time":6,"transit":false,"is_transit":false,"station_id":"RU","line":6,"distance":4566,"i_long":106.675475},{"line":6,"transit":false,"station_id":"SRP","is_transit":false,"time":4,"i_long":106.66566,"i_lat":-6.319871,"distance":2413,"station_name":"Serpong"},{"station_name":"Cisauk","transit":false,"i_lat":-6.32484,"distance":1784,"time":4,"i_long":106.640411,"line":3,"is_transit":false,"station_id":"CSK"},{"station_name":"Cicayur","i_lat":-6.329547,"time":4,"i_long":106.617853,"station_id":"CC","line":3,"distance":2519,"transit":false,"is_transit":false},{"distance":5968,"time":8,"line":6,"station_name":"Parung Panjang","is_transit":false,"i_lat":-6.3441410000000005,"transit":false,"i_long":106.568863,"station_id":"PRP"},{"station_id":"CJT","i_lat":-6.354349,"transit":false,"time":9,"i_long":106.508482,"is_transit":false,"line":3,"distance":7025,"station_name":"Cilejit"},{"i_lat":-6.338021,"station_name":"Daru","distance":2675,"time":6,"i_long":106.491338,"line":0,"station_id":"DAR","is_transit":false,"transit":false}],[{"is_transit":false,"time":0,"station_name":"Jakarta Kota","i_long":106.812439,"distance":0,"line":2,"i_lat":-6.137569,"station_id":"JAKK","transit":false},{"line":2,"i_lat":-6.141205,"distance":1264,"is_transit":false,"transit":false,"station_id":"JAY","station_name":"Jayakarta","i_long":106.820901,"time":4},{"is_transit":false,"time":2,"i_long":106.82482,"line":2,"i_lat":-6.149769,"station_name":"Manggabesar","transit":false,"distance":1080,"station_id":"MGB"},{"line":2,"transit":false,"i_lat":-6.160725,"station_id":"SW","station_name":"Sawah Besar","distance":906,"time":2,"is_transit":false,"i_long":106.827103},{"station_id":"JUA","i_lat":-6.166716,"i_long":106.828284,"line":2,"distance":1149,"time":2,"is_transit":false,"station_name":"Juanda","transit":false},{"station_name":"Gondangdia","is_transit":false,"distance":2015,"transit":false,"station_id":"GDD","i_lat":-6.186295,"i_long":106.832183,"time":4,"line":2},{"time":3,"station_id":"CKI","i_long":106.840169,"line":2,"transit":false,"distance":1750,"i_lat":-6.198556,"station_name":"Cikini","is_transit":false},{"distance":1590,"i_lat":-6.209883,"i_long":106.84912,"transit":true,"station_id":"MRI","is_transit":true,"station_name":"Manggarai","time":4,"line":2},{"i_long":106.858896,"time":2,"transit":false,"distance":1275,"station_id":"MTR","i_lat":-6.212485,"is_transit":false,"station_name":"Matraman","line":1},{"is_transit":true,"station_name":"Jatinegara","station_id":"JNG","transit":true,"distance":1377,"i_lat":-6.215091,"i_long":106.86807400000001,"line":1,"time":8},{"is_transit":false,"i_lat":-6.209188,"i_long":106.861737,"transit":false,"station_name":"Pondok Jati","station_id":"POK","line":11,"distance":1236,"time":2},{"distance":1829,"transit":false,"line":11,"time":2,"is_transit":false,"station_id":"KMT","i_lat":-6.193792,"i_long":106.855437,"station_name":"Kramat"},{"transit":false,"line":11,"i_lat":-6.185975,"station_id":"GST","distance":973,"i_long":106.850107,"is_transit":false,"time":1,"station_name":"Gang Sentiong"},{"i_long":106.84368,"station_name":"Pasar Senen","is_transit":false,"transit":false,"time":8,"station_id":"PSE","distance":1567,"i_lat":-6.174784,"line":11},{"distance":1436,"station_name":"Kemayoran","station_id":"KMO","i_long":106.839204,"is_transit":false,"i_lat":-6.161728,"line":11,"time":4,"transit":false},{"is_transit":false,"distance":1901,"i_long":106.836569,"i_lat":-6.14505,"station_id":"RJW","line":11,"station_name":"Rajawali","time":5,"transit":false},{"line":4,"is_transit":true,"i_lat":-6.132549,"time":3,"transit":true,"i_long":106.826365,"distance":1444,"station_name":"Kampung Bandan","station_id":"KPB"},{"transit":false,"station_id":"AK","line":1,"i_lat":-6.144674,"i_long":106.79867,"time":9,"distance":4102,"station_name":"Angke","is_transit":false},{"i_lat":-6.155215,"transit":false,"line":1,"distance":1230,"is_transit":false,"station_id":"DU","time":4,"i_long":106.800832,"station_name":"Duri"},{"distance":3632,"i_lat":-6.185545,"i_long":106.811091,"station_id":"THB","is_transit":true,"time":8,"transit":true,"line":1,"station_name":"Tanah Abang"},{"station_name":"Palmerah","time":6,"is_transit":false,"line":6,"station_id":"PLM","distance":3191,"i_long":106.79689,"i_lat":-6.207404,"transit":false},{"transit":false,"distance":3737,"i_long":106.780334,"line":6,"station_name":"Kebayoran","is_transit":false,"time":7,"station_id":"KBY","i_lat":-6.237242},{"is_transit":false,"time":8,"line":6,"station_name":"Pondokranji","transit":false,"distance":6218,"i_lat":-6.276362,"station_id":"PDJ","i_long":106.74273},{"station_name":"Jurangmangu","transit":false,"i_long":106.728916,"distance":2179,"time":3,"station_id":"JMU","line":6,"is_transit":false,"i_lat":-6.288927},{"i_lat":-6.296963,"line":6,"station_id":"SDM","time":4,"station_name":"Sudimara","is_transit":false,"transit":false,"i_long":106.712277,"distance":1994},{"line":6,"distance":4566,"station_name":"Rawa Buntu","transit":false,"is_transit":false,"i_lat":-6.314823,"time":6,"station_id":"RU","i_long":106.675475},{"is_transit":false,"station_name":"Serpong","distance":2413,"transit":false,"line":6,"time":4,"i_lat":-6.319871,"station_id":"SRP","i_long":106.66566},{"line":3,"is_transit":false,"i_lat":-6.32484,"station_name":"Cisauk","transit":false,"distance":1784,"time":4,"i_long":106.640411,"station_id":"CSK"},{"i_long":106.617853,"is_transit":false,"i_lat":-6.329547,"transit":false,"station_id":"CC","distance":2519,"line":3,"station_name":"Cicayur","time":4},{"time":8,"i_long":106.568863,"distance":5968,"i_lat":-6.3441410000000005,"is_transit":false,"line":6,"station_name":"Parung Panjang","station_id":"PRP","transit":false},{"station_name":"Cilejit","i_lat":-6.354349,"is_transit":false,"time":9,"transit":false,"line":3,"station_id":"CJT","i_long":106.508482,"distance":7025},{"is_transit":false,"i_lat":-6.338021,"station_name":"Daru","line":0,"distance":2675,"time":6,"transit":false,"station_id":"DAR","i_long":106.491338}]]}