{"data":[[{"i_long":106.812439,"line":2,"time":0,"i_lat":-6.137569,"is_transit":false,"station_name":"Jakarta Kota","transit":false,"distance":0,"station_id":"JAKK"},{"station_id":"JAY","transit":false,"i_long":106.820901,"station_name":"Jayakarta","is_transit":false,"distance":1264,"line":2,"time":4,"i_lat":-6.141205},{"is_transit":false,"time":2,"station_name":"Manggabesar","i_lat":-6.149769,"i_long":106.82482,"distance":1080,"line":2,"station_id":"MGB","transit":false},{"i_lat":-6.160725,"line":2,"time":2,"station_name":"Sawah Besar","i_long":106.827103,"transit":false,"station_id":"SW","is_transit":false,"distance":906}],[{"station_id":"JAKK","time":0,"line":2,"i_lat":-6.137569,"distance":0,"transit":false,"is_transit":false,"station_name":"Jakarta Kota","i_long":106.812439},{"distance":1364,"station_id":"KPB","time":3,"i_lat":-6.132549,"i_long":106.826365,"station_name":"Kampung Bandan","line":4,"is_transit":true,"transit":true},{"is_transit":false,"distance":4102,"station_name":"Angke","station_id":"AK","i_long":106.79867,"time":9,"transit":false,"i_lat":-6.144674,"line":1},{"transit":false,"time":4,"is_transit":false,"i_lat":-6.155215,"distance":1230,"i_long":106.800832,"line":1,"station_id":"DU","station_name":"Duri"},{"time":8,"i_lat":-6.185545,"distance":3632,"transit":false,"i_long":106.811091,"line":1,"station_id":"THB","station_name":"Tanah Abang","is_transit":false},{"distance":2029,"transit":false,"i_lat":-6.20132,"station_id":"KAT","station_name":"Karet","is_transit":false,"time":5,"i_long":106.816351,"line":1},{"station_name":"Sudirman Baru","time":1,"station_id":"SUDB","distance":471,"i_lat":-6.201433,"i_long":106.819881,"line":1,"is_transit":false,"transit":false},{"time":1,"station_name":"Sudirman","line":1,"transit":false,"station_id":"SUD","is_transit":false,"distance":280,"i_lat":-6.202263,"i_long":106.822649},{"i_lat":-6.209883,"station_id":"MRI","transit":true,"station_name":"Manggarai","i_long":106.84912,"line":2,"is_transit":true,"distance":3186,"time":4},{"distance":1590,"time":4,"i_long":106.840169,"line":2,"station_id":"CKI","i_lat":-6.198556,"is_transit":false,"transit":false,"station_name":"Cikini"},{"station_name":"Gondangdia","transit":false,"i_lat":-6.186295,"time":3,"distance":1750,"station_id":"GDD","line":2,"is_transit":false,"i_long":106.832183},{"i_lat":-6.166716,"station_name":"Juanda","i_long":106.828284,"transit":false,"line":2,"is_transit":false,"station_id":"JUA","time":4,"distance":2015},{"i_long":106.827103,"distance":1149,"station_id":"SW","time":2,"is_transit":false,"transit":false,"station_name":"Sawah Besar","i_lat":-6.160725,"line":2}],[{"is_transit":false,"station_id":"JAKK","line":2,"time":0,"station_name":"Jakarta Kota","i_lat":-6.137569,"transit":false,"i_long":106.812439,"distance":0},{"station_name":"Kampung Bandan","time":3,"i_lat":-6.132549,"is_transit":true,"i_long":106.826365,"transit":true,"line":4,"station_id":"KPB","distance":1364},{"distance":1444,"station_id":"RJW","station_name":"Rajawali","i_long":106.836569,"time":3,"line":11,"i_lat":-6.14505,"is_transit":false,"transit":false},{"i_long":106.839204,"station_id":"KMO","line":11,"transit":false,"i_lat":-6.161728,"distance":1901,"is_transit":false,"time":5,"station_name":"Kemayoran"},{"station_name":"Pasar Senen","station_id":"PSE","time":4,"i_long":106.84368,"transit":false,"line":11,"distance":1436,"i_lat":-6.174784,"is_transit":false},{"time":8,"line":11,"transit":false,"station_id":"GST","station_name":"Gang Sentiong","i_long":106.850107,"distance":1567,"i_lat":-6.185975,"is_transit":false},{"distance":973,"i_lat":-6.193792,"station_name":"Kramat","time":1,"station_id":"KMT","is_transit":false,"line":11,"transit":false,"i_long":106.855437},{"distance":1829,"is_transit":false,"time":2,"station_id":"POK","i_lat":-6.209188,"station_name":"Pondok Jati","line":11,"transit":false,"i_long":106.861737},{"time":9,"station_id":"JNG","i_lat":-6.215091,"i_long":106.86807400000001,"line":1,"distance":1236,"is_transit":true,"transit":true,"station_name":"Jatinegara"},{"i_long":106.858896,"distance":1377,"transit":false,"time":2,"station_name":"Matraman","line":1,"is_transit":false,"i_lat":-6.212485,"station_id":"MTR"},{"station_id":"MRI","i_long":106.84912,"time":2,"transit":true,"station_name":"Manggarai","i_lat":-6.209883,"is_transit":true,"line":2,"distance":1275},{"distance":1590,"i_lat":-6.198556,"time":4,"line":2,"i_long":106.840169,"station_name":"Cikini","transit":false,"station_id":"CKI","is_transit":false},{"station_id":"GDD","is_transit":false,"station_name":"Gondangdia","i_lat":-6.186295,"transit":false,"line":2,"time":3,"distance":1750,"i_long":106.832183},{"line":2,"i_lat":-6.166716,"time":4,"i_long":106.828284,"is_transit":false,"station_id":"JUA","station_name":"Juanda","transit":false,"distance":2015},{"transit":false,"station_name":"Sawah Besar","station_id":"SW","i_long":106.827103,"distance":1149,"i_lat":-6.160725,"line":2,"is_transit":false,"time":2}]]}