{"data":[[{"transit":false,"is_transit":false,"time":0,"distance":0,"station_name":"Jakarta Kota","i_lat":-6.137569,"i_long":106.812439,"station_id":"JAKK","line":2},{"station_name":"Jayakarta","is_transit":false,"i_lat":-6.141205,"time":4,"distance":1264,"i_long":106.820901,"line":2,"station_id":"JAY","transit":false},{"is_transit":false,"line":2,"distance":1080,"station_name":"Manggabesar","transit":false,"time":2,"i_lat":-6.149769,"i_long":106.82482,"station_id":"MGB"},{"transit":false,"is_transit":false,"i_lat":-6.160725,"distance":906,"i_long":106.827103,"line":2,"station_id":"SW","time":2,"station_name":"Sawah Besar"},{"i_long":106.828284,"i_lat":-6.166716,"time":2,"distance":1149,"transit":false,"line":2,"is_transit":false,"station_name":"Juanda","station_id":"JUA"},{"i_lat":-6.186295,"time":4,"station_id":"GDD","is_transit":false,"line":2,"transit":false,"station_name":"Gondangdia","i_long":106.832183,"distance":2015},{"i_lat":-6.198556,"transit":false,"distance":1750,"station_id":"CKI","time":3,"line":2,"is_transit":false,"station_name":"Cikini","i_long":106.840169},{"line":2,"i_long":106.84912,"station_name":"Manggarai","station_id":"MRI","is_transit":false,"time":4,"transit":false,"distance":1590,"i_lat":-6.209883},{"distance":2610,"is_transit":false,"station_name":"Tebet","transit":false,"station_id":"TEB","line":2,"i_lat":-6.226659,"time":4,"i_long":106.857948},{"station_name":"Cawang","transit":false,"time":2,"distance":1230,"is_transit":false,"station_id":"CW","i_lat":-6.242512,"line":2,"i_long":106.856607},{"station_name":"Duren Kalibata","is_transit":false,"time":3,"distance":1546,"station_id":"DRN","transit":false,"i_long":106.85449,"i_lat":-6.255332,"line":2},{"distance":824,"i_long":106.851577,"is_transit":false,"station_name":"Pasar Minggu Baru","line":2,"i_lat":-6.263214,"time":2,"transit":false,"station_id":"PSMB"},{"line":2,"station_id":"PSM","distance":2380,"station_name":"Pasar Minggu","is_transit":false,"transit":false,"time":2,"i_lat":-6.2842400000000005,"i_long":106.843999},{"station_id":"TNT","transit":false,"time":4,"line":2,"station_name":"Tanjung Barat","is_transit":false,"distance":2820,"i_lat":-6.3080680000000005,"i_long":106.838896},{"station_id":"LNA","distance":2671,"transit":false,"time":3,"is_transit":false,"i_lat":-6.330363,"station_name":"Lenteng Agung","i_long":106.832616,"line":2},{"is_transit":false,"line":2,"station_id":"UP","distance":1029,"station_name":"Univ. Pancasila","i_lat":-6.339291,"time":2,"transit":false,"i_long":106.834175}],[{"i_long":106.812439,"station_id":"JAKK","transit":false,"time":0,"i_lat":-6.137569,"line":2,"is_transit":false,"distance":0,"station_name":"Jakarta Kota"},{"line":4,"is_transit":true,"time":3,"distance":1364,"station_id":"KPB","station_name":"Kampung Bandan","i_lat":-6.132549,"transit":true,"i_long":106.826365},{"line":1,"distance":4102,"time":9,"station_name":"Angke","is_transit":false,"transit":false,"station_id":"AK","i_lat":-6.144674,"i_long":106.79867},{"distance":1230,"i_lat":-6.155215,"line":1,"is_transit":false,"station_id":"DU","i_long":106.800832,"station_name":"Duri","transit":false,"time":4},{"line":1,"is_transit":false,"i_lat":-6.185545,"distance":3632,"time":8,"station_id":"THB","station_name":"Tanah Abang","i_long":106.811091,"transit":false},{"line":1,"station_id":"KAT","transit":false,"i_long":106.816351,"time":5,"i_lat":-6.20132,"is_transit":false,"distance":2029,"station_name":"Karet"},{"is_transit":false,"station_id":"SUDB","i_long":106.819881,"transit":false,"line":1,"time":1,"distance":471,"station_name":"Sudirman Baru","i_lat":-6.201433},{"distance":280,"station_id":"SUD","is_transit":false,"transit":false,"line":1,"station_name":"Sudirman","i_lat":-6.202263,"time":1,"i_long":106.822649},{"distance":3186,"station_id":"MRI","time":4,"transit":true,"i_long":106.84912,"line":2,"station_name":"Manggarai","is_transit":true,"i_lat":-6.209883},{"line":2,"i_long":106.857948,"station_name":"Tebet","is_transit":false,"transit":false,"station_id":"TEB","i_lat":-6.226659,"time":4,"distance":2610},{"line":2,"transit":false,"is_transit":false,"i_lat":-6.242512,"i_long":106.856607,"station_name":"Cawang","time":2,"distance":1230,"station_id":"CW"},{"time":3,"i_long":106.85449,"distance":1546,"station_id":"DRN","station_name":"Duren Kalibata","transit":false,"i_lat":-6.255332,"line":2,"is_transit":false},{"station_name":"Pasar Minggu Baru","transit":false,"i_lat":-6.263214,"i_long":106.851577,"time":2,"distance":824,"is_transit":false,"line":2,"station_id":"PSMB"},{"time":2,"line":2,"distance":2380,"transit":false,"station_id":"PSM","is_transit":false,"i_lat":-6.2842400000000005,"station_name":"Pasar Minggu","i_long":106.843999},{"i_lat":-6.3080680000000005,"station_name":"Tanjung Barat","transit":false,"i_long":106.838896,"time":4,"distance":2820,"station_id":"TNT","is_transit":false,"line":2},{"transit":false,"time":3,"is_transit":false,"i_lat":-6.330363,"station_name":"Lenteng Agung","line":2,"i_long":106.832616,"distance":2671,"station_id":"LNA"},{"transit":false,"station_name":"Univ. Pancasila","i_lat":-6.339291,"distance":1029,"time":2,"is_transit":false,"station_id":"UP","i_long":106.834175,"line":2}],[{"i_lat":-6.137569,"time":0,"line":2,"distance":0,"station_id":"JAKK","i_long":106.812439,"station_name":"Jakarta Kota","transit":false,"is_transit":false},{"time":3,"station_name":"Kampung Bandan","is_transit":true,"line":4,"i_long":106.826365,"i_lat":-6.132549,"distance":1364,"station_id":"KPB","transit":true},{"line":11,"distance":1444,"is_transit":false,"time":3,"transit":false,"station_name":"Rajawali","i_lat":-6.14505,"i_long":106.836569,"station_id":"RJW"},{"distance":1901,"i_long":106.839204,"station_id":"KMO","line":11,"is_transit":false,"time":5,"i_lat":-6.161728,"station_name":"Kemayoran","transit":false},{"line":11,"i_long":106.84368,"is_transit":false,"i_lat":-6.174784,"time":4,"distance":1436,"station_name":"Pasar Senen","station_id":"PSE","transit":false},{"is_transit":false,"distance":1567,"station_id":"GST","i_lat":-6.185975,"station_name":"Gang Sentiong","transit":false,"time":8,"i_long":106.850107,"line":11},{"i_long":106.855437,"line":11,"station_name":"Kramat","transit":false,"distance":973,"station_id":"KMT","is_transit":false,"time":1,"i_lat":-6.193792},{"i_lat":-6.209188,"i_long":106.861737,"line":11,"station_id":"POK","distance":1829,"time":2,"is_transit":false,"transit":false,"station_name":"Pondok Jati"},{"distance":1236,"time":9,"i_lat":-6.215091,"transit":true,"station_id":"JNG","i_long":106.86807400000001,"station_name":"Jatinegara","line":1,"is_transit":true},{"station_name":"Matraman","transit":false,"i_lat":-6.212485,"time":2,"i_long":106.858896,"line":1,"distance":1377,"station_id":"MTR","is_transit":false},{"i_lat":-6.209883,"station_name":"Manggarai","transit":true,"i_long":106.84912,"time":2,"is_transit":true,"station_id":"MRI","line":2,"distance":1275},{"is_transit":false,"i_long":106.857948,"i_lat":-6.226659,"time":4,"station_id":"TEB","transit":false,"station_name":"Tebet","line":2,"distance":2610},{"line":2,"transit":false,"i_long":106.856607,"station_id":"CW","distance":1230,"time":2,"is_transit":false,"i_lat":-6.242512,"station_name":"Cawang"},{"station_id":"DRN","time":3,"transit":false,"line":2,"distance":1546,"i_lat":-6.255332,"station_name":"Duren Kalibata","i_long":106.85449,"is_transit":false},{"distance":824,"transit":false,"station_id":"PSMB","is_transit":false,"station_name":"Pasar Minggu Baru","i_lat":-6.263214,"line":2,"i_long":106.851577,"time":2},{"distance":2380,"i_long":106.843999,"is_transit":false,"time":2,"station_name":"Pasar Minggu","line":2,"station_id":"PSM","transit":false,"i_lat":-6.2842400000000005},{"station_id":"TNT","station_name":"Tanjung Barat","time":4,"i_lat":-6.3080680000000005,"distance":2820,"i_long":106.838896,"is_transit":false,"transit":false,"line":2},{"is_transit":false,"transit":false,"distance":2671,"station_name":"Lenteng Agung","i_long":106.832616,"time":3,"line":2,"station_id":"LNA","i_lat":-6.330363},{"is_transit":false,"station_name":"Univ. Pancasila","i_long":106.834175,"line":2,"transit":false,"time":2,"distance":1029,"station_id":"UP","i_lat":-6.339291}]]}