{"data":[[{"i_lat":-6.137569,"time":0,"is_transit":false,"transit":false,"station_name":"Jakarta Kota","station_id":"JAKK","i_long":106.812439,"line":2,"distance":0},{"i_lat":-6.132549,"is_transit":true,"i_long":106.826365,"line":4,"distance":1364,"station_name":"Kampung Bandan","time":3,"station_id":"KPB","transit":true},{"i_lat":-6.14505,"transit":false,"station_name":"Rajawali","is_transit":false,"i_long":106.836569,"line":11,"time":3,"distance":1444,"station_id":"RJW"},{"transit":false,"station_name":"Kemayoran","i_long":106.839204,"time":5,"station_id":"KMO","distance":1901,"is_transit":false,"i_lat":-6.161728,"line":11},{"distance":1436,"i_lat":-6.174784,"station_name":"Pasar Senen","line":11,"i_long":106.84368,"transit":false,"is_transit":false,"time":4,"station_id":"PSE"},{"i_lat":-6.185975,"time":8,"line":11,"station_name":"Gang Sentiong","distance":1567,"transit":false,"i_long":106.850107,"is_transit":false,"station_id":"GST"},{"station_name":"Kramat","i_long":106.855437,"time":1,"is_transit":false,"station_id":"KMT","transit":false,"line":11,"distance":973,"i_lat":-6.193792},{"time":2,"station_id":"POK","i_lat":-6.209188,"distance":1829,"is_transit":false,"station_name":"Pondok Jati","i_long":106.861737,"line":11,"transit":false},{"time":9,"distance":1236,"i_long":106.86807400000001,"line":1,"station_name":"Jatinegara","is_transit":true,"transit":true,"station_id":"JNG","i_lat":-6.215091},{"time":3,"transit":false,"i_lat":-6.2135,"is_transit":false,"station_id":"KLD","i_long":106.899548,"line":1,"station_name":"Klender","distance":3395},{"transit":false,"line":1,"time":2,"station_id":"BUA","distance":3100,"i_lat":-6.215568,"is_transit":false,"i_long":106.922662,"station_name":"Buaran"},{"transit":false,"line":1,"station_name":"Klenderbaru","i_long":106.939679,"time":1,"station_id":"KLDB","is_transit":false,"distance":1305,"i_lat":-6.217455},{"transit":false,"i_long":106.951283,"distance":1385,"station_id":"CUK","line":1,"is_transit":false,"time":8,"i_lat":-6.219053,"station_name":"Cakung"},{"transit":false,"i_lat":-6.224515,"i_long":106.977657,"line":1,"time":3,"station_id":"KRI","distance":3097,"is_transit":false,"station_name":"Kranji"},{"time":4,"station_id":"BKS","transit":false,"i_long":106.997013,"is_transit":false,"line":1,"station_name":"Bekasi","distance":2520,"i_lat":-6.236616},{"line":1,"i_lat":-6.248029,"i_long":107.016735,"is_transit":false,"station_name":"Bekasi Timur","distance":2368,"time":2,"station_id":"BKST","transit":false},{"is_transit":false,"i_long":107.055722,"line":1,"station_name":"Tambun","transit":false,"i_lat":-6.258864,"station_id":"TB","time":7,"distance":4460},{"transit":false,"station_name":"Cibitung","station_id":"CIT","i_long":107.083084,"is_transit":false,"i_lat":-6.261877,"line":1,"distance":3420,"time":3},{"i_lat":-6.262938,"line":1,"distance":2800,"time":2,"station_id":"TLM","i_long":107.093313,"transit":false,"is_transit":false,"station_name":"Metland Telaga Murni"},{"station_id":"CKR","is_transit":false,"station_name":"Cikarang","line":1,"i_long":107.144613,"distance":3689,"i_lat":-6.2553149999999995,"transit":false,"time":4}],[{"transit":false,"station_id":"JAKK","line":2,"time":0,"i_long":106.812439,"station_name":"Jakarta Kota","is_transit":false,"i_lat":-6.137569,"distance":0},{"i_lat":-6.141205,"distance":1264,"transit":false,"time":4,"station_id":"JAY","is_transit":false,"station_name":"Jayakarta","i_long":106.820901,"line":2},{"station_id":"MGB","i_long":106.82482,"time":2,"transit":false,"is_transit":false,"line":2,"station_name":"Manggabesar","i_lat":-6.149769,"distance":1080},{"i_lat":-6.160725,"line":2,"distance":906,"station_name":"Sawah Besar","station_id":"SW","time":2,"is_transit":false,"transit":false,"i_long":106.827103},{"i_long":106.828284,"time":2,"station_id":"JUA","line":2,"distance":1149,"station_name":"Juanda","transit":false,"is_transit":false,"i_lat":-6.166716},{"i_lat":-6.186295,"i_long":106.832183,"line":2,"transit":false,"station_name":"Gondangdia","is_transit":false,"station_id":"GDD","distance":2015,"time":4},{"station_id":"CKI","line":2,"time":3,"i_long":106.840169,"station_name":"Cikini","distance":1750,"is_transit":false,"i_lat":-6.198556,"transit":false},{"distance":1590,"transit":true,"station_name":"Manggarai","i_lat":-6.209883,"line":2,"station_id":"MRI","is_transit":true,"time":4,"i_long":106.84912},{"transit":false,"station_name":"Matraman","i_lat":-6.212485,"time":2,"i_long":106.858896,"line":1,"station_id":"MTR","is_transit":false,"distance":1275},{"i_lat":-6.215091,"line":1,"distance":1377,"transit":false,"time":8,"i_long":106.86807400000001,"is_transit":false,"station_id":"JNG","station_name":"Jatinegara"},{"i_lat":-6.2135,"transit":false,"is_transit":false,"station_name":"Klender","i_long":106.899548,"distance":3395,"time":3,"station_id":"KLD","line":1},{"station_id":"BUA","is_transit":false,"i_long":106.922662,"line":1,"station_name":"Buaran","distance":3100,"time":2,"transit":false,"i_lat":-6.215568},{"station_id":"KLDB","i_lat":-6.217455,"i_long":106.939679,"is_transit":false,"distance":1305,"transit":false,"station_name":"Klenderbaru","line":1,"time":1},{"i_long":106.951283,"line":1,"station_name":"Cakung","transit":false,"i_lat":-6.219053,"distance":1385,"station_id":"CUK","time":8,"is_transit":false},{"i_long":106.977657,"distance":3097,"transit":false,"line":1,"time":3,"station_name":"Kranji","i_lat":-6.224515,"is_transit":false,"station_id":"KRI"},{"time":4,"station_id":"BKS","distance":2520,"transit":false,"i_lat":-6.236616,"i_long":106.997013,"line":1,"station_name":"Bekasi","is_transit":false},{"station_name":"Bekasi Timur","line":1,"is_transit":false,"station_id":"BKST","i_long":107.016735,"time":2,"distance":2368,"transit":false,"i_lat":-6.248029},{"i_lat":-6.258864,"line":1,"distance":4460,"transit":false,"i_long":107.055722,"time":7,"is_transit":false,"station_name":"Tambun","station_id":"TB"},{"time":3,"line":1,"is_transit":false,"i_long":107.083084,"i_lat":-6.261877,"station_id":"CIT","transit":false,"station_name":"Cibitung","distance":3420},{"line":1,"station_id":"TLM","station_name":"Metland Telaga Murni","time":2,"i_long":107.093313,"is_transit":false,"distance":2800,"i_lat":-6.262938,"transit":false},{"station_id":"CKR","i_lat":-6.2553149999999995,"time":4,"distance":3689,"line":1,"is_transit":false,"station_name":"Cikarang","transit":false,"i_long":107.144613}],[{"i_lat":-6.137569,"time":0,"is_transit":false,"station_name":"Jakarta Kota","distance":0,"i_long":106.812439,"station_id":"JAKK","transit":false,"line":2},{"i_lat":-6.132549,"transit":true,"time":3,"i_long":106.826365,"line":4,"distance":1364,"station_name":"Kampung Bandan","is_transit":true,"station_id":"KPB"},{"is_transit":false,"transit":false,"i_long":106.79867,"distance":4102,"line":1,"station_name":"Angke","i_lat":-6.144674,"time":9,"station_id":"AK"},{"station_id":"DU","i_lat":-6.155215,"distance":1230,"transit":false,"time":4,"is_transit":false,"station_name":"Duri","i_long":106.800832,"line":1},{"station_name":"Tanah Abang","distance":3632,"i_long":106.811091,"line":1,"is_transit":false,"time":8,"transit":false,"i_lat":-6.185545,"station_id":"THB"},{"line":1,"is_transit":false,"i_long":106.816351,"station_id":"KAT","distance":2029,"i_lat":-6.20132,"station_name":"Karet","time":5,"transit":false},{"is_transit":false,"station_name":"Sudirman Baru","time":1,"i_long":106.819881,"station_id":"SUDB","distance":471,"i_lat":-6.201433,"transit":false,"line":1},{"distance":280,"transit":false,"i_long":106.822649,"station_name":"Sudirman","is_transit":false,"time":1,"i_lat":-6.202263,"station_id":"SUD","line":1},{"i_long":106.84912,"is_transit":false,"transit":false,"station_name":"Manggarai","distance":3186,"i_lat":-6.209883,"line":2,"time":4,"station_id":"MRI"},{"i_long":106.858896,"distance":1275,"is_transit":false,"time":2,"i_lat":-6.212485,"station_name":"Matraman","transit":false,"station_id":"MTR","line":1},{"is_transit":false,"line":1,"i_long":106.86807400000001,"distance":1377,"transit":false,"station_name":"Jatinegara","time":8,"i_lat":-6.215091,"station_id":"JNG"},{"station_id":"KLD","line":1,"transit":false,"station_name":"Klender","i_long":106.899548,"time":3,"distance":3395,"is_transit":false,"i_lat":-6.2135},{"is_transit":false,"line":1,"i_lat":-6.215568,"time":2,"distance":3100,"station_name":"Buaran","station_id":"BUA","transit":false,"i_long":106.922662},{"line":1,"station_name":"Klenderbaru","station_id":"KLDB","transit":false,"i_long":106.939679,"time":1,"distance":1305,"is_transit":false,"i_lat":-6.217455},{"line":1,"transit":false,"station_name":"Cakung","i_long":106.951283,"time":8,"station_id":"CUK","distance":1385,"is_transit":false,"i_lat":-6.219053},{"is_transit":false,"distance":3097,"i_long":106.977657,"time":3,"transit":false,"station_id":"KRI","station_name":"Kranji","line":1,"i_lat":-6.224515},{"station_name":"Bekasi","i_long":106.997013,"distance":2520,"line":1,"transit":false,"time":4,"station_id":"BKS","i_lat":-6.236616,"is_transit":false},{"time":2,"line":1,"is_transit":false,"station_name":"Bekasi Timur","transit":false,"i_lat":-6.248029,"i_long":107.016735,"station_id":"BKST","distance":2368},{"time":7,"station_id":"TB","i_long":107.055722,"transit":false,"i_lat":-6.258864,"is_transit":false,"station_name":"Tambun","distance":4460,"line":1},{"station_name":"Cibitung","time":3,"distance":3420,"transit":false,"i_long":107.083084,"line":1,"station_id":"CIT","is_transit":false,"i_lat":-6.261877},{"i_long":107.093313,"line":1,"time":2,"distance":2800,"station_id":"TLM","is_transit":false,"transit":false,"i_lat":-6.262938,"station_name":"Metland Telaga Murni"},{"time":4,"i_long":107.144613,"i_lat":-6.2553149999999995,"station_name":"Cikarang","is_transit":false,"station_id":"CKR","line":1,"transit":false,"distance":3689}],[{"i_lat":-6.137569,"time":0,"line":2,"i_long":106.812439,"station_name":"Jakarta Kota","distance":0,"station_id":"JAKK","transit":false,"is_transit":false},{"time":4,"line":2,"distance":1264,"station_id":"JAY","station_name":"Jayakarta","transit":false,"is_transit":false,"i_lat":-6.141205,"i_long":106.820901},{"station_name":"Manggabesar","i_long":106.82482,"line":2,"i_lat":-6.149769,"distance":1080,"time":2,"is_transit":false,"transit":false,"station_id":"MGB"},{"distance":906,"time":2,"i_lat":-6.160725,"station_name":"Sawah Besar","is_transit":false,"line":2,"station_id":"SW","i_long":106.827103,"transit":false},{"time":2,"line":2,"distance":1149,"is_transit":false,"station_id":"JUA","transit":false,"station_name":"Juanda","i_lat":-6.166716,"i_long":106.828284},{"distance":2015,"i_lat":-6.186295,"station_id":"GDD","transit":false,"line":2,"station_name":"Gondangdia","time":4,"is_transit":false,"i_long":106.832183},{"station_id":"CKI","is_transit":false,"line":2,"i_long":106.840169,"station_name":"Cikini","distance":1750,"time":3,"i_lat":-6.198556,"transit":false},{"line":2,"station_name":"Manggarai","station_id":"MRI","time":4,"is_transit":true,"distance":1590,"i_lat":-6.209883,"i_long":106.84912,"transit":true},{"is_transit":false,"i_long":106.822649,"transit":false,"line":1,"station_name":"Sudirman","time":4,"station_id":"SUD","distance":3186,"i_lat":-6.202263},{"i_long":106.819881,"station_id":"SUDB","time":1,"transit":false,"is_transit":false,"station_name":"Sudirman Baru","distance":280,"line":1,"i_lat":-6.201433},{"is_transit":false,"distance":471,"transit":false,"line":1,"i_long":106.816351,"station_id":"KAT","time":1,"i_lat":-6.20132,"station_name":"Karet"},{"station_name":"Tanah Abang","station_id":"THB","distance":2029,"i_lat":-6.185545,"line":1,"i_long":106.811091,"time":5,"is_transit":false,"transit":false},{"i_lat":-6.155215,"transit":false,"time":8,"distance":3632,"i_long":106.800832,"station_name":"Duri","station_id":"DU","line":1,"is_transit":false},{"time":4,"transit":false,"station_name":"Angke","is_transit":false,"station_id":"AK","distance":1230,"i_lat":-6.144674,"i_long":106.79867,"line":1},{"i_long":106.826365,"time":9,"i_lat":-6.132549,"transit":true,"station_name":"Kampung Bandan","line":4,"station_id":"KPB","distance":4102,"is_transit":true},{"station_id":"RJW","station_name":"Rajawali","i_lat":-6.14505,"line":11,"transit":false,"i_long":106.836569,"distance":1444,"time":3,"is_transit":false},{"time":5,"station_id":"KMO","i_lat":-6.161728,"is_transit":false,"distance":1901,"station_name":"Kemayoran","i_long":106.839204,"transit":false,"line":11},{"time":4,"is_transit":false,"station_id":"PSE","i_lat":-6.174784,"i_long":106.84368,"line":11,"transit":false,"distance":1436,"station_name":"Pasar Senen"},{"distance":1567,"is_transit":false,"station_name":"Gang Sentiong","i_lat":-6.185975,"station_id":"GST","i_long":106.850107,"time":8,"transit":false,"line":11},{"station_name":"Kramat","i_long":106.855437,"transit":false,"distance":973,"is_transit":false,"i_lat":-6.193792,"line":11,"station_id":"KMT","time":1},{"i_long":106.861737,"line":11,"station_name":"Pondok Jati","time":2,"station_id":"POK","transit":false,"is_transit":false,"distance":1829,"i_lat":-6.209188},{"i_long":106.86807400000001,"station_name":"Jatinegara","is_transit":true,"distance":1236,"station_id":"JNG","transit":true,"line":1,"time":9,"i_lat":-6.215091},{"time":3,"i_lat":-6.2135,"transit":false,"distance":3395,"i_long":106.899548,"line":1,"is_transit":false,"station_name":"Klender","station_id":"KLD"},{"transit":false,"time":2,"is_transit":false,"line":1,"station_name":"Buaran","station_id":"BUA","distance":3100,"i_lat":-6.215568,"i_long":106.922662},{"station_name":"Klenderbaru","station_id":"KLDB","is_transit":false,"transit":false,"i_lat":-6.217455,"i_long":106.939679,"line":1,"time":1,"distance":1305},{"i_long":106.951283,"i_lat":-6.219053,"station_name":"Cakung","is_transit":false,"distance":1385,"transit":false,"line":1,"time":8,"station_id":"CUK"},{"station_name":"Kranji","distance":3097,"station_id":"KRI","line":1,"time":3,"i_long":106.977657,"transit":false,"i_lat":-6.224515,"is_transit":false},{"time":4,"station_name":"Bekasi","distance":2520,"i_lat":-6.236616,"line":1,"is_transit":false,"transit":false,"station_id":"BKS","i_long":106.997013},{"time":2,"i_lat":-6.248029,"station_name":"Bekasi Timur","is_transit":false,"distance":2368,"transit":false,"station_id":"BKST","i_long":107.016735,"line":1},{"is_transit":false,"station_id":"TB","line":1,"time":7,"distance":4460,"transit":false,"i_lat":-6.258864,"i_long":107.055722,"station_name":"Tambun"},{"line":1,"station_name":"Cibitung","station_id":"CIT","time":3,"distance":3420,"i_long":107.083084,"is_transit":false,"i_lat":-6.261877,"transit":false},{"station_name":"Metland Telaga Murni","i_lat":-6.262938,"distance":2800,"transit":false,"time":2,"station_id":"TLM","i_long":107.093313,"line":1,"is_transit":false},{"is_transit":false,"station_name":"Cikarang","line":1,"i_lat":-6.2553149999999995,"transit":false,"time":4,"distance":3689,"station_id":"CKR","i_long":107.144613}]]}