{"data":[[{"i_lat":-6.137569,"i_long":106.812439,"station_name":"Jakarta Kota","line":0,"time":0,"transit":false,"station_id":"JAKK","is_transit":true,"distance":0},{"transit":false,"i_lat":-6.141205,"is_transit":false,"time":4,"station_id":"JAY","distance":1264,"station_name":"Jayakarta","i_long":106.820901,"line":7},{"station_name":"Manggabesar","station_id":"MGB","time":2,"transit":false,"distance":1080,"is_transit":false,"i_long":106.82482,"line":2,"i_lat":-6.149769},{"transit":false,"time":2,"line":2,"station_id":"SW","i_lat":-6.160725,"is_transit":false,"i_long":106.827103,"distance":906,"station_name":"Sawah Besar"},{"station_name":"Juanda","is_transit":false,"line":2,"distance":1149,"station_id":"JUA","i_long":106.828284,"i_lat":-6.166716,"time":2,"transit":false},{"i_lat":-6.186295,"station_id":"GDD","time":4,"line":2,"station_name":"Gondangdia","distance":2015,"transit":false,"i_long":106.832183,"is_transit":false},{"i_lat":-6.198556,"station_id":"CKI","is_transit":false,"distance":1750,"station_name":"Cikini","transit":false,"line":0,"i_long":106.840169,"time":3},{"station_id":"MRI","is_transit":true,"time":4,"distance":1590,"i_long":106.84912,"line":0,"transit":true,"i_lat":-6.209883,"station_name":"Manggarai"},{"i_lat":-6.226659,"transit":false,"is_transit":false,"station_name":"Tebet","station_id":"TEB","distance":2610,"line":2,"i_long":106.857948,"time":4},{"i_long":106.856607,"station_name":"Cawang","i_lat":-6.242512,"line":0,"is_transit":false,"time":2,"station_id":"CW","distance":1230,"transit":false},{"station_id":"DRN","is_transit":false,"station_name":"Duren Kalibata","transit":false,"time":3,"i_long":106.85449,"i_lat":-6.255332,"line":0,"distance":1546},{"i_lat":-6.263214,"is_transit":false,"station_id":"PSMB","station_name":"Pasar Minggu Baru","line":2,"distance":824,"time":2,"transit":false,"i_long":106.851577},{"time":2,"i_lat":-6.2842400000000005,"distance":2380,"line":2,"station_id":"PSM","station_name":"Pasar Minggu","is_transit":false,"transit":false,"i_long":106.843999},{"line":2,"i_long":106.838896,"distance":2820,"is_transit":false,"transit":false,"time":4,"station_id":"TNT","station_name":"Tanjung Barat","i_lat":-6.3080680000000005},{"distance":2671,"transit":false,"i_long":106.832616,"station_id":"LNA","i_lat":-6.330363,"station_name":"Lenteng Agung","is_transit":false,"time":3,"line":2},{"distance":1029,"transit":false,"time":2,"station_id":"UP","is_transit":false,"i_lat":-6.339291,"line":2,"station_name":"Univ. Pancasila","i_long":106.834175}],[{"station_id":"JAKK","is_transit":true,"time":0,"distance":0,"i_long":106.812439,"line":0,"i_lat":-6.137569,"station_name":"Jakarta Kota","transit":false},{"time":3,"station_id":"KPB","is_transit":true,"transit":false,"i_lat":-6.132549,"station_name":"Kampung Bandan","i_long":106.826365,"distance":1364,"line":0},{"station_name":"Angke","station_id":"AK","is_transit":false,"distance":4102,"transit":false,"i_lat":-6.144674,"line":0,"time":9,"i_long":106.79867},{"time":4,"i_lat":-6.155215,"i_long":106.800832,"distance":1230,"is_transit":true,"station_name":"Duri","station_id":"DU","line":1,"transit":true},{"line":1,"transit":false,"i_lat":-6.185545,"is_transit":true,"distance":3632,"i_long":106.811091,"time":8,"station_id":"THB","station_name":"Tanah Abang"},{"distance":2029,"station_name":"Karet","is_transit":false,"time":5,"station_id":"KAT","i_long":106.816351,"i_lat":-6.20132,"line":1,"transit":false},{"station_name":"Sudirman Baru","distance":471,"i_lat":-6.201433,"station_id":"SUDB","is_transit":false,"transit":false,"time":1,"line":1,"i_long":106.819881},{"i_lat":-6.202263,"transit":false,"time":1,"distance":280,"station_name":"Sudirman","is_transit":false,"station_id":"SUD","line":1,"i_long":106.822649},{"station_id":"MRI","time":4,"i_lat":-6.209883,"i_long":106.84912,"distance":3186,"line":0,"station_name":"Manggarai","is_transit":true,"transit":true},{"line":2,"transit":false,"station_id":"TEB","station_name":"Tebet","is_transit":false,"time":4,"distance":2610,"i_lat":-6.226659,"i_long":106.857948},{"i_lat":-6.242512,"station_id":"CW","distance":1230,"i_long":106.856607,"station_name":"Cawang","time":2,"is_transit":false,"transit":false,"line":0},{"i_lat":-6.255332,"line":0,"transit":false,"time":3,"station_id":"DRN","is_transit":false,"distance":1546,"station_name":"Duren Kalibata","i_long":106.85449},{"distance":824,"station_name":"Pasar Minggu Baru","station_id":"PSMB","time":2,"i_long":106.851577,"is_transit":false,"transit":false,"i_lat":-6.263214,"line":2},{"transit":false,"i_long":106.843999,"is_transit":false,"station_id":"PSM","time":2,"distance":2380,"i_lat":-6.2842400000000005,"station_name":"Pasar Minggu","line":2},{"i_lat":-6.3080680000000005,"line":2,"transit":false,"is_transit":false,"station_id":"TNT","time":4,"distance":2820,"station_name":"Tanjung Barat","i_long":106.838896},{"station_id":"LNA","i_long":106.832616,"time":3,"station_name":"Lenteng Agung","transit":false,"i_lat":-6.330363,"is_transit":false,"distance":2671,"line":2},{"distance":1029,"line":2,"is_transit":false,"time":2,"i_lat":-6.339291,"i_long":106.834175,"station_name":"Univ. Pancasila","station_id":"UP","transit":false}],[{"time":0,"transit":false,"station_id":"JAKK","i_long":106.812439,"is_transit":true,"line":0,"station_name":"Jakarta Kota","distance":0,"i_lat":-6.137569},{"station_name":"Kampung Bandan","distance":1364,"i_lat":-6.132549,"i_long":106.826365,"station_id":"KPB","transit":true,"is_transit":true,"line":0,"time":3},{"station_id":"RJW","station_name":"Rajawali","time":3,"line":11,"i_long":106.836569,"i_lat":-6.14505,"transit":false,"is_transit":false,"distance":1444},{"distance":1901,"line":11,"station_name":"Kemayoran","i_long":106.839204,"transit":false,"i_lat":-6.161728,"is_transit":false,"time":5,"station_id":"KMO"},{"i_long":106.84368,"transit":false,"station_id":"PSE","is_transit":false,"station_name":"Pasar Senen","line":11,"distance":1436,"i_lat":-6.174784,"time":4},{"i_long":106.850107,"transit":false,"station_id":"GST","time":8,"station_name":"Gang Sentiong","i_lat":-6.185975,"line":11,"is_transit":false,"distance":1567},{"transit":false,"station_id":"KMT","time":1,"is_transit":false,"i_lat":-6.193792,"i_long":106.855437,"station_name":"Kramat","line":11,"distance":973},{"station_id":"POK","transit":false,"station_name":"Pondok Jati","is_transit":false,"distance":1829,"line":11,"i_lat":-6.209188,"time":2,"i_long":106.861737},{"time":9,"distance":1236,"transit":true,"station_name":"Jatinegara","i_long":106.86807400000001,"station_id":"JNG","is_transit":true,"i_lat":-6.215091,"line":0},{"distance":1377,"line":1,"time":2,"i_long":106.858896,"station_id":"MTR","is_transit":false,"station_name":"Matraman","transit":false,"i_lat":-6.212485},{"transit":true,"time":2,"line":0,"is_transit":true,"station_id":"MRI","i_lat":-6.209883,"distance":1275,"i_long":106.84912,"station_name":"Manggarai"},{"i_long":106.857948,"station_id":"TEB","distance":2610,"transit":false,"station_name":"Tebet","is_transit":false,"i_lat":-6.226659,"time":4,"line":2},{"i_long":106.856607,"is_transit":false,"transit":false,"distance":1230,"station_name":"Cawang","station_id":"CW","i_lat":-6.242512,"line":0,"time":2},{"transit":false,"distance":1546,"station_name":"Duren Kalibata","station_id":"DRN","i_lat":-6.255332,"is_transit":false,"i_long":106.85449,"line":0,"time":3},{"time":2,"i_long":106.851577,"line":2,"i_lat":-6.263214,"station_id":"PSMB","distance":824,"transit":false,"is_transit":false,"station_name":"Pasar Minggu Baru"},{"station_name":"Pasar Minggu","transit":false,"is_transit":false,"i_long":106.843999,"i_lat":-6.2842400000000005,"time":2,"distance":2380,"station_id":"PSM","line":2},{"station_id":"TNT","time":4,"i_lat":-6.3080680000000005,"i_long":106.838896,"line":2,"is_transit":false,"transit":false,"distance":2820,"station_name":"Tanjung Barat"},{"station_name":"Lenteng Agung","is_transit":false,"transit":false,"station_id":"LNA","distance":2671,"time":3,"i_lat":-6.330363,"i_long":106.832616,"line":2},{"i_lat":-6.339291,"is_transit":false,"i_long":106.834175,"line":2,"station_id":"UP","distance":1029,"time":2,"transit":false,"station_name":"Univ. Pancasila"}]]}