{"data":[[{"is_transit":false,"station_id":"JAKK","i_lat":-6.137569,"station_name":"Jakarta Kota","line":2,"distance":0,"time":0,"transit":false,"i_long":106.812439},{"is_transit":false,"station_name":"Jayakarta","distance":1264,"line":2,"time":4,"transit":false,"i_long":106.820901,"i_lat":-6.141205,"station_id":"JAY"},{"i_lat":-6.149769,"station_name":"Manggabesar","time":2,"i_long":106.82482,"line":2,"station_id":"MGB","transit":false,"distance":1080,"is_transit":false},{"i_long":106.827103,"time":2,"station_name":"Sawah Besar","is_transit":false,"transit":false,"station_id":"SW","distance":906,"i_lat":-6.160725,"line":2},{"line":2,"station_name":"Juanda","distance":1149,"is_transit":false,"i_lat":-6.166716,"time":2,"i_long":106.828284,"station_id":"JUA","transit":false},{"i_lat":-6.186295,"line":2,"time":4,"station_id":"GDD","i_long":106.832183,"is_transit":false,"transit":false,"station_name":"Gondangdia","distance":2015},{"distance":1750,"is_transit":false,"station_name":"Cikini","time":3,"transit":false,"i_long":106.840169,"station_id":"CKI","i_lat":-6.198556,"line":2},{"i_long":106.84912,"station_name":"Manggarai","station_id":"MRI","line":2,"is_transit":false,"time":4,"transit":false,"distance":1590,"i_lat":-6.209883},{"station_id":"TEB","time":4,"line":2,"station_name":"Tebet","is_transit":false,"i_long":106.857948,"transit":false,"distance":2610,"i_lat":-6.226659},{"station_name":"Cawang","is_transit":false,"line":2,"distance":1230,"i_lat":-6.242512,"i_long":106.856607,"station_id":"CW","time":2,"transit":false},{"i_lat":-6.255332,"i_long":106.85449,"station_id":"DRN","is_transit":false,"line":2,"transit":false,"station_name":"Duren Kalibata","distance":1546,"time":3},{"is_transit":false,"station_id":"PSMB","transit":false,"distance":824,"station_name":"Pasar Minggu Baru","time":2,"i_lat":-6.263214,"i_long":106.851577,"line":2},{"is_transit":false,"time":2,"station_id":"PSM","line":2,"station_name":"Pasar Minggu","transit":false,"distance":2380,"i_lat":-6.2842400000000005,"i_long":106.843999},{"i_long":106.838896,"line":2,"station_name":"Tanjung Barat","is_transit":false,"transit":false,"i_lat":-6.3080680000000005,"station_id":"TNT","time":4,"distance":2820},{"station_name":"Lenteng Agung","i_long":106.832616,"line":2,"station_id":"LNA","time":3,"distance":2671,"i_lat":-6.330363,"transit":false,"is_transit":false},{"i_long":106.834175,"line":2,"transit":false,"i_lat":-6.339291,"distance":1029,"station_name":"Univ. Pancasila","time":2,"is_transit":false,"station_id":"UP"}],[{"time":0,"i_lat":-6.137569,"station_name":"Jakarta Kota","is_transit":false,"transit":false,"i_long":106.812439,"line":2,"station_id":"JAKK","distance":0},{"station_id":"KPB","i_lat":-6.132549,"time":3,"i_long":106.826365,"transit":true,"distance":1364,"station_name":"Kampung Bandan","line":4,"is_transit":true},{"station_id":"AK","transit":false,"station_name":"Angke","line":1,"distance":4102,"time":9,"i_long":106.79867,"i_lat":-6.144674,"is_transit":false},{"time":4,"is_transit":false,"transit":false,"distance":1230,"i_long":106.800832,"station_id":"DU","line":1,"station_name":"Duri","i_lat":-6.155215},{"station_name":"Tanah Abang","line":1,"i_long":106.811091,"i_lat":-6.185545,"distance":3632,"time":8,"is_transit":false,"station_id":"THB","transit":false},{"is_transit":false,"transit":false,"station_id":"KAT","time":5,"line":1,"distance":2029,"i_lat":-6.20132,"station_name":"Karet","i_long":106.816351},{"transit":false,"is_transit":false,"station_name":"Sudirman Baru","i_long":106.819881,"i_lat":-6.201433,"line":1,"station_id":"SUDB","time":1,"distance":471},{"distance":280,"transit":false,"is_transit":false,"time":1,"i_long":106.822649,"station_id":"SUD","station_name":"Sudirman","i_lat":-6.202263,"line":1},{"station_id":"MRI","time":4,"station_name":"Manggarai","transit":true,"i_long":106.84912,"line":2,"i_lat":-6.209883,"is_transit":true,"distance":3186},{"i_lat":-6.226659,"time":4,"transit":false,"station_name":"Tebet","i_long":106.857948,"station_id":"TEB","line":2,"is_transit":false,"distance":2610},{"is_transit":false,"time":2,"station_name":"Cawang","distance":1230,"transit":false,"i_long":106.856607,"line":2,"station_id":"CW","i_lat":-6.242512},{"i_long":106.85449,"line":2,"transit":false,"distance":1546,"time":3,"i_lat":-6.255332,"station_id":"DRN","is_transit":false,"station_name":"Duren Kalibata"},{"line":2,"is_transit":false,"distance":824,"i_long":106.851577,"i_lat":-6.263214,"station_id":"PSMB","time":2,"station_name":"Pasar Minggu Baru","transit":false},{"i_lat":-6.2842400000000005,"transit":false,"time":2,"is_transit":false,"station_name":"Pasar Minggu","station_id":"PSM","line":2,"i_long":106.843999,"distance":2380},{"station_name":"Tanjung Barat","i_lat":-6.3080680000000005,"distance":2820,"transit":false,"i_long":106.838896,"is_transit":false,"station_id":"TNT","line":2,"time":4},{"is_transit":false,"time":3,"line":2,"transit":false,"i_long":106.832616,"distance":2671,"station_name":"Lenteng Agung","station_id":"LNA","i_lat":-6.330363},{"distance":1029,"time":2,"i_lat":-6.339291,"is_transit":false,"i_long":106.834175,"transit":false,"station_name":"Univ. Pancasila","line":2,"station_id":"UP"}],[{"distance":0,"is_transit":false,"station_id":"JAKK","i_long":106.812439,"station_name":"Jakarta Kota","time":0,"i_lat":-6.137569,"transit":false,"line":2},{"i_long":106.826365,"station_id":"KPB","time":3,"transit":true,"station_name":"Kampung Bandan","line":4,"is_transit":true,"distance":1364,"i_lat":-6.132549},{"i_lat":-6.14505,"i_long":106.836569,"station_name":"Rajawali","distance":1444,"station_id":"RJW","transit":false,"is_transit":false,"time":3,"line":11},{"station_id":"KMO","i_lat":-6.161728,"line":11,"station_name":"Kemayoran","time":5,"is_transit":false,"distance":1901,"transit":false,"i_long":106.839204},{"is_transit":false,"i_lat":-6.174784,"station_name":"Pasar Senen","i_long":106.84368,"station_id":"PSE","line":11,"distance":1436,"transit":false,"time":4},{"station_name":"Gang Sentiong","i_lat":-6.185975,"is_transit":false,"line":11,"time":8,"transit":false,"station_id":"GST","distance":1567,"i_long":106.850107},{"is_transit":false,"station_name":"Kramat","time":1,"distance":973,"i_lat":-6.193792,"line":11,"station_id":"KMT","transit":false,"i_long":106.855437},{"time":2,"transit":false,"distance":1829,"station_name":"Pondok Jati","is_transit":false,"station_id":"POK","i_long":106.861737,"i_lat":-6.209188,"line":11},{"transit":true,"i_lat":-6.215091,"line":1,"distance":1236,"is_transit":true,"station_id":"JNG","time":9,"i_long":106.86807400000001,"station_name":"Jatinegara"},{"distance":1377,"station_id":"MTR","transit":false,"time":2,"i_lat":-6.212485,"i_long":106.858896,"is_transit":false,"line":1,"station_name":"Matraman"},{"is_transit":true,"i_lat":-6.209883,"station_id":"MRI","i_long":106.84912,"transit":true,"line":2,"time":2,"distance":1275,"station_name":"Manggarai"},{"transit":false,"distance":2610,"i_lat":-6.226659,"station_name":"Tebet","i_long":106.857948,"line":2,"is_transit":false,"station_id":"TEB","time":4},{"station_id":"CW","is_transit":false,"time":2,"i_lat":-6.242512,"station_name":"Cawang","i_long":106.856607,"transit":false,"distance":1230,"line":2},{"transit":false,"is_transit":false,"station_name":"Duren Kalibata","station_id":"DRN","distance":1546,"i_lat":-6.255332,"i_long":106.85449,"time":3,"line":2},{"distance":824,"i_long":106.851577,"i_lat":-6.263214,"line":2,"transit":false,"is_transit":false,"station_id":"PSMB","time":2,"station_name":"Pasar Minggu Baru"},{"station_name":"Pasar Minggu","is_transit":false,"distance":2380,"line":2,"i_long":106.843999,"i_lat":-6.2842400000000005,"station_id":"PSM","time":2,"transit":false},{"line":2,"time":4,"distance":2820,"is_transit":false,"station_id":"TNT","transit":false,"station_name":"Tanjung Barat","i_long":106.838896,"i_lat":-6.3080680000000005},{"time":3,"transit":false,"distance":2671,"line":2,"i_lat":-6.330363,"station_name":"Lenteng Agung","station_id":"LNA","i_long":106.832616,"is_transit":false},{"is_transit":false,"line":2,"time":2,"transit":false,"distance":1029,"station_name":"Univ. Pancasila","i_long":106.834175,"i_lat":-6.339291,"station_id":"UP"}]]}