{"data":[[{"station_id":"JAKK","distance":0,"station_name":"Jakarta Kota","time":0,"i_long":106.812439,"is_transit":false,"transit":false,"i_lat":-6.137569,"line":2},{"distance":1364,"i_lat":-6.132549,"station_name":"Kampung Bandan","is_transit":true,"station_id":"KPB","i_long":106.826365,"transit":true,"time":3,"line":4},{"station_name":"Angke","time":9,"line":1,"i_lat":-6.144674,"station_id":"AK","distance":4102,"transit":false,"i_long":106.79867,"is_transit":false},{"transit":true,"station_id":"DU","i_long":106.800832,"station_name":"Duri","time":4,"is_transit":true,"i_lat":-6.155215,"line":1,"distance":1230},{"is_transit":false,"station_id":"GGL","i_lat":-6.162021,"i_long":106.788277,"line":5,"time":3,"station_name":"Grogol","distance":1700,"transit":false},{"line":5,"distance":2036,"transit":false,"is_transit":false,"time":2,"station_name":"Pesing","i_lat":-6.161433,"i_long":106.771379,"station_id":"PSG"},{"i_long":106.756522,"line":5,"transit":false,"station_name":"Taman Kota","i_lat":-6.1587309999999995,"is_transit":false,"distance":1614,"station_id":"TKO","time":2},{"station_name":"Bojongindah","is_transit":false,"i_long":106.737035,"time":2,"transit":false,"i_lat":-6.159876,"station_id":"BOI","line":5,"distance":2334},{"line":5,"i_long":106.723064,"i_lat":-6.162758,"station_name":"Rawa Buaya","transit":false,"station_id":"RW","distance":1152,"is_transit":false,"time":4},{"transit":false,"distance":2504,"i_long":106.701612,"i_lat":-6.166068,"station_id":"KDS","station_name":"Kalideres","time":3,"line":5,"is_transit":false},{"transit":false,"time":3,"i_lat":-6.169933,"distance":2548,"i_long":106.679458,"station_name":"Poris","line":5,"is_transit":false,"station_id":"PI"},{"i_long":106.665036,"is_transit":false,"time":3,"distance":1834,"transit":false,"i_lat":-6.171811,"station_id":"BPR","line":5,"station_name":"Batuceper"},{"station_id":"TTI","distance":2028,"station_name":"Tanah Tinggi","i_long":106.64657,"is_transit":false,"time":3,"transit":false,"line":5,"i_lat":-6.17331}],[{"station_name":"Jakarta Kota","time":0,"i_lat":-6.137569,"distance":0,"i_long":106.812439,"station_id":"JAKK","line":2,"transit":false,"is_transit":false},{"time":4,"is_transit":false,"i_lat":-6.141205,"line":2,"transit":false,"distance":1264,"i_long":106.820901,"station_name":"Jayakarta","station_id":"JAY"},{"line":2,"distance":1080,"station_name":"Manggabesar","is_transit":false,"time":2,"transit":false,"station_id":"MGB","i_lat":-6.149769,"i_long":106.82482},{"station_name":"Sawah Besar","station_id":"SW","i_lat":-6.160725,"i_long":106.827103,"line":2,"is_transit":false,"time":2,"transit":false,"distance":906},{"time":2,"i_long":106.828284,"station_id":"JUA","is_transit":false,"distance":1149,"i_lat":-6.166716,"line":2,"transit":false,"station_name":"Juanda"},{"line":2,"transit":false,"station_id":"GDD","i_lat":-6.186295,"distance":2015,"time":4,"is_transit":false,"station_name":"Gondangdia","i_long":106.832183},{"transit":false,"is_transit":false,"station_id":"CKI","i_long":106.840169,"distance":1750,"station_name":"Cikini","time":3,"i_lat":-6.198556,"line":2},{"i_lat":-6.209883,"line":2,"is_transit":true,"i_long":106.84912,"station_name":"Manggarai","time":4,"distance":1590,"transit":true,"station_id":"MRI"},{"station_id":"SUD","time":4,"line":1,"station_name":"Sudirman","is_transit":false,"distance":3186,"i_long":106.822649,"transit":false,"i_lat":-6.202263},{"station_id":"SUDB","i_lat":-6.201433,"i_long":106.819881,"time":1,"is_transit":false,"distance":280,"line":1,"station_name":"Sudirman Baru","transit":false},{"transit":false,"station_id":"KAT","is_transit":false,"station_name":"Karet","time":1,"i_long":106.816351,"i_lat":-6.20132,"distance":471,"line":1},{"i_lat":-6.185545,"station_name":"Tanah Abang","is_transit":false,"station_id":"THB","distance":2029,"i_long":106.811091,"line":1,"transit":false,"time":5},{"station_name":"Duri","is_transit":true,"station_id":"DU","distance":3632,"i_long":106.800832,"time":8,"transit":true,"i_lat":-6.155215,"line":1},{"distance":1700,"i_long":106.788277,"transit":false,"station_id":"GGL","station_name":"Grogol","line":5,"is_transit":false,"time":3,"i_lat":-6.162021},{"distance":2036,"station_name":"Pesing","station_id":"PSG","transit":false,"line":5,"i_lat":-6.161433,"is_transit":false,"time":2,"i_long":106.771379},{"transit":false,"station_id":"TKO","i_lat":-6.1587309999999995,"i_long":106.756522,"line":5,"station_name":"Taman Kota","is_transit":false,"distance":1614,"time":2},{"distance":2334,"station_name":"Bojongindah","line":5,"transit":false,"is_transit":false,"time":2,"i_long":106.737035,"i_lat":-6.159876,"station_id":"BOI"},{"time":4,"transit":false,"i_long":106.723064,"line":5,"station_id":"RW","station_name":"Rawa Buaya","i_lat":-6.162758,"is_transit":false,"distance":1152},{"station_name":"Kalideres","distance":2504,"transit":false,"line":5,"time":3,"station_id":"KDS","i_long":106.701612,"is_transit":false,"i_lat":-6.166068},{"is_transit":false,"transit":false,"i_lat":-6.169933,"station_id":"PI","station_name":"Poris","line":5,"distance":2548,"i_long":106.679458,"time":3},{"i_lat":-6.171811,"i_long":106.665036,"distance":1834,"transit":false,"station_id":"BPR","station_name":"Batuceper","time":3,"is_transit":false,"line":5},{"station_id":"TTI","distance":2028,"i_long":106.64657,"transit":false,"time":3,"is_transit":false,"station_name":"Tanah Tinggi","line":5,"i_lat":-6.17331}],[{"time":0,"i_lat":-6.137569,"line":2,"i_long":106.812439,"station_name":"Jakarta Kota","transit":false,"distance":0,"is_transit":false,"station_id":"JAKK"},{"i_long":106.826365,"line":4,"station_name":"Kampung Bandan","i_lat":-6.132549,"transit":true,"time":3,"distance":1364,"is_transit":true,"station_id":"KPB"},{"time":3,"is_transit":false,"transit":false,"station_id":"RJW","i_long":106.836569,"i_lat":-6.14505,"station_name":"Rajawali","distance":1444,"line":11},{"i_lat":-6.161728,"station_id":"KMO","i_long":106.839204,"line":11,"station_name":"Kemayoran","transit":false,"is_transit":false,"time":5,"distance":1901},{"line":11,"transit":false,"station_id":"PSE","station_name":"Pasar Senen","is_transit":false,"i_lat":-6.174784,"i_long":106.84368,"distance":1436,"time":4},{"line":11,"station_name":"Gang Sentiong","i_lat":-6.185975,"distance":1567,"time":8,"station_id":"GST","transit":false,"is_transit":false,"i_long":106.850107},{"is_transit":false,"time":1,"i_lat":-6.193792,"i_long":106.855437,"distance":973,"transit":false,"station_name":"Kramat","line":11,"station_id":"KMT"},{"i_long":106.861737,"station_name":"Pondok Jati","distance":1829,"transit":false,"station_id":"POK","time":2,"i_lat":-6.209188,"line":11,"is_transit":false},{"distance":1236,"station_id":"JNG","time":9,"i_long":106.86807400000001,"station_name":"Jatinegara","i_lat":-6.215091,"line":1,"is_transit":true,"transit":true},{"is_transit":false,"transit":false,"time":2,"distance":1377,"i_lat":-6.212485,"i_long":106.858896,"line":1,"station_name":"Matraman","station_id":"MTR"},{"station_name":"Manggarai","distance":1275,"transit":false,"time":2,"station_id":"MRI","i_lat":-6.209883,"line":2,"i_long":106.84912,"is_transit":false},{"time":4,"line":1,"i_lat":-6.202263,"i_long":106.822649,"station_name":"Sudirman","transit":false,"station_id":"SUD","is_transit":false,"distance":3186},{"time":1,"line":1,"station_name":"Sudirman Baru","is_transit":false,"distance":280,"i_lat":-6.201433,"transit":false,"i_long":106.819881,"station_id":"SUDB"},{"distance":471,"transit":false,"station_name":"Karet","i_long":106.816351,"is_transit":false,"line":1,"station_id":"KAT","time":1,"i_lat":-6.20132},{"transit":false,"time":5,"line":1,"station_name":"Tanah Abang","distance":2029,"is_transit":false,"i_long":106.811091,"i_lat":-6.185545,"station_id":"THB"},{"distance":3632,"transit":true,"station_name":"Duri","station_id":"DU","time":8,"i_lat":-6.155215,"i_long":106.800832,"line":1,"is_transit":true},{"is_transit":false,"line":5,"transit":false,"time":3,"i_lat":-6.162021,"i_long":106.788277,"distance":1700,"station_name":"Grogol","station_id":"GGL"},{"distance":2036,"transit":false,"station_name":"Pesing","i_lat":-6.161433,"line":5,"is_transit":false,"time":2,"station_id":"PSG","i_long":106.771379},{"transit":false,"is_transit":false,"station_name":"Taman Kota","line":5,"time":2,"i_lat":-6.1587309999999995,"i_long":106.756522,"distance":1614,"station_id":"TKO"},{"time":2,"distance":2334,"i_lat":-6.159876,"station_name":"Bojongindah","line":5,"i_long":106.737035,"is_transit":false,"transit":false,"station_id":"BOI"},{"time":4,"transit":false,"line":5,"distance":1152,"i_long":106.723064,"station_id":"RW","station_name":"Rawa Buaya","i_lat":-6.162758,"is_transit":false},{"is_transit":false,"time":3,"transit":false,"i_lat":-6.166068,"line":5,"station_id":"KDS","distance":2504,"station_name":"Kalideres","i_long":106.701612},{"distance":2548,"transit":false,"is_transit":false,"i_lat":-6.169933,"station_name":"Poris","line":5,"i_long":106.679458,"station_id":"PI","time":3},{"i_long":106.665036,"transit":false,"station_id":"BPR","station_name":"Batuceper","is_transit":false,"distance":1834,"i_lat":-6.171811,"time":3,"line":5},{"distance":2028,"station_id":"TTI","transit":false,"is_transit":false,"line":5,"i_lat":-6.17331,"i_long":106.64657,"station_name":"Tanah Tinggi","time":3}],[{"i_lat":-6.137569,"station_id":"JAKK","i_long":106.812439,"distance":0,"line":2,"station_name":"Jakarta Kota","is_transit":false,"time":0,"transit":false},{"line":2,"distance":1264,"time":4,"station_name":"Jayakarta","is_transit":false,"transit":false,"station_id":"JAY","i_lat":-6.141205,"i_long":106.820901},{"i_long":106.82482,"distance":1080,"time":2,"station_name":"Manggabesar","station_id":"MGB","is_transit":false,"line":2,"i_lat":-6.149769,"transit":false},{"i_lat":-6.160725,"i_long":106.827103,"distance":906,"station_name":"Sawah Besar","station_id":"SW","transit":false,"is_transit":false,"line":2,"time":2},{"i_lat":-6.166716,"time":2,"station_id":"JUA","transit":false,"station_name":"Juanda","i_long":106.828284,"line":2,"is_transit":false,"distance":1149},{"distance":2015,"line":2,"transit":false,"time":4,"i_lat":-6.186295,"station_id":"GDD","is_transit":false,"station_name":"Gondangdia","i_long":106.832183},{"distance":1750,"time":3,"i_long":106.840169,"i_lat":-6.198556,"station_name":"Cikini","station_id":"CKI","is_transit":false,"line":2,"transit":false},{"station_id":"MRI","i_lat":-6.209883,"is_transit":true,"distance":1590,"transit":true,"line":2,"i_long":106.84912,"time":4,"station_name":"Manggarai"},{"is_transit":false,"line":1,"time":2,"transit":false,"i_long":106.858896,"distance":1275,"station_id":"MTR","i_lat":-6.212485,"station_name":"Matraman"},{"transit":true,"line":1,"is_transit":true,"station_name":"Jatinegara","time":8,"station_id":"JNG","i_long":106.86807400000001,"i_lat":-6.215091,"distance":1377},{"line":11,"is_transit":false,"time":2,"transit":false,"i_long":106.861737,"station_id":"POK","distance":1236,"station_name":"Pondok Jati","i_lat":-6.209188},{"transit":false,"i_long":106.855437,"time":2,"i_lat":-6.193792,"station_id":"KMT","station_name":"Kramat","distance":1829,"is_transit":false,"line":11},{"distance":973,"line":11,"transit":false,"is_transit":false,"i_long":106.850107,"station_name":"Gang Sentiong","station_id":"GST","time":1,"i_lat":-6.185975},{"is_transit":false,"i_lat":-6.174784,"i_long":106.84368,"distance":1567,"transit":false,"line":11,"station_name":"Pasar Senen","station_id":"PSE","time":8},{"line":11,"transit":false,"time":4,"i_lat":-6.161728,"distance":1436,"is_transit":false,"i_long":106.839204,"station_name":"Kemayoran","station_id":"KMO"},{"station_name":"Rajawali","is_transit":false,"station_id":"RJW","time":5,"line":11,"distance":1901,"i_long":106.836569,"i_lat":-6.14505,"transit":false},{"i_long":106.826365,"i_lat":-6.132549,"line":4,"is_transit":true,"transit":true,"station_name":"Kampung Bandan","station_id":"KPB","time":3,"distance":1444},{"station_id":"AK","station_name":"Angke","time":9,"distance":4102,"is_transit":false,"transit":false,"i_lat":-6.144674,"i_long":106.79867,"line":1},{"station_name":"Duri","time":4,"distance":1230,"line":1,"station_id":"DU","i_long":106.800832,"is_transit":true,"i_lat":-6.155215,"transit":true},{"is_transit":false,"distance":1700,"station_id":"GGL","i_long":106.788277,"i_lat":-6.162021,"station_name":"Grogol","line":5,"time":3,"transit":false},{"time":2,"is_transit":false,"transit":false,"station_name":"Pesing","station_id":"PSG","i_lat":-6.161433,"i_long":106.771379,"line":5,"distance":2036},{"line":5,"distance":1614,"is_transit":false,"transit":false,"station_name":"Taman Kota","time":2,"i_lat":-6.1587309999999995,"station_id":"TKO","i_long":106.756522},{"station_name":"Bojongindah","i_lat":-6.159876,"station_id":"BOI","transit":false,"line":5,"distance":2334,"time":2,"is_transit":false,"i_long":106.737035},{"is_transit":false,"transit":false,"i_lat":-6.162758,"line":5,"station_name":"Rawa Buaya","distance":1152,"station_id":"RW","i_long":106.723064,"time":4},{"station_id":"KDS","distance":2504,"transit":false,"is_transit":false,"time":3,"line":5,"station_name":"Kalideres","i_lat":-6.166068,"i_long":106.701612},{"transit":false,"time":3,"is_transit":false,"i_long":106.679458,"i_lat":-6.169933,"station_name":"Poris","line":5,"station_id":"PI","distance":2548},{"distance":1834,"transit":false,"is_transit":false,"station_id":"BPR","i_lat":-6.171811,"line":5,"i_long":106.665036,"station_name":"Batuceper","time":3},{"transit":false,"i_long":106.64657,"i_lat":-6.17331,"line":5,"is_transit":false,"station_id":"TTI","distance":2028,"time":3,"station_name":"Tanah Tinggi"}]]}