{"data":[[{"station_id":"JAY","station_name":"Jayakarta","i_long":106.820901,"is_transit":false,"time":0,"line":2,"distance":0,"transit":false,"i_lat":-6.141205},{"i_lat":-6.149769,"station_name":"Manggabesar","time":2,"is_transit":false,"distance":1080,"transit":false,"i_long":106.82482,"line":2,"station_id":"MGB"},{"station_name":"Sawah Besar","transit":false,"time":2,"station_id":"SW","line":2,"distance":906,"is_transit":false,"i_lat":-6.160725,"i_long":106.827103},{"i_lat":-6.166716,"i_long":106.828284,"line":2,"is_transit":false,"distance":1149,"station_name":"Juanda","station_id":"JUA","transit":false,"time":2},{"station_id":"GDD","line":2,"i_long":106.832183,"transit":false,"is_transit":false,"i_lat":-6.186295,"time":4,"station_name":"Gondangdia","distance":2015},{"time":3,"i_long":106.840169,"station_id":"CKI","i_lat":-6.198556,"line":2,"distance":1750,"station_name":"Cikini","transit":false,"is_transit":false},{"station_name":"Manggarai","distance":1590,"station_id":"MRI","is_transit":false,"time":4,"i_lat":-6.209883,"i_long":106.84912,"line":2,"transit":false},{"transit":false,"i_long":106.857948,"time":4,"station_id":"TEB","i_lat":-6.226659,"is_transit":false,"line":2,"station_name":"Tebet","distance":2610},{"distance":1230,"is_transit":false,"i_lat":-6.242512,"line":2,"station_name":"Cawang","station_id":"CW","i_long":106.856607,"transit":false,"time":2}],[{"station_name":"Jayakarta","station_id":"JAY","is_transit":false,"i_lat":-6.141205,"time":0,"i_long":106.820901,"line":2,"distance":0,"transit":false},{"i_long":106.812439,"line":2,"i_lat":-6.137569,"distance":1264,"station_id":"JAKK","station_name":"Jakarta Kota","is_transit":true,"time":4,"transit":true},{"transit":true,"is_transit":true,"station_name":"Kampung Bandan","line":4,"station_id":"KPB","time":3,"distance":1364,"i_lat":-6.132549,"i_long":106.826365},{"i_long":106.79867,"time":9,"station_id":"AK","station_name":"Angke","transit":false,"line":1,"distance":4102,"is_transit":false,"i_lat":-6.144674},{"i_lat":-6.155215,"distance":1230,"station_name":"Duri","time":4,"i_long":106.800832,"transit":false,"station_id":"DU","is_transit":false,"line":1},{"is_transit":false,"station_name":"Tanah Abang","i_lat":-6.185545,"distance":3632,"station_id":"THB","i_long":106.811091,"line":1,"transit":false,"time":8},{"transit":false,"line":1,"is_transit":false,"time":5,"i_long":106.816351,"station_id":"KAT","i_lat":-6.20132,"distance":2029,"station_name":"Karet"},{"i_long":106.819881,"distance":471,"line":1,"is_transit":false,"time":1,"transit":false,"station_id":"SUDB","station_name":"Sudirman Baru","i_lat":-6.201433},{"is_transit":false,"time":1,"station_name":"Sudirman","line":1,"i_lat":-6.202263,"distance":280,"station_id":"SUD","i_long":106.822649,"transit":false},{"station_id":"MRI","line":2,"transit":true,"distance":3186,"is_transit":true,"station_name":"Manggarai","i_lat":-6.209883,"i_long":106.84912,"time":4},{"distance":2610,"station_id":"TEB","station_name":"Tebet","i_long":106.857948,"line":2,"is_transit":false,"time":4,"transit":false,"i_lat":-6.226659},{"station_id":"CW","i_lat":-6.242512,"i_long":106.856607,"is_transit":false,"line":2,"distance":1230,"transit":false,"time":2,"station_name":"Cawang"}],[{"is_transit":false,"time":0,"station_name":"Jayakarta","i_lat":-6.141205,"i_long":106.820901,"distance":0,"station_id":"JAY","line":2,"transit":false},{"distance":1264,"station_name":"Jakarta Kota","i_long":106.812439,"is_transit":true,"station_id":"JAKK","time":4,"i_lat":-6.137569,"line":2,"transit":true},{"line":4,"station_name":"Kampung Bandan","transit":true,"is_transit":true,"i_long":106.826365,"distance":1364,"station_id":"KPB","time":3,"i_lat":-6.132549},{"i_long":106.836569,"transit":false,"is_transit":false,"station_id":"RJW","distance":1444,"station_name":"Rajawali","line":11,"time":3,"i_lat":-6.14505},{"i_lat":-6.161728,"station_id":"KMO","station_name":"Kemayoran","time":5,"transit":false,"line":11,"is_transit":false,"distance":1901,"i_long":106.839204},{"is_transit":false,"transit":false,"line":11,"i_lat":-6.174784,"time":4,"station_id":"PSE","i_long":106.84368,"station_name":"Pasar Senen","distance":1436},{"station_id":"GST","time":8,"i_long":106.850107,"station_name":"Gang Sentiong","line":11,"i_lat":-6.185975,"is_transit":false,"transit":false,"distance":1567},{"i_long":106.855437,"line":11,"i_lat":-6.193792,"transit":false,"station_name":"Kramat","is_transit":false,"time":1,"distance":973,"station_id":"KMT"},{"is_transit":false,"station_name":"Pondok Jati","station_id":"POK","time":2,"i_lat":-6.209188,"i_long":106.861737,"distance":1829,"line":11,"transit":false},{"line":1,"i_lat":-6.215091,"i_long":106.86807400000001,"station_id":"JNG","distance":1236,"station_name":"Jatinegara","transit":true,"is_transit":true,"time":9},{"i_lat":-6.212485,"distance":1377,"station_name":"Matraman","is_transit":false,"station_id":"MTR","i_long":106.858896,"time":2,"line":1,"transit":false},{"time":2,"transit":true,"station_name":"Manggarai","distance":1275,"station_id":"MRI","i_long":106.84912,"i_lat":-6.209883,"is_transit":true,"line":2},{"line":2,"distance":2610,"time":4,"is_transit":false,"station_name":"Tebet","i_lat":-6.226659,"i_long":106.857948,"station_id":"TEB","transit":false},{"line":2,"is_transit":false,"time":2,"transit":false,"station_name":"Cawang","i_long":106.856607,"station_id":"CW","i_lat":-6.242512,"distance":1230}]]}