{"data":[[{"i_long":106.820901,"time":0,"line":2,"transit":false,"station_id":"JAY","station_name":"Jayakarta","distance":0,"i_lat":-6.141205,"is_transit":false},{"station_name":"Manggabesar","distance":1080,"is_transit":false,"i_lat":-6.149769,"line":2,"transit":false,"station_id":"MGB","i_long":106.82482,"time":2},{"station_name":"Sawah Besar","line":2,"i_lat":-6.160725,"i_long":106.827103,"time":2,"distance":906,"station_id":"SW","is_transit":false,"transit":false},{"station_id":"JUA","time":2,"distance":1149,"station_name":"Juanda","transit":false,"i_long":106.828284,"i_lat":-6.166716,"line":2,"is_transit":false},{"transit":false,"i_lat":-6.186295,"station_name":"Gondangdia","distance":2015,"is_transit":false,"time":4,"station_id":"GDD","i_long":106.832183,"line":2},{"i_lat":-6.198556,"is_transit":false,"time":3,"line":2,"i_long":106.840169,"station_id":"CKI","transit":false,"distance":1750,"station_name":"Cikini"},{"station_name":"Manggarai","line":2,"is_transit":false,"distance":1590,"time":4,"i_long":106.84912,"transit":false,"station_id":"MRI","i_lat":-6.209883},{"time":4,"transit":false,"line":2,"station_name":"Tebet","i_lat":-6.226659,"i_long":106.857948,"distance":2610,"station_id":"TEB","is_transit":false},{"station_name":"Cawang","i_lat":-6.242512,"station_id":"CW","i_long":106.856607,"time":2,"line":2,"is_transit":false,"transit":false,"distance":1230},{"time":3,"station_name":"Duren Kalibata","line":2,"distance":1546,"station_id":"DRN","i_lat":-6.255332,"transit":false,"is_transit":false,"i_long":106.85449},{"i_long":106.851577,"distance":824,"i_lat":-6.263214,"time":2,"station_id":"PSMB","transit":false,"is_transit":false,"station_name":"Pasar Minggu Baru","line":2},{"line":2,"distance":2380,"station_name":"Pasar Minggu","is_transit":false,"time":2,"i_lat":-6.2842400000000005,"station_id":"PSM","transit":false,"i_long":106.843999},{"i_long":106.838896,"time":4,"distance":2820,"station_id":"TNT","i_lat":-6.3080680000000005,"line":2,"is_transit":false,"station_name":"Tanjung Barat","transit":false},{"distance":2671,"is_transit":false,"station_name":"Lenteng Agung","station_id":"LNA","i_lat":-6.330363,"i_long":106.832616,"line":2,"transit":false,"time":3},{"distance":1029,"transit":false,"station_name":"Univ. Pancasila","is_transit":false,"i_lat":-6.339291,"i_long":106.834175,"time":2,"station_id":"UP","line":2},{"station_name":"Univ. Indonesia","time":3,"station_id":"UI","i_lat":-6.360749,"is_transit":false,"line":2,"distance":2264,"i_long":106.831474,"transit":false},{"time":2,"i_long":106.831114,"is_transit":false,"transit":false,"i_lat":-6.369073,"distance":1109,"station_id":"POC","line":2,"station_name":"Pondok Cina"},{"i_long":106.819451,"station_name":"Depokbaru","distance":2727,"transit":false,"line":2,"i_lat":-6.391065,"is_transit":false,"station_id":"DPB","time":4},{"station_id":"DP","i_long":106.816926,"i_lat":-6.405256,"is_transit":false,"transit":false,"line":2,"distance":1584,"station_name":"Depok","time":3},{"line":2,"transit":true,"station_id":"CTA","distance":5084,"station_name":"Citayam","i_long":106.800298,"time":6,"i_lat":-6.448811,"is_transit":true},{"i_lat":-6.460735,"line":21,"distance":0,"is_transit":false,"i_long":106.824374,"station_name":"Pondok Rajeg","time":0,"transit":false,"station_id":"PDRG"},{"line":21,"transit":false,"is_transit":false,"station_name":"Cibinong","i_long":106.851978,"station_id":"CBN","distance":0,"time":0,"i_lat":-6.46424}],[{"station_name":"Jayakarta","station_id":"JAY","transit":false,"i_long":106.820901,"line":2,"i_lat":-6.141205,"time":0,"distance":0,"is_transit":false},{"station_name":"Jakarta Kota","line":2,"distance":1264,"i_lat":-6.137569,"transit":true,"time":4,"is_transit":true,"station_id":"JAKK","i_long":106.812439},{"transit":true,"is_transit":true,"station_name":"Kampung Bandan","distance":1364,"i_lat":-6.132549,"line":4,"i_long":106.826365,"time":3,"station_id":"KPB"},{"distance":4102,"time":9,"station_name":"Angke","station_id":"AK","transit":false,"is_transit":false,"i_long":106.79867,"i_lat":-6.144674,"line":1},{"transit":false,"is_transit":false,"line":1,"station_name":"Duri","i_lat":-6.155215,"station_id":"DU","i_long":106.800832,"distance":1230,"time":4},{"i_lat":-6.185545,"transit":false,"station_id":"THB","distance":3632,"time":8,"line":1,"is_transit":false,"station_name":"Tanah Abang","i_long":106.811091},{"transit":false,"station_id":"KAT","i_long":106.816351,"station_name":"Karet","distance":2029,"time":5,"is_transit":false,"line":1,"i_lat":-6.20132},{"is_transit":false,"transit":false,"i_lat":-6.201433,"station_id":"SUDB","line":1,"time":1,"i_long":106.819881,"distance":471,"station_name":"Sudirman Baru"},{"line":1,"distance":280,"transit":false,"station_id":"SUD","i_lat":-6.202263,"i_long":106.822649,"is_transit":false,"station_name":"Sudirman","time":1},{"distance":3186,"i_long":106.84912,"station_id":"MRI","is_transit":true,"time":4,"station_name":"Manggarai","transit":true,"i_lat":-6.209883,"line":2},{"i_long":106.857948,"i_lat":-6.226659,"transit":false,"is_transit":false,"line":2,"station_name":"Tebet","distance":2610,"station_id":"TEB","time":4},{"transit":false,"station_id":"CW","i_long":106.856607,"distance":1230,"i_lat":-6.242512,"line":2,"time":2,"is_transit":false,"station_name":"Cawang"},{"i_long":106.85449,"i_lat":-6.255332,"distance":1546,"station_name":"Duren Kalibata","time":3,"is_transit":false,"transit":false,"station_id":"DRN","line":2},{"i_long":106.851577,"line":2,"station_id":"PSMB","transit":false,"distance":824,"i_lat":-6.263214,"time":2,"station_name":"Pasar Minggu Baru","is_transit":false},{"line":2,"transit":false,"station_id":"PSM","is_transit":false,"station_name":"Pasar Minggu","time":2,"distance":2380,"i_lat":-6.2842400000000005,"i_long":106.843999},{"is_transit":false,"line":2,"time":4,"distance":2820,"transit":false,"i_lat":-6.3080680000000005,"station_name":"Tanjung Barat","station_id":"TNT","i_long":106.838896},{"line":2,"i_long":106.832616,"station_name":"Lenteng Agung","transit":false,"distance":2671,"is_transit":false,"time":3,"station_id":"LNA","i_lat":-6.330363},{"station_id":"UP","i_lat":-6.339291,"line":2,"distance":1029,"transit":false,"is_transit":false,"station_name":"Univ. Pancasila","time":2,"i_long":106.834175},{"distance":2264,"station_id":"UI","time":3,"transit":false,"i_lat":-6.360749,"station_name":"Univ. Indonesia","i_long":106.831474,"is_transit":false,"line":2},{"is_transit":false,"line":2,"distance":1109,"station_id":"POC","station_name":"Pondok Cina","i_lat":-6.369073,"time":2,"i_long":106.831114,"transit":false},{"station_name":"Depokbaru","i_long":106.819451,"distance":2727,"time":4,"is_transit":false,"i_lat":-6.391065,"transit":false,"station_id":"DPB","line":2},{"i_long":106.816926,"transit":false,"station_id":"DP","line":2,"distance":1584,"station_name":"Depok","time":3,"is_transit":false,"i_lat":-6.405256},{"time":6,"is_transit":true,"station_name":"Citayam","i_lat":-6.448811,"i_long":106.800298,"line":2,"transit":true,"distance":5084,"station_id":"CTA"},{"distance":0,"is_transit":false,"station_name":"Pondok Rajeg","i_lat":-6.460735,"station_id":"PDRG","i_long":106.824374,"time":0,"transit":false,"line":21},{"station_name":"Cibinong","i_long":106.851978,"transit":false,"distance":0,"is_transit":false,"i_lat":-6.46424,"line":21,"station_id":"CBN","time":0}],[{"i_long":106.820901,"line":2,"station_name":"Jayakarta","time":0,"station_id":"JAY","transit":false,"is_transit":false,"distance":0,"i_lat":-6.141205},{"i_long":106.812439,"distance":1264,"transit":true,"is_transit":true,"station_id":"JAKK","station_name":"Jakarta Kota","line":2,"time":4,"i_lat":-6.137569},{"time":3,"i_lat":-6.132549,"transit":true,"distance":1364,"i_long":106.826365,"line":4,"is_transit":true,"station_id":"KPB","station_name":"Kampung Bandan"},{"transit":false,"time":3,"is_transit":false,"line":11,"station_name":"Rajawali","station_id":"RJW","distance":1444,"i_lat":-6.14505,"i_long":106.836569},{"station_name":"Kemayoran","transit":false,"station_id":"KMO","is_transit":false,"i_lat":-6.161728,"i_long":106.839204,"line":11,"time":5,"distance":1901},{"i_long":106.84368,"i_lat":-6.174784,"station_name":"Pasar Senen","is_transit":false,"distance":1436,"transit":false,"line":11,"time":4,"station_id":"PSE"},{"station_name":"Gang Sentiong","distance":1567,"station_id":"GST","line":11,"time":8,"i_long":106.850107,"transit":false,"i_lat":-6.185975,"is_transit":false},{"time":1,"station_name":"Kramat","distance":973,"i_lat":-6.193792,"line":11,"transit":false,"is_transit":false,"station_id":"KMT","i_long":106.855437},{"time":2,"i_lat":-6.209188,"distance":1829,"is_transit":false,"station_name":"Pondok Jati","transit":false,"station_id":"POK","i_long":106.861737,"line":11},{"is_transit":true,"station_id":"JNG","line":1,"distance":1236,"transit":true,"time":9,"i_lat":-6.215091,"i_long":106.86807400000001,"station_name":"Jatinegara"},{"line":1,"station_name":"Matraman","station_id":"MTR","distance":1377,"time":2,"i_long":106.858896,"is_transit":false,"i_lat":-6.212485,"transit":false},{"station_name":"Manggarai","i_lat":-6.209883,"distance":1275,"transit":true,"station_id":"MRI","time":2,"i_long":106.84912,"line":2,"is_transit":true},{"is_transit":false,"station_name":"Tebet","line":2,"i_lat":-6.226659,"transit":false,"distance":2610,"time":4,"station_id":"TEB","i_long":106.857948},{"line":2,"distance":1230,"is_transit":false,"transit":false,"station_name":"Cawang","i_long":106.856607,"station_id":"CW","i_lat":-6.242512,"time":2},{"i_lat":-6.255332,"line":2,"is_transit":false,"time":3,"transit":false,"station_id":"DRN","distance":1546,"station_name":"Duren Kalibata","i_long":106.85449},{"i_lat":-6.263214,"distance":824,"is_transit":false,"time":2,"i_long":106.851577,"station_name":"Pasar Minggu Baru","station_id":"PSMB","line":2,"transit":false},{"is_transit":false,"transit":false,"time":2,"i_lat":-6.2842400000000005,"station_id":"PSM","station_name":"Pasar Minggu","line":2,"i_long":106.843999,"distance":2380},{"distance":2820,"station_id":"TNT","is_transit":false,"time":4,"station_name":"Tanjung Barat","i_lat":-6.3080680000000005,"i_long":106.838896,"line":2,"transit":false},{"time":3,"i_long":106.832616,"distance":2671,"line":2,"station_name":"Lenteng Agung","transit":false,"is_transit":false,"station_id":"LNA","i_lat":-6.330363},{"station_name":"Univ. Pancasila","i_lat":-6.339291,"i_long":106.834175,"distance":1029,"time":2,"line":2,"station_id":"UP","transit":false,"is_transit":false},{"i_lat":-6.360749,"distance":2264,"line":2,"station_id":"UI","station_name":"Univ. Indonesia","is_transit":false,"time":3,"i_long":106.831474,"transit":false},{"i_lat":-6.369073,"is_transit":false,"i_long":106.831114,"distance":1109,"time":2,"line":2,"transit":false,"station_id":"POC","station_name":"Pondok Cina"},{"line":2,"i_lat":-6.391065,"station_id":"DPB","station_name":"Depokbaru","is_transit":false,"time":4,"i_long":106.819451,"transit":false,"distance":2727},{"i_lat":-6.405256,"station_id":"DP","line":2,"distance":1584,"is_transit":false,"station_name":"Depok","i_long":106.816926,"transit":false,"time":3},{"time":6,"i_long":106.800298,"station_id":"CTA","station_name":"Citayam","line":2,"distance":5084,"transit":true,"i_lat":-6.448811,"is_transit":true},{"transit":false,"time":0,"station_name":"Pondok Rajeg","distance":0,"is_transit":false,"i_lat":-6.460735,"i_long":106.824374,"line":21,"station_id":"PDRG"},{"is_transit":false,"time":0,"line":21,"distance":0,"station_id":"CBN","i_lat":-6.46424,"station_name":"Cibinong","i_long":106.851978,"transit":false}]]}