{"data":[[{"i_lat":-6.141205,"time":0,"distance":0,"line":2,"station_name":"Jayakarta","is_transit":false,"i_long":106.820901,"station_id":"JAY","transit":false},{"station_name":"Jakarta Kota","is_transit":true,"i_long":106.812439,"i_lat":-6.137569,"time":4,"line":2,"station_id":"JAKK","transit":true,"distance":1264},{"transit":true,"station_name":"Kampung Bandan","i_long":106.826365,"station_id":"KPB","i_lat":-6.132549,"is_transit":true,"distance":1364,"line":4,"time":3},{"distance":4102,"line":1,"time":9,"station_name":"Angke","i_long":106.79867,"is_transit":false,"transit":false,"i_lat":-6.144674,"station_id":"AK"},{"station_id":"DU","time":4,"is_transit":false,"i_long":106.800832,"line":1,"transit":false,"station_name":"Duri","i_lat":-6.155215,"distance":1230},{"line":1,"station_name":"Tanah Abang","is_transit":true,"distance":3632,"i_long":106.811091,"time":8,"station_id":"THB","transit":true,"i_lat":-6.185545},{"line":6,"station_name":"Palmerah","time":6,"distance":3191,"is_transit":false,"i_long":106.79689,"transit":false,"i_lat":-6.207404,"station_id":"PLM"},{"time":7,"station_name":"Kebayoran","station_id":"KBY","line":6,"is_transit":false,"i_lat":-6.237242,"i_long":106.780334,"distance":3737,"transit":false},{"i_lat":-6.276362,"time":8,"station_id":"PDJ","distance":6218,"is_transit":false,"transit":false,"line":6,"station_name":"Pondokranji","i_long":106.74273},{"station_id":"JMU","transit":false,"is_transit":false,"i_lat":-6.288927,"i_long":106.728916,"line":6,"distance":2179,"time":3,"station_name":"Jurangmangu"},{"i_long":106.712277,"time":4,"i_lat":-6.296963,"station_id":"SDM","station_name":"Sudimara","line":6,"distance":1994,"is_transit":false,"transit":false},{"time":6,"distance":4566,"i_long":106.675475,"station_id":"RU","station_name":"Rawa Buntu","is_transit":false,"transit":false,"line":6,"i_lat":-6.314823},{"station_name":"Serpong","time":4,"line":6,"is_transit":false,"distance":2413,"station_id":"SRP","transit":false,"i_lat":-6.319871,"i_long":106.66566},{"station_name":"Cisauk","time":4,"i_long":106.640411,"line":3,"i_lat":-6.32484,"station_id":"CSK","distance":1784,"transit":false,"is_transit":false},{"is_transit":false,"station_name":"Cicayur","i_lat":-6.329547,"time":4,"i_long":106.617853,"transit":false,"station_id":"CC","line":3,"distance":2519}],[{"time":0,"station_id":"JAY","i_lat":-6.141205,"station_name":"Jayakarta","line":2,"distance":0,"is_transit":false,"i_long":106.820901,"transit":false},{"line":2,"time":2,"station_name":"Manggabesar","i_lat":-6.149769,"is_transit":false,"transit":false,"distance":1080,"station_id":"MGB","i_long":106.82482},{"time":2,"transit":false,"station_name":"Sawah Besar","station_id":"SW","i_lat":-6.160725,"distance":906,"is_transit":false,"i_long":106.827103,"line":2},{"distance":1149,"transit":false,"station_name":"Juanda","i_lat":-6.166716,"is_transit":false,"line":2,"i_long":106.828284,"station_id":"JUA","time":2},{"distance":2015,"transit":false,"station_name":"Gondangdia","i_lat":-6.186295,"time":4,"station_id":"GDD","is_transit":false,"line":2,"i_long":106.832183},{"transit":false,"station_id":"CKI","station_name":"Cikini","line":2,"is_transit":false,"distance":1750,"time":3,"i_lat":-6.198556,"i_long":106.840169},{"i_lat":-6.209883,"time":4,"distance":1590,"station_id":"MRI","is_transit":true,"transit":true,"i_long":106.84912,"line":2,"station_name":"Manggarai"},{"distance":3186,"station_name":"Sudirman","i_lat":-6.202263,"i_long":106.822649,"transit":false,"station_id":"SUD","is_transit":false,"line":1,"time":4},{"is_transit":false,"station_name":"Sudirman Baru","i_long":106.819881,"time":1,"line":1,"distance":280,"station_id":"SUDB","i_lat":-6.201433,"transit":false},{"is_transit":false,"station_name":"Karet","transit":false,"time":1,"station_id":"KAT","line":1,"i_lat":-6.20132,"i_long":106.816351,"distance":471},{"station_name":"Tanah Abang","time":5,"distance":2029,"i_lat":-6.185545,"i_long":106.811091,"line":1,"transit":true,"station_id":"THB","is_transit":true},{"transit":false,"line":6,"distance":3191,"is_transit":false,"station_name":"Palmerah","i_long":106.79689,"time":6,"station_id":"PLM","i_lat":-6.207404},{"time":7,"i_long":106.780334,"station_id":"KBY","distance":3737,"station_name":"Kebayoran","is_transit":false,"transit":false,"i_lat":-6.237242,"line":6},{"line":6,"time":8,"i_lat":-6.276362,"i_long":106.74273,"station_id":"PDJ","transit":false,"station_name":"Pondokranji","distance":6218,"is_transit":false},{"line":6,"time":3,"transit":false,"i_long":106.728916,"distance":2179,"station_id":"JMU","station_name":"Jurangmangu","is_transit":false,"i_lat":-6.288927},{"station_id":"SDM","time":4,"transit":false,"i_long":106.712277,"station_name":"Sudimara","line":6,"i_lat":-6.296963,"distance":1994,"is_transit":false},{"station_id":"RU","transit":false,"station_name":"Rawa Buntu","i_lat":-6.314823,"is_transit":false,"i_long":106.675475,"line":6,"distance":4566,"time":6},{"transit":false,"is_transit":false,"station_id":"SRP","time":4,"line":6,"i_lat":-6.319871,"station_name":"Serpong","distance":2413,"i_long":106.66566},{"line":3,"i_long":106.640411,"time":4,"transit":false,"distance":1784,"i_lat":-6.32484,"station_id":"CSK","station_name":"Cisauk","is_transit":false},{"is_transit":false,"station_name":"Cicayur","transit":false,"i_long":106.617853,"line":3,"time":4,"distance":2519,"station_id":"CC","i_lat":-6.329547}],[{"line":2,"station_id":"JAY","station_name":"Jayakarta","transit":false,"distance":0,"is_transit":false,"time":0,"i_long":106.820901,"i_lat":-6.141205},{"transit":true,"i_lat":-6.137569,"station_name":"Jakarta Kota","time":4,"i_long":106.812439,"station_id":"JAKK","distance":1264,"line":2,"is_transit":true},{"time":3,"station_name":"Kampung Bandan","transit":true,"i_lat":-6.132549,"i_long":106.826365,"station_id":"KPB","distance":1364,"line":4,"is_transit":true},{"station_name":"Rajawali","time":3,"line":11,"is_transit":false,"transit":false,"station_id":"RJW","distance":1444,"i_lat":-6.14505,"i_long":106.836569},{"line":11,"distance":1901,"station_id":"KMO","i_long":106.839204,"is_transit":false,"i_lat":-6.161728,"time":5,"station_name":"Kemayoran","transit":false},{"station_id":"PSE","transit":false,"i_long":106.84368,"is_transit":false,"time":4,"i_lat":-6.174784,"station_name":"Pasar Senen","line":11,"distance":1436},{"station_id":"GST","is_transit":false,"transit":false,"i_lat":-6.185975,"i_long":106.850107,"line":11,"station_name":"Gang Sentiong","time":8,"distance":1567},{"transit":false,"distance":973,"i_lat":-6.193792,"i_long":106.855437,"line":11,"is_transit":false,"station_name":"Kramat","time":1,"station_id":"KMT"},{"is_transit":false,"distance":1829,"i_long":106.861737,"station_name":"Pondok Jati","station_id":"POK","transit":false,"i_lat":-6.209188,"time":2,"line":11},{"transit":true,"i_lat":-6.215091,"station_id":"JNG","time":9,"line":1,"is_transit":true,"distance":1236,"i_long":106.86807400000001,"station_name":"Jatinegara"},{"station_name":"Matraman","time":2,"transit":false,"distance":1377,"is_transit":false,"i_lat":-6.212485,"line":1,"i_long":106.858896,"station_id":"MTR"},{"transit":false,"station_name":"Manggarai","station_id":"MRI","is_transit":false,"distance":1275,"i_long":106.84912,"time":2,"i_lat":-6.209883,"line":2},{"is_transit":false,"time":4,"station_name":"Sudirman","i_lat":-6.202263,"i_long":106.822649,"transit":false,"line":1,"distance":3186,"station_id":"SUD"},{"station_name":"Sudirman Baru","i_lat":-6.201433,"station_id":"SUDB","time":1,"transit":false,"is_transit":false,"i_long":106.819881,"line":1,"distance":280},{"i_long":106.816351,"time":1,"station_id":"KAT","transit":false,"station_name":"Karet","line":1,"distance":471,"i_lat":-6.20132,"is_transit":false},{"distance":2029,"station_id":"THB","station_name":"Tanah Abang","time":5,"line":1,"transit":true,"i_lat":-6.185545,"i_long":106.811091,"is_transit":true},{"line":6,"transit":false,"is_transit":false,"i_long":106.79689,"time":6,"station_name":"Palmerah","station_id":"PLM","distance":3191,"i_lat":-6.207404},{"station_name":"Kebayoran","distance":3737,"i_long":106.780334,"time":7,"transit":false,"is_transit":false,"i_lat":-6.237242,"line":6,"station_id":"KBY"},{"station_id":"PDJ","time":8,"station_name":"Pondokranji","is_transit":false,"distance":6218,"transit":false,"i_lat":-6.276362,"i_long":106.74273,"line":6},{"distance":2179,"transit":false,"is_transit":false,"time":3,"i_lat":-6.288927,"i_long":106.728916,"station_id":"JMU","line":6,"station_name":"Jurangmangu"},{"line":6,"station_name":"Sudimara","distance":1994,"i_lat":-6.296963,"station_id":"SDM","time":4,"transit":false,"i_long":106.712277,"is_transit":false},{"station_name":"Rawa Buntu","is_transit":false,"time":6,"station_id":"RU","distance":4566,"transit":false,"i_long":106.675475,"line":6,"i_lat":-6.314823},{"station_id":"SRP","station_name":"Serpong","is_transit":false,"time":4,"i_long":106.66566,"distance":2413,"line":6,"i_lat":-6.319871,"transit":false},{"station_id":"CSK","transit":false,"line":3,"station_name":"Cisauk","is_transit":false,"distance":1784,"time":4,"i_lat":-6.32484,"i_long":106.640411},{"line":3,"time":4,"i_lat":-6.329547,"station_name":"Cicayur","i_long":106.617853,"transit":false,"station_id":"CC","is_transit":false,"distance":2519}],[{"distance":0,"station_name":"Jayakarta","time":0,"is_transit":false,"transit":false,"station_id":"JAY","i_lat":-6.141205,"i_long":106.820901,"line":2},{"station_id":"MGB","i_lat":-6.149769,"is_transit":false,"time":2,"transit":false,"distance":1080,"i_long":106.82482,"line":2,"station_name":"Manggabesar"},{"station_id":"SW","time":2,"transit":false,"is_transit":false,"station_name":"Sawah Besar","i_lat":-6.160725,"i_long":106.827103,"distance":906,"line":2},{"is_transit":false,"time":2,"line":2,"transit":false,"distance":1149,"station_id":"JUA","i_lat":-6.166716,"i_long":106.828284,"station_name":"Juanda"},{"line":2,"time":4,"is_transit":false,"station_id":"GDD","i_long":106.832183,"transit":false,"station_name":"Gondangdia","i_lat":-6.186295,"distance":2015},{"station_name":"Cikini","line":2,"i_lat":-6.198556,"is_transit":false,"distance":1750,"station_id":"CKI","time":3,"transit":false,"i_long":106.840169},{"i_lat":-6.209883,"distance":1590,"station_name":"Manggarai","i_long":106.84912,"station_id":"MRI","line":2,"time":4,"transit":true,"is_transit":true},{"station_name":"Matraman","i_lat":-6.212485,"i_long":106.858896,"distance":1275,"transit":false,"is_transit":false,"time":2,"line":1,"station_id":"MTR"},{"station_name":"Jatinegara","i_long":106.86807400000001,"is_transit":true,"time":8,"transit":true,"station_id":"JNG","distance":1377,"line":1,"i_lat":-6.215091},{"station_name":"Pondok Jati","transit":false,"time":2,"distance":1236,"is_transit":false,"station_id":"POK","i_lat":-6.209188,"i_long":106.861737,"line":11},{"station_name":"Kramat","i_long":106.855437,"i_lat":-6.193792,"is_transit":false,"transit":false,"station_id":"KMT","distance":1829,"line":11,"time":2},{"is_transit":false,"line":11,"i_long":106.850107,"i_lat":-6.185975,"station_id":"GST","distance":973,"time":1,"station_name":"Gang Sentiong","transit":false},{"i_lat":-6.174784,"time":8,"i_long":106.84368,"station_name":"Pasar Senen","distance":1567,"transit":false,"station_id":"PSE","line":11,"is_transit":false},{"is_transit":false,"station_id":"KMO","i_lat":-6.161728,"line":11,"distance":1436,"station_name":"Kemayoran","time":4,"transit":false,"i_long":106.839204},{"time":5,"is_transit":false,"station_name":"Rajawali","distance":1901,"station_id":"RJW","line":11,"i_long":106.836569,"transit":false,"i_lat":-6.14505},{"time":3,"line":4,"transit":true,"distance":1444,"station_id":"KPB","i_lat":-6.132549,"i_long":106.826365,"station_name":"Kampung Bandan","is_transit":true},{"transit":false,"station_id":"AK","station_name":"Angke","distance":4102,"is_transit":false,"line":1,"i_lat":-6.144674,"i_long":106.79867,"time":9},{"is_transit":false,"i_long":106.800832,"station_id":"DU","distance":1230,"transit":false,"i_lat":-6.155215,"line":1,"station_name":"Duri","time":4},{"station_name":"Tanah Abang","is_transit":true,"time":8,"transit":true,"distance":3632,"i_lat":-6.185545,"station_id":"THB","line":1,"i_long":106.811091},{"station_id":"PLM","time":6,"transit":false,"station_name":"Palmerah","distance":3191,"i_lat":-6.207404,"is_transit":false,"i_long":106.79689,"line":6},{"station_name":"Kebayoran","transit":false,"station_id":"KBY","time":7,"is_transit":false,"i_lat":-6.237242,"distance":3737,"i_long":106.780334,"line":6},{"station_name":"Pondokranji","transit":false,"line":6,"i_long":106.74273,"time":8,"station_id":"PDJ","i_lat":-6.276362,"is_transit":false,"distance":6218},{"station_id":"JMU","is_transit":false,"i_long":106.728916,"line":6,"transit":false,"station_name":"Jurangmangu","time":3,"distance":2179,"i_lat":-6.288927},{"station_name":"Sudimara","line":6,"time":4,"distance":1994,"i_lat":-6.296963,"transit":false,"is_transit":false,"station_id":"SDM","i_long":106.712277},{"transit":false,"station_name":"Rawa Buntu","i_lat":-6.314823,"i_long":106.675475,"distance":4566,"line":6,"is_transit":false,"time":6,"station_id":"RU"},{"line":6,"is_transit":false,"station_name":"Serpong","transit":false,"i_lat":-6.319871,"time":4,"station_id":"SRP","i_long":106.66566,"distance":2413},{"is_transit":false,"line":3,"time":4,"station_id":"CSK","i_long":106.640411,"station_name":"Cisauk","i_lat":-6.32484,"distance":1784,"transit":false},{"is_transit":false,"station_id":"CC","station_name":"Cicayur","distance":2519,"i_long":106.617853,"line":3,"time":4,"transit":false,"i_lat":-6.329547}]]}