{"data":[[{"line":2,"i_long":106.820901,"is_transit":false,"time":0,"distance":0,"transit":false,"station_name":"Jayakarta","station_id":"JAY","i_lat":-6.141205},{"distance":1080,"time":2,"station_name":"Manggabesar","station_id":"MGB","is_transit":false,"i_lat":-6.149769,"i_long":106.82482,"transit":false,"line":2},{"transit":false,"is_transit":false,"distance":906,"i_long":106.827103,"time":2,"station_name":"Sawah Besar","i_lat":-6.160725,"line":2,"station_id":"SW"},{"station_id":"JUA","station_name":"Juanda","is_transit":false,"line":2,"time":2,"i_long":106.828284,"distance":1149,"i_lat":-6.166716,"transit":false},{"is_transit":false,"time":4,"station_id":"GDD","transit":false,"distance":2015,"i_lat":-6.186295,"station_name":"Gondangdia","i_long":106.832183,"line":2},{"i_long":106.840169,"station_name":"Cikini","is_transit":false,"distance":1750,"line":2,"transit":false,"time":3,"station_id":"CKI","i_lat":-6.198556},{"station_name":"Manggarai","i_long":106.84912,"time":4,"distance":1590,"line":2,"i_lat":-6.209883,"is_transit":true,"transit":true,"station_id":"MRI"},{"station_name":"Sudirman","is_transit":false,"distance":3186,"i_long":106.822649,"i_lat":-6.202263,"line":1,"transit":false,"time":4,"station_id":"SUD"}],[{"station_id":"JAY","station_name":"Jayakarta","time":0,"transit":false,"i_long":106.820901,"i_lat":-6.141205,"line":2,"is_transit":false,"distance":0},{"i_lat":-6.137569,"time":4,"i_long":106.812439,"is_transit":true,"station_id":"JAKK","line":2,"distance":1264,"station_name":"Jakarta Kota","transit":true},{"transit":true,"line":4,"station_id":"KPB","time":3,"is_transit":true,"i_long":106.826365,"distance":1364,"i_lat":-6.132549,"station_name":"Kampung Bandan"},{"transit":false,"line":1,"i_lat":-6.144674,"station_id":"AK","distance":4102,"time":9,"is_transit":false,"station_name":"Angke","i_long":106.79867},{"distance":1230,"i_lat":-6.155215,"line":1,"station_name":"Duri","time":4,"i_long":106.800832,"station_id":"DU","transit":false,"is_transit":false},{"i_lat":-6.185545,"line":1,"is_transit":false,"i_long":106.811091,"time":8,"transit":false,"station_id":"THB","distance":3632,"station_name":"Tanah Abang"},{"line":1,"station_id":"KAT","station_name":"Karet","i_long":106.816351,"distance":2029,"is_transit":false,"transit":false,"i_lat":-6.20132,"time":5},{"line":1,"time":1,"transit":false,"distance":471,"station_name":"Sudirman Baru","is_transit":false,"station_id":"SUDB","i_lat":-6.201433,"i_long":106.819881},{"transit":false,"station_id":"SUD","distance":280,"i_lat":-6.202263,"i_long":106.822649,"is_transit":false,"station_name":"Sudirman","line":1,"time":1}],[{"is_transit":false,"transit":false,"line":2,"i_lat":-6.141205,"i_long":106.820901,"time":0,"station_name":"Jayakarta","distance":0,"station_id":"JAY"},{"time":4,"i_lat":-6.137569,"is_transit":true,"station_name":"Jakarta Kota","distance":1264,"station_id":"JAKK","transit":true,"i_long":106.812439,"line":2},{"distance":1364,"line":4,"transit":true,"time":3,"station_name":"Kampung Bandan","is_transit":true,"i_long":106.826365,"station_id":"KPB","i_lat":-6.132549},{"distance":1444,"station_name":"Rajawali","i_long":106.836569,"station_id":"RJW","transit":false,"line":11,"time":3,"i_lat":-6.14505,"is_transit":false},{"i_lat":-6.161728,"i_long":106.839204,"station_name":"Kemayoran","transit":false,"station_id":"KMO","line":11,"time":5,"is_transit":false,"distance":1901},{"is_transit":false,"transit":false,"station_id":"PSE","station_name":"Pasar Senen","i_long":106.84368,"i_lat":-6.174784,"line":11,"distance":1436,"time":4},{"time":8,"station_id":"GST","distance":1567,"i_long":106.850107,"line":11,"is_transit":false,"i_lat":-6.185975,"station_name":"Gang Sentiong","transit":false},{"i_long":106.855437,"station_id":"KMT","distance":973,"station_name":"Kramat","time":1,"line":11,"is_transit":false,"transit":false,"i_lat":-6.193792},{"i_lat":-6.209188,"transit":false,"i_long":106.861737,"is_transit":false,"line":11,"station_id":"POK","time":2,"station_name":"Pondok Jati","distance":1829},{"transit":true,"time":9,"station_id":"JNG","i_lat":-6.215091,"i_long":106.86807400000001,"line":1,"station_name":"Jatinegara","is_transit":true,"distance":1236},{"station_name":"Matraman","i_lat":-6.212485,"transit":false,"is_transit":false,"station_id":"MTR","time":2,"line":1,"distance":1377,"i_long":106.858896},{"distance":1275,"line":2,"transit":false,"station_id":"MRI","time":2,"i_lat":-6.209883,"i_long":106.84912,"station_name":"Manggarai","is_transit":false},{"i_long":106.822649,"line":1,"transit":false,"is_transit":false,"distance":3186,"station_name":"Sudirman","station_id":"SUD","i_lat":-6.202263,"time":4}],[{"station_id":"JAY","distance":0,"time":0,"station_name":"Jayakarta","i_long":106.820901,"transit":false,"i_lat":-6.141205,"line":2,"is_transit":false},{"line":2,"i_long":106.82482,"transit":false,"station_id":"MGB","station_name":"Manggabesar","i_lat":-6.149769,"time":2,"is_transit":false,"distance":1080},{"distance":906,"transit":false,"is_transit":false,"time":2,"line":2,"station_id":"SW","i_long":106.827103,"i_lat":-6.160725,"station_name":"Sawah Besar"},{"distance":1149,"time":2,"is_transit":false,"station_id":"JUA","line":2,"transit":false,"i_long":106.828284,"station_name":"Juanda","i_lat":-6.166716},{"station_id":"GDD","time":4,"distance":2015,"station_name":"Gondangdia","transit":false,"is_transit":false,"i_lat":-6.186295,"i_long":106.832183,"line":2},{"i_long":106.840169,"time":3,"distance":1750,"station_name":"Cikini","i_lat":-6.198556,"line":2,"is_transit":false,"transit":false,"station_id":"CKI"},{"time":4,"station_name":"Manggarai","is_transit":true,"transit":true,"distance":1590,"line":2,"i_long":106.84912,"i_lat":-6.209883,"station_id":"MRI"},{"distance":1275,"i_lat":-6.212485,"is_transit":false,"line":1,"station_id":"MTR","i_long":106.858896,"transit":false,"time":2,"station_name":"Matraman"},{"time":8,"station_id":"JNG","i_long":106.86807400000001,"i_lat":-6.215091,"transit":true,"is_transit":true,"distance":1377,"station_name":"Jatinegara","line":1},{"transit":false,"distance":1236,"station_name":"Pondok Jati","i_lat":-6.209188,"is_transit":false,"station_id":"POK","line":11,"i_long":106.861737,"time":2},{"i_lat":-6.193792,"i_long":106.855437,"is_transit":false,"station_name":"Kramat","line":11,"time":2,"distance":1829,"station_id":"KMT","transit":false},{"station_id":"GST","line":11,"time":1,"i_long":106.850107,"transit":false,"i_lat":-6.185975,"distance":973,"station_name":"Gang Sentiong","is_transit":false},{"i_lat":-6.174784,"transit":false,"time":8,"station_id":"PSE","distance":1567,"i_long":106.84368,"is_transit":false,"line":11,"station_name":"Pasar Senen"},{"transit":false,"time":4,"station_id":"KMO","station_name":"Kemayoran","i_lat":-6.161728,"i_long":106.839204,"line":11,"distance":1436,"is_transit":false},{"transit":false,"distance":1901,"is_transit":false,"i_long":106.836569,"station_name":"Rajawali","time":5,"station_id":"RJW","line":11,"i_lat":-6.14505},{"i_long":106.826365,"time":3,"is_transit":true,"station_id":"KPB","line":4,"distance":1444,"station_name":"Kampung Bandan","transit":true,"i_lat":-6.132549},{"station_id":"AK","time":9,"distance":4102,"i_long":106.79867,"transit":false,"station_name":"Angke","i_lat":-6.144674,"is_transit":false,"line":1},{"i_long":106.800832,"time":4,"is_transit":false,"transit":false,"station_id":"DU","station_name":"Duri","distance":1230,"i_lat":-6.155215,"line":1},{"i_lat":-6.185545,"time":8,"station_name":"Tanah Abang","is_transit":false,"line":1,"station_id":"THB","distance":3632,"i_long":106.811091,"transit":false},{"is_transit":false,"i_long":106.816351,"line":1,"i_lat":-6.20132,"station_id":"KAT","station_name":"Karet","time":5,"transit":false,"distance":2029},{"i_long":106.819881,"station_name":"Sudirman Baru","line":1,"distance":471,"is_transit":false,"station_id":"SUDB","transit":false,"time":1,"i_lat":-6.201433},{"line":1,"time":1,"is_transit":false,"transit":false,"station_id":"SUD","distance":280,"station_name":"Sudirman","i_lat":-6.202263,"i_long":106.822649}]]}