{"data":[[{"distance":0,"time":0,"station_id":"JAY","transit":false,"i_long":106.820901,"is_transit":false,"i_lat":-6.141205,"line":2,"station_name":"Jayakarta"},{"transit":false,"time":2,"station_id":"MGB","station_name":"Manggabesar","distance":1080,"line":2,"i_lat":-6.149769,"is_transit":false,"i_long":106.82482},{"line":2,"distance":906,"station_id":"SW","is_transit":false,"transit":false,"i_long":106.827103,"i_lat":-6.160725,"station_name":"Sawah Besar","time":2},{"distance":1149,"i_lat":-6.166716,"station_name":"Juanda","time":2,"station_id":"JUA","line":2,"is_transit":false,"i_long":106.828284,"transit":false},{"line":2,"i_lat":-6.186295,"distance":2015,"time":4,"station_id":"GDD","transit":false,"is_transit":false,"station_name":"Gondangdia","i_long":106.832183},{"time":3,"is_transit":false,"distance":1750,"station_name":"Cikini","i_long":106.840169,"i_lat":-6.198556,"transit":false,"line":2,"station_id":"CKI"},{"time":4,"station_id":"MRI","station_name":"Manggarai","is_transit":false,"i_lat":-6.209883,"line":2,"i_long":106.84912,"distance":1590,"transit":false},{"station_name":"Tebet","time":4,"i_long":106.857948,"is_transit":false,"transit":false,"i_lat":-6.226659,"station_id":"TEB","distance":2610,"line":2},{"is_transit":false,"line":2,"i_lat":-6.242512,"transit":false,"distance":1230,"time":2,"station_name":"Cawang","station_id":"CW","i_long":106.856607},{"station_id":"DRN","i_long":106.85449,"time":3,"station_name":"Duren Kalibata","is_transit":false,"line":2,"transit":false,"i_lat":-6.255332,"distance":1546},{"distance":824,"transit":false,"i_long":106.851577,"time":2,"i_lat":-6.263214,"line":2,"is_transit":false,"station_id":"PSMB","station_name":"Pasar Minggu Baru"}],[{"transit":false,"i_lat":-6.141205,"time":0,"distance":0,"line":2,"station_id":"JAY","is_transit":false,"i_long":106.820901,"station_name":"Jayakarta"},{"station_name":"Jakarta Kota","station_id":"JAKK","transit":true,"is_transit":true,"line":2,"i_lat":-6.137569,"time":4,"distance":1264,"i_long":106.812439},{"station_id":"KPB","is_transit":true,"station_name":"Kampung Bandan","i_long":106.826365,"line":4,"time":3,"distance":1364,"i_lat":-6.132549,"transit":true},{"line":1,"time":9,"station_name":"Angke","station_id":"AK","transit":false,"is_transit":false,"i_lat":-6.144674,"distance":4102,"i_long":106.79867},{"i_long":106.800832,"time":4,"station_id":"DU","station_name":"Duri","is_transit":false,"line":1,"transit":false,"distance":1230,"i_lat":-6.155215},{"i_long":106.811091,"distance":3632,"time":8,"is_transit":false,"station_name":"Tanah Abang","line":1,"transit":false,"station_id":"THB","i_lat":-6.185545},{"i_lat":-6.20132,"transit":false,"station_id":"KAT","line":1,"i_long":106.816351,"distance":2029,"time":5,"station_name":"Karet","is_transit":false},{"line":1,"station_name":"Sudirman Baru","i_lat":-6.201433,"time":1,"distance":471,"station_id":"SUDB","transit":false,"i_long":106.819881,"is_transit":false},{"i_long":106.822649,"station_name":"Sudirman","line":1,"station_id":"SUD","i_lat":-6.202263,"time":1,"distance":280,"is_transit":false,"transit":false},{"time":4,"distance":3186,"i_long":106.84912,"station_name":"Manggarai","i_lat":-6.209883,"line":2,"is_transit":true,"transit":true,"station_id":"MRI"},{"transit":false,"station_name":"Tebet","line":2,"time":4,"distance":2610,"station_id":"TEB","is_transit":false,"i_lat":-6.226659,"i_long":106.857948},{"station_name":"Cawang","station_id":"CW","is_transit":false,"line":2,"distance":1230,"i_lat":-6.242512,"transit":false,"i_long":106.856607,"time":2},{"station_id":"DRN","is_transit":false,"station_name":"Duren Kalibata","transit":false,"line":2,"time":3,"i_lat":-6.255332,"distance":1546,"i_long":106.85449},{"transit":false,"time":2,"station_name":"Pasar Minggu Baru","is_transit":false,"i_long":106.851577,"distance":824,"line":2,"i_lat":-6.263214,"station_id":"PSMB"}],[{"transit":false,"distance":0,"i_long":106.820901,"line":2,"station_id":"JAY","time":0,"station_name":"Jayakarta","is_transit":false,"i_lat":-6.141205},{"transit":true,"line":2,"time":4,"station_id":"JAKK","distance":1264,"i_long":106.812439,"i_lat":-6.137569,"is_transit":true,"station_name":"Jakarta Kota"},{"line":4,"time":3,"station_name":"Kampung Bandan","distance":1364,"station_id":"KPB","is_transit":true,"transit":true,"i_lat":-6.132549,"i_long":106.826365},{"is_transit":false,"station_id":"RJW","transit":false,"i_long":106.836569,"distance":1444,"station_name":"Rajawali","line":11,"time":3,"i_lat":-6.14505},{"transit":false,"line":11,"station_name":"Kemayoran","distance":1901,"time":5,"station_id":"KMO","i_lat":-6.161728,"is_transit":false,"i_long":106.839204},{"station_name":"Pasar Senen","station_id":"PSE","line":11,"is_transit":false,"i_long":106.84368,"i_lat":-6.174784,"transit":false,"time":4,"distance":1436},{"time":8,"station_name":"Gang Sentiong","i_long":106.850107,"i_lat":-6.185975,"distance":1567,"line":11,"is_transit":false,"station_id":"GST","transit":false},{"transit":false,"i_lat":-6.193792,"time":1,"is_transit":false,"station_id":"KMT","station_name":"Kramat","distance":973,"i_long":106.855437,"line":11},{"line":11,"distance":1829,"station_id":"POK","station_name":"Pondok Jati","is_transit":false,"i_long":106.861737,"i_lat":-6.209188,"time":2,"transit":false},{"transit":true,"i_lat":-6.215091,"is_transit":true,"i_long":106.86807400000001,"line":1,"time":9,"distance":1236,"station_name":"Jatinegara","station_id":"JNG"},{"transit":false,"i_long":106.858896,"line":1,"station_id":"MTR","time":2,"station_name":"Matraman","distance":1377,"i_lat":-6.212485,"is_transit":false},{"i_long":106.84912,"time":2,"distance":1275,"station_name":"Manggarai","station_id":"MRI","is_transit":true,"line":2,"transit":true,"i_lat":-6.209883},{"line":2,"station_name":"Tebet","i_long":106.857948,"station_id":"TEB","distance":2610,"i_lat":-6.226659,"is_transit":false,"time":4,"transit":false},{"is_transit":false,"line":2,"transit":false,"i_long":106.856607,"distance":1230,"station_name":"Cawang","i_lat":-6.242512,"time":2,"station_id":"CW"},{"i_lat":-6.255332,"i_long":106.85449,"line":2,"transit":false,"station_id":"DRN","distance":1546,"station_name":"Duren Kalibata","is_transit":false,"time":3},{"i_long":106.851577,"station_name":"Pasar Minggu Baru","transit":false,"time":2,"station_id":"PSMB","is_transit":false,"distance":824,"i_lat":-6.263214,"line":2}]]}