{"data":[[{"transit":false,"time":0,"is_transit":false,"station_name":"Jayakarta","line":2,"station_id":"JAY","i_long":106.820901,"distance":0,"i_lat":-6.141205},{"distance":1264,"i_lat":-6.137569,"station_id":"JAKK","line":2,"time":4,"i_long":106.812439,"station_name":"Jakarta Kota","is_transit":true,"transit":true},{"is_transit":true,"station_id":"KPB","i_long":106.826365,"i_lat":-6.132549,"line":4,"time":3,"distance":1364,"station_name":"Kampung Bandan","transit":true},{"line":1,"time":9,"station_id":"AK","station_name":"Angke","i_long":106.79867,"distance":4102,"is_transit":false,"transit":false,"i_lat":-6.144674},{"line":1,"transit":false,"i_lat":-6.155215,"i_long":106.800832,"station_name":"Duri","time":4,"distance":1230,"station_id":"DU","is_transit":false},{"station_name":"Tanah Abang","line":1,"i_long":106.811091,"time":8,"i_lat":-6.185545,"transit":false,"station_id":"THB","is_transit":false,"distance":3632}],[{"time":0,"distance":0,"is_transit":false,"station_id":"JAY","station_name":"Jayakarta","transit":false,"i_lat":-6.141205,"i_long":106.820901,"line":2},{"line":2,"distance":1080,"time":2,"station_id":"MGB","is_transit":false,"i_long":106.82482,"transit":false,"i_lat":-6.149769,"station_name":"Manggabesar"},{"is_transit":false,"i_lat":-6.160725,"time":2,"i_long":106.827103,"distance":906,"transit":false,"station_id":"SW","line":2,"station_name":"Sawah Besar"},{"transit":false,"i_long":106.828284,"distance":1149,"time":2,"station_id":"JUA","line":2,"i_lat":-6.166716,"station_name":"Juanda","is_transit":false},{"i_lat":-6.186295,"station_name":"Gondangdia","i_long":106.832183,"transit":false,"line":2,"time":4,"distance":2015,"station_id":"GDD","is_transit":false},{"station_id":"CKI","i_lat":-6.198556,"distance":1750,"transit":false,"time":3,"station_name":"Cikini","is_transit":false,"i_long":106.840169,"line":2},{"time":4,"distance":1590,"i_long":106.84912,"line":2,"station_name":"Manggarai","i_lat":-6.209883,"station_id":"MRI","is_transit":true,"transit":true},{"distance":3186,"station_id":"SUD","transit":false,"line":1,"i_long":106.822649,"is_transit":false,"time":4,"i_lat":-6.202263,"station_name":"Sudirman"},{"is_transit":false,"i_long":106.819881,"transit":false,"distance":280,"station_name":"Sudirman Baru","station_id":"SUDB","line":1,"i_lat":-6.201433,"time":1},{"time":1,"station_id":"KAT","station_name":"Karet","line":1,"distance":471,"is_transit":false,"transit":false,"i_lat":-6.20132,"i_long":106.816351},{"i_lat":-6.185545,"i_long":106.811091,"transit":false,"is_transit":false,"distance":2029,"line":1,"station_id":"THB","time":5,"station_name":"Tanah Abang"}],[{"transit":false,"station_id":"JAY","is_transit":false,"distance":0,"station_name":"Jayakarta","time":0,"line":2,"i_lat":-6.141205,"i_long":106.820901},{"distance":1264,"time":4,"station_name":"Jakarta Kota","i_long":106.812439,"i_lat":-6.137569,"line":2,"is_transit":true,"transit":true,"station_id":"JAKK"},{"i_long":106.826365,"station_name":"Kampung Bandan","transit":true,"line":4,"time":3,"is_transit":true,"i_lat":-6.132549,"station_id":"KPB","distance":1364},{"station_id":"RJW","transit":false,"i_lat":-6.14505,"line":11,"time":3,"distance":1444,"i_long":106.836569,"station_name":"Rajawali","is_transit":false},{"time":5,"transit":false,"station_name":"Kemayoran","line":11,"i_long":106.839204,"is_transit":false,"distance":1901,"station_id":"KMO","i_lat":-6.161728},{"i_long":106.84368,"distance":1436,"station_id":"PSE","station_name":"Pasar Senen","transit":false,"line":11,"time":4,"is_transit":false,"i_lat":-6.174784},{"distance":1567,"is_transit":false,"transit":false,"time":8,"i_lat":-6.185975,"i_long":106.850107,"station_id":"GST","station_name":"Gang Sentiong","line":11},{"line":11,"transit":false,"station_name":"Kramat","distance":973,"i_long":106.855437,"station_id":"KMT","time":1,"i_lat":-6.193792,"is_transit":false},{"i_long":106.861737,"distance":1829,"station_name":"Pondok Jati","i_lat":-6.209188,"is_transit":false,"time":2,"line":11,"station_id":"POK","transit":false},{"is_transit":true,"i_long":106.86807400000001,"time":9,"distance":1236,"station_id":"JNG","i_lat":-6.215091,"transit":true,"station_name":"Jatinegara","line":1},{"is_transit":false,"transit":false,"i_long":106.858896,"i_lat":-6.212485,"line":1,"time":2,"station_name":"Matraman","station_id":"MTR","distance":1377},{"distance":1275,"station_name":"Manggarai","time":2,"i_long":106.84912,"transit":false,"is_transit":false,"line":2,"i_lat":-6.209883,"station_id":"MRI"},{"transit":false,"distance":3186,"station_id":"SUD","is_transit":false,"i_long":106.822649,"time":4,"i_lat":-6.202263,"station_name":"Sudirman","line":1},{"distance":280,"time":1,"transit":false,"station_name":"Sudirman Baru","station_id":"SUDB","is_transit":false,"i_long":106.819881,"line":1,"i_lat":-6.201433},{"i_long":106.816351,"time":1,"transit":false,"is_transit":false,"i_lat":-6.20132,"line":1,"distance":471,"station_id":"KAT","station_name":"Karet"},{"is_transit":false,"station_name":"Tanah Abang","i_lat":-6.185545,"i_long":106.811091,"distance":2029,"station_id":"THB","line":1,"time":5,"transit":false}],[{"i_long":106.820901,"i_lat":-6.141205,"station_id":"JAY","transit":false,"is_transit":false,"distance":0,"time":0,"line":2,"station_name":"Jayakarta"},{"station_id":"MGB","line":2,"time":2,"is_transit":false,"transit":false,"i_long":106.82482,"i_lat":-6.149769,"station_name":"Manggabesar","distance":1080},{"station_id":"SW","transit":false,"i_long":106.827103,"is_transit":false,"time":2,"i_lat":-6.160725,"distance":906,"station_name":"Sawah Besar","line":2},{"i_lat":-6.166716,"i_long":106.828284,"time":2,"transit":false,"station_id":"JUA","is_transit":false,"line":2,"distance":1149,"station_name":"Juanda"},{"station_name":"Gondangdia","transit":false,"i_long":106.832183,"i_lat":-6.186295,"is_transit":false,"time":4,"station_id":"GDD","line":2,"distance":2015},{"transit":false,"time":3,"distance":1750,"station_name":"Cikini","is_transit":false,"line":2,"station_id":"CKI","i_lat":-6.198556,"i_long":106.840169},{"i_long":106.84912,"transit":true,"time":4,"is_transit":true,"distance":1590,"station_name":"Manggarai","line":2,"i_lat":-6.209883,"station_id":"MRI"},{"station_name":"Matraman","transit":false,"i_lat":-6.212485,"is_transit":false,"line":1,"station_id":"MTR","time":2,"distance":1275,"i_long":106.858896},{"distance":1377,"is_transit":true,"i_lat":-6.215091,"station_id":"JNG","time":8,"i_long":106.86807400000001,"line":1,"transit":true,"station_name":"Jatinegara"},{"station_name":"Pondok Jati","station_id":"POK","i_lat":-6.209188,"line":11,"is_transit":false,"time":2,"distance":1236,"transit":false,"i_long":106.861737},{"time":2,"is_transit":false,"i_long":106.855437,"station_id":"KMT","i_lat":-6.193792,"distance":1829,"station_name":"Kramat","transit":false,"line":11},{"is_transit":false,"distance":973,"line":11,"station_name":"Gang Sentiong","i_long":106.850107,"station_id":"GST","transit":false,"i_lat":-6.185975,"time":1},{"station_name":"Pasar Senen","station_id":"PSE","i_lat":-6.174784,"is_transit":false,"transit":false,"i_long":106.84368,"time":8,"distance":1567,"line":11},{"i_lat":-6.161728,"station_name":"Kemayoran","is_transit":false,"line":11,"station_id":"KMO","transit":false,"distance":1436,"time":4,"i_long":106.839204},{"i_long":106.836569,"is_transit":false,"time":5,"station_name":"Rajawali","transit":false,"station_id":"RJW","i_lat":-6.14505,"distance":1901,"line":11},{"i_lat":-6.132549,"i_long":106.826365,"transit":true,"distance":1444,"station_name":"Kampung Bandan","station_id":"KPB","is_transit":true,"line":4,"time":3},{"time":9,"station_id":"AK","i_long":106.79867,"station_name":"Angke","line":1,"is_transit":false,"transit":false,"i_lat":-6.144674,"distance":4102},{"distance":1230,"i_long":106.800832,"line":1,"station_name":"Duri","time":4,"i_lat":-6.155215,"station_id":"DU","transit":false,"is_transit":false},{"is_transit":false,"i_long":106.811091,"i_lat":-6.185545,"station_name":"Tanah Abang","station_id":"THB","distance":3632,"transit":false,"time":8,"line":1}]]}