{"data":[[{"line":2,"transit":false,"time":0,"station_name":"Jayakarta","i_lat":-6.141205,"distance":0,"is_transit":false,"station_id":"JAY","i_long":106.820901},{"station_name":"Manggabesar","i_lat":-6.149769,"i_long":106.82482,"is_transit":false,"time":2,"station_id":"MGB","transit":false,"line":2,"distance":1080},{"transit":false,"is_transit":false,"time":2,"distance":906,"station_id":"SW","station_name":"Sawah Besar","i_lat":-6.160725,"line":2,"i_long":106.827103},{"station_name":"Juanda","distance":1149,"transit":false,"is_transit":false,"time":2,"i_lat":-6.166716,"station_id":"JUA","i_long":106.828284,"line":2},{"line":2,"station_id":"GDD","transit":false,"station_name":"Gondangdia","distance":2015,"is_transit":false,"i_long":106.832183,"time":4,"i_lat":-6.186295},{"i_lat":-6.198556,"line":2,"transit":false,"station_id":"CKI","station_name":"Cikini","time":3,"i_long":106.840169,"distance":1750,"is_transit":false},{"is_transit":true,"distance":1590,"station_name":"Manggarai","transit":true,"i_long":106.84912,"time":4,"station_id":"MRI","line":2,"i_lat":-6.209883},{"time":2,"i_long":106.858896,"is_transit":false,"station_name":"Matraman","distance":1275,"station_id":"MTR","transit":false,"line":1,"i_lat":-6.212485},{"is_transit":false,"transit":false,"station_id":"JNG","station_name":"Jatinegara","distance":1377,"i_lat":-6.215091,"line":1,"time":8,"i_long":106.86807400000001},{"transit":false,"i_long":106.899548,"is_transit":false,"station_id":"KLD","station_name":"Klender","i_lat":-6.2135,"line":1,"time":3,"distance":3395},{"i_lat":-6.215568,"station_id":"BUA","transit":false,"time":2,"line":1,"i_long":106.922662,"is_transit":false,"distance":3100,"station_name":"Buaran"},{"distance":1305,"station_id":"KLDB","is_transit":false,"station_name":"Klenderbaru","i_long":106.939679,"transit":false,"line":1,"i_lat":-6.217455,"time":1},{"station_name":"Cakung","i_long":106.951283,"line":1,"time":8,"transit":false,"i_lat":-6.219053,"station_id":"CUK","distance":1385,"is_transit":false}],[{"time":0,"distance":0,"transit":false,"i_lat":-6.141205,"station_id":"JAY","line":2,"is_transit":false,"station_name":"Jayakarta","i_long":106.820901},{"line":2,"is_transit":true,"i_lat":-6.137569,"time":4,"transit":true,"distance":1264,"i_long":106.812439,"station_name":"Jakarta Kota","station_id":"JAKK"},{"distance":1364,"line":4,"time":3,"is_transit":true,"i_long":106.826365,"i_lat":-6.132549,"station_id":"KPB","transit":true,"station_name":"Kampung Bandan"},{"station_name":"Rajawali","is_transit":false,"line":11,"station_id":"RJW","distance":1444,"transit":false,"i_long":106.836569,"time":3,"i_lat":-6.14505},{"i_long":106.839204,"transit":false,"line":11,"distance":1901,"time":5,"station_name":"Kemayoran","i_lat":-6.161728,"station_id":"KMO","is_transit":false},{"transit":false,"i_lat":-6.174784,"i_long":106.84368,"line":11,"distance":1436,"station_id":"PSE","station_name":"Pasar Senen","time":4,"is_transit":false},{"distance":1567,"is_transit":false,"time":8,"transit":false,"station_id":"GST","station_name":"Gang Sentiong","i_long":106.850107,"i_lat":-6.185975,"line":11},{"i_long":106.855437,"transit":false,"i_lat":-6.193792,"station_id":"KMT","time":1,"line":11,"is_transit":false,"distance":973,"station_name":"Kramat"},{"distance":1829,"is_transit":false,"transit":false,"station_id":"POK","time":2,"i_long":106.861737,"station_name":"Pondok Jati","i_lat":-6.209188,"line":11},{"is_transit":true,"transit":true,"station_name":"Jatinegara","i_lat":-6.215091,"i_long":106.86807400000001,"time":9,"station_id":"JNG","line":1,"distance":1236},{"i_long":106.899548,"is_transit":false,"line":1,"i_lat":-6.2135,"time":3,"station_name":"Klender","distance":3395,"station_id":"KLD","transit":false},{"line":1,"time":2,"distance":3100,"i_long":106.922662,"transit":false,"station_name":"Buaran","station_id":"BUA","i_lat":-6.215568,"is_transit":false},{"is_transit":false,"distance":1305,"i_lat":-6.217455,"line":1,"station_id":"KLDB","transit":false,"time":1,"station_name":"Klenderbaru","i_long":106.939679},{"station_name":"Cakung","i_long":106.951283,"is_transit":false,"transit":false,"i_lat":-6.219053,"line":1,"time":8,"distance":1385,"station_id":"CUK"}],[{"distance":0,"transit":false,"line":2,"time":0,"is_transit":false,"i_lat":-6.141205,"station_id":"JAY","station_name":"Jayakarta","i_long":106.820901},{"is_transit":true,"time":4,"i_long":106.812439,"station_id":"JAKK","station_name":"Jakarta Kota","i_lat":-6.137569,"transit":true,"distance":1264,"line":2},{"line":4,"station_name":"Kampung Bandan","i_long":106.826365,"is_transit":true,"distance":1364,"station_id":"KPB","transit":true,"i_lat":-6.132549,"time":3},{"transit":false,"distance":4102,"station_name":"Angke","i_lat":-6.144674,"i_long":106.79867,"line":1,"time":9,"station_id":"AK","is_transit":false},{"i_lat":-6.155215,"station_name":"Duri","transit":false,"i_long":106.800832,"time":4,"distance":1230,"line":1,"station_id":"DU","is_transit":false},{"time":8,"transit":false,"i_lat":-6.185545,"i_long":106.811091,"is_transit":false,"distance":3632,"station_name":"Tanah Abang","line":1,"station_id":"THB"},{"station_name":"Karet","station_id":"KAT","i_lat":-6.20132,"line":1,"transit":false,"distance":2029,"is_transit":false,"time":5,"i_long":106.816351},{"line":1,"time":1,"i_lat":-6.201433,"distance":471,"is_transit":false,"station_id":"SUDB","transit":false,"station_name":"Sudirman Baru","i_long":106.819881},{"distance":280,"i_long":106.822649,"line":1,"is_transit":false,"i_lat":-6.202263,"time":1,"station_name":"Sudirman","station_id":"SUD","transit":false},{"station_name":"Manggarai","i_lat":-6.209883,"is_transit":false,"distance":3186,"time":4,"station_id":"MRI","transit":false,"line":2,"i_long":106.84912},{"is_transit":false,"i_lat":-6.212485,"line":1,"station_name":"Matraman","time":2,"transit":false,"station_id":"MTR","i_long":106.858896,"distance":1275},{"time":8,"is_transit":false,"station_name":"Jatinegara","distance":1377,"i_long":106.86807400000001,"i_lat":-6.215091,"transit":false,"line":1,"station_id":"JNG"},{"station_name":"Klender","station_id":"KLD","i_long":106.899548,"i_lat":-6.2135,"distance":3395,"is_transit":false,"transit":false,"line":1,"time":3},{"distance":3100,"line":1,"station_id":"BUA","i_lat":-6.215568,"is_transit":false,"time":2,"station_name":"Buaran","i_long":106.922662,"transit":false},{"station_name":"Klenderbaru","time":1,"is_transit":false,"station_id":"KLDB","line":1,"transit":false,"i_lat":-6.217455,"i_long":106.939679,"distance":1305},{"station_id":"CUK","transit":false,"time":8,"distance":1385,"line":1,"station_name":"Cakung","i_long":106.951283,"i_lat":-6.219053,"is_transit":false}],[{"station_name":"Jayakarta","distance":0,"transit":false,"station_id":"JAY","is_transit":false,"i_lat":-6.141205,"line":2,"time":0,"i_long":106.820901},{"i_lat":-6.149769,"i_long":106.82482,"line":2,"station_name":"Manggabesar","is_transit":false,"transit":false,"distance":1080,"time":2,"station_id":"MGB"},{"i_long":106.827103,"i_lat":-6.160725,"station_name":"Sawah Besar","station_id":"SW","is_transit":false,"time":2,"transit":false,"distance":906,"line":2},{"i_long":106.828284,"transit":false,"i_lat":-6.166716,"station_id":"JUA","time":2,"distance":1149,"station_name":"Juanda","line":2,"is_transit":false},{"transit":false,"is_transit":false,"time":4,"i_lat":-6.186295,"station_id":"GDD","station_name":"Gondangdia","i_long":106.832183,"line":2,"distance":2015},{"transit":false,"station_name":"Cikini","i_lat":-6.198556,"is_transit":false,"time":3,"i_long":106.840169,"line":2,"station_id":"CKI","distance":1750},{"station_id":"MRI","i_long":106.84912,"i_lat":-6.209883,"is_transit":true,"distance":1590,"time":4,"line":2,"transit":true,"station_name":"Manggarai"},{"i_long":106.822649,"transit":false,"is_transit":false,"line":1,"station_id":"SUD","time":4,"distance":3186,"station_name":"Sudirman","i_lat":-6.202263},{"i_long":106.819881,"station_name":"Sudirman Baru","i_lat":-6.201433,"is_transit":false,"distance":280,"transit":false,"time":1,"station_id":"SUDB","line":1},{"station_id":"KAT","line":1,"i_long":106.816351,"time":1,"distance":471,"is_transit":false,"transit":false,"station_name":"Karet","i_lat":-6.20132},{"station_id":"THB","is_transit":false,"distance":2029,"i_long":106.811091,"line":1,"i_lat":-6.185545,"transit":false,"time":5,"station_name":"Tanah Abang"},{"line":1,"distance":3632,"station_id":"DU","time":8,"i_lat":-6.155215,"i_long":106.800832,"is_transit":false,"transit":false,"station_name":"Duri"},{"distance":1230,"i_long":106.79867,"i_lat":-6.144674,"is_transit":false,"time":4,"station_id":"AK","station_name":"Angke","line":1,"transit":false},{"station_id":"KPB","distance":4102,"is_transit":true,"time":9,"i_lat":-6.132549,"line":4,"transit":true,"i_long":106.826365,"station_name":"Kampung Bandan"},{"station_id":"RJW","time":3,"i_lat":-6.14505,"transit":false,"station_name":"Rajawali","distance":1444,"line":11,"is_transit":false,"i_long":106.836569},{"is_transit":false,"distance":1901,"station_name":"Kemayoran","station_id":"KMO","i_lat":-6.161728,"i_long":106.839204,"transit":false,"time":5,"line":11},{"transit":false,"station_id":"PSE","time":4,"station_name":"Pasar Senen","i_lat":-6.174784,"distance":1436,"is_transit":false,"i_long":106.84368,"line":11},{"i_long":106.850107,"time":8,"transit":false,"is_transit":false,"station_name":"Gang Sentiong","i_lat":-6.185975,"distance":1567,"line":11,"station_id":"GST"},{"i_lat":-6.193792,"is_transit":false,"station_id":"KMT","time":1,"distance":973,"i_long":106.855437,"station_name":"Kramat","transit":false,"line":11},{"station_id":"POK","transit":false,"line":11,"distance":1829,"i_lat":-6.209188,"time":2,"i_long":106.861737,"station_name":"Pondok Jati","is_transit":false},{"transit":true,"line":1,"distance":1236,"i_lat":-6.215091,"station_id":"JNG","time":9,"station_name":"Jatinegara","is_transit":true,"i_long":106.86807400000001},{"i_lat":-6.2135,"time":3,"transit":false,"station_name":"Klender","i_long":106.899548,"distance":3395,"is_transit":false,"station_id":"KLD","line":1},{"is_transit":false,"line":1,"transit":false,"i_long":106.922662,"i_lat":-6.215568,"station_name":"Buaran","time":2,"station_id":"BUA","distance":3100},{"is_transit":false,"station_name":"Klenderbaru","line":1,"distance":1305,"time":1,"transit":false,"i_lat":-6.217455,"i_long":106.939679,"station_id":"KLDB"},{"station_id":"CUK","distance":1385,"is_transit":false,"i_lat":-6.219053,"time":8,"i_long":106.951283,"station_name":"Cakung","line":1,"transit":false}]]}