{"data":[[{"distance":0,"station_name":"Jayakarta","transit":false,"station_id":"JAY","time":0,"i_lat":-6.141205,"i_long":106.820901,"line":2,"is_transit":false},{"distance":1080,"i_lat":-6.149769,"time":2,"station_name":"Manggabesar","i_long":106.82482,"transit":false,"station_id":"MGB","is_transit":false,"line":2},{"i_long":106.827103,"distance":906,"station_name":"Sawah Besar","transit":false,"is_transit":false,"line":2,"time":2,"station_id":"SW","i_lat":-6.160725},{"i_lat":-6.166716,"station_name":"Juanda","station_id":"JUA","time":2,"i_long":106.828284,"is_transit":false,"distance":1149,"line":2,"transit":false},{"i_long":106.832183,"station_id":"GDD","is_transit":false,"time":4,"transit":false,"station_name":"Gondangdia","distance":2015,"line":2,"i_lat":-6.186295},{"station_name":"Cikini","time":3,"station_id":"CKI","transit":false,"distance":1750,"i_lat":-6.198556,"line":2,"is_transit":false,"i_long":106.840169},{"time":4,"i_long":106.84912,"i_lat":-6.209883,"line":2,"is_transit":false,"station_id":"MRI","transit":false,"station_name":"Manggarai","distance":1590}],[{"distance":0,"is_transit":false,"station_id":"JAY","station_name":"Jayakarta","line":2,"time":0,"i_lat":-6.141205,"transit":false,"i_long":106.820901},{"is_transit":true,"time":4,"transit":true,"distance":1264,"station_name":"Jakarta Kota","i_long":106.812439,"i_lat":-6.137569,"station_id":"JAKK","line":2},{"i_long":106.826365,"line":4,"station_id":"KPB","i_lat":-6.132549,"station_name":"Kampung Bandan","is_transit":true,"transit":true,"time":3,"distance":1364},{"station_id":"AK","station_name":"Angke","i_long":106.79867,"line":1,"distance":4102,"i_lat":-6.144674,"transit":false,"is_transit":false,"time":9},{"station_id":"DU","station_name":"Duri","time":4,"distance":1230,"i_long":106.800832,"line":1,"is_transit":false,"transit":false,"i_lat":-6.155215},{"transit":false,"i_long":106.811091,"distance":3632,"line":1,"station_name":"Tanah Abang","station_id":"THB","i_lat":-6.185545,"time":8,"is_transit":false},{"line":1,"station_name":"Karet","station_id":"KAT","time":5,"distance":2029,"is_transit":false,"transit":false,"i_lat":-6.20132,"i_long":106.816351},{"station_id":"SUDB","is_transit":false,"time":1,"i_lat":-6.201433,"line":1,"i_long":106.819881,"station_name":"Sudirman Baru","transit":false,"distance":471},{"i_lat":-6.202263,"station_id":"SUD","transit":false,"is_transit":false,"station_name":"Sudirman","i_long":106.822649,"time":1,"distance":280,"line":1},{"is_transit":false,"distance":3186,"station_name":"Manggarai","station_id":"MRI","i_lat":-6.209883,"i_long":106.84912,"line":2,"time":4,"transit":false}],[{"station_id":"JAY","is_transit":false,"time":0,"line":2,"i_lat":-6.141205,"transit":false,"i_long":106.820901,"station_name":"Jayakarta","distance":0},{"station_name":"Jakarta Kota","transit":true,"time":4,"is_transit":true,"distance":1264,"station_id":"JAKK","i_lat":-6.137569,"i_long":106.812439,"line":2},{"is_transit":true,"distance":1364,"i_long":106.826365,"line":4,"station_id":"KPB","i_lat":-6.132549,"station_name":"Kampung Bandan","transit":true,"time":3},{"transit":false,"line":11,"is_transit":false,"distance":1444,"time":3,"i_long":106.836569,"station_name":"Rajawali","station_id":"RJW","i_lat":-6.14505},{"line":11,"station_name":"Kemayoran","transit":false,"time":5,"i_lat":-6.161728,"station_id":"KMO","distance":1901,"is_transit":false,"i_long":106.839204},{"station_name":"Pasar Senen","i_lat":-6.174784,"transit":false,"distance":1436,"line":11,"is_transit":false,"time":4,"station_id":"PSE","i_long":106.84368},{"distance":1567,"station_id":"GST","time":8,"transit":false,"station_name":"Gang Sentiong","line":11,"i_lat":-6.185975,"i_long":106.850107,"is_transit":false},{"i_long":106.855437,"transit":false,"station_name":"Kramat","is_transit":false,"time":1,"distance":973,"station_id":"KMT","i_lat":-6.193792,"line":11},{"line":11,"station_name":"Pondok Jati","i_lat":-6.209188,"i_long":106.861737,"transit":false,"is_transit":false,"time":2,"distance":1829,"station_id":"POK"},{"is_transit":true,"distance":1236,"i_lat":-6.215091,"station_name":"Jatinegara","line":1,"station_id":"JNG","i_long":106.86807400000001,"transit":true,"time":9},{"i_lat":-6.212485,"is_transit":false,"time":2,"i_long":106.858896,"transit":false,"station_name":"Matraman","line":1,"distance":1377,"station_id":"MTR"},{"i_lat":-6.209883,"transit":false,"is_transit":false,"distance":1275,"station_id":"MRI","time":2,"i_long":106.84912,"line":2,"station_name":"Manggarai"}]]}