{"data":[[{"line":2,"distance":0,"station_id":"JAY","station_name":"Jayakarta","transit":false,"i_long":106.820901,"time":0,"i_lat":-6.141205,"is_transit":false},{"transit":true,"time":4,"is_transit":true,"line":2,"i_lat":-6.137569,"distance":1264,"station_id":"JAKK","i_long":106.812439,"station_name":"Jakarta Kota"},{"transit":true,"station_id":"KPB","is_transit":true,"time":3,"distance":1364,"line":4,"i_long":106.826365,"station_name":"Kampung Bandan","i_lat":-6.132549},{"time":9,"station_id":"AK","station_name":"Angke","i_lat":-6.144674,"i_long":106.79867,"line":1,"distance":4102,"is_transit":false,"transit":false},{"station_id":"DU","station_name":"Duri","is_transit":false,"time":4,"line":1,"distance":1230,"i_long":106.800832,"i_lat":-6.155215,"transit":false},{"line":1,"time":8,"station_id":"THB","i_lat":-6.185545,"station_name":"Tanah Abang","is_transit":true,"transit":true,"i_long":106.811091,"distance":3632},{"i_lat":-6.207404,"i_long":106.79689,"time":6,"station_id":"PLM","transit":false,"line":6,"distance":3191,"is_transit":false,"station_name":"Palmerah"},{"time":7,"station_name":"Kebayoran","station_id":"KBY","transit":false,"i_lat":-6.237242,"i_long":106.780334,"is_transit":false,"line":6,"distance":3737},{"station_id":"PDJ","time":8,"line":6,"is_transit":false,"station_name":"Pondokranji","i_lat":-6.276362,"transit":false,"i_long":106.74273,"distance":6218},{"time":3,"i_long":106.728916,"distance":2179,"is_transit":false,"transit":false,"station_name":"Jurangmangu","line":6,"station_id":"JMU","i_lat":-6.288927},{"transit":false,"station_name":"Sudimara","station_id":"SDM","distance":1994,"i_lat":-6.296963,"i_long":106.712277,"line":6,"time":4,"is_transit":false},{"station_name":"Rawa Buntu","distance":4566,"line":6,"is_transit":false,"transit":false,"time":6,"i_lat":-6.314823,"station_id":"RU","i_long":106.675475},{"i_lat":-6.319871,"station_name":"Serpong","station_id":"SRP","is_transit":false,"transit":false,"line":6,"time":4,"distance":2413,"i_long":106.66566},{"transit":false,"station_id":"CSK","is_transit":false,"i_long":106.640411,"line":3,"i_lat":-6.32484,"time":4,"station_name":"Cisauk","distance":1784},{"distance":2519,"station_name":"Cicayur","time":4,"station_id":"CC","is_transit":false,"transit":false,"i_long":106.617853,"i_lat":-6.329547,"line":3},{"time":8,"transit":false,"station_name":"Parung Panjang","is_transit":false,"i_long":106.568863,"distance":5968,"station_id":"PRP","i_lat":-6.3441410000000005,"line":6},{"station_name":"Cilejit","time":9,"line":3,"distance":7025,"i_long":106.508482,"transit":false,"i_lat":-6.354349,"is_transit":false,"station_id":"CJT"},{"is_transit":false,"distance":2675,"transit":false,"station_id":"DAR","station_name":"Daru","i_lat":-6.338021,"time":6,"i_long":106.491338,"line":0},{"line":6,"i_lat":-6.327251,"distance":3902,"transit":false,"is_transit":false,"time":5,"station_name":"Tenjo","station_id":"TEJ","i_long":106.460812},{"i_long":106.425991,"station_id":"TGS","transit":false,"station_name":"Tigaraksa","line":6,"time":5,"i_lat":-6.328533,"is_transit":false,"distance":2974},{"time":3,"is_transit":false,"i_lat":-6.33561,"station_id":"CKY","line":3,"distance":2651,"i_long":106.411216,"station_name":"Cikoya","transit":false},{"time":4,"i_lat":-6.332307,"transit":false,"station_id":"MJ","distance":1853,"is_transit":false,"line":6,"station_name":"Maja","i_long":106.394373},{"i_lat":-6.334892,"transit":false,"is_transit":false,"station_name":"Citeras","line":3,"i_long":106.332092,"distance":7293,"time":10,"station_id":"CTR"},{"line":3,"time":13,"is_transit":false,"station_id":"RK","station_name":"Rangkasbitung","i_lat":-6.352675,"i_long":106.250396,"transit":false,"distance":9847}],[{"i_lat":-6.141205,"line":2,"distance":0,"transit":false,"is_transit":false,"time":0,"station_name":"Jayakarta","station_id":"JAY","i_long":106.820901},{"i_long":106.82482,"time":2,"station_id":"MGB","transit":false,"i_lat":-6.149769,"distance":1080,"station_name":"Manggabesar","line":2,"is_transit":false},{"station_name":"Sawah Besar","line":2,"station_id":"SW","transit":false,"i_long":106.827103,"time":2,"i_lat":-6.160725,"is_transit":false,"distance":906},{"is_transit":false,"station_id":"JUA","time":2,"line":2,"distance":1149,"transit":false,"station_name":"Juanda","i_long":106.828284,"i_lat":-6.166716},{"time":4,"i_long":106.832183,"distance":2015,"station_name":"Gondangdia","station_id":"GDD","i_lat":-6.186295,"is_transit":false,"line":2,"transit":false},{"time":3,"distance":1750,"line":2,"is_transit":false,"transit":false,"station_id":"CKI","station_name":"Cikini","i_lat":-6.198556,"i_long":106.840169},{"station_id":"MRI","transit":true,"i_lat":-6.209883,"distance":1590,"line":2,"time":4,"is_transit":true,"station_name":"Manggarai","i_long":106.84912},{"distance":3186,"i_long":106.822649,"station_name":"Sudirman","time":4,"station_id":"SUD","is_transit":false,"line":1,"i_lat":-6.202263,"transit":false},{"station_name":"Sudirman Baru","distance":280,"transit":false,"i_lat":-6.201433,"line":1,"i_long":106.819881,"station_id":"SUDB","time":1,"is_transit":false},{"i_long":106.816351,"distance":471,"station_id":"KAT","is_transit":false,"line":1,"transit":false,"i_lat":-6.20132,"time":1,"station_name":"Karet"},{"line":1,"station_name":"Tanah Abang","distance":2029,"i_long":106.811091,"i_lat":-6.185545,"time":5,"station_id":"THB","is_transit":true,"transit":true},{"station_id":"PLM","is_transit":false,"i_lat":-6.207404,"i_long":106.79689,"line":6,"transit":false,"distance":3191,"time":6,"station_name":"Palmerah"},{"station_name":"Kebayoran","station_id":"KBY","i_long":106.780334,"transit":false,"line":6,"distance":3737,"time":7,"is_transit":false,"i_lat":-6.237242},{"distance":6218,"station_id":"PDJ","i_long":106.74273,"line":6,"transit":false,"time":8,"station_name":"Pondokranji","i_lat":-6.276362,"is_transit":false},{"i_long":106.728916,"i_lat":-6.288927,"distance":2179,"transit":false,"line":6,"station_name":"Jurangmangu","station_id":"JMU","time":3,"is_transit":false},{"transit":false,"is_transit":false,"i_lat":-6.296963,"line":6,"time":4,"distance":1994,"station_id":"SDM","station_name":"Sudimara","i_long":106.712277},{"station_name":"Rawa Buntu","is_transit":false,"station_id":"RU","i_long":106.675475,"i_lat":-6.314823,"time":6,"distance":4566,"transit":false,"line":6},{"station_name":"Serpong","time":4,"distance":2413,"i_lat":-6.319871,"transit":false,"i_long":106.66566,"is_transit":false,"line":6,"station_id":"SRP"},{"station_id":"CSK","transit":false,"line":3,"station_name":"Cisauk","is_transit":false,"i_lat":-6.32484,"i_long":106.640411,"time":4,"distance":1784},{"station_name":"Cicayur","transit":false,"i_long":106.617853,"line":3,"time":4,"is_transit":false,"station_id":"CC","i_lat":-6.329547,"distance":2519},{"i_long":106.568863,"station_name":"Parung Panjang","distance":5968,"is_transit":false,"line":6,"i_lat":-6.3441410000000005,"station_id":"PRP","time":8,"transit":false},{"time":9,"line":3,"is_transit":false,"transit":false,"i_long":106.508482,"distance":7025,"station_name":"Cilejit","station_id":"CJT","i_lat":-6.354349},{"i_lat":-6.338021,"transit":false,"line":0,"station_id":"DAR","station_name":"Daru","is_transit":false,"i_long":106.491338,"time":6,"distance":2675},{"is_transit":false,"transit":false,"i_long":106.460812,"line":6,"distance":3902,"station_id":"TEJ","time":5,"station_name":"Tenjo","i_lat":-6.327251},{"i_long":106.425991,"line":6,"time":5,"station_id":"TGS","distance":2974,"station_name":"Tigaraksa","transit":false,"i_lat":-6.328533,"is_transit":false},{"time":3,"transit":false,"distance":2651,"i_lat":-6.33561,"station_name":"Cikoya","line":3,"station_id":"CKY","is_transit":false,"i_long":106.411216},{"i_lat":-6.332307,"station_id":"MJ","distance":1853,"i_long":106.394373,"time":4,"transit":false,"is_transit":false,"station_name":"Maja","line":6},{"distance":7293,"is_transit":false,"transit":false,"i_lat":-6.334892,"station_name":"Citeras","i_long":106.332092,"line":3,"time":10,"station_id":"CTR"},{"i_lat":-6.352675,"distance":9847,"station_id":"RK","time":13,"station_name":"Rangkasbitung","is_transit":false,"transit":false,"i_long":106.250396,"line":3}],[{"station_id":"JAY","time":0,"transit":false,"is_transit":false,"i_lat":-6.141205,"i_long":106.820901,"distance":0,"station_name":"Jayakarta","line":2},{"time":4,"station_name":"Jakarta Kota","i_lat":-6.137569,"i_long":106.812439,"distance":1264,"station_id":"JAKK","transit":true,"is_transit":true,"line":2},{"i_long":106.826365,"transit":true,"i_lat":-6.132549,"station_name":"Kampung Bandan","line":4,"station_id":"KPB","distance":1364,"time":3,"is_transit":true},{"is_transit":false,"time":3,"distance":1444,"station_id":"RJW","transit":false,"station_name":"Rajawali","i_lat":-6.14505,"i_long":106.836569,"line":11},{"i_long":106.839204,"line":11,"station_id":"KMO","distance":1901,"is_transit":false,"i_lat":-6.161728,"time":5,"station_name":"Kemayoran","transit":false},{"station_name":"Pasar Senen","station_id":"PSE","time":4,"i_lat":-6.174784,"i_long":106.84368,"is_transit":false,"distance":1436,"line":11,"transit":false},{"time":8,"is_transit":false,"station_id":"GST","i_long":106.850107,"station_name":"Gang Sentiong","transit":false,"line":11,"distance":1567,"i_lat":-6.185975},{"time":1,"station_name":"Kramat","i_long":106.855437,"distance":973,"station_id":"KMT","transit":false,"is_transit":false,"i_lat":-6.193792,"line":11},{"station_name":"Pondok Jati","i_long":106.861737,"distance":1829,"is_transit":false,"station_id":"POK","time":2,"i_lat":-6.209188,"line":11,"transit":false},{"line":1,"time":9,"station_name":"Jatinegara","i_long":106.86807400000001,"station_id":"JNG","distance":1236,"transit":true,"is_transit":true,"i_lat":-6.215091},{"transit":false,"i_long":106.858896,"i_lat":-6.212485,"is_transit":false,"line":1,"station_id":"MTR","station_name":"Matraman","time":2,"distance":1377},{"distance":1275,"is_transit":false,"station_name":"Manggarai","station_id":"MRI","line":2,"i_lat":-6.209883,"time":2,"i_long":106.84912,"transit":false},{"line":1,"distance":3186,"time":4,"i_lat":-6.202263,"is_transit":false,"i_long":106.822649,"station_id":"SUD","station_name":"Sudirman","transit":false},{"station_name":"Sudirman Baru","station_id":"SUDB","i_lat":-6.201433,"i_long":106.819881,"is_transit":false,"transit":false,"distance":280,"time":1,"line":1},{"is_transit":false,"station_name":"Karet","i_lat":-6.20132,"station_id":"KAT","distance":471,"time":1,"line":1,"transit":false,"i_long":106.816351},{"i_lat":-6.185545,"line":1,"is_transit":true,"distance":2029,"station_id":"THB","time":5,"transit":true,"station_name":"Tanah Abang","i_long":106.811091},{"transit":false,"time":6,"is_transit":false,"station_name":"Palmerah","i_long":106.79689,"line":6,"i_lat":-6.207404,"distance":3191,"station_id":"PLM"},{"station_name":"Kebayoran","line":6,"i_lat":-6.237242,"i_long":106.780334,"time":7,"transit":false,"station_id":"KBY","distance":3737,"is_transit":false},{"i_long":106.74273,"i_lat":-6.276362,"distance":6218,"transit":false,"is_transit":false,"station_name":"Pondokranji","time":8,"line":6,"station_id":"PDJ"},{"station_name":"Jurangmangu","is_transit":false,"transit":false,"line":6,"i_long":106.728916,"time":3,"station_id":"JMU","i_lat":-6.288927,"distance":2179},{"line":6,"i_long":106.712277,"station_id":"SDM","distance":1994,"time":4,"transit":false,"station_name":"Sudimara","is_transit":false,"i_lat":-6.296963},{"station_id":"RU","time":6,"transit":false,"is_transit":false,"i_lat":-6.314823,"line":6,"i_long":106.675475,"station_name":"Rawa Buntu","distance":4566},{"is_transit":false,"time":4,"transit":false,"line":6,"i_lat":-6.319871,"station_id":"SRP","distance":2413,"station_name":"Serpong","i_long":106.66566},{"station_id":"CSK","time":4,"distance":1784,"i_long":106.640411,"line":3,"transit":false,"station_name":"Cisauk","i_lat":-6.32484,"is_transit":false},{"station_id":"CC","is_transit":false,"distance":2519,"transit":false,"i_lat":-6.329547,"line":3,"station_name":"Cicayur","time":4,"i_long":106.617853},{"i_long":106.568863,"station_name":"Parung Panjang","transit":false,"distance":5968,"time":8,"i_lat":-6.3441410000000005,"station_id":"PRP","line":6,"is_transit":false},{"station_name":"Cilejit","distance":7025,"time":9,"is_transit":false,"i_long":106.508482,"station_id":"CJT","line":3,"i_lat":-6.354349,"transit":false},{"station_id":"DAR","is_transit":false,"i_long":106.491338,"line":0,"time":6,"station_name":"Daru","transit":false,"i_lat":-6.338021,"distance":2675},{"distance":3902,"is_transit":false,"i_long":106.460812,"line":6,"transit":false,"i_lat":-6.327251,"station_name":"Tenjo","station_id":"TEJ","time":5},{"is_transit":false,"distance":2974,"transit":false,"station_id":"TGS","i_lat":-6.328533,"station_name":"Tigaraksa","line":6,"i_long":106.425991,"time":5},{"line":3,"is_transit":false,"i_lat":-6.33561,"time":3,"i_long":106.411216,"station_id":"CKY","station_name":"Cikoya","distance":2651,"transit":false},{"transit":false,"is_transit":false,"station_name":"Maja","line":6,"time":4,"distance":1853,"station_id":"MJ","i_long":106.394373,"i_lat":-6.332307},{"station_id":"CTR","time":10,"station_name":"Citeras","is_transit":false,"distance":7293,"transit":false,"i_long":106.332092,"line":3,"i_lat":-6.334892},{"is_transit":false,"station_name":"Rangkasbitung","transit":false,"line":3,"time":13,"i_lat":-6.352675,"distance":9847,"i_long":106.250396,"station_id":"RK"}],[{"i_long":106.820901,"line":2,"i_lat":-6.141205,"time":0,"station_id":"JAY","distance":0,"station_name":"Jayakarta","is_transit":false,"transit":false},{"i_long":106.82482,"station_id":"MGB","distance":1080,"transit":false,"station_name":"Manggabesar","i_lat":-6.149769,"is_transit":false,"time":2,"line":2},{"distance":906,"line":2,"station_name":"Sawah Besar","station_id":"SW","is_transit":false,"transit":false,"i_long":106.827103,"i_lat":-6.160725,"time":2},{"station_name":"Juanda","i_lat":-6.166716,"distance":1149,"time":2,"is_transit":false,"transit":false,"i_long":106.828284,"station_id":"JUA","line":2},{"time":4,"line":2,"station_id":"GDD","transit":false,"i_long":106.832183,"i_lat":-6.186295,"station_name":"Gondangdia","distance":2015,"is_transit":false},{"i_lat":-6.198556,"i_long":106.840169,"transit":false,"time":3,"station_name":"Cikini","line":2,"is_transit":false,"station_id":"CKI","distance":1750},{"station_id":"MRI","transit":true,"line":2,"is_transit":true,"station_name":"Manggarai","i_long":106.84912,"time":4,"distance":1590,"i_lat":-6.209883},{"station_id":"MTR","i_long":106.858896,"station_name":"Matraman","i_lat":-6.212485,"time":2,"transit":false,"is_transit":false,"line":1,"distance":1275},{"i_long":106.86807400000001,"time":8,"i_lat":-6.215091,"station_name":"Jatinegara","distance":1377,"is_transit":true,"line":1,"transit":true,"station_id":"JNG"},{"is_transit":false,"i_long":106.861737,"line":11,"time":2,"distance":1236,"station_name":"Pondok Jati","station_id":"POK","transit":false,"i_lat":-6.209188},{"station_id":"KMT","transit":false,"is_transit":false,"time":2,"station_name":"Kramat","distance":1829,"i_long":106.855437,"i_lat":-6.193792,"line":11},{"time":1,"transit":false,"i_long":106.850107,"is_transit":false,"line":11,"station_name":"Gang Sentiong","station_id":"GST","i_lat":-6.185975,"distance":973},{"distance":1567,"line":11,"transit":false,"station_id":"PSE","i_lat":-6.174784,"is_transit":false,"time":8,"i_long":106.84368,"station_name":"Pasar Senen"},{"station_id":"KMO","time":4,"is_transit":false,"i_lat":-6.161728,"i_long":106.839204,"distance":1436,"station_name":"Kemayoran","transit":false,"line":11},{"station_name":"Rajawali","distance":1901,"i_long":106.836569,"line":11,"transit":false,"time":5,"station_id":"RJW","is_transit":false,"i_lat":-6.14505},{"i_long":106.826365,"station_name":"Kampung Bandan","i_lat":-6.132549,"distance":1444,"time":3,"transit":true,"is_transit":true,"line":4,"station_id":"KPB"},{"time":9,"distance":4102,"i_lat":-6.144674,"line":1,"i_long":106.79867,"transit":false,"is_transit":false,"station_name":"Angke","station_id":"AK"},{"transit":false,"i_long":106.800832,"line":1,"station_id":"DU","distance":1230,"station_name":"Duri","i_lat":-6.155215,"time":4,"is_transit":false},{"station_name":"Tanah Abang","line":1,"is_transit":true,"time":8,"transit":true,"station_id":"THB","i_lat":-6.185545,"distance":3632,"i_long":106.811091},{"time":6,"station_id":"PLM","is_transit":false,"station_name":"Palmerah","transit":false,"i_lat":-6.207404,"distance":3191,"line":6,"i_long":106.79689},{"line":6,"time":7,"station_id":"KBY","transit":false,"i_lat":-6.237242,"i_long":106.780334,"is_transit":false,"station_name":"Kebayoran","distance":3737},{"i_lat":-6.276362,"station_id":"PDJ","station_name":"Pondokranji","i_long":106.74273,"time":8,"transit":false,"distance":6218,"line":6,"is_transit":false},{"line":6,"station_id":"JMU","i_lat":-6.288927,"is_transit":false,"time":3,"distance":2179,"transit":false,"i_long":106.728916,"station_name":"Jurangmangu"},{"is_transit":false,"station_name":"Sudimara","i_lat":-6.296963,"i_long":106.712277,"distance":1994,"time":4,"station_id":"SDM","transit":false,"line":6},{"distance":4566,"station_name":"Rawa Buntu","transit":false,"i_lat":-6.314823,"i_long":106.675475,"line":6,"station_id":"RU","is_transit":false,"time":6},{"i_long":106.66566,"is_transit":false,"transit":false,"time":4,"i_lat":-6.319871,"station_name":"Serpong","station_id":"SRP","line":6,"distance":2413},{"station_id":"CSK","i_long":106.640411,"line":3,"time":4,"transit":false,"i_lat":-6.32484,"distance":1784,"is_transit":false,"station_name":"Cisauk"},{"distance":2519,"is_transit":false,"i_lat":-6.329547,"i_long":106.617853,"station_name":"Cicayur","time":4,"line":3,"station_id":"CC","transit":false},{"station_id":"PRP","i_lat":-6.3441410000000005,"i_long":106.568863,"time":8,"station_name":"Parung Panjang","distance":5968,"is_transit":false,"line":6,"transit":false},{"distance":7025,"i_lat":-6.354349,"i_long":106.508482,"station_name":"Cilejit","time":9,"transit":false,"station_id":"CJT","line":3,"is_transit":false},{"transit":false,"is_transit":false,"station_name":"Daru","i_long":106.491338,"station_id":"DAR","time":6,"distance":2675,"i_lat":-6.338021,"line":0},{"distance":3902,"transit":false,"station_name":"Tenjo","i_lat":-6.327251,"i_long":106.460812,"station_id":"TEJ","is_transit":false,"time":5,"line":6},{"i_long":106.425991,"station_id":"TGS","station_name":"Tigaraksa","distance":2974,"transit":false,"time":5,"i_lat":-6.328533,"line":6,"is_transit":false},{"time":3,"i_long":106.411216,"transit":false,"line":3,"station_id":"CKY","distance":2651,"station_name":"Cikoya","is_transit":false,"i_lat":-6.33561},{"line":6,"is_transit":false,"time":4,"distance":1853,"station_id":"MJ","transit":false,"i_lat":-6.332307,"station_name":"Maja","i_long":106.394373},{"transit":false,"i_lat":-6.334892,"is_transit":false,"i_long":106.332092,"distance":7293,"station_id":"CTR","station_name":"Citeras","line":3,"time":10},{"transit":false,"line":3,"i_long":106.250396,"station_id":"RK","distance":9847,"i_lat":-6.352675,"time":13,"is_transit":false,"station_name":"Rangkasbitung"}]]}