{"data":[[{"station_id":"JAY","distance":0,"line":7,"transit":false,"is_transit":false,"i_lat":-6.141205,"i_long":106.820901,"station_name":"Jayakarta","time":0},{"is_transit":false,"station_id":"MGB","transit":false,"line":2,"station_name":"Manggabesar","distance":1080,"time":2,"i_long":106.82482,"i_lat":-6.149769},{"time":2,"distance":906,"i_lat":-6.160725,"is_transit":false,"transit":false,"station_name":"Sawah Besar","i_long":106.827103,"station_id":"SW","line":2},{"station_name":"Juanda","i_long":106.828284,"station_id":"JUA","is_transit":false,"time":2,"transit":false,"i_lat":-6.166716,"line":2,"distance":1149},{"station_name":"Gondangdia","i_lat":-6.186295,"time":4,"distance":2015,"is_transit":false,"transit":false,"station_id":"GDD","line":2,"i_long":106.832183},{"station_name":"Cikini","transit":false,"is_transit":false,"time":3,"distance":1750,"station_id":"CKI","i_lat":-6.198556,"line":0,"i_long":106.840169},{"line":0,"transit":true,"i_lat":-6.209883,"i_long":106.84912,"station_name":"Manggarai","time":4,"is_transit":true,"distance":1590,"station_id":"MRI"},{"station_name":"Tebet","is_transit":false,"distance":2610,"line":2,"i_lat":-6.226659,"i_long":106.857948,"time":4,"station_id":"TEB","transit":false},{"line":0,"transit":false,"time":2,"i_long":106.856607,"is_transit":false,"distance":1230,"i_lat":-6.242512,"station_name":"Cawang","station_id":"CW"},{"distance":1546,"i_long":106.85449,"station_id":"DRN","station_name":"Duren Kalibata","line":0,"i_lat":-6.255332,"is_transit":false,"transit":false,"time":3},{"time":2,"transit":false,"is_transit":false,"line":2,"station_name":"Pasar Minggu Baru","distance":824,"i_lat":-6.263214,"i_long":106.851577,"station_id":"PSMB"},{"transit":false,"station_name":"Pasar Minggu","distance":2380,"is_transit":false,"time":2,"i_lat":-6.2842400000000005,"i_long":106.843999,"station_id":"PSM","line":2},{"station_name":"Tanjung Barat","i_lat":-6.3080680000000005,"station_id":"TNT","line":2,"i_long":106.838896,"transit":false,"time":4,"is_transit":false,"distance":2820}],[{"time":0,"line":7,"station_id":"JAY","i_lat":-6.141205,"is_transit":false,"i_long":106.820901,"transit":false,"station_name":"Jayakarta","distance":0},{"station_name":"Jakarta Kota","is_transit":true,"transit":true,"distance":1264,"i_lat":-6.137569,"line":0,"time":4,"station_id":"JAKK","i_long":106.812439},{"station_id":"KPB","line":0,"station_name":"Kampung Bandan","is_transit":true,"distance":1364,"time":3,"transit":false,"i_lat":-6.132549,"i_long":106.826365},{"i_long":106.79867,"time":9,"is_transit":false,"station_name":"Angke","i_lat":-6.144674,"line":0,"distance":4102,"station_id":"AK","transit":false},{"time":4,"is_transit":true,"distance":1230,"station_name":"Duri","station_id":"DU","i_lat":-6.155215,"transit":true,"i_long":106.800832,"line":1},{"station_id":"THB","station_name":"Tanah Abang","time":8,"distance":3632,"i_lat":-6.185545,"is_transit":true,"transit":false,"i_long":106.811091,"line":1},{"transit":false,"i_lat":-6.20132,"line":1,"is_transit":false,"i_long":106.816351,"distance":2029,"station_id":"KAT","time":5,"station_name":"Karet"},{"i_long":106.819881,"station_id":"SUDB","is_transit":false,"distance":471,"i_lat":-6.201433,"station_name":"Sudirman Baru","time":1,"transit":false,"line":1},{"distance":280,"transit":false,"line":1,"i_long":106.822649,"station_id":"SUD","station_name":"Sudirman","is_transit":false,"i_lat":-6.202263,"time":1},{"station_name":"Manggarai","i_long":106.84912,"station_id":"MRI","is_transit":true,"distance":3186,"transit":true,"time":4,"i_lat":-6.209883,"line":0},{"distance":2610,"time":4,"i_long":106.857948,"line":2,"transit":false,"station_name":"Tebet","station_id":"TEB","is_transit":false,"i_lat":-6.226659},{"transit":false,"distance":1230,"line":0,"is_transit":false,"time":2,"i_long":106.856607,"station_name":"Cawang","i_lat":-6.242512,"station_id":"CW"},{"transit":false,"station_id":"DRN","line":0,"i_lat":-6.255332,"distance":1546,"is_transit":false,"time":3,"i_long":106.85449,"station_name":"Duren Kalibata"},{"i_long":106.851577,"station_name":"Pasar Minggu Baru","line":2,"is_transit":false,"i_lat":-6.263214,"distance":824,"time":2,"station_id":"PSMB","transit":false},{"i_long":106.843999,"distance":2380,"time":2,"line":2,"station_name":"Pasar Minggu","is_transit":false,"station_id":"PSM","transit":false,"i_lat":-6.2842400000000005},{"time":4,"transit":false,"line":2,"i_long":106.838896,"station_name":"Tanjung Barat","station_id":"TNT","distance":2820,"i_lat":-6.3080680000000005,"is_transit":false}],[{"station_id":"JAY","station_name":"Jayakarta","transit":false,"line":7,"distance":0,"i_lat":-6.141205,"i_long":106.820901,"is_transit":false,"time":0},{"time":4,"distance":1264,"is_transit":true,"station_id":"JAKK","i_long":106.812439,"transit":true,"line":0,"station_name":"Jakarta Kota","i_lat":-6.137569},{"station_name":"Kampung Bandan","is_transit":true,"distance":1364,"i_long":106.826365,"line":0,"i_lat":-6.132549,"station_id":"KPB","time":3,"transit":true},{"station_name":"Rajawali","distance":1444,"i_long":106.836569,"i_lat":-6.14505,"line":11,"is_transit":false,"time":3,"station_id":"RJW","transit":false},{"i_lat":-6.161728,"station_name":"Kemayoran","i_long":106.839204,"is_transit":false,"time":5,"station_id":"KMO","line":11,"distance":1901,"transit":false},{"station_id":"PSE","transit":false,"i_lat":-6.174784,"distance":1436,"is_transit":false,"i_long":106.84368,"time":4,"station_name":"Pasar Senen","line":11},{"is_transit":false,"line":11,"transit":false,"time":8,"i_lat":-6.185975,"i_long":106.850107,"station_id":"GST","station_name":"Gang Sentiong","distance":1567},{"distance":973,"station_id":"KMT","time":1,"i_lat":-6.193792,"i_long":106.855437,"station_name":"Kramat","is_transit":false,"transit":false,"line":11},{"line":11,"is_transit":false,"i_lat":-6.209188,"station_id":"POK","i_long":106.861737,"transit":false,"station_name":"Pondok Jati","time":2,"distance":1829},{"time":9,"distance":1236,"station_id":"JNG","station_name":"Jatinegara","line":0,"transit":true,"i_long":106.86807400000001,"is_transit":true,"i_lat":-6.215091},{"station_name":"Matraman","transit":false,"line":1,"time":2,"distance":1377,"is_transit":false,"i_lat":-6.212485,"station_id":"MTR","i_long":106.858896},{"station_id":"MRI","is_transit":true,"station_name":"Manggarai","transit":true,"distance":1275,"line":0,"i_long":106.84912,"time":2,"i_lat":-6.209883},{"line":2,"station_id":"TEB","distance":2610,"transit":false,"is_transit":false,"station_name":"Tebet","i_lat":-6.226659,"time":4,"i_long":106.857948},{"transit":false,"i_long":106.856607,"distance":1230,"station_id":"CW","station_name":"Cawang","time":2,"is_transit":false,"i_lat":-6.242512,"line":0},{"transit":false,"station_id":"DRN","is_transit":false,"i_lat":-6.255332,"line":0,"station_name":"Duren Kalibata","distance":1546,"time":3,"i_long":106.85449},{"i_lat":-6.263214,"i_long":106.851577,"station_name":"Pasar Minggu Baru","time":2,"line":2,"is_transit":false,"transit":false,"distance":824,"station_id":"PSMB"},{"line":2,"i_long":106.843999,"i_lat":-6.2842400000000005,"station_name":"Pasar Minggu","transit":false,"station_id":"PSM","time":2,"is_transit":false,"distance":2380},{"station_id":"TNT","station_name":"Tanjung Barat","i_lat":-6.3080680000000005,"i_long":106.838896,"transit":false,"line":2,"is_transit":false,"distance":2820,"time":4}]]}