{"data":[[{"station_name":"Jayakarta","station_id":"JAY","distance":0,"i_long":106.820901,"time":0,"line":2,"transit":false,"is_transit":false,"i_lat":-6.141205},{"is_transit":true,"transit":true,"station_name":"Jakarta Kota","station_id":"JAKK","distance":1264,"i_lat":-6.137569,"i_long":106.812439,"time":4,"line":2},{"is_transit":true,"line":4,"station_id":"KPB","i_lat":-6.132549,"distance":1364,"transit":true,"station_name":"Kampung Bandan","i_long":106.826365,"time":3},{"station_id":"AC","station_name":"Ancol","time":4,"distance":2185,"is_transit":false,"i_lat":-6.128023,"i_long":106.84464,"transit":false,"line":4},{"is_transit":false,"station_id":"TPK","transit":false,"i_lat":-6.1109480000000005,"station_name":"Tanjung Priuk","time":9,"i_long":106.880089,"line":4,"distance":4566}],[{"transit":false,"i_long":106.820901,"distance":0,"is_transit":false,"station_id":"JAY","station_name":"Jayakarta","time":0,"line":2,"i_lat":-6.141205},{"distance":1080,"i_lat":-6.149769,"i_long":106.82482,"station_name":"Manggabesar","transit":false,"line":2,"is_transit":false,"time":2,"station_id":"MGB"},{"station_id":"SW","line":2,"time":2,"transit":false,"i_lat":-6.160725,"i_long":106.827103,"station_name":"Sawah Besar","is_transit":false,"distance":906},{"time":2,"i_lat":-6.166716,"distance":1149,"is_transit":false,"station_name":"Juanda","transit":false,"station_id":"JUA","i_long":106.828284,"line":2},{"station_id":"GDD","distance":2015,"station_name":"Gondangdia","line":2,"i_lat":-6.186295,"transit":false,"time":4,"i_long":106.832183,"is_transit":false},{"is_transit":false,"i_lat":-6.198556,"station_name":"Cikini","time":3,"station_id":"CKI","distance":1750,"i_long":106.840169,"transit":false,"line":2},{"time":4,"i_lat":-6.209883,"is_transit":true,"line":2,"station_id":"MRI","i_long":106.84912,"station_name":"Manggarai","transit":true,"distance":1590},{"station_name":"Sudirman","i_lat":-6.202263,"line":1,"transit":false,"i_long":106.822649,"station_id":"SUD","is_transit":false,"distance":3186,"time":4},{"transit":false,"station_id":"SUDB","station_name":"Sudirman Baru","i_lat":-6.201433,"line":1,"is_transit":false,"i_long":106.819881,"time":1,"distance":280},{"i_lat":-6.20132,"transit":false,"time":1,"station_name":"Karet","station_id":"KAT","distance":471,"is_transit":false,"i_long":106.816351,"line":1},{"distance":2029,"line":1,"station_id":"THB","i_long":106.811091,"is_transit":false,"i_lat":-6.185545,"station_name":"Tanah Abang","transit":false,"time":5},{"station_name":"Duri","is_transit":false,"station_id":"DU","i_long":106.800832,"distance":3632,"line":1,"time":8,"i_lat":-6.155215,"transit":false},{"station_name":"Angke","i_long":106.79867,"i_lat":-6.144674,"line":1,"station_id":"AK","time":4,"is_transit":false,"transit":false,"distance":1230},{"i_long":106.826365,"station_id":"KPB","time":9,"transit":true,"distance":4102,"station_name":"Kampung Bandan","i_lat":-6.132549,"line":4,"is_transit":true},{"line":4,"i_lat":-6.128023,"distance":2185,"station_id":"AC","station_name":"Ancol","is_transit":false,"time":4,"transit":false,"i_long":106.84464},{"station_name":"Tanjung Priuk","line":4,"station_id":"TPK","is_transit":false,"time":9,"transit":false,"i_long":106.880089,"i_lat":-6.1109480000000005,"distance":4566}],[{"station_id":"JAY","distance":0,"line":2,"time":0,"i_long":106.820901,"i_lat":-6.141205,"station_name":"Jayakarta","is_transit":false,"transit":false},{"distance":1080,"time":2,"line":2,"station_id":"MGB","transit":false,"i_long":106.82482,"is_transit":false,"i_lat":-6.149769,"station_name":"Manggabesar"},{"station_id":"SW","is_transit":false,"transit":false,"i_long":106.827103,"line":2,"station_name":"Sawah Besar","i_lat":-6.160725,"time":2,"distance":906},{"line":2,"station_name":"Juanda","i_lat":-6.166716,"i_long":106.828284,"transit":false,"distance":1149,"time":2,"is_transit":false,"station_id":"JUA"},{"line":2,"station_id":"GDD","i_lat":-6.186295,"is_transit":false,"i_long":106.832183,"time":4,"transit":false,"distance":2015,"station_name":"Gondangdia"},{"is_transit":false,"line":2,"time":3,"station_name":"Cikini","i_lat":-6.198556,"station_id":"CKI","transit":false,"distance":1750,"i_long":106.840169},{"time":4,"is_transit":true,"station_name":"Manggarai","transit":true,"distance":1590,"i_lat":-6.209883,"i_long":106.84912,"line":2,"station_id":"MRI"},{"distance":1275,"station_id":"MTR","time":2,"transit":false,"is_transit":false,"station_name":"Matraman","i_long":106.858896,"i_lat":-6.212485,"line":1},{"time":8,"is_transit":true,"i_lat":-6.215091,"station_name":"Jatinegara","line":1,"transit":true,"i_long":106.86807400000001,"station_id":"JNG","distance":1377},{"station_id":"POK","transit":false,"time":2,"station_name":"Pondok Jati","distance":1236,"line":11,"is_transit":false,"i_long":106.861737,"i_lat":-6.209188},{"time":2,"transit":false,"is_transit":false,"line":11,"station_id":"KMT","station_name":"Kramat","distance":1829,"i_lat":-6.193792,"i_long":106.855437},{"line":11,"is_transit":false,"i_lat":-6.185975,"i_long":106.850107,"station_name":"Gang Sentiong","transit":false,"distance":973,"time":1,"station_id":"GST"},{"transit":false,"station_name":"Pasar Senen","station_id":"PSE","time":8,"is_transit":false,"i_lat":-6.174784,"i_long":106.84368,"distance":1567,"line":11},{"i_long":106.839204,"distance":1436,"time":4,"station_id":"KMO","i_lat":-6.161728,"line":11,"station_name":"Kemayoran","is_transit":false,"transit":false},{"transit":false,"i_long":106.836569,"distance":1901,"i_lat":-6.14505,"station_name":"Rajawali","is_transit":false,"time":5,"line":11,"station_id":"RJW"},{"i_long":106.826365,"station_id":"KPB","station_name":"Kampung Bandan","line":4,"is_transit":true,"transit":true,"time":3,"distance":1444,"i_lat":-6.132549},{"distance":2185,"i_lat":-6.128023,"transit":false,"line":4,"station_name":"Ancol","station_id":"AC","i_long":106.84464,"time":4,"is_transit":false},{"line":4,"is_transit":false,"station_name":"Tanjung Priuk","i_long":106.880089,"time":9,"station_id":"TPK","distance":4566,"transit":false,"i_lat":-6.1109480000000005}]]}