{"data":[[{"is_transit":false,"line":2,"i_long":106.820901,"i_lat":-6.141205,"station_id":"JAY","transit":false,"station_name":"Jayakarta","time":0,"distance":0},{"station_id":"JAKK","is_transit":true,"station_name":"Jakarta Kota","time":4,"distance":1264,"i_lat":-6.137569,"i_long":106.812439,"line":2,"transit":true},{"is_transit":true,"station_name":"Kampung Bandan","time":3,"i_long":106.826365,"i_lat":-6.132549,"line":4,"station_id":"KPB","transit":true,"distance":1364},{"distance":4102,"station_id":"AK","line":1,"is_transit":false,"time":9,"i_lat":-6.144674,"station_name":"Angke","i_long":106.79867,"transit":false},{"station_id":"DU","is_transit":false,"distance":1230,"i_lat":-6.155215,"station_name":"Duri","time":4,"transit":false,"i_long":106.800832,"line":1},{"station_id":"THB","distance":3632,"i_long":106.811091,"station_name":"Tanah Abang","transit":true,"line":1,"is_transit":true,"i_lat":-6.185545,"time":8},{"station_name":"Palmerah","i_long":106.79689,"line":6,"station_id":"PLM","i_lat":-6.207404,"is_transit":false,"transit":false,"distance":3191,"time":6},{"distance":3737,"i_lat":-6.237242,"time":7,"station_name":"Kebayoran","station_id":"KBY","is_transit":false,"line":6,"transit":false,"i_long":106.780334},{"i_long":106.74273,"is_transit":false,"time":8,"station_id":"PDJ","transit":false,"i_lat":-6.276362,"line":6,"station_name":"Pondokranji","distance":6218},{"time":3,"is_transit":false,"distance":2179,"i_long":106.728916,"i_lat":-6.288927,"transit":false,"line":6,"station_id":"JMU","station_name":"Jurangmangu"},{"i_long":106.712277,"station_id":"SDM","line":6,"is_transit":false,"station_name":"Sudimara","time":4,"distance":1994,"transit":false,"i_lat":-6.296963},{"station_id":"RU","is_transit":false,"distance":4566,"i_long":106.675475,"transit":false,"line":6,"i_lat":-6.314823,"station_name":"Rawa Buntu","time":6},{"transit":false,"i_long":106.66566,"line":6,"station_name":"Serpong","i_lat":-6.319871,"station_id":"SRP","is_transit":false,"distance":2413,"time":4},{"time":4,"station_id":"CSK","i_lat":-6.32484,"line":3,"transit":false,"station_name":"Cisauk","i_long":106.640411,"is_transit":false,"distance":1784},{"line":3,"i_long":106.617853,"transit":false,"station_name":"Cicayur","station_id":"CC","i_lat":-6.329547,"time":4,"distance":2519,"is_transit":false}],[{"station_name":"Jayakarta","i_lat":-6.141205,"station_id":"JAY","transit":false,"i_long":106.820901,"line":2,"is_transit":false,"time":0,"distance":0},{"line":2,"is_transit":false,"station_name":"Manggabesar","distance":1080,"transit":false,"i_lat":-6.149769,"station_id":"MGB","time":2,"i_long":106.82482},{"is_transit":false,"time":2,"transit":false,"i_long":106.827103,"station_id":"SW","distance":906,"line":2,"station_name":"Sawah Besar","i_lat":-6.160725},{"is_transit":false,"time":2,"transit":false,"station_id":"JUA","station_name":"Juanda","distance":1149,"i_lat":-6.166716,"i_long":106.828284,"line":2},{"distance":2015,"i_long":106.832183,"time":4,"station_name":"Gondangdia","is_transit":false,"i_lat":-6.186295,"line":2,"transit":false,"station_id":"GDD"},{"line":2,"station_name":"Cikini","is_transit":false,"i_lat":-6.198556,"transit":false,"station_id":"CKI","distance":1750,"time":3,"i_long":106.840169},{"station_name":"Manggarai","i_lat":-6.209883,"i_long":106.84912,"transit":true,"station_id":"MRI","is_transit":true,"distance":1590,"time":4,"line":2},{"is_transit":false,"station_id":"SUD","distance":3186,"i_lat":-6.202263,"i_long":106.822649,"line":1,"time":4,"transit":false,"station_name":"Sudirman"},{"i_lat":-6.201433,"time":1,"line":1,"distance":280,"station_name":"Sudirman Baru","station_id":"SUDB","transit":false,"is_transit":false,"i_long":106.819881},{"transit":false,"station_name":"Karet","line":1,"i_lat":-6.20132,"distance":471,"i_long":106.816351,"is_transit":false,"station_id":"KAT","time":1},{"time":5,"station_name":"Tanah Abang","line":1,"transit":true,"is_transit":true,"distance":2029,"i_long":106.811091,"station_id":"THB","i_lat":-6.185545},{"station_name":"Palmerah","transit":false,"station_id":"PLM","is_transit":false,"time":6,"i_long":106.79689,"line":6,"i_lat":-6.207404,"distance":3191},{"i_long":106.780334,"distance":3737,"station_name":"Kebayoran","station_id":"KBY","time":7,"transit":false,"is_transit":false,"i_lat":-6.237242,"line":6},{"transit":false,"line":6,"is_transit":false,"distance":6218,"station_name":"Pondokranji","time":8,"i_lat":-6.276362,"station_id":"PDJ","i_long":106.74273},{"i_long":106.728916,"line":6,"transit":false,"station_id":"JMU","time":3,"is_transit":false,"distance":2179,"i_lat":-6.288927,"station_name":"Jurangmangu"},{"line":6,"station_id":"SDM","is_transit":false,"distance":1994,"i_lat":-6.296963,"i_long":106.712277,"time":4,"transit":false,"station_name":"Sudimara"},{"i_lat":-6.314823,"i_long":106.675475,"is_transit":false,"distance":4566,"station_id":"RU","station_name":"Rawa Buntu","time":6,"transit":false,"line":6},{"time":4,"station_name":"Serpong","is_transit":false,"distance":2413,"transit":false,"line":6,"i_long":106.66566,"i_lat":-6.319871,"station_id":"SRP"},{"station_id":"CSK","is_transit":false,"i_lat":-6.32484,"time":4,"transit":false,"i_long":106.640411,"station_name":"Cisauk","distance":1784,"line":3},{"time":4,"i_lat":-6.329547,"distance":2519,"station_id":"CC","station_name":"Cicayur","is_transit":false,"i_long":106.617853,"line":3,"transit":false}],[{"station_id":"JAY","station_name":"Jayakarta","i_long":106.820901,"line":2,"is_transit":false,"time":0,"distance":0,"transit":false,"i_lat":-6.141205},{"time":4,"i_lat":-6.137569,"transit":true,"station_id":"JAKK","is_transit":true,"i_long":106.812439,"station_name":"Jakarta Kota","distance":1264,"line":2},{"line":4,"i_long":106.826365,"is_transit":true,"station_id":"KPB","transit":true,"time":3,"station_name":"Kampung Bandan","distance":1364,"i_lat":-6.132549},{"i_long":106.836569,"station_name":"Rajawali","line":11,"station_id":"RJW","distance":1444,"i_lat":-6.14505,"transit":false,"time":3,"is_transit":false},{"station_id":"KMO","transit":false,"station_name":"Kemayoran","distance":1901,"time":5,"is_transit":false,"i_long":106.839204,"i_lat":-6.161728,"line":11},{"distance":1436,"station_id":"PSE","time":4,"transit":false,"i_lat":-6.174784,"line":11,"station_name":"Pasar Senen","i_long":106.84368,"is_transit":false},{"i_long":106.850107,"is_transit":false,"line":11,"station_name":"Gang Sentiong","distance":1567,"i_lat":-6.185975,"transit":false,"time":8,"station_id":"GST"},{"time":1,"station_id":"KMT","station_name":"Kramat","line":11,"transit":false,"is_transit":false,"distance":973,"i_lat":-6.193792,"i_long":106.855437},{"i_long":106.861737,"time":2,"station_id":"POK","i_lat":-6.209188,"line":11,"transit":false,"is_transit":false,"distance":1829,"station_name":"Pondok Jati"},{"is_transit":true,"i_lat":-6.215091,"station_name":"Jatinegara","station_id":"JNG","transit":true,"i_long":106.86807400000001,"distance":1236,"line":1,"time":9},{"station_name":"Matraman","line":1,"time":2,"distance":1377,"i_lat":-6.212485,"station_id":"MTR","is_transit":false,"transit":false,"i_long":106.858896},{"i_lat":-6.209883,"time":2,"i_long":106.84912,"station_id":"MRI","transit":false,"station_name":"Manggarai","is_transit":false,"distance":1275,"line":2},{"i_lat":-6.202263,"i_long":106.822649,"station_name":"Sudirman","is_transit":false,"line":1,"station_id":"SUD","distance":3186,"time":4,"transit":false},{"distance":280,"i_long":106.819881,"line":1,"i_lat":-6.201433,"is_transit":false,"time":1,"station_id":"SUDB","station_name":"Sudirman Baru","transit":false},{"line":1,"station_id":"KAT","distance":471,"station_name":"Karet","transit":false,"time":1,"is_transit":false,"i_lat":-6.20132,"i_long":106.816351},{"i_long":106.811091,"time":5,"station_id":"THB","distance":2029,"transit":true,"i_lat":-6.185545,"is_transit":true,"line":1,"station_name":"Tanah Abang"},{"is_transit":false,"i_lat":-6.207404,"station_id":"PLM","time":6,"transit":false,"station_name":"Palmerah","distance":3191,"i_long":106.79689,"line":6},{"transit":false,"i_lat":-6.237242,"i_long":106.780334,"line":6,"time":7,"station_id":"KBY","is_transit":false,"station_name":"Kebayoran","distance":3737},{"is_transit":false,"distance":6218,"station_id":"PDJ","station_name":"Pondokranji","transit":false,"i_lat":-6.276362,"i_long":106.74273,"line":6,"time":8},{"line":6,"is_transit":false,"transit":false,"i_long":106.728916,"time":3,"distance":2179,"station_id":"JMU","station_name":"Jurangmangu","i_lat":-6.288927},{"line":6,"distance":1994,"time":4,"is_transit":false,"station_id":"SDM","i_long":106.712277,"transit":false,"i_lat":-6.296963,"station_name":"Sudimara"},{"station_id":"RU","is_transit":false,"i_lat":-6.314823,"i_long":106.675475,"line":6,"transit":false,"time":6,"station_name":"Rawa Buntu","distance":4566},{"distance":2413,"i_long":106.66566,"station_name":"Serpong","is_transit":false,"line":6,"transit":false,"time":4,"station_id":"SRP","i_lat":-6.319871},{"i_lat":-6.32484,"line":3,"station_name":"Cisauk","i_long":106.640411,"distance":1784,"time":4,"transit":false,"station_id":"CSK","is_transit":false},{"line":3,"i_lat":-6.329547,"transit":false,"station_name":"Cicayur","time":4,"station_id":"CC","distance":2519,"i_long":106.617853,"is_transit":false}],[{"line":2,"transit":false,"is_transit":false,"i_lat":-6.141205,"station_name":"Jayakarta","distance":0,"time":0,"station_id":"JAY","i_long":106.820901},{"transit":false,"station_id":"MGB","distance":1080,"i_long":106.82482,"station_name":"Manggabesar","line":2,"i_lat":-6.149769,"time":2,"is_transit":false},{"line":2,"is_transit":false,"time":2,"i_lat":-6.160725,"station_id":"SW","station_name":"Sawah Besar","distance":906,"i_long":106.827103,"transit":false},{"is_transit":false,"line":2,"i_long":106.828284,"i_lat":-6.166716,"time":2,"station_name":"Juanda","transit":false,"station_id":"JUA","distance":1149},{"station_id":"GDD","time":4,"station_name":"Gondangdia","transit":false,"distance":2015,"i_lat":-6.186295,"is_transit":false,"i_long":106.832183,"line":2},{"i_lat":-6.198556,"transit":false,"line":2,"station_id":"CKI","station_name":"Cikini","i_long":106.840169,"distance":1750,"is_transit":false,"time":3},{"line":2,"is_transit":true,"station_id":"MRI","station_name":"Manggarai","i_lat":-6.209883,"time":4,"i_long":106.84912,"transit":true,"distance":1590},{"time":2,"transit":false,"station_id":"MTR","i_lat":-6.212485,"i_long":106.858896,"is_transit":false,"distance":1275,"line":1,"station_name":"Matraman"},{"i_long":106.86807400000001,"line":1,"station_name":"Jatinegara","transit":true,"time":8,"is_transit":true,"i_lat":-6.215091,"station_id":"JNG","distance":1377},{"transit":false,"is_transit":false,"time":2,"distance":1236,"i_lat":-6.209188,"line":11,"station_name":"Pondok Jati","station_id":"POK","i_long":106.861737},{"is_transit":false,"time":2,"i_long":106.855437,"line":11,"i_lat":-6.193792,"station_id":"KMT","distance":1829,"transit":false,"station_name":"Kramat"},{"distance":973,"time":1,"i_lat":-6.185975,"transit":false,"line":11,"station_id":"GST","i_long":106.850107,"station_name":"Gang Sentiong","is_transit":false},{"distance":1567,"is_transit":false,"line":11,"time":8,"station_name":"Pasar Senen","i_long":106.84368,"transit":false,"station_id":"PSE","i_lat":-6.174784},{"time":4,"distance":1436,"i_lat":-6.161728,"i_long":106.839204,"line":11,"is_transit":false,"station_id":"KMO","transit":false,"station_name":"Kemayoran"},{"station_name":"Rajawali","is_transit":false,"distance":1901,"i_lat":-6.14505,"i_long":106.836569,"transit":false,"time":5,"station_id":"RJW","line":11},{"transit":true,"station_name":"Kampung Bandan","i_lat":-6.132549,"i_long":106.826365,"distance":1444,"is_transit":true,"line":4,"time":3,"station_id":"KPB"},{"time":9,"station_id":"AK","is_transit":false,"station_name":"Angke","i_long":106.79867,"i_lat":-6.144674,"distance":4102,"transit":false,"line":1},{"station_id":"DU","is_transit":false,"i_long":106.800832,"i_lat":-6.155215,"line":1,"transit":false,"time":4,"station_name":"Duri","distance":1230},{"transit":true,"station_name":"Tanah Abang","i_long":106.811091,"line":1,"station_id":"THB","time":8,"is_transit":true,"distance":3632,"i_lat":-6.185545},{"transit":false,"station_id":"PLM","is_transit":false,"i_lat":-6.207404,"line":6,"time":6,"station_name":"Palmerah","distance":3191,"i_long":106.79689},{"station_name":"Kebayoran","is_transit":false,"time":7,"transit":false,"distance":3737,"i_lat":-6.237242,"line":6,"station_id":"KBY","i_long":106.780334},{"time":8,"station_name":"Pondokranji","is_transit":false,"distance":6218,"i_lat":-6.276362,"i_long":106.74273,"transit":false,"line":6,"station_id":"PDJ"},{"i_lat":-6.288927,"station_name":"Jurangmangu","time":3,"line":6,"i_long":106.728916,"is_transit":false,"distance":2179,"station_id":"JMU","transit":false},{"i_lat":-6.296963,"i_long":106.712277,"time":4,"distance":1994,"transit":false,"station_name":"Sudimara","line":6,"station_id":"SDM","is_transit":false},{"is_transit":false,"i_lat":-6.314823,"line":6,"time":6,"station_name":"Rawa Buntu","distance":4566,"i_long":106.675475,"station_id":"RU","transit":false},{"is_transit":false,"line":6,"transit":false,"station_name":"Serpong","time":4,"i_long":106.66566,"i_lat":-6.319871,"distance":2413,"station_id":"SRP"},{"transit":false,"is_transit":false,"station_id":"CSK","time":4,"station_name":"Cisauk","distance":1784,"i_lat":-6.32484,"i_long":106.640411,"line":3},{"i_lat":-6.329547,"is_transit":false,"time":4,"station_name":"Cicayur","distance":2519,"transit":false,"station_id":"CC","line":3,"i_long":106.617853}]]}