{"data":[[{"station_id":"JAY","i_long":106.820901,"line":2,"station_name":"Jayakarta","i_lat":-6.141205,"distance":0,"transit":false,"is_transit":false,"time":0},{"station_id":"JAKK","line":2,"is_transit":true,"time":4,"station_name":"Jakarta Kota","transit":true,"i_long":106.812439,"i_lat":-6.137569,"distance":1264},{"time":3,"station_id":"KPB","transit":true,"distance":1364,"is_transit":true,"i_lat":-6.132549,"i_long":106.826365,"line":4,"station_name":"Kampung Bandan"},{"transit":false,"i_lat":-6.144674,"line":1,"station_id":"AK","distance":4102,"station_name":"Angke","is_transit":false,"time":9,"i_long":106.79867},{"distance":1230,"is_transit":false,"time":4,"station_name":"Duri","line":1,"transit":false,"station_id":"DU","i_long":106.800832,"i_lat":-6.155215},{"transit":true,"i_lat":-6.185545,"station_id":"THB","station_name":"Tanah Abang","line":1,"is_transit":true,"i_long":106.811091,"distance":3632,"time":8},{"transit":false,"time":6,"is_transit":false,"station_id":"PLM","station_name":"Palmerah","i_long":106.79689,"distance":3191,"i_lat":-6.207404,"line":6},{"station_id":"KBY","transit":false,"distance":3737,"i_lat":-6.237242,"time":7,"line":6,"is_transit":false,"station_name":"Kebayoran","i_long":106.780334},{"time":8,"station_name":"Pondokranji","station_id":"PDJ","line":6,"distance":6218,"is_transit":false,"i_lat":-6.276362,"transit":false,"i_long":106.74273}],[{"i_long":106.820901,"distance":0,"station_name":"Jayakarta","time":0,"station_id":"JAY","transit":false,"is_transit":false,"line":2,"i_lat":-6.141205},{"is_transit":false,"line":2,"i_lat":-6.149769,"distance":1080,"station_id":"MGB","time":2,"transit":false,"i_long":106.82482,"station_name":"Manggabesar"},{"distance":906,"i_long":106.827103,"transit":false,"time":2,"is_transit":false,"station_name":"Sawah Besar","station_id":"SW","i_lat":-6.160725,"line":2},{"transit":false,"i_long":106.828284,"i_lat":-6.166716,"station_name":"Juanda","is_transit":false,"line":2,"distance":1149,"station_id":"JUA","time":2},{"station_name":"Gondangdia","is_transit":false,"i_long":106.832183,"line":2,"time":4,"transit":false,"distance":2015,"station_id":"GDD","i_lat":-6.186295},{"line":2,"distance":1750,"station_id":"CKI","station_name":"Cikini","transit":false,"i_lat":-6.198556,"is_transit":false,"time":3,"i_long":106.840169},{"i_lat":-6.209883,"station_id":"MRI","i_long":106.84912,"transit":true,"distance":1590,"time":4,"line":2,"station_name":"Manggarai","is_transit":true},{"is_transit":false,"line":1,"time":4,"transit":false,"i_lat":-6.202263,"station_id":"SUD","i_long":106.822649,"station_name":"Sudirman","distance":3186},{"is_transit":false,"i_long":106.819881,"line":1,"transit":false,"time":1,"station_id":"SUDB","distance":280,"station_name":"Sudirman Baru","i_lat":-6.201433},{"i_lat":-6.20132,"i_long":106.816351,"transit":false,"time":1,"distance":471,"station_name":"Karet","line":1,"is_transit":false,"station_id":"KAT"},{"i_lat":-6.185545,"i_long":106.811091,"line":1,"distance":2029,"station_name":"Tanah Abang","time":5,"station_id":"THB","is_transit":true,"transit":true},{"station_id":"PLM","is_transit":false,"i_lat":-6.207404,"time":6,"distance":3191,"i_long":106.79689,"line":6,"transit":false,"station_name":"Palmerah"},{"transit":false,"station_id":"KBY","distance":3737,"time":7,"is_transit":false,"i_long":106.780334,"i_lat":-6.237242,"line":6,"station_name":"Kebayoran"},{"i_long":106.74273,"station_name":"Pondokranji","time":8,"distance":6218,"i_lat":-6.276362,"line":6,"station_id":"PDJ","transit":false,"is_transit":false}],[{"i_lat":-6.141205,"line":2,"i_long":106.820901,"distance":0,"transit":false,"station_id":"JAY","is_transit":false,"time":0,"station_name":"Jayakarta"},{"time":4,"station_name":"Jakarta Kota","distance":1264,"is_transit":true,"station_id":"JAKK","line":2,"i_lat":-6.137569,"i_long":106.812439,"transit":true},{"time":3,"station_name":"Kampung Bandan","is_transit":true,"line":4,"distance":1364,"transit":true,"i_long":106.826365,"i_lat":-6.132549,"station_id":"KPB"},{"i_long":106.836569,"station_name":"Rajawali","is_transit":false,"line":11,"i_lat":-6.14505,"distance":1444,"station_id":"RJW","transit":false,"time":3},{"is_transit":false,"i_long":106.839204,"distance":1901,"i_lat":-6.161728,"time":5,"station_name":"Kemayoran","line":11,"transit":false,"station_id":"KMO"},{"i_long":106.84368,"line":11,"is_transit":false,"transit":false,"time":4,"station_id":"PSE","station_name":"Pasar Senen","distance":1436,"i_lat":-6.174784},{"i_long":106.850107,"line":11,"i_lat":-6.185975,"station_id":"GST","transit":false,"distance":1567,"time":8,"station_name":"Gang Sentiong","is_transit":false},{"is_transit":false,"transit":false,"time":1,"station_id":"KMT","i_lat":-6.193792,"distance":973,"line":11,"i_long":106.855437,"station_name":"Kramat"},{"i_lat":-6.209188,"station_id":"POK","time":2,"is_transit":false,"transit":false,"i_long":106.861737,"station_name":"Pondok Jati","line":11,"distance":1829},{"transit":true,"station_name":"Jatinegara","i_lat":-6.215091,"is_transit":true,"distance":1236,"i_long":106.86807400000001,"station_id":"JNG","time":9,"line":1},{"i_lat":-6.212485,"transit":false,"is_transit":false,"station_id":"MTR","time":2,"distance":1377,"station_name":"Matraman","i_long":106.858896,"line":1},{"i_long":106.84912,"is_transit":false,"transit":false,"station_name":"Manggarai","i_lat":-6.209883,"line":2,"station_id":"MRI","distance":1275,"time":2},{"station_id":"SUD","i_lat":-6.202263,"time":4,"is_transit":false,"station_name":"Sudirman","transit":false,"distance":3186,"line":1,"i_long":106.822649},{"distance":280,"station_id":"SUDB","station_name":"Sudirman Baru","is_transit":false,"i_long":106.819881,"time":1,"i_lat":-6.201433,"line":1,"transit":false},{"i_long":106.816351,"i_lat":-6.20132,"is_transit":false,"transit":false,"station_id":"KAT","line":1,"time":1,"station_name":"Karet","distance":471},{"i_long":106.811091,"station_name":"Tanah Abang","line":1,"i_lat":-6.185545,"station_id":"THB","is_transit":true,"time":5,"distance":2029,"transit":true},{"time":6,"is_transit":false,"line":6,"station_name":"Palmerah","i_long":106.79689,"transit":false,"station_id":"PLM","distance":3191,"i_lat":-6.207404},{"distance":3737,"i_lat":-6.237242,"time":7,"station_id":"KBY","station_name":"Kebayoran","line":6,"transit":false,"is_transit":false,"i_long":106.780334},{"station_name":"Pondokranji","transit":false,"is_transit":false,"time":8,"i_long":106.74273,"line":6,"i_lat":-6.276362,"distance":6218,"station_id":"PDJ"}],[{"i_long":106.820901,"time":0,"station_id":"JAY","line":2,"distance":0,"i_lat":-6.141205,"is_transit":false,"transit":false,"station_name":"Jayakarta"},{"i_long":106.82482,"station_id":"MGB","is_transit":false,"line":2,"time":2,"station_name":"Manggabesar","distance":1080,"transit":false,"i_lat":-6.149769},{"is_transit":false,"i_long":106.827103,"line":2,"station_name":"Sawah Besar","transit":false,"distance":906,"station_id":"SW","time":2,"i_lat":-6.160725},{"i_long":106.828284,"distance":1149,"is_transit":false,"time":2,"transit":false,"station_name":"Juanda","station_id":"JUA","line":2,"i_lat":-6.166716},{"station_name":"Gondangdia","i_lat":-6.186295,"transit":false,"station_id":"GDD","time":4,"distance":2015,"i_long":106.832183,"line":2,"is_transit":false},{"time":3,"i_lat":-6.198556,"line":2,"is_transit":false,"i_long":106.840169,"station_name":"Cikini","distance":1750,"transit":false,"station_id":"CKI"},{"i_lat":-6.209883,"station_id":"MRI","is_transit":true,"distance":1590,"time":4,"transit":true,"station_name":"Manggarai","i_long":106.84912,"line":2},{"i_long":106.858896,"station_id":"MTR","transit":false,"distance":1275,"time":2,"station_name":"Matraman","line":1,"is_transit":false,"i_lat":-6.212485},{"is_transit":true,"time":8,"transit":true,"station_id":"JNG","i_lat":-6.215091,"line":1,"distance":1377,"i_long":106.86807400000001,"station_name":"Jatinegara"},{"transit":false,"is_transit":false,"i_lat":-6.209188,"station_name":"Pondok Jati","distance":1236,"time":2,"station_id":"POK","line":11,"i_long":106.861737},{"distance":1829,"line":11,"time":2,"transit":false,"i_lat":-6.193792,"station_id":"KMT","station_name":"Kramat","i_long":106.855437,"is_transit":false},{"line":11,"distance":973,"transit":false,"station_id":"GST","is_transit":false,"time":1,"station_name":"Gang Sentiong","i_lat":-6.185975,"i_long":106.850107},{"transit":false,"time":8,"i_long":106.84368,"station_id":"PSE","is_transit":false,"i_lat":-6.174784,"line":11,"distance":1567,"station_name":"Pasar Senen"},{"is_transit":false,"i_lat":-6.161728,"line":11,"transit":false,"station_id":"KMO","station_name":"Kemayoran","time":4,"i_long":106.839204,"distance":1436},{"station_name":"Rajawali","is_transit":false,"transit":false,"station_id":"RJW","distance":1901,"i_lat":-6.14505,"i_long":106.836569,"line":11,"time":5},{"i_long":106.826365,"line":4,"station_id":"KPB","i_lat":-6.132549,"transit":true,"is_transit":true,"time":3,"distance":1444,"station_name":"Kampung Bandan"},{"distance":4102,"is_transit":false,"transit":false,"i_lat":-6.144674,"time":9,"station_name":"Angke","i_long":106.79867,"station_id":"AK","line":1},{"time":4,"is_transit":false,"line":1,"station_name":"Duri","station_id":"DU","distance":1230,"i_lat":-6.155215,"transit":false,"i_long":106.800832},{"i_long":106.811091,"station_name":"Tanah Abang","transit":true,"station_id":"THB","i_lat":-6.185545,"is_transit":true,"time":8,"distance":3632,"line":1},{"i_lat":-6.207404,"i_long":106.79689,"station_id":"PLM","station_name":"Palmerah","time":6,"is_transit":false,"distance":3191,"line":6,"transit":false},{"station_id":"KBY","line":6,"station_name":"Kebayoran","i_long":106.780334,"transit":false,"is_transit":false,"distance":3737,"i_lat":-6.237242,"time":7},{"is_transit":false,"transit":false,"i_lat":-6.276362,"line":6,"distance":6218,"station_name":"Pondokranji","station_id":"PDJ","time":8,"i_long":106.74273}]]}