{"data":[[{"station_name":"Jayakarta","time":0,"line":2,"is_transit":false,"i_long":106.820901,"transit":false,"station_id":"JAY","i_lat":-6.141205,"distance":0},{"transit":false,"station_name":"Manggabesar","is_transit":false,"i_lat":-6.149769,"distance":1080,"station_id":"MGB","line":2,"i_long":106.82482,"time":2},{"i_long":106.827103,"time":2,"station_name":"Sawah Besar","distance":906,"station_id":"SW","i_lat":-6.160725,"is_transit":false,"line":2,"transit":false},{"i_lat":-6.166716,"distance":1149,"station_id":"JUA","time":2,"transit":false,"station_name":"Juanda","i_long":106.828284,"line":2,"is_transit":false},{"station_id":"GDD","line":2,"transit":false,"i_lat":-6.186295,"is_transit":false,"time":4,"distance":2015,"i_long":106.832183,"station_name":"Gondangdia"},{"time":3,"transit":false,"i_long":106.840169,"distance":1750,"line":2,"i_lat":-6.198556,"station_id":"CKI","is_transit":false,"station_name":"Cikini"},{"station_id":"MRI","station_name":"Manggarai","is_transit":true,"transit":true,"line":2,"distance":1590,"i_long":106.84912,"time":4,"i_lat":-6.209883},{"station_id":"MTR","distance":1275,"time":2,"station_name":"Matraman","i_long":106.858896,"transit":false,"is_transit":false,"i_lat":-6.212485,"line":1},{"i_long":106.86807400000001,"is_transit":false,"transit":false,"station_id":"JNG","station_name":"Jatinegara","distance":1377,"i_lat":-6.215091,"time":8,"line":1},{"i_long":106.899548,"line":1,"time":3,"station_id":"KLD","station_name":"Klender","transit":false,"distance":3395,"is_transit":false,"i_lat":-6.2135}],[{"time":0,"i_lat":-6.141205,"line":2,"distance":0,"station_name":"Jayakarta","transit":false,"is_transit":false,"i_long":106.820901,"station_id":"JAY"},{"station_name":"Jakarta Kota","is_transit":true,"station_id":"JAKK","transit":true,"distance":1264,"i_long":106.812439,"time":4,"line":2,"i_lat":-6.137569},{"time":3,"station_name":"Kampung Bandan","i_long":106.826365,"distance":1364,"transit":true,"line":4,"station_id":"KPB","is_transit":true,"i_lat":-6.132549},{"line":11,"distance":1444,"i_lat":-6.14505,"i_long":106.836569,"station_name":"Rajawali","transit":false,"station_id":"RJW","time":3,"is_transit":false},{"time":5,"line":11,"i_lat":-6.161728,"transit":false,"station_id":"KMO","station_name":"Kemayoran","is_transit":false,"distance":1901,"i_long":106.839204},{"station_name":"Pasar Senen","time":4,"i_lat":-6.174784,"line":11,"is_transit":false,"distance":1436,"station_id":"PSE","transit":false,"i_long":106.84368},{"station_id":"GST","station_name":"Gang Sentiong","is_transit":false,"i_lat":-6.185975,"i_long":106.850107,"time":8,"transit":false,"distance":1567,"line":11},{"transit":false,"i_lat":-6.193792,"i_long":106.855437,"line":11,"distance":973,"station_id":"KMT","time":1,"is_transit":false,"station_name":"Kramat"},{"time":2,"is_transit":false,"station_name":"Pondok Jati","distance":1829,"transit":false,"i_long":106.861737,"line":11,"i_lat":-6.209188,"station_id":"POK"},{"is_transit":true,"distance":1236,"time":9,"station_id":"JNG","i_long":106.86807400000001,"station_name":"Jatinegara","transit":true,"i_lat":-6.215091,"line":1},{"station_id":"KLD","distance":3395,"time":3,"is_transit":false,"i_lat":-6.2135,"transit":false,"station_name":"Klender","line":1,"i_long":106.899548}],[{"station_name":"Jayakarta","station_id":"JAY","transit":false,"i_lat":-6.141205,"is_transit":false,"line":2,"i_long":106.820901,"distance":0,"time":0},{"is_transit":true,"i_long":106.812439,"i_lat":-6.137569,"time":4,"transit":true,"distance":1264,"line":2,"station_name":"Jakarta Kota","station_id":"JAKK"},{"station_id":"KPB","transit":true,"distance":1364,"i_long":106.826365,"line":4,"time":3,"station_name":"Kampung Bandan","i_lat":-6.132549,"is_transit":true},{"station_name":"Angke","time":9,"station_id":"AK","transit":false,"is_transit":false,"i_lat":-6.144674,"line":1,"distance":4102,"i_long":106.79867},{"distance":1230,"station_name":"Duri","transit":false,"station_id":"DU","time":4,"is_transit":false,"i_long":106.800832,"i_lat":-6.155215,"line":1},{"time":8,"is_transit":false,"transit":false,"i_long":106.811091,"i_lat":-6.185545,"station_id":"THB","line":1,"distance":3632,"station_name":"Tanah Abang"},{"i_long":106.816351,"i_lat":-6.20132,"time":5,"station_id":"KAT","distance":2029,"station_name":"Karet","is_transit":false,"line":1,"transit":false},{"distance":471,"time":1,"transit":false,"is_transit":false,"i_long":106.819881,"station_id":"SUDB","station_name":"Sudirman Baru","i_lat":-6.201433,"line":1},{"station_id":"SUD","station_name":"Sudirman","distance":280,"transit":false,"line":1,"i_lat":-6.202263,"time":1,"is_transit":false,"i_long":106.822649},{"distance":3186,"station_name":"Manggarai","line":2,"i_long":106.84912,"transit":false,"is_transit":false,"i_lat":-6.209883,"station_id":"MRI","time":4},{"station_id":"MTR","transit":false,"line":1,"time":2,"is_transit":false,"i_long":106.858896,"distance":1275,"i_lat":-6.212485,"station_name":"Matraman"},{"transit":false,"station_name":"Jatinegara","is_transit":false,"station_id":"JNG","line":1,"time":8,"i_lat":-6.215091,"distance":1377,"i_long":106.86807400000001},{"station_id":"KLD","station_name":"Klender","i_lat":-6.2135,"distance":3395,"line":1,"transit":false,"time":3,"is_transit":false,"i_long":106.899548}],[{"time":0,"distance":0,"station_id":"JAY","transit":false,"i_lat":-6.141205,"station_name":"Jayakarta","is_transit":false,"i_long":106.820901,"line":2},{"i_long":106.82482,"distance":1080,"station_name":"Manggabesar","line":2,"time":2,"transit":false,"is_transit":false,"i_lat":-6.149769,"station_id":"MGB"},{"line":2,"distance":906,"time":2,"station_id":"SW","transit":false,"i_long":106.827103,"station_name":"Sawah Besar","i_lat":-6.160725,"is_transit":false},{"distance":1149,"line":2,"i_lat":-6.166716,"station_name":"Juanda","transit":false,"station_id":"JUA","i_long":106.828284,"time":2,"is_transit":false},{"i_lat":-6.186295,"station_id":"GDD","station_name":"Gondangdia","i_long":106.832183,"transit":false,"distance":2015,"time":4,"line":2,"is_transit":false},{"line":2,"station_id":"CKI","is_transit":false,"transit":false,"i_long":106.840169,"distance":1750,"i_lat":-6.198556,"time":3,"station_name":"Cikini"},{"is_transit":true,"line":2,"station_id":"MRI","i_lat":-6.209883,"station_name":"Manggarai","distance":1590,"i_long":106.84912,"time":4,"transit":true},{"station_name":"Sudirman","transit":false,"line":1,"i_lat":-6.202263,"station_id":"SUD","is_transit":false,"time":4,"distance":3186,"i_long":106.822649},{"transit":false,"station_id":"SUDB","station_name":"Sudirman Baru","distance":280,"i_long":106.819881,"i_lat":-6.201433,"is_transit":false,"time":1,"line":1},{"station_id":"KAT","distance":471,"time":1,"line":1,"i_lat":-6.20132,"station_name":"Karet","i_long":106.816351,"is_transit":false,"transit":false},{"time":5,"station_name":"Tanah Abang","is_transit":false,"transit":false,"i_long":106.811091,"distance":2029,"i_lat":-6.185545,"line":1,"station_id":"THB"},{"i_lat":-6.155215,"transit":false,"i_long":106.800832,"line":1,"station_name":"Duri","distance":3632,"station_id":"DU","time":8,"is_transit":false},{"transit":false,"line":1,"time":4,"distance":1230,"i_long":106.79867,"is_transit":false,"station_name":"Angke","i_lat":-6.144674,"station_id":"AK"},{"station_name":"Kampung Bandan","is_transit":true,"distance":4102,"transit":true,"station_id":"KPB","line":4,"time":9,"i_lat":-6.132549,"i_long":106.826365},{"i_long":106.836569,"station_name":"Rajawali","transit":false,"station_id":"RJW","distance":1444,"line":11,"i_lat":-6.14505,"is_transit":false,"time":3},{"is_transit":false,"i_long":106.839204,"station_id":"KMO","line":11,"i_lat":-6.161728,"distance":1901,"station_name":"Kemayoran","time":5,"transit":false},{"i_lat":-6.174784,"line":11,"station_name":"Pasar Senen","is_transit":false,"i_long":106.84368,"station_id":"PSE","transit":false,"time":4,"distance":1436},{"station_id":"GST","station_name":"Gang Sentiong","time":8,"distance":1567,"i_lat":-6.185975,"is_transit":false,"line":11,"transit":false,"i_long":106.850107},{"transit":false,"line":11,"time":1,"i_long":106.855437,"i_lat":-6.193792,"distance":973,"station_name":"Kramat","is_transit":false,"station_id":"KMT"},{"i_long":106.861737,"time":2,"station_name":"Pondok Jati","is_transit":false,"station_id":"POK","i_lat":-6.209188,"distance":1829,"transit":false,"line":11},{"station_id":"JNG","time":9,"i_lat":-6.215091,"line":1,"transit":true,"station_name":"Jatinegara","distance":1236,"is_transit":true,"i_long":106.86807400000001},{"station_id":"KLD","i_lat":-6.2135,"is_transit":false,"distance":3395,"time":3,"station_name":"Klender","i_long":106.899548,"line":1,"transit":false}]]}