{"data":[[{"transit":false,"distance":0,"is_transit":false,"station_id":"JAY","line":7,"station_name":"Jayakarta","time":0,"i_lat":-6.141205,"i_long":106.820901},{"station_name":"Jakarta Kota","i_long":106.812439,"line":0,"i_lat":-6.137569,"distance":1264,"is_transit":true,"station_id":"JAKK","transit":true,"time":4},{"i_lat":-6.132549,"time":3,"transit":false,"line":0,"distance":1364,"is_transit":true,"i_long":106.826365,"station_name":"Kampung Bandan","station_id":"KPB"},{"i_long":106.79867,"station_name":"Angke","i_lat":-6.144674,"is_transit":false,"distance":4102,"transit":false,"station_id":"AK","line":0,"time":9},{"time":4,"is_transit":true,"i_long":106.800832,"station_id":"DU","line":1,"distance":1230,"i_lat":-6.155215,"station_name":"Duri","transit":true},{"i_long":106.811091,"station_name":"Tanah Abang","is_transit":true,"station_id":"THB","i_lat":-6.185545,"line":1,"transit":true,"distance":3632,"time":8},{"line":6,"distance":3191,"i_long":106.79689,"station_name":"Palmerah","transit":false,"time":6,"station_id":"PLM","is_transit":false,"i_lat":-6.207404},{"distance":3737,"station_name":"Kebayoran","i_lat":-6.237242,"i_long":106.780334,"line":6,"station_id":"KBY","is_transit":false,"time":7,"transit":false},{"i_lat":-6.276362,"station_name":"Pondokranji","is_transit":false,"line":6,"time":8,"i_long":106.74273,"distance":6218,"station_id":"PDJ","transit":false},{"station_id":"JMU","transit":false,"i_lat":-6.288927,"station_name":"Jurangmangu","i_long":106.728916,"time":3,"line":6,"is_transit":false,"distance":2179},{"station_id":"SDM","is_transit":false,"distance":1994,"transit":false,"station_name":"Sudimara","line":6,"time":4,"i_lat":-6.296963,"i_long":106.712277},{"time":6,"transit":false,"i_long":106.675475,"station_name":"Rawa Buntu","station_id":"RU","i_lat":-6.314823,"distance":4566,"is_transit":false,"line":6},{"station_name":"Serpong","is_transit":false,"transit":false,"distance":2413,"i_long":106.66566,"line":6,"i_lat":-6.319871,"station_id":"SRP","time":4},{"line":0,"station_id":"CSK","i_lat":-6.32484,"i_long":106.640411,"time":4,"station_name":"Cisauk","is_transit":false,"distance":1784,"transit":false},{"i_lat":-6.329547,"distance":2519,"station_name":"Cicayur","line":0,"time":4,"is_transit":false,"transit":false,"station_id":"CC","i_long":106.617853},{"station_name":"Parung Panjang","station_id":"PRP","i_lat":-6.3441410000000005,"transit":false,"time":8,"is_transit":false,"i_long":106.568863,"line":6,"distance":5968},{"is_transit":false,"line":0,"station_name":"Cilejit","i_lat":-6.354349,"time":9,"station_id":"CJT","transit":false,"distance":7025,"i_long":106.508482},{"line":0,"time":6,"i_long":106.491338,"transit":false,"distance":2675,"station_id":"DAR","station_name":"Daru","is_transit":false,"i_lat":-6.338021},{"distance":3902,"time":5,"i_lat":-6.327251,"is_transit":false,"transit":false,"i_long":106.460812,"station_id":"TEJ","line":6,"station_name":"Tenjo"},{"i_lat":-6.328533,"station_name":"Tigaraksa","line":6,"transit":false,"time":5,"station_id":"TGS","i_long":106.425991,"is_transit":false,"distance":2974}],[{"is_transit":false,"distance":0,"station_id":"JAY","station_name":"Jayakarta","time":0,"i_lat":-6.141205,"i_long":106.820901,"transit":false,"line":7},{"station_name":"Manggabesar","station_id":"MGB","is_transit":false,"line":2,"transit":false,"i_lat":-6.149769,"distance":1080,"i_long":106.82482,"time":2},{"distance":906,"time":2,"station_name":"Sawah Besar","transit":false,"i_lat":-6.160725,"line":2,"station_id":"SW","is_transit":false,"i_long":106.827103},{"time":2,"station_id":"JUA","is_transit":false,"distance":1149,"i_lat":-6.166716,"line":2,"i_long":106.828284,"station_name":"Juanda","transit":false},{"time":4,"distance":2015,"transit":false,"i_long":106.832183,"line":2,"station_name":"Gondangdia","is_transit":false,"i_lat":-6.186295,"station_id":"GDD"},{"station_id":"CKI","line":0,"time":3,"distance":1750,"i_lat":-6.198556,"transit":false,"i_long":106.840169,"is_transit":false,"station_name":"Cikini"},{"transit":true,"time":4,"is_transit":true,"station_id":"MRI","station_name":"Manggarai","i_lat":-6.209883,"i_long":106.84912,"distance":1590,"line":0},{"transit":false,"station_id":"SUD","i_lat":-6.202263,"distance":3186,"station_name":"Sudirman","is_transit":false,"i_long":106.822649,"line":1,"time":4},{"station_id":"SUDB","transit":false,"i_lat":-6.201433,"i_long":106.819881,"is_transit":false,"line":1,"station_name":"Sudirman Baru","time":1,"distance":280},{"transit":false,"i_lat":-6.20132,"distance":471,"station_name":"Karet","station_id":"KAT","i_long":106.816351,"line":1,"time":1,"is_transit":false},{"line":1,"station_id":"THB","i_lat":-6.185545,"i_long":106.811091,"is_transit":true,"time":5,"distance":2029,"station_name":"Tanah Abang","transit":true},{"station_id":"PLM","i_lat":-6.207404,"line":6,"transit":false,"time":6,"i_long":106.79689,"station_name":"Palmerah","is_transit":false,"distance":3191},{"line":6,"i_long":106.780334,"is_transit":false,"time":7,"transit":false,"distance":3737,"i_lat":-6.237242,"station_name":"Kebayoran","station_id":"KBY"},{"time":8,"is_transit":false,"line":6,"i_long":106.74273,"distance":6218,"station_name":"Pondokranji","station_id":"PDJ","transit":false,"i_lat":-6.276362},{"i_long":106.728916,"is_transit":false,"time":3,"i_lat":-6.288927,"distance":2179,"line":6,"station_name":"Jurangmangu","station_id":"JMU","transit":false},{"distance":1994,"i_long":106.712277,"line":6,"i_lat":-6.296963,"is_transit":false,"time":4,"station_name":"Sudimara","station_id":"SDM","transit":false},{"i_lat":-6.314823,"line":6,"station_id":"RU","time":6,"station_name":"Rawa Buntu","transit":false,"distance":4566,"i_long":106.675475,"is_transit":false},{"i_long":106.66566,"is_transit":false,"transit":false,"time":4,"line":6,"distance":2413,"i_lat":-6.319871,"station_name":"Serpong","station_id":"SRP"},{"i_lat":-6.32484,"line":0,"distance":1784,"station_name":"Cisauk","time":4,"station_id":"CSK","transit":false,"i_long":106.640411,"is_transit":false},{"i_long":106.617853,"distance":2519,"station_name":"Cicayur","is_transit":false,"line":0,"transit":false,"time":4,"i_lat":-6.329547,"station_id":"CC"},{"station_id":"PRP","i_lat":-6.3441410000000005,"station_name":"Parung Panjang","is_transit":false,"time":8,"transit":false,"i_long":106.568863,"distance":5968,"line":6},{"is_transit":false,"line":0,"station_id":"CJT","i_lat":-6.354349,"time":9,"distance":7025,"station_name":"Cilejit","i_long":106.508482,"transit":false},{"transit":false,"station_name":"Daru","distance":2675,"i_long":106.491338,"line":0,"time":6,"i_lat":-6.338021,"station_id":"DAR","is_transit":false},{"i_long":106.460812,"transit":false,"station_id":"TEJ","is_transit":false,"line":6,"i_lat":-6.327251,"time":5,"distance":3902,"station_name":"Tenjo"},{"distance":2974,"is_transit":false,"time":5,"transit":false,"i_long":106.425991,"i_lat":-6.328533,"station_id":"TGS","line":6,"station_name":"Tigaraksa"}],[{"i_lat":-6.141205,"is_transit":false,"line":7,"i_long":106.820901,"distance":0,"transit":false,"station_name":"Jayakarta","station_id":"JAY","time":0},{"station_name":"Jakarta Kota","transit":true,"station_id":"JAKK","distance":1264,"i_lat":-6.137569,"is_transit":true,"line":0,"time":4,"i_long":106.812439},{"i_long":106.826365,"station_name":"Kampung Bandan","time":3,"transit":true,"distance":1364,"station_id":"KPB","line":0,"i_lat":-6.132549,"is_transit":true},{"line":11,"station_name":"Rajawali","station_id":"RJW","is_transit":false,"i_long":106.836569,"i_lat":-6.14505,"distance":1444,"time":3,"transit":false},{"line":11,"station_name":"Kemayoran","time":5,"station_id":"KMO","distance":1901,"transit":false,"i_lat":-6.161728,"is_transit":false,"i_long":106.839204},{"i_lat":-6.174784,"distance":1436,"line":11,"station_name":"Pasar Senen","time":4,"station_id":"PSE","is_transit":false,"i_long":106.84368,"transit":false},{"distance":1567,"time":8,"line":11,"is_transit":false,"transit":false,"station_id":"GST","i_long":106.850107,"i_lat":-6.185975,"station_name":"Gang Sentiong"},{"is_transit":false,"line":11,"transit":false,"i_long":106.855437,"i_lat":-6.193792,"distance":973,"station_name":"Kramat","time":1,"station_id":"KMT"},{"station_id":"POK","time":2,"distance":1829,"i_long":106.861737,"i_lat":-6.209188,"is_transit":false,"line":11,"station_name":"Pondok Jati","transit":false},{"station_name":"Jatinegara","station_id":"JNG","i_lat":-6.215091,"transit":true,"is_transit":true,"line":0,"time":9,"i_long":106.86807400000001,"distance":1236},{"is_transit":false,"distance":1377,"station_name":"Matraman","line":1,"station_id":"MTR","time":2,"transit":false,"i_lat":-6.212485,"i_long":106.858896},{"i_lat":-6.209883,"line":0,"is_transit":true,"transit":false,"station_id":"MRI","i_long":106.84912,"distance":1275,"time":2,"station_name":"Manggarai"},{"station_name":"Sudirman","is_transit":false,"distance":3186,"time":4,"i_lat":-6.202263,"line":1,"i_long":106.822649,"transit":false,"station_id":"SUD"},{"station_id":"SUDB","i_lat":-6.201433,"transit":false,"line":1,"i_long":106.819881,"is_transit":false,"distance":280,"station_name":"Sudirman Baru","time":1},{"i_lat":-6.20132,"i_long":106.816351,"station_id":"KAT","time":1,"distance":471,"line":1,"is_transit":false,"station_name":"Karet","transit":false},{"is_transit":true,"time":5,"station_id":"THB","distance":2029,"transit":true,"station_name":"Tanah Abang","i_lat":-6.185545,"i_long":106.811091,"line":1},{"is_transit":false,"i_long":106.79689,"distance":3191,"station_id":"PLM","transit":false,"time":6,"i_lat":-6.207404,"line":6,"station_name":"Palmerah"},{"time":7,"station_name":"Kebayoran","transit":false,"station_id":"KBY","is_transit":false,"i_lat":-6.237242,"line":6,"distance":3737,"i_long":106.780334},{"line":6,"time":8,"transit":false,"i_lat":-6.276362,"distance":6218,"station_id":"PDJ","is_transit":false,"i_long":106.74273,"station_name":"Pondokranji"},{"station_name":"Jurangmangu","line":6,"is_transit":false,"i_lat":-6.288927,"i_long":106.728916,"time":3,"station_id":"JMU","distance":2179,"transit":false},{"is_transit":false,"i_long":106.712277,"i_lat":-6.296963,"time":4,"distance":1994,"line":6,"transit":false,"station_name":"Sudimara","station_id":"SDM"},{"i_long":106.675475,"distance":4566,"is_transit":false,"station_name":"Rawa Buntu","i_lat":-6.314823,"station_id":"RU","time":6,"line":6,"transit":false},{"station_id":"SRP","distance":2413,"transit":false,"i_lat":-6.319871,"line":6,"station_name":"Serpong","time":4,"i_long":106.66566,"is_transit":false},{"time":4,"distance":1784,"station_name":"Cisauk","is_transit":false,"line":0,"transit":false,"i_long":106.640411,"i_lat":-6.32484,"station_id":"CSK"},{"is_transit":false,"line":0,"distance":2519,"station_id":"CC","transit":false,"i_lat":-6.329547,"i_long":106.617853,"time":4,"station_name":"Cicayur"},{"time":8,"station_id":"PRP","i_lat":-6.3441410000000005,"is_transit":false,"i_long":106.568863,"line":6,"transit":false,"distance":5968,"station_name":"Parung Panjang"},{"line":0,"transit":false,"is_transit":false,"i_long":106.508482,"time":9,"distance":7025,"station_name":"Cilejit","station_id":"CJT","i_lat":-6.354349},{"station_id":"DAR","transit":false,"i_long":106.491338,"line":0,"station_name":"Daru","distance":2675,"is_transit":false,"time":6,"i_lat":-6.338021},{"i_long":106.460812,"distance":3902,"time":5,"station_id":"TEJ","transit":false,"station_name":"Tenjo","line":6,"is_transit":false,"i_lat":-6.327251},{"station_name":"Tigaraksa","station_id":"TGS","i_lat":-6.328533,"time":5,"transit":false,"is_transit":false,"i_long":106.425991,"line":6,"distance":2974}],[{"is_transit":false,"station_id":"JAY","distance":0,"station_name":"Jayakarta","transit":false,"line":7,"i_lat":-6.141205,"time":0,"i_long":106.820901},{"transit":false,"distance":1080,"line":2,"i_lat":-6.149769,"i_long":106.82482,"station_name":"Manggabesar","station_id":"MGB","time":2,"is_transit":false},{"time":2,"i_lat":-6.160725,"distance":906,"line":2,"station_id":"SW","i_long":106.827103,"is_transit":false,"station_name":"Sawah Besar","transit":false},{"distance":1149,"time":2,"transit":false,"i_long":106.828284,"is_transit":false,"i_lat":-6.166716,"station_id":"JUA","station_name":"Juanda","line":2},{"time":4,"i_long":106.832183,"transit":false,"i_lat":-6.186295,"distance":2015,"station_id":"GDD","line":2,"is_transit":false,"station_name":"Gondangdia"},{"i_long":106.840169,"distance":1750,"station_id":"CKI","line":0,"station_name":"Cikini","transit":false,"is_transit":false,"i_lat":-6.198556,"time":3},{"i_lat":-6.209883,"station_name":"Manggarai","distance":1590,"time":4,"station_id":"MRI","i_long":106.84912,"line":0,"is_transit":true,"transit":true},{"transit":false,"station_id":"MTR","time":2,"is_transit":false,"distance":1275,"station_name":"Matraman","i_lat":-6.212485,"i_long":106.858896,"line":1},{"distance":1377,"station_id":"JNG","is_transit":true,"line":0,"time":8,"station_name":"Jatinegara","i_lat":-6.215091,"i_long":106.86807400000001,"transit":true},{"line":11,"is_transit":false,"i_long":106.861737,"station_name":"Pondok Jati","time":2,"station_id":"POK","transit":false,"distance":1236,"i_lat":-6.209188},{"transit":false,"distance":1829,"line":11,"time":2,"i_long":106.855437,"is_transit":false,"station_id":"KMT","i_lat":-6.193792,"station_name":"Kramat"},{"i_lat":-6.185975,"time":1,"station_name":"Gang Sentiong","station_id":"GST","line":11,"transit":false,"i_long":106.850107,"distance":973,"is_transit":false},{"transit":false,"distance":1567,"i_long":106.84368,"is_transit":false,"line":11,"station_id":"PSE","station_name":"Pasar Senen","time":8,"i_lat":-6.174784},{"i_long":106.839204,"distance":1436,"time":4,"station_name":"Kemayoran","i_lat":-6.161728,"line":11,"station_id":"KMO","is_transit":false,"transit":false},{"is_transit":false,"distance":1901,"station_name":"Rajawali","station_id":"RJW","transit":false,"i_lat":-6.14505,"i_long":106.836569,"time":5,"line":11},{"distance":1444,"is_transit":true,"time":3,"station_name":"Kampung Bandan","line":0,"i_long":106.826365,"transit":true,"station_id":"KPB","i_lat":-6.132549},{"time":9,"station_name":"Angke","i_long":106.79867,"i_lat":-6.144674,"station_id":"AK","transit":false,"line":0,"distance":4102,"is_transit":false},{"line":1,"station_name":"Duri","i_lat":-6.155215,"station_id":"DU","transit":true,"time":4,"distance":1230,"is_transit":true,"i_long":106.800832},{"time":8,"station_id":"THB","distance":3632,"i_lat":-6.185545,"line":1,"is_transit":true,"i_long":106.811091,"station_name":"Tanah Abang","transit":true},{"station_id":"PLM","is_transit":false,"transit":false,"line":6,"distance":3191,"i_lat":-6.207404,"i_long":106.79689,"station_name":"Palmerah","time":6},{"distance":3737,"i_lat":-6.237242,"time":7,"station_name":"Kebayoran","transit":false,"i_long":106.780334,"station_id":"KBY","is_transit":false,"line":6},{"station_id":"PDJ","i_long":106.74273,"is_transit":false,"transit":false,"time":8,"line":6,"distance":6218,"station_name":"Pondokranji","i_lat":-6.276362},{"station_id":"JMU","i_long":106.728916,"station_name":"Jurangmangu","transit":false,"i_lat":-6.288927,"distance":2179,"is_transit":false,"time":3,"line":6},{"line":6,"station_name":"Sudimara","i_long":106.712277,"transit":false,"is_transit":false,"station_id":"SDM","distance":1994,"time":4,"i_lat":-6.296963},{"time":6,"i_long":106.675475,"line":6,"i_lat":-6.314823,"is_transit":false,"station_id":"RU","distance":4566,"station_name":"Rawa Buntu","transit":false},{"i_lat":-6.319871,"transit":false,"station_name":"Serpong","line":6,"time":4,"distance":2413,"is_transit":false,"station_id":"SRP","i_long":106.66566},{"is_transit":false,"distance":1784,"i_lat":-6.32484,"station_id":"CSK","line":0,"station_name":"Cisauk","time":4,"transit":false,"i_long":106.640411},{"station_name":"Cicayur","transit":false,"time":4,"station_id":"CC","distance":2519,"is_transit":false,"line":0,"i_long":106.617853,"i_lat":-6.329547},{"station_name":"Parung Panjang","transit":false,"i_lat":-6.3441410000000005,"is_transit":false,"time":8,"line":6,"station_id":"PRP","i_long":106.568863,"distance":5968},{"i_long":106.508482,"is_transit":false,"i_lat":-6.354349,"line":0,"time":9,"distance":7025,"station_name":"Cilejit","transit":false,"station_id":"CJT"},{"is_transit":false,"i_lat":-6.338021,"station_name":"Daru","line":0,"station_id":"DAR","i_long":106.491338,"transit":false,"time":6,"distance":2675},{"distance":3902,"i_long":106.460812,"transit":false,"is_transit":false,"station_name":"Tenjo","line":6,"i_lat":-6.327251,"time":5,"station_id":"TEJ"},{"station_id":"TGS","i_long":106.425991,"station_name":"Tigaraksa","transit":false,"distance":2974,"is_transit":false,"time":5,"line":6,"i_lat":-6.328533}]]}