{"data":[[{"distance":0,"i_lat":-6.141205,"time":0,"transit":false,"station_id":"JAY","i_long":106.820901,"station_name":"Jayakarta","is_transit":false,"line":2},{"transit":true,"line":2,"time":4,"station_name":"Jakarta Kota","is_transit":true,"i_lat":-6.137569,"i_long":106.812439,"distance":1264,"station_id":"JAKK"},{"transit":true,"time":3,"station_name":"Kampung Bandan","station_id":"KPB","is_transit":true,"i_lat":-6.132549,"distance":1364,"i_long":106.826365,"line":4},{"distance":4102,"i_long":106.79867,"line":1,"station_id":"AK","time":9,"is_transit":false,"station_name":"Angke","transit":false,"i_lat":-6.144674},{"distance":1230,"station_name":"Duri","i_long":106.800832,"line":1,"is_transit":true,"i_lat":-6.155215,"station_id":"DU","time":4,"transit":true},{"station_id":"GRG","is_transit":false,"transit":false,"i_lat":-6.162021,"line":5,"station_name":"Grogol","distance":1700,"i_long":106.788277,"time":3},{"station_name":"Pesing","station_id":"PSG","transit":false,"line":5,"time":2,"distance":2036,"is_transit":false,"i_long":106.771379,"i_lat":-6.161433},{"transit":false,"i_long":106.756522,"i_lat":-6.1587309999999995,"is_transit":false,"line":5,"time":2,"distance":1614,"station_id":"TKO","station_name":"Taman Kota"},{"is_transit":false,"line":5,"distance":2334,"i_long":106.737035,"station_id":"BOI","station_name":"Bojongindah","transit":false,"i_lat":-6.159876,"time":2},{"i_lat":-6.162758,"i_long":106.723064,"is_transit":false,"distance":1152,"line":5,"station_id":"RW","time":4,"station_name":"Rawa Buaya","transit":false},{"distance":2504,"line":5,"i_lat":-6.166068,"station_name":"Kalideres","i_long":106.701612,"station_id":"KDS","time":3,"is_transit":false,"transit":false},{"line":5,"i_long":106.679458,"transit":false,"distance":2548,"is_transit":false,"i_lat":-6.169933,"station_name":"Poris","station_id":"PI","time":3}],[{"i_lat":-6.141205,"i_long":106.820901,"transit":false,"line":2,"is_transit":false,"time":0,"distance":0,"station_id":"JAY","station_name":"Jayakarta"},{"is_transit":false,"i_lat":-6.149769,"distance":1080,"station_id":"MGB","line":2,"transit":false,"time":2,"station_name":"Manggabesar","i_long":106.82482},{"time":2,"station_id":"SW","station_name":"Sawah Besar","transit":false,"i_long":106.827103,"line":2,"i_lat":-6.160725,"distance":906,"is_transit":false},{"i_lat":-6.166716,"time":2,"line":2,"transit":false,"i_long":106.828284,"station_id":"JUA","distance":1149,"station_name":"Juanda","is_transit":false},{"station_id":"GDD","is_transit":false,"transit":false,"time":4,"i_lat":-6.186295,"line":2,"i_long":106.832183,"distance":2015,"station_name":"Gondangdia"},{"i_lat":-6.198556,"i_long":106.840169,"station_id":"CKI","station_name":"Cikini","is_transit":false,"time":3,"distance":1750,"line":2,"transit":false},{"transit":true,"line":2,"i_long":106.84912,"station_id":"MRI","station_name":"Manggarai","is_transit":true,"time":4,"distance":1590,"i_lat":-6.209883},{"transit":false,"station_name":"Sudirman","station_id":"SUD","is_transit":false,"distance":3186,"i_lat":-6.202263,"time":4,"i_long":106.822649,"line":1},{"line":1,"is_transit":false,"i_lat":-6.201433,"time":1,"station_id":"SUDB","distance":280,"station_name":"Sudirman Baru","i_long":106.819881,"transit":false},{"i_lat":-6.20132,"distance":471,"station_id":"KAT","transit":false,"i_long":106.816351,"time":1,"line":1,"station_name":"Karet","is_transit":false},{"line":1,"station_name":"Tanah Abang","i_lat":-6.185545,"i_long":106.811091,"time":5,"distance":2029,"is_transit":false,"station_id":"THB","transit":false},{"distance":3632,"time":8,"i_lat":-6.155215,"station_name":"Duri","is_transit":true,"station_id":"DU","line":1,"i_long":106.800832,"transit":true},{"i_lat":-6.162021,"is_transit":false,"time":3,"station_id":"GRG","i_long":106.788277,"line":5,"transit":false,"station_name":"Grogol","distance":1700},{"station_name":"Pesing","station_id":"PSG","distance":2036,"transit":false,"line":5,"i_lat":-6.161433,"time":2,"i_long":106.771379,"is_transit":false},{"station_id":"TKO","station_name":"Taman Kota","is_transit":false,"i_lat":-6.1587309999999995,"time":2,"distance":1614,"transit":false,"i_long":106.756522,"line":5},{"time":2,"station_name":"Bojongindah","distance":2334,"i_long":106.737035,"station_id":"BOI","is_transit":false,"transit":false,"i_lat":-6.159876,"line":5},{"transit":false,"station_id":"RW","station_name":"Rawa Buaya","time":4,"is_transit":false,"line":5,"distance":1152,"i_long":106.723064,"i_lat":-6.162758},{"is_transit":false,"line":5,"station_name":"Kalideres","transit":false,"time":3,"i_lat":-6.166068,"station_id":"KDS","distance":2504,"i_long":106.701612},{"station_name":"Poris","time":3,"line":5,"transit":false,"station_id":"PI","distance":2548,"is_transit":false,"i_lat":-6.169933,"i_long":106.679458}],[{"station_id":"JAY","line":2,"is_transit":false,"transit":false,"station_name":"Jayakarta","time":0,"distance":0,"i_lat":-6.141205,"i_long":106.820901},{"transit":true,"is_transit":true,"time":4,"station_name":"Jakarta Kota","line":2,"station_id":"JAKK","i_long":106.812439,"distance":1264,"i_lat":-6.137569},{"distance":1364,"i_lat":-6.132549,"station_id":"KPB","line":4,"time":3,"i_long":106.826365,"station_name":"Kampung Bandan","is_transit":true,"transit":true},{"is_transit":false,"station_id":"RJW","i_long":106.836569,"i_lat":-6.14505,"line":11,"time":3,"distance":1444,"transit":false,"station_name":"Rajawali"},{"line":11,"time":5,"station_id":"KMO","station_name":"Kemayoran","i_long":106.839204,"distance":1901,"is_transit":false,"transit":false,"i_lat":-6.161728},{"line":11,"transit":false,"i_lat":-6.174784,"i_long":106.84368,"station_name":"Pasar Senen","is_transit":false,"distance":1436,"station_id":"PSE","time":4},{"station_name":"Gang Sentiong","line":11,"i_long":106.850107,"time":8,"i_lat":-6.185975,"transit":false,"is_transit":false,"station_id":"GST","distance":1567},{"distance":973,"time":1,"is_transit":false,"station_id":"KMT","station_name":"Kramat","transit":false,"i_lat":-6.193792,"i_long":106.855437,"line":11},{"line":11,"distance":1829,"time":2,"is_transit":false,"station_id":"POK","i_long":106.861737,"transit":false,"i_lat":-6.209188,"station_name":"Pondok Jati"},{"is_transit":true,"i_lat":-6.215091,"time":9,"i_long":106.86807400000001,"distance":1236,"transit":true,"station_id":"JNG","line":1,"station_name":"Jatinegara"},{"transit":false,"i_long":106.858896,"distance":1377,"station_id":"MTR","time":2,"line":1,"i_lat":-6.212485,"station_name":"Matraman","is_transit":false},{"i_lat":-6.209883,"station_name":"Manggarai","i_long":106.84912,"transit":false,"line":2,"distance":1275,"time":2,"station_id":"MRI","is_transit":false},{"station_id":"SUD","i_lat":-6.202263,"distance":3186,"transit":false,"is_transit":false,"station_name":"Sudirman","time":4,"i_long":106.822649,"line":1},{"distance":280,"time":1,"i_long":106.819881,"line":1,"station_name":"Sudirman Baru","i_lat":-6.201433,"is_transit":false,"station_id":"SUDB","transit":false},{"distance":471,"station_id":"KAT","transit":false,"line":1,"i_long":106.816351,"is_transit":false,"time":1,"i_lat":-6.20132,"station_name":"Karet"},{"time":5,"i_long":106.811091,"transit":false,"distance":2029,"station_name":"Tanah Abang","station_id":"THB","line":1,"i_lat":-6.185545,"is_transit":false},{"station_id":"DU","station_name":"Duri","time":8,"line":1,"distance":3632,"is_transit":true,"transit":true,"i_lat":-6.155215,"i_long":106.800832},{"station_name":"Grogol","i_long":106.788277,"time":3,"distance":1700,"station_id":"GRG","transit":false,"i_lat":-6.162021,"is_transit":false,"line":5},{"i_lat":-6.161433,"station_name":"Pesing","transit":false,"distance":2036,"station_id":"PSG","i_long":106.771379,"line":5,"is_transit":false,"time":2},{"transit":false,"time":2,"station_name":"Taman Kota","station_id":"TKO","is_transit":false,"i_lat":-6.1587309999999995,"i_long":106.756522,"line":5,"distance":1614},{"distance":2334,"time":2,"transit":false,"station_id":"BOI","i_long":106.737035,"is_transit":false,"station_name":"Bojongindah","line":5,"i_lat":-6.159876},{"transit":false,"i_long":106.723064,"line":5,"station_id":"RW","time":4,"i_lat":-6.162758,"is_transit":false,"distance":1152,"station_name":"Rawa Buaya"},{"time":3,"is_transit":false,"distance":2504,"i_long":106.701612,"line":5,"station_name":"Kalideres","station_id":"KDS","transit":false,"i_lat":-6.166068},{"line":5,"i_lat":-6.169933,"i_long":106.679458,"time":3,"distance":2548,"is_transit":false,"transit":false,"station_id":"PI","station_name":"Poris"}],[{"transit":false,"distance":0,"station_id":"JAY","i_long":106.820901,"is_transit":false,"station_name":"Jayakarta","i_lat":-6.141205,"time":0,"line":2},{"i_lat":-6.149769,"distance":1080,"line":2,"transit":false,"station_id":"MGB","is_transit":false,"station_name":"Manggabesar","time":2,"i_long":106.82482},{"distance":906,"i_lat":-6.160725,"station_name":"Sawah Besar","station_id":"SW","line":2,"time":2,"i_long":106.827103,"transit":false,"is_transit":false},{"i_long":106.828284,"transit":false,"i_lat":-6.166716,"station_id":"JUA","line":2,"distance":1149,"station_name":"Juanda","is_transit":false,"time":2},{"distance":2015,"is_transit":false,"station_id":"GDD","station_name":"Gondangdia","i_long":106.832183,"i_lat":-6.186295,"time":4,"line":2,"transit":false},{"i_long":106.840169,"i_lat":-6.198556,"station_name":"Cikini","is_transit":false,"station_id":"CKI","transit":false,"distance":1750,"time":3,"line":2},{"is_transit":true,"i_lat":-6.209883,"line":2,"station_id":"MRI","transit":true,"station_name":"Manggarai","distance":1590,"time":4,"i_long":106.84912},{"station_name":"Matraman","is_transit":false,"transit":false,"line":1,"i_lat":-6.212485,"distance":1275,"time":2,"i_long":106.858896,"station_id":"MTR"},{"i_lat":-6.215091,"station_id":"JNG","distance":1377,"transit":true,"station_name":"Jatinegara","line":1,"time":8,"is_transit":true,"i_long":106.86807400000001},{"distance":1236,"station_name":"Pondok Jati","line":11,"time":2,"transit":false,"i_long":106.861737,"i_lat":-6.209188,"station_id":"POK","is_transit":false},{"time":2,"distance":1829,"i_lat":-6.193792,"transit":false,"i_long":106.855437,"station_name":"Kramat","is_transit":false,"station_id":"KMT","line":11},{"distance":973,"is_transit":false,"station_name":"Gang Sentiong","i_lat":-6.185975,"transit":false,"station_id":"GST","time":1,"line":11,"i_long":106.850107},{"is_transit":false,"time":8,"i_long":106.84368,"distance":1567,"station_id":"PSE","line":11,"transit":false,"station_name":"Pasar Senen","i_lat":-6.174784},{"line":11,"time":4,"station_name":"Kemayoran","station_id":"KMO","is_transit":false,"distance":1436,"transit":false,"i_long":106.839204,"i_lat":-6.161728},{"is_transit":false,"distance":1901,"station_name":"Rajawali","i_lat":-6.14505,"time":5,"line":11,"station_id":"RJW","i_long":106.836569,"transit":false},{"transit":true,"line":4,"distance":1444,"station_name":"Kampung Bandan","i_lat":-6.132549,"i_long":106.826365,"time":3,"station_id":"KPB","is_transit":true},{"distance":4102,"station_name":"Angke","time":9,"line":1,"station_id":"AK","i_lat":-6.144674,"is_transit":false,"transit":false,"i_long":106.79867},{"transit":true,"station_id":"DU","time":4,"line":1,"i_long":106.800832,"i_lat":-6.155215,"station_name":"Duri","distance":1230,"is_transit":true},{"time":3,"i_lat":-6.162021,"line":5,"transit":false,"i_long":106.788277,"is_transit":false,"distance":1700,"station_name":"Grogol","station_id":"GRG"},{"i_long":106.771379,"distance":2036,"station_id":"PSG","line":5,"i_lat":-6.161433,"time":2,"station_name":"Pesing","transit":false,"is_transit":false},{"is_transit":false,"station_id":"TKO","line":5,"time":2,"transit":false,"distance":1614,"station_name":"Taman Kota","i_lat":-6.1587309999999995,"i_long":106.756522},{"i_long":106.737035,"distance":2334,"line":5,"is_transit":false,"i_lat":-6.159876,"station_name":"Bojongindah","station_id":"BOI","time":2,"transit":false},{"distance":1152,"i_lat":-6.162758,"line":5,"time":4,"i_long":106.723064,"station_id":"RW","station_name":"Rawa Buaya","transit":false,"is_transit":false},{"is_transit":false,"i_long":106.701612,"station_name":"Kalideres","i_lat":-6.166068,"station_id":"KDS","transit":false,"time":3,"distance":2504,"line":5},{"station_id":"PI","station_name":"Poris","time":3,"i_lat":-6.169933,"i_long":106.679458,"line":5,"transit":false,"distance":2548,"is_transit":false}]]}