{"data":[[{"transit":false,"time":0,"station_name":"Jayakarta","i_lat":-6.141205,"station_id":"JAY","is_transit":false,"distance":0,"i_long":106.820901,"line":2},{"is_transit":true,"i_long":106.812439,"distance":1264,"transit":true,"i_lat":-6.137569,"station_id":"JAKK","time":4,"station_name":"Jakarta Kota","line":2},{"distance":1364,"station_id":"KPB","is_transit":true,"station_name":"Kampung Bandan","transit":true,"time":3,"i_lat":-6.132549,"i_long":106.826365,"line":4},{"station_name":"Angke","line":1,"transit":false,"i_long":106.79867,"time":9,"is_transit":false,"station_id":"AK","i_lat":-6.144674,"distance":4102},{"line":1,"time":4,"i_lat":-6.155215,"station_name":"Duri","distance":1230,"i_long":106.800832,"station_id":"DU","is_transit":false,"transit":false},{"station_id":"THB","station_name":"Tanah Abang","i_long":106.811091,"distance":3632,"transit":true,"i_lat":-6.185545,"line":1,"is_transit":true,"time":8},{"is_transit":false,"time":6,"station_id":"PLM","station_name":"Palmerah","transit":false,"distance":3191,"line":6,"i_lat":-6.207404,"i_long":106.79689},{"i_long":106.780334,"line":6,"transit":false,"i_lat":-6.237242,"station_name":"Kebayoran","time":7,"distance":3737,"station_id":"KBY","is_transit":false},{"station_name":"Pondokranji","station_id":"PDJ","i_lat":-6.276362,"line":6,"transit":false,"distance":6218,"is_transit":false,"i_long":106.74273,"time":8}],[{"is_transit":false,"i_lat":-6.141205,"time":0,"station_id":"JAY","i_long":106.820901,"station_name":"Jayakarta","transit":false,"line":2,"distance":0},{"distance":1080,"station_id":"MGB","i_long":106.82482,"time":2,"station_name":"Manggabesar","is_transit":false,"line":2,"transit":false,"i_lat":-6.149769},{"station_name":"Sawah Besar","distance":906,"is_transit":false,"time":2,"i_lat":-6.160725,"i_long":106.827103,"station_id":"SW","transit":false,"line":2},{"time":2,"is_transit":false,"i_lat":-6.166716,"transit":false,"i_long":106.828284,"station_name":"Juanda","distance":1149,"station_id":"JUA","line":2},{"is_transit":false,"transit":false,"i_lat":-6.186295,"i_long":106.832183,"station_id":"GDD","line":2,"time":4,"station_name":"Gondangdia","distance":2015},{"distance":1750,"time":3,"station_name":"Cikini","i_lat":-6.198556,"is_transit":false,"station_id":"CKI","i_long":106.840169,"transit":false,"line":2},{"i_lat":-6.209883,"station_id":"MRI","line":2,"i_long":106.84912,"station_name":"Manggarai","distance":1590,"is_transit":true,"time":4,"transit":true},{"i_lat":-6.202263,"time":4,"station_name":"Sudirman","station_id":"SUD","is_transit":false,"distance":3186,"i_long":106.822649,"line":1,"transit":false},{"station_id":"SUDB","station_name":"Sudirman Baru","is_transit":false,"i_long":106.819881,"time":1,"distance":280,"transit":false,"line":1,"i_lat":-6.201433},{"station_id":"KAT","i_long":106.816351,"transit":false,"station_name":"Karet","is_transit":false,"time":1,"distance":471,"i_lat":-6.20132,"line":1},{"i_long":106.811091,"station_id":"THB","station_name":"Tanah Abang","time":5,"distance":2029,"i_lat":-6.185545,"line":1,"transit":true,"is_transit":true},{"is_transit":false,"station_id":"PLM","transit":false,"i_lat":-6.207404,"i_long":106.79689,"time":6,"line":6,"station_name":"Palmerah","distance":3191},{"i_long":106.780334,"station_name":"Kebayoran","distance":3737,"station_id":"KBY","transit":false,"is_transit":false,"i_lat":-6.237242,"time":7,"line":6},{"distance":6218,"i_long":106.74273,"time":8,"station_name":"Pondokranji","transit":false,"i_lat":-6.276362,"line":6,"station_id":"PDJ","is_transit":false}],[{"time":0,"i_lat":-6.141205,"transit":false,"station_id":"JAY","i_long":106.820901,"distance":0,"line":2,"station_name":"Jayakarta","is_transit":false},{"distance":1264,"i_long":106.812439,"line":2,"station_id":"JAKK","time":4,"transit":true,"is_transit":true,"i_lat":-6.137569,"station_name":"Jakarta Kota"},{"i_long":106.826365,"i_lat":-6.132549,"station_id":"KPB","line":4,"transit":true,"distance":1364,"is_transit":true,"station_name":"Kampung Bandan","time":3},{"station_id":"RJW","distance":1444,"transit":false,"i_long":106.836569,"is_transit":false,"station_name":"Rajawali","line":11,"time":3,"i_lat":-6.14505},{"line":11,"station_name":"Kemayoran","i_long":106.839204,"time":5,"i_lat":-6.161728,"transit":false,"distance":1901,"is_transit":false,"station_id":"KMO"},{"i_long":106.84368,"is_transit":false,"distance":1436,"station_name":"Pasar Senen","time":4,"i_lat":-6.174784,"transit":false,"line":11,"station_id":"PSE"},{"distance":1567,"time":8,"i_long":106.850107,"transit":false,"station_id":"GST","i_lat":-6.185975,"is_transit":false,"station_name":"Gang Sentiong","line":11},{"i_lat":-6.193792,"is_transit":false,"i_long":106.855437,"station_id":"KMT","distance":973,"transit":false,"time":1,"station_name":"Kramat","line":11},{"station_name":"Pondok Jati","i_lat":-6.209188,"line":11,"time":2,"distance":1829,"station_id":"POK","transit":false,"i_long":106.861737,"is_transit":false},{"i_lat":-6.215091,"transit":true,"line":1,"station_id":"JNG","i_long":106.86807400000001,"is_transit":true,"distance":1236,"time":9,"station_name":"Jatinegara"},{"i_lat":-6.212485,"distance":1377,"i_long":106.858896,"time":2,"station_id":"MTR","station_name":"Matraman","is_transit":false,"transit":false,"line":1},{"is_transit":false,"i_lat":-6.209883,"station_id":"MRI","line":2,"transit":false,"station_name":"Manggarai","distance":1275,"time":2,"i_long":106.84912},{"i_lat":-6.202263,"i_long":106.822649,"transit":false,"time":4,"distance":3186,"is_transit":false,"line":1,"station_id":"SUD","station_name":"Sudirman"},{"time":1,"station_name":"Sudirman Baru","is_transit":false,"i_lat":-6.201433,"line":1,"station_id":"SUDB","distance":280,"transit":false,"i_long":106.819881},{"i_long":106.816351,"line":1,"station_id":"KAT","time":1,"transit":false,"distance":471,"is_transit":false,"station_name":"Karet","i_lat":-6.20132},{"i_long":106.811091,"line":1,"transit":true,"is_transit":true,"distance":2029,"station_id":"THB","i_lat":-6.185545,"time":5,"station_name":"Tanah Abang"},{"i_lat":-6.207404,"time":6,"station_id":"PLM","distance":3191,"transit":false,"is_transit":false,"station_name":"Palmerah","i_long":106.79689,"line":6},{"transit":false,"is_transit":false,"i_lat":-6.237242,"i_long":106.780334,"distance":3737,"time":7,"station_id":"KBY","station_name":"Kebayoran","line":6},{"line":6,"time":8,"station_name":"Pondokranji","i_lat":-6.276362,"transit":false,"station_id":"PDJ","is_transit":false,"distance":6218,"i_long":106.74273}],[{"distance":0,"station_name":"Jayakarta","line":2,"is_transit":false,"station_id":"JAY","i_lat":-6.141205,"i_long":106.820901,"transit":false,"time":0},{"time":2,"station_id":"MGB","i_lat":-6.149769,"i_long":106.82482,"is_transit":false,"line":2,"station_name":"Manggabesar","distance":1080,"transit":false},{"i_lat":-6.160725,"i_long":106.827103,"line":2,"station_id":"SW","distance":906,"station_name":"Sawah Besar","time":2,"is_transit":false,"transit":false},{"transit":false,"time":2,"station_id":"JUA","i_lat":-6.166716,"i_long":106.828284,"is_transit":false,"distance":1149,"line":2,"station_name":"Juanda"},{"line":2,"time":4,"transit":false,"station_id":"GDD","i_long":106.832183,"is_transit":false,"i_lat":-6.186295,"distance":2015,"station_name":"Gondangdia"},{"distance":1750,"is_transit":false,"i_long":106.840169,"station_name":"Cikini","transit":false,"station_id":"CKI","i_lat":-6.198556,"time":3,"line":2},{"distance":1590,"line":2,"transit":true,"is_transit":true,"station_name":"Manggarai","i_long":106.84912,"time":4,"station_id":"MRI","i_lat":-6.209883},{"time":2,"transit":false,"is_transit":false,"distance":1275,"line":1,"station_id":"MTR","i_long":106.858896,"i_lat":-6.212485,"station_name":"Matraman"},{"transit":true,"is_transit":true,"time":8,"i_long":106.86807400000001,"station_id":"JNG","line":1,"i_lat":-6.215091,"distance":1377,"station_name":"Jatinegara"},{"distance":1236,"station_id":"POK","time":2,"line":11,"transit":false,"station_name":"Pondok Jati","is_transit":false,"i_lat":-6.209188,"i_long":106.861737},{"station_name":"Kramat","time":2,"i_lat":-6.193792,"is_transit":false,"i_long":106.855437,"transit":false,"distance":1829,"line":11,"station_id":"KMT"},{"i_lat":-6.185975,"transit":false,"station_id":"GST","line":11,"is_transit":false,"station_name":"Gang Sentiong","i_long":106.850107,"time":1,"distance":973},{"time":8,"is_transit":false,"line":11,"i_long":106.84368,"transit":false,"station_id":"PSE","i_lat":-6.174784,"distance":1567,"station_name":"Pasar Senen"},{"transit":false,"time":4,"station_name":"Kemayoran","line":11,"station_id":"KMO","i_long":106.839204,"is_transit":false,"i_lat":-6.161728,"distance":1436},{"line":11,"station_name":"Rajawali","is_transit":false,"station_id":"RJW","i_lat":-6.14505,"distance":1901,"transit":false,"i_long":106.836569,"time":5},{"station_name":"Kampung Bandan","line":4,"time":3,"distance":1444,"station_id":"KPB","transit":true,"is_transit":true,"i_long":106.826365,"i_lat":-6.132549},{"transit":false,"station_id":"AK","i_lat":-6.144674,"distance":4102,"i_long":106.79867,"time":9,"line":1,"is_transit":false,"station_name":"Angke"},{"station_id":"DU","is_transit":false,"i_long":106.800832,"transit":false,"time":4,"line":1,"distance":1230,"i_lat":-6.155215,"station_name":"Duri"},{"station_name":"Tanah Abang","is_transit":true,"i_long":106.811091,"distance":3632,"transit":true,"station_id":"THB","time":8,"i_lat":-6.185545,"line":1},{"distance":3191,"time":6,"transit":false,"station_name":"Palmerah","i_lat":-6.207404,"station_id":"PLM","line":6,"is_transit":false,"i_long":106.79689},{"line":6,"transit":false,"is_transit":false,"distance":3737,"i_lat":-6.237242,"i_long":106.780334,"time":7,"station_name":"Kebayoran","station_id":"KBY"},{"i_lat":-6.276362,"time":8,"station_name":"Pondokranji","i_long":106.74273,"line":6,"is_transit":false,"distance":6218,"station_id":"PDJ","transit":false}]]}