{"data":[[{"line":2,"transit":false,"station_name":"Jayakarta","is_transit":false,"time":0,"i_lat":-6.141205,"distance":0,"i_long":106.820901,"station_id":"JAY"},{"station_name":"Jakarta Kota","transit":true,"is_transit":true,"distance":1264,"time":4,"station_id":"JAKK","line":2,"i_lat":-6.137569,"i_long":106.812439},{"station_id":"KPB","transit":true,"i_lat":-6.132549,"distance":1364,"i_long":106.826365,"station_name":"Kampung Bandan","time":3,"is_transit":true,"line":4},{"station_name":"Angke","station_id":"AK","distance":4102,"is_transit":false,"i_lat":-6.144674,"time":9,"line":1,"transit":false,"i_long":106.79867},{"station_id":"DU","is_transit":false,"time":4,"distance":1230,"i_lat":-6.155215,"i_long":106.800832,"station_name":"Duri","line":1,"transit":false},{"time":8,"transit":true,"is_transit":true,"station_id":"THB","line":1,"distance":3632,"i_lat":-6.185545,"station_name":"Tanah Abang","i_long":106.811091},{"station_id":"PLM","i_long":106.79689,"transit":false,"i_lat":-6.207404,"line":6,"is_transit":false,"distance":3191,"station_name":"Palmerah","time":6},{"station_name":"Kebayoran","line":6,"i_lat":-6.237242,"distance":3737,"i_long":106.780334,"is_transit":false,"time":7,"station_id":"KBY","transit":false},{"station_id":"PDJ","transit":false,"i_long":106.74273,"line":6,"time":8,"distance":6218,"i_lat":-6.276362,"is_transit":false,"station_name":"Pondokranji"},{"is_transit":false,"station_name":"Jurangmangu","i_lat":-6.288927,"i_long":106.728916,"line":6,"transit":false,"station_id":"JMU","time":3,"distance":2179},{"line":6,"station_id":"SDM","time":4,"station_name":"Sudimara","is_transit":false,"distance":1994,"i_long":106.712277,"transit":false,"i_lat":-6.296963},{"time":6,"distance":4566,"station_name":"Rawa Buntu","station_id":"RU","i_lat":-6.314823,"line":6,"is_transit":false,"i_long":106.675475,"transit":false},{"is_transit":false,"time":4,"line":6,"distance":2413,"station_id":"SRP","i_long":106.66566,"i_lat":-6.319871,"transit":false,"station_name":"Serpong"},{"station_id":"CSK","i_lat":-6.32484,"distance":1784,"is_transit":false,"time":4,"i_long":106.640411,"line":3,"transit":false,"station_name":"Cisauk"},{"line":3,"is_transit":false,"time":4,"station_id":"CC","distance":2519,"i_lat":-6.329547,"i_long":106.617853,"station_name":"Cicayur","transit":false},{"station_name":"Parung Panjang","transit":false,"distance":5968,"is_transit":false,"i_lat":-6.3441410000000005,"i_long":106.568863,"time":8,"station_id":"PRP","line":6}],[{"station_id":"JAY","is_transit":false,"i_long":106.820901,"transit":false,"distance":0,"line":2,"station_name":"Jayakarta","time":0,"i_lat":-6.141205},{"i_lat":-6.149769,"transit":false,"time":2,"line":2,"is_transit":false,"i_long":106.82482,"station_name":"Manggabesar","distance":1080,"station_id":"MGB"},{"i_long":106.827103,"distance":906,"line":2,"station_name":"Sawah Besar","transit":false,"is_transit":false,"time":2,"station_id":"SW","i_lat":-6.160725},{"i_long":106.828284,"time":2,"station_name":"Juanda","transit":false,"distance":1149,"i_lat":-6.166716,"is_transit":false,"line":2,"station_id":"JUA"},{"station_id":"GDD","transit":false,"station_name":"Gondangdia","time":4,"distance":2015,"line":2,"i_lat":-6.186295,"i_long":106.832183,"is_transit":false},{"distance":1750,"time":3,"transit":false,"station_id":"CKI","i_long":106.840169,"is_transit":false,"line":2,"i_lat":-6.198556,"station_name":"Cikini"},{"time":4,"is_transit":true,"transit":true,"distance":1590,"station_id":"MRI","i_lat":-6.209883,"i_long":106.84912,"line":2,"station_name":"Manggarai"},{"transit":false,"station_id":"SUD","is_transit":false,"station_name":"Sudirman","time":4,"distance":3186,"line":1,"i_lat":-6.202263,"i_long":106.822649},{"i_lat":-6.201433,"station_name":"Sudirman Baru","time":1,"is_transit":false,"i_long":106.819881,"transit":false,"line":1,"distance":280,"station_id":"SUDB"},{"station_name":"Karet","is_transit":false,"station_id":"KAT","distance":471,"i_long":106.816351,"transit":false,"time":1,"i_lat":-6.20132,"line":1},{"is_transit":true,"distance":2029,"i_long":106.811091,"i_lat":-6.185545,"transit":true,"station_name":"Tanah Abang","station_id":"THB","time":5,"line":1},{"station_name":"Palmerah","distance":3191,"time":6,"transit":false,"station_id":"PLM","i_lat":-6.207404,"i_long":106.79689,"line":6,"is_transit":false},{"time":7,"station_name":"Kebayoran","i_long":106.780334,"distance":3737,"transit":false,"i_lat":-6.237242,"line":6,"is_transit":false,"station_id":"KBY"},{"distance":6218,"time":8,"station_id":"PDJ","line":6,"is_transit":false,"i_lat":-6.276362,"station_name":"Pondokranji","i_long":106.74273,"transit":false},{"time":3,"transit":false,"distance":2179,"station_id":"JMU","station_name":"Jurangmangu","i_long":106.728916,"i_lat":-6.288927,"line":6,"is_transit":false},{"is_transit":false,"time":4,"line":6,"station_id":"SDM","distance":1994,"transit":false,"station_name":"Sudimara","i_lat":-6.296963,"i_long":106.712277},{"time":6,"distance":4566,"station_id":"RU","i_lat":-6.314823,"station_name":"Rawa Buntu","is_transit":false,"transit":false,"i_long":106.675475,"line":6},{"transit":false,"is_transit":false,"station_name":"Serpong","station_id":"SRP","line":6,"distance":2413,"time":4,"i_lat":-6.319871,"i_long":106.66566},{"is_transit":false,"time":4,"transit":false,"i_lat":-6.32484,"line":3,"i_long":106.640411,"station_name":"Cisauk","distance":1784,"station_id":"CSK"},{"i_long":106.617853,"transit":false,"station_id":"CC","is_transit":false,"line":3,"i_lat":-6.329547,"station_name":"Cicayur","time":4,"distance":2519},{"distance":5968,"station_name":"Parung Panjang","transit":false,"station_id":"PRP","i_lat":-6.3441410000000005,"i_long":106.568863,"line":6,"time":8,"is_transit":false}],[{"station_name":"Jayakarta","i_long":106.820901,"distance":0,"line":2,"time":0,"station_id":"JAY","is_transit":false,"transit":false,"i_lat":-6.141205},{"time":4,"line":2,"station_id":"JAKK","station_name":"Jakarta Kota","distance":1264,"transit":true,"is_transit":true,"i_lat":-6.137569,"i_long":106.812439},{"time":3,"station_name":"Kampung Bandan","distance":1364,"i_lat":-6.132549,"transit":true,"is_transit":true,"station_id":"KPB","i_long":106.826365,"line":4},{"i_long":106.836569,"station_name":"Rajawali","is_transit":false,"line":11,"distance":1444,"time":3,"transit":false,"station_id":"RJW","i_lat":-6.14505},{"line":11,"distance":1901,"is_transit":false,"i_long":106.839204,"station_name":"Kemayoran","transit":false,"time":5,"station_id":"KMO","i_lat":-6.161728},{"is_transit":false,"station_id":"PSE","transit":false,"station_name":"Pasar Senen","distance":1436,"i_lat":-6.174784,"line":11,"i_long":106.84368,"time":4},{"station_id":"GST","station_name":"Gang Sentiong","i_lat":-6.185975,"time":8,"i_long":106.850107,"distance":1567,"line":11,"is_transit":false,"transit":false},{"station_name":"Kramat","distance":973,"time":1,"transit":false,"is_transit":false,"i_long":106.855437,"line":11,"station_id":"KMT","i_lat":-6.193792},{"is_transit":false,"station_name":"Pondok Jati","station_id":"POK","distance":1829,"time":2,"transit":false,"i_long":106.861737,"i_lat":-6.209188,"line":11},{"time":9,"i_lat":-6.215091,"line":1,"i_long":106.86807400000001,"is_transit":true,"station_name":"Jatinegara","distance":1236,"transit":true,"station_id":"JNG"},{"time":2,"station_name":"Matraman","station_id":"MTR","transit":false,"i_lat":-6.212485,"is_transit":false,"i_long":106.858896,"distance":1377,"line":1},{"i_lat":-6.209883,"transit":false,"time":2,"station_name":"Manggarai","i_long":106.84912,"distance":1275,"line":2,"is_transit":false,"station_id":"MRI"},{"line":1,"i_lat":-6.202263,"i_long":106.822649,"transit":false,"station_name":"Sudirman","time":4,"is_transit":false,"station_id":"SUD","distance":3186},{"station_id":"SUDB","distance":280,"station_name":"Sudirman Baru","i_lat":-6.201433,"i_long":106.819881,"line":1,"transit":false,"is_transit":false,"time":1},{"distance":471,"station_id":"KAT","i_lat":-6.20132,"time":1,"i_long":106.816351,"station_name":"Karet","is_transit":false,"transit":false,"line":1},{"i_long":106.811091,"transit":true,"distance":2029,"line":1,"is_transit":true,"station_name":"Tanah Abang","time":5,"station_id":"THB","i_lat":-6.185545},{"station_name":"Palmerah","time":6,"station_id":"PLM","i_long":106.79689,"i_lat":-6.207404,"is_transit":false,"line":6,"transit":false,"distance":3191},{"line":6,"i_lat":-6.237242,"i_long":106.780334,"transit":false,"station_name":"Kebayoran","station_id":"KBY","distance":3737,"time":7,"is_transit":false},{"i_long":106.74273,"time":8,"station_name":"Pondokranji","transit":false,"distance":6218,"i_lat":-6.276362,"line":6,"is_transit":false,"station_id":"PDJ"},{"station_id":"JMU","i_lat":-6.288927,"station_name":"Jurangmangu","line":6,"time":3,"is_transit":false,"distance":2179,"transit":false,"i_long":106.728916},{"i_lat":-6.296963,"transit":false,"time":4,"i_long":106.712277,"line":6,"station_id":"SDM","distance":1994,"station_name":"Sudimara","is_transit":false},{"is_transit":false,"distance":4566,"station_name":"Rawa Buntu","i_lat":-6.314823,"station_id":"RU","line":6,"time":6,"i_long":106.675475,"transit":false},{"transit":false,"i_lat":-6.319871,"station_name":"Serpong","line":6,"i_long":106.66566,"distance":2413,"time":4,"station_id":"SRP","is_transit":false},{"time":4,"i_lat":-6.32484,"distance":1784,"station_id":"CSK","line":3,"station_name":"Cisauk","is_transit":false,"i_long":106.640411,"transit":false},{"station_name":"Cicayur","station_id":"CC","i_lat":-6.329547,"distance":2519,"time":4,"line":3,"is_transit":false,"i_long":106.617853,"transit":false},{"station_id":"PRP","distance":5968,"i_long":106.568863,"time":8,"is_transit":false,"transit":false,"line":6,"i_lat":-6.3441410000000005,"station_name":"Parung Panjang"}],[{"station_id":"JAY","i_lat":-6.141205,"i_long":106.820901,"station_name":"Jayakarta","line":2,"time":0,"distance":0,"transit":false,"is_transit":false},{"distance":1080,"time":2,"i_lat":-6.149769,"line":2,"transit":false,"i_long":106.82482,"station_name":"Manggabesar","is_transit":false,"station_id":"MGB"},{"is_transit":false,"i_lat":-6.160725,"i_long":106.827103,"time":2,"station_id":"SW","station_name":"Sawah Besar","distance":906,"transit":false,"line":2},{"line":2,"station_name":"Juanda","distance":1149,"time":2,"i_lat":-6.166716,"station_id":"JUA","transit":false,"i_long":106.828284,"is_transit":false},{"is_transit":false,"distance":2015,"time":4,"i_lat":-6.186295,"transit":false,"line":2,"station_name":"Gondangdia","i_long":106.832183,"station_id":"GDD"},{"time":3,"transit":false,"line":2,"station_name":"Cikini","station_id":"CKI","i_long":106.840169,"is_transit":false,"i_lat":-6.198556,"distance":1750},{"transit":true,"i_lat":-6.209883,"station_name":"Manggarai","distance":1590,"line":2,"is_transit":true,"station_id":"MRI","i_long":106.84912,"time":4},{"i_lat":-6.212485,"time":2,"transit":false,"station_id":"MTR","line":1,"i_long":106.858896,"station_name":"Matraman","is_transit":false,"distance":1275},{"station_id":"JNG","i_long":106.86807400000001,"transit":true,"line":1,"is_transit":true,"i_lat":-6.215091,"distance":1377,"station_name":"Jatinegara","time":8},{"line":11,"transit":false,"i_lat":-6.209188,"station_name":"Pondok Jati","time":2,"i_long":106.861737,"is_transit":false,"station_id":"POK","distance":1236},{"distance":1829,"station_name":"Kramat","i_lat":-6.193792,"time":2,"is_transit":false,"i_long":106.855437,"station_id":"KMT","line":11,"transit":false},{"transit":false,"is_transit":false,"i_lat":-6.185975,"line":11,"distance":973,"i_long":106.850107,"station_id":"GST","time":1,"station_name":"Gang Sentiong"},{"time":8,"line":11,"i_long":106.84368,"station_id":"PSE","station_name":"Pasar Senen","i_lat":-6.174784,"transit":false,"is_transit":false,"distance":1567},{"station_name":"Kemayoran","line":11,"station_id":"KMO","transit":false,"time":4,"distance":1436,"is_transit":false,"i_lat":-6.161728,"i_long":106.839204},{"is_transit":false,"station_name":"Rajawali","transit":false,"station_id":"RJW","time":5,"i_lat":-6.14505,"line":11,"i_long":106.836569,"distance":1901},{"station_id":"KPB","station_name":"Kampung Bandan","is_transit":true,"distance":1444,"time":3,"i_lat":-6.132549,"i_long":106.826365,"line":4,"transit":true},{"is_transit":false,"i_lat":-6.144674,"line":1,"transit":false,"i_long":106.79867,"station_id":"AK","distance":4102,"station_name":"Angke","time":9},{"station_id":"DU","i_long":106.800832,"line":1,"i_lat":-6.155215,"transit":false,"time":4,"is_transit":false,"station_name":"Duri","distance":1230},{"time":8,"line":1,"transit":true,"i_long":106.811091,"station_id":"THB","distance":3632,"i_lat":-6.185545,"station_name":"Tanah Abang","is_transit":true},{"distance":3191,"is_transit":false,"time":6,"i_long":106.79689,"transit":false,"i_lat":-6.207404,"line":6,"station_name":"Palmerah","station_id":"PLM"},{"time":7,"line":6,"i_lat":-6.237242,"station_name":"Kebayoran","is_transit":false,"distance":3737,"station_id":"KBY","transit":false,"i_long":106.780334},{"distance":6218,"time":8,"i_lat":-6.276362,"is_transit":false,"station_name":"Pondokranji","line":6,"transit":false,"i_long":106.74273,"station_id":"PDJ"},{"i_lat":-6.288927,"station_id":"JMU","line":6,"distance":2179,"time":3,"transit":false,"i_long":106.728916,"is_transit":false,"station_name":"Jurangmangu"},{"time":4,"distance":1994,"station_id":"SDM","i_long":106.712277,"i_lat":-6.296963,"transit":false,"line":6,"is_transit":false,"station_name":"Sudimara"},{"i_long":106.675475,"time":6,"distance":4566,"line":6,"is_transit":false,"transit":false,"station_name":"Rawa Buntu","station_id":"RU","i_lat":-6.314823},{"station_id":"SRP","is_transit":false,"time":4,"transit":false,"i_long":106.66566,"i_lat":-6.319871,"line":6,"station_name":"Serpong","distance":2413},{"station_id":"CSK","transit":false,"i_long":106.640411,"distance":1784,"is_transit":false,"i_lat":-6.32484,"line":3,"station_name":"Cisauk","time":4},{"distance":2519,"time":4,"line":3,"station_name":"Cicayur","is_transit":false,"i_long":106.617853,"transit":false,"station_id":"CC","i_lat":-6.329547},{"station_name":"Parung Panjang","i_long":106.568863,"is_transit":false,"station_id":"PRP","i_lat":-6.3441410000000005,"time":8,"line":6,"distance":5968,"transit":false}]]}