{"data":[[{"i_lat":-6.141205,"station_id":"JAY","is_transit":false,"time":0,"station_name":"Jayakarta","distance":0,"transit":false,"i_long":106.820901,"line":2},{"i_long":106.812439,"station_id":"JAKK","transit":true,"station_name":"Jakarta Kota","line":2,"distance":1264,"is_transit":true,"i_lat":-6.137569,"time":4},{"station_name":"Kampung Bandan","i_long":106.826365,"is_transit":true,"distance":1364,"station_id":"KPB","time":3,"i_lat":-6.132549,"line":4,"transit":true},{"station_id":"AK","time":9,"station_name":"Angke","is_transit":false,"distance":4102,"i_lat":-6.144674,"transit":false,"i_long":106.79867,"line":1},{"transit":false,"time":4,"is_transit":false,"station_name":"Duri","distance":1230,"i_long":106.800832,"i_lat":-6.155215,"line":1,"station_id":"DU"},{"distance":3632,"i_lat":-6.185545,"time":8,"line":1,"is_transit":true,"station_id":"THB","station_name":"Tanah Abang","i_long":106.811091,"transit":true},{"station_id":"PLM","i_lat":-6.207404,"i_long":106.79689,"transit":false,"time":6,"is_transit":false,"distance":3191,"line":6,"station_name":"Palmerah"}],[{"i_long":106.820901,"line":2,"is_transit":false,"station_id":"JAY","i_lat":-6.141205,"transit":false,"station_name":"Jayakarta","time":0,"distance":0},{"station_id":"MGB","i_lat":-6.149769,"line":2,"distance":1080,"station_name":"Manggabesar","i_long":106.82482,"time":2,"transit":false,"is_transit":false},{"i_long":106.827103,"i_lat":-6.160725,"station_name":"Sawah Besar","transit":false,"time":2,"line":2,"is_transit":false,"station_id":"SW","distance":906},{"time":2,"line":2,"i_lat":-6.166716,"is_transit":false,"transit":false,"station_name":"Juanda","station_id":"JUA","i_long":106.828284,"distance":1149},{"distance":2015,"i_lat":-6.186295,"time":4,"transit":false,"station_id":"GDD","i_long":106.832183,"line":2,"station_name":"Gondangdia","is_transit":false},{"time":3,"station_id":"CKI","i_lat":-6.198556,"distance":1750,"is_transit":false,"station_name":"Cikini","transit":false,"i_long":106.840169,"line":2},{"line":2,"time":4,"station_name":"Manggarai","distance":1590,"i_lat":-6.209883,"i_long":106.84912,"is_transit":true,"station_id":"MRI","transit":true},{"time":4,"station_name":"Sudirman","distance":3186,"is_transit":false,"i_long":106.822649,"station_id":"SUD","transit":false,"line":1,"i_lat":-6.202263},{"time":1,"station_id":"SUDB","station_name":"Sudirman Baru","i_long":106.819881,"transit":false,"distance":280,"line":1,"i_lat":-6.201433,"is_transit":false},{"line":1,"is_transit":false,"transit":false,"station_id":"KAT","time":1,"station_name":"Karet","i_long":106.816351,"distance":471,"i_lat":-6.20132},{"distance":2029,"transit":true,"is_transit":true,"i_lat":-6.185545,"i_long":106.811091,"time":5,"station_name":"Tanah Abang","line":1,"station_id":"THB"},{"i_lat":-6.207404,"transit":false,"is_transit":false,"time":6,"line":6,"station_name":"Palmerah","distance":3191,"i_long":106.79689,"station_id":"PLM"}],[{"time":0,"distance":0,"i_lat":-6.141205,"i_long":106.820901,"is_transit":false,"station_name":"Jayakarta","line":2,"station_id":"JAY","transit":false},{"distance":1264,"i_lat":-6.137569,"line":2,"i_long":106.812439,"transit":true,"time":4,"station_name":"Jakarta Kota","station_id":"JAKK","is_transit":true},{"distance":1364,"station_id":"KPB","station_name":"Kampung Bandan","time":3,"i_lat":-6.132549,"is_transit":true,"transit":true,"i_long":106.826365,"line":4},{"time":3,"station_id":"RJW","i_lat":-6.14505,"is_transit":false,"distance":1444,"line":11,"i_long":106.836569,"transit":false,"station_name":"Rajawali"},{"station_name":"Kemayoran","time":5,"transit":false,"station_id":"KMO","i_lat":-6.161728,"i_long":106.839204,"is_transit":false,"distance":1901,"line":11},{"station_name":"Pasar Senen","is_transit":false,"transit":false,"i_lat":-6.174784,"distance":1436,"station_id":"PSE","time":4,"i_long":106.84368,"line":11},{"station_name":"Gang Sentiong","transit":false,"i_lat":-6.185975,"time":8,"station_id":"GST","distance":1567,"is_transit":false,"i_long":106.850107,"line":11},{"transit":false,"is_transit":false,"station_name":"Kramat","distance":973,"station_id":"KMT","i_lat":-6.193792,"line":11,"i_long":106.855437,"time":1},{"is_transit":false,"transit":false,"station_name":"Pondok Jati","i_long":106.861737,"station_id":"POK","time":2,"i_lat":-6.209188,"line":11,"distance":1829},{"i_lat":-6.215091,"line":1,"time":9,"station_id":"JNG","is_transit":true,"transit":true,"station_name":"Jatinegara","distance":1236,"i_long":106.86807400000001},{"time":2,"station_id":"MTR","station_name":"Matraman","line":1,"i_lat":-6.212485,"is_transit":false,"i_long":106.858896,"distance":1377,"transit":false},{"distance":1275,"i_lat":-6.209883,"i_long":106.84912,"line":2,"time":2,"is_transit":false,"transit":false,"station_id":"MRI","station_name":"Manggarai"},{"station_name":"Sudirman","is_transit":false,"transit":false,"line":1,"distance":3186,"station_id":"SUD","i_lat":-6.202263,"i_long":106.822649,"time":4},{"station_name":"Sudirman Baru","distance":280,"i_long":106.819881,"station_id":"SUDB","time":1,"is_transit":false,"line":1,"transit":false,"i_lat":-6.201433},{"is_transit":false,"station_id":"KAT","transit":false,"distance":471,"station_name":"Karet","i_lat":-6.20132,"i_long":106.816351,"line":1,"time":1},{"line":1,"station_id":"THB","transit":true,"time":5,"i_long":106.811091,"is_transit":true,"distance":2029,"i_lat":-6.185545,"station_name":"Tanah Abang"},{"station_id":"PLM","station_name":"Palmerah","distance":3191,"is_transit":false,"i_lat":-6.207404,"line":6,"transit":false,"i_long":106.79689,"time":6}],[{"i_long":106.820901,"distance":0,"i_lat":-6.141205,"station_name":"Jayakarta","line":2,"transit":false,"is_transit":false,"time":0,"station_id":"JAY"},{"station_name":"Manggabesar","i_lat":-6.149769,"station_id":"MGB","is_transit":false,"time":2,"distance":1080,"i_long":106.82482,"transit":false,"line":2},{"i_lat":-6.160725,"i_long":106.827103,"is_transit":false,"station_id":"SW","transit":false,"time":2,"station_name":"Sawah Besar","distance":906,"line":2},{"time":2,"station_name":"Juanda","distance":1149,"i_long":106.828284,"line":2,"is_transit":false,"station_id":"JUA","i_lat":-6.166716,"transit":false},{"station_name":"Gondangdia","is_transit":false,"i_lat":-6.186295,"time":4,"transit":false,"i_long":106.832183,"station_id":"GDD","line":2,"distance":2015},{"i_long":106.840169,"time":3,"distance":1750,"station_name":"Cikini","station_id":"CKI","is_transit":false,"transit":false,"line":2,"i_lat":-6.198556},{"transit":true,"time":4,"line":2,"station_id":"MRI","station_name":"Manggarai","is_transit":true,"distance":1590,"i_lat":-6.209883,"i_long":106.84912},{"distance":1275,"station_name":"Matraman","i_lat":-6.212485,"line":1,"station_id":"MTR","transit":false,"is_transit":false,"time":2,"i_long":106.858896},{"station_id":"JNG","line":1,"distance":1377,"i_lat":-6.215091,"transit":true,"i_long":106.86807400000001,"time":8,"is_transit":true,"station_name":"Jatinegara"},{"distance":1236,"line":11,"transit":false,"is_transit":false,"station_id":"POK","time":2,"station_name":"Pondok Jati","i_long":106.861737,"i_lat":-6.209188},{"time":2,"distance":1829,"i_lat":-6.193792,"transit":false,"i_long":106.855437,"station_id":"KMT","is_transit":false,"line":11,"station_name":"Kramat"},{"station_name":"Gang Sentiong","distance":973,"transit":false,"time":1,"station_id":"GST","i_lat":-6.185975,"i_long":106.850107,"is_transit":false,"line":11},{"time":8,"is_transit":false,"i_lat":-6.174784,"i_long":106.84368,"station_name":"Pasar Senen","distance":1567,"station_id":"PSE","transit":false,"line":11},{"i_lat":-6.161728,"station_id":"KMO","time":4,"i_long":106.839204,"is_transit":false,"transit":false,"distance":1436,"station_name":"Kemayoran","line":11},{"i_lat":-6.14505,"is_transit":false,"transit":false,"distance":1901,"i_long":106.836569,"line":11,"station_name":"Rajawali","station_id":"RJW","time":5},{"i_long":106.826365,"station_id":"KPB","distance":1444,"time":3,"i_lat":-6.132549,"line":4,"is_transit":true,"station_name":"Kampung Bandan","transit":true},{"i_lat":-6.144674,"transit":false,"distance":4102,"is_transit":false,"station_name":"Angke","time":9,"i_long":106.79867,"line":1,"station_id":"AK"},{"time":4,"line":1,"is_transit":false,"station_name":"Duri","i_lat":-6.155215,"transit":false,"i_long":106.800832,"station_id":"DU","distance":1230},{"line":1,"transit":true,"time":8,"distance":3632,"i_lat":-6.185545,"station_id":"THB","is_transit":true,"i_long":106.811091,"station_name":"Tanah Abang"},{"distance":3191,"station_id":"PLM","transit":false,"i_lat":-6.207404,"line":6,"station_name":"Palmerah","is_transit":false,"time":6,"i_long":106.79689}]]}