{"data":[[{"distance":0,"station_id":"JAY","time":0,"transit":false,"line":2,"station_name":"Jayakarta","i_lat":-6.141205,"i_long":106.820901,"is_transit":false},{"time":2,"station_name":"Manggabesar","station_id":"MGB","distance":1080,"is_transit":false,"line":2,"transit":false,"i_lat":-6.149769,"i_long":106.82482},{"is_transit":false,"distance":906,"station_id":"SW","time":2,"station_name":"Sawah Besar","transit":false,"i_lat":-6.160725,"line":2,"i_long":106.827103},{"line":2,"time":2,"station_name":"Juanda","i_lat":-6.166716,"station_id":"JUA","i_long":106.828284,"distance":1149,"is_transit":false,"transit":false},{"line":2,"time":4,"station_id":"GDD","is_transit":false,"transit":false,"i_lat":-6.186295,"station_name":"Gondangdia","i_long":106.832183,"distance":2015},{"transit":false,"time":3,"station_id":"CKI","station_name":"Cikini","is_transit":false,"i_long":106.840169,"line":2,"distance":1750,"i_lat":-6.198556},{"station_id":"MRI","time":4,"distance":1590,"transit":false,"line":2,"i_lat":-6.209883,"is_transit":false,"i_long":106.84912,"station_name":"Manggarai"},{"station_id":"TEB","i_lat":-6.226659,"is_transit":false,"station_name":"Tebet","i_long":106.857948,"transit":false,"time":4,"distance":2610,"line":2},{"i_lat":-6.242512,"station_name":"Cawang","i_long":106.856607,"time":2,"station_id":"CW","distance":1230,"transit":false,"is_transit":false,"line":2}],[{"i_long":106.820901,"line":2,"station_id":"JAY","time":0,"station_name":"Jayakarta","transit":false,"i_lat":-6.141205,"distance":0,"is_transit":false},{"transit":true,"i_long":106.812439,"distance":1264,"i_lat":-6.137569,"station_id":"JAKK","time":4,"line":2,"is_transit":true,"station_name":"Jakarta Kota"},{"station_name":"Kampung Bandan","station_id":"KPB","is_transit":true,"transit":true,"i_lat":-6.132549,"distance":1364,"time":3,"i_long":106.826365,"line":4},{"time":9,"station_name":"Angke","station_id":"AK","distance":4102,"is_transit":false,"line":1,"transit":false,"i_lat":-6.144674,"i_long":106.79867},{"transit":false,"time":4,"distance":1230,"i_lat":-6.155215,"station_id":"DU","i_long":106.800832,"station_name":"Duri","is_transit":false,"line":1},{"is_transit":false,"station_name":"Tanah Abang","transit":false,"distance":3632,"i_long":106.811091,"i_lat":-6.185545,"line":1,"station_id":"THB","time":8},{"time":5,"is_transit":false,"transit":false,"station_id":"KAT","station_name":"Karet","i_lat":-6.20132,"line":1,"distance":2029,"i_long":106.816351},{"is_transit":false,"i_long":106.819881,"distance":471,"station_name":"Sudirman Baru","time":1,"station_id":"SUDB","transit":false,"i_lat":-6.201433,"line":1},{"station_id":"SUD","station_name":"Sudirman","i_long":106.822649,"time":1,"transit":false,"i_lat":-6.202263,"line":1,"is_transit":false,"distance":280},{"line":2,"station_name":"Manggarai","time":4,"i_lat":-6.209883,"distance":3186,"i_long":106.84912,"transit":true,"is_transit":true,"station_id":"MRI"},{"i_lat":-6.226659,"station_id":"TEB","line":2,"distance":2610,"time":4,"is_transit":false,"station_name":"Tebet","transit":false,"i_long":106.857948},{"i_long":106.856607,"line":2,"distance":1230,"station_name":"Cawang","time":2,"station_id":"CW","is_transit":false,"transit":false,"i_lat":-6.242512}],[{"i_lat":-6.141205,"transit":false,"line":2,"time":0,"station_id":"JAY","station_name":"Jayakarta","distance":0,"is_transit":false,"i_long":106.820901},{"distance":1264,"is_transit":true,"i_lat":-6.137569,"station_id":"JAKK","time":4,"i_long":106.812439,"station_name":"Jakarta Kota","transit":true,"line":2},{"i_lat":-6.132549,"station_name":"Kampung Bandan","i_long":106.826365,"transit":true,"is_transit":true,"distance":1364,"station_id":"KPB","time":3,"line":4},{"i_long":106.836569,"station_id":"RJW","station_name":"Rajawali","line":11,"transit":false,"is_transit":false,"distance":1444,"i_lat":-6.14505,"time":3},{"i_long":106.839204,"distance":1901,"time":5,"station_id":"KMO","transit":false,"station_name":"Kemayoran","line":11,"i_lat":-6.161728,"is_transit":false},{"time":4,"is_transit":false,"line":11,"transit":false,"i_long":106.84368,"distance":1436,"station_id":"PSE","i_lat":-6.174784,"station_name":"Pasar Senen"},{"station_name":"Gang Sentiong","transit":false,"is_transit":false,"line":11,"station_id":"GST","distance":1567,"i_long":106.850107,"time":8,"i_lat":-6.185975},{"station_id":"KMT","time":1,"distance":973,"station_name":"Kramat","is_transit":false,"transit":false,"i_lat":-6.193792,"i_long":106.855437,"line":11},{"line":11,"is_transit":false,"station_id":"POK","time":2,"station_name":"Pondok Jati","transit":false,"i_long":106.861737,"distance":1829,"i_lat":-6.209188},{"station_id":"JNG","line":1,"is_transit":true,"time":9,"distance":1236,"i_lat":-6.215091,"station_name":"Jatinegara","i_long":106.86807400000001,"transit":true},{"time":2,"i_long":106.858896,"line":1,"distance":1377,"i_lat":-6.212485,"station_id":"MTR","transit":false,"is_transit":false,"station_name":"Matraman"},{"time":2,"i_long":106.84912,"i_lat":-6.209883,"station_name":"Manggarai","is_transit":true,"distance":1275,"station_id":"MRI","transit":true,"line":2},{"is_transit":false,"line":2,"i_long":106.857948,"distance":2610,"time":4,"i_lat":-6.226659,"transit":false,"station_id":"TEB","station_name":"Tebet"},{"transit":false,"i_long":106.856607,"station_id":"CW","i_lat":-6.242512,"line":2,"distance":1230,"time":2,"station_name":"Cawang","is_transit":false}]]}