{"data":[[{"station_name":"Jayakarta","distance":0,"transit":false,"i_lat":-6.141205,"line":2,"i_long":106.820901,"station_id":"JAY","time":0,"is_transit":false},{"i_long":106.812439,"distance":1264,"station_id":"JAKK","is_transit":true,"line":2,"transit":true,"i_lat":-6.137569,"time":4,"station_name":"Jakarta Kota"},{"line":4,"station_name":"Kampung Bandan","distance":1364,"i_long":106.826365,"i_lat":-6.132549,"time":3,"station_id":"KPB","is_transit":true,"transit":true},{"station_id":"AK","is_transit":false,"i_lat":-6.144674,"i_long":106.79867,"line":1,"transit":false,"distance":4102,"time":9,"station_name":"Angke"},{"station_name":"Duri","station_id":"DU","i_long":106.800832,"transit":false,"line":1,"distance":1230,"time":4,"is_transit":false,"i_lat":-6.155215},{"distance":3632,"station_id":"THB","i_long":106.811091,"line":1,"transit":false,"time":8,"station_name":"Tanah Abang","i_lat":-6.185545,"is_transit":false},{"i_long":106.816351,"i_lat":-6.20132,"distance":2029,"transit":false,"line":1,"station_name":"Karet","time":5,"station_id":"KAT","is_transit":false},{"transit":false,"is_transit":false,"i_lat":-6.201433,"line":1,"time":1,"distance":471,"station_id":"SUDB","station_name":"Sudirman Baru","i_long":106.819881}],[{"station_name":"Jayakarta","is_transit":false,"station_id":"JAY","i_long":106.820901,"i_lat":-6.141205,"time":0,"distance":0,"transit":false,"line":2},{"i_long":106.82482,"is_transit":false,"station_id":"MGB","line":2,"transit":false,"i_lat":-6.149769,"time":2,"distance":1080,"station_name":"Manggabesar"},{"is_transit":false,"distance":906,"i_lat":-6.160725,"line":2,"transit":false,"station_id":"SW","station_name":"Sawah Besar","time":2,"i_long":106.827103},{"station_name":"Juanda","i_lat":-6.166716,"distance":1149,"station_id":"JUA","is_transit":false,"i_long":106.828284,"time":2,"transit":false,"line":2},{"i_lat":-6.186295,"transit":false,"time":4,"station_name":"Gondangdia","i_long":106.832183,"line":2,"is_transit":false,"station_id":"GDD","distance":2015},{"station_name":"Cikini","distance":1750,"time":3,"transit":false,"i_long":106.840169,"line":2,"i_lat":-6.198556,"station_id":"CKI","is_transit":false},{"is_transit":true,"distance":1590,"i_lat":-6.209883,"station_id":"MRI","line":2,"station_name":"Manggarai","transit":true,"i_long":106.84912,"time":4},{"i_long":106.822649,"transit":false,"station_name":"Sudirman","i_lat":-6.202263,"station_id":"SUD","line":1,"is_transit":false,"distance":3186,"time":4},{"time":1,"distance":280,"station_id":"SUDB","i_lat":-6.201433,"i_long":106.819881,"is_transit":false,"station_name":"Sudirman Baru","transit":false,"line":1}],[{"i_lat":-6.141205,"station_id":"JAY","line":2,"distance":0,"station_name":"Jayakarta","i_long":106.820901,"time":0,"is_transit":false,"transit":false},{"station_name":"Jakarta Kota","is_transit":true,"i_lat":-6.137569,"line":2,"transit":true,"time":4,"station_id":"JAKK","distance":1264,"i_long":106.812439},{"distance":1364,"station_id":"KPB","i_lat":-6.132549,"transit":true,"i_long":106.826365,"time":3,"is_transit":true,"station_name":"Kampung Bandan","line":4},{"station_name":"Rajawali","i_long":106.836569,"time":3,"distance":1444,"i_lat":-6.14505,"transit":false,"is_transit":false,"line":11,"station_id":"RJW"},{"transit":false,"is_transit":false,"i_lat":-6.161728,"distance":1901,"station_id":"KMO","line":11,"time":5,"station_name":"Kemayoran","i_long":106.839204},{"station_id":"PSE","is_transit":false,"station_name":"Pasar Senen","line":11,"transit":false,"distance":1436,"i_lat":-6.174784,"i_long":106.84368,"time":4},{"distance":1567,"time":8,"station_id":"GST","station_name":"Gang Sentiong","transit":false,"i_lat":-6.185975,"i_long":106.850107,"is_transit":false,"line":11},{"station_name":"Kramat","line":11,"distance":973,"i_lat":-6.193792,"i_long":106.855437,"time":1,"is_transit":false,"station_id":"KMT","transit":false},{"distance":1829,"line":11,"time":2,"is_transit":false,"i_long":106.861737,"station_id":"POK","transit":false,"station_name":"Pondok Jati","i_lat":-6.209188},{"distance":1236,"transit":true,"station_name":"Jatinegara","i_long":106.86807400000001,"time":9,"station_id":"JNG","line":1,"is_transit":true,"i_lat":-6.215091},{"transit":false,"i_lat":-6.212485,"i_long":106.858896,"line":1,"distance":1377,"is_transit":false,"time":2,"station_name":"Matraman","station_id":"MTR"},{"distance":1275,"station_name":"Manggarai","i_lat":-6.209883,"i_long":106.84912,"station_id":"MRI","time":2,"transit":false,"line":2,"is_transit":false},{"station_name":"Sudirman","time":4,"line":1,"transit":false,"station_id":"SUD","distance":3186,"is_transit":false,"i_lat":-6.202263,"i_long":106.822649},{"station_name":"Sudirman Baru","station_id":"SUDB","transit":false,"time":1,"i_long":106.819881,"i_lat":-6.201433,"is_transit":false,"line":1,"distance":280}],[{"i_long":106.820901,"line":2,"distance":0,"station_id":"JAY","i_lat":-6.141205,"station_name":"Jayakarta","is_transit":false,"transit":false,"time":0},{"line":2,"station_id":"MGB","station_name":"Manggabesar","i_lat":-6.149769,"i_long":106.82482,"distance":1080,"time":2,"is_transit":false,"transit":false},{"i_long":106.827103,"station_name":"Sawah Besar","station_id":"SW","line":2,"time":2,"distance":906,"transit":false,"i_lat":-6.160725,"is_transit":false},{"station_name":"Juanda","time":2,"distance":1149,"is_transit":false,"transit":false,"station_id":"JUA","i_lat":-6.166716,"line":2,"i_long":106.828284},{"station_name":"Gondangdia","time":4,"station_id":"GDD","transit":false,"is_transit":false,"i_lat":-6.186295,"line":2,"distance":2015,"i_long":106.832183},{"i_long":106.840169,"time":3,"distance":1750,"transit":false,"i_lat":-6.198556,"is_transit":false,"station_id":"CKI","station_name":"Cikini","line":2},{"is_transit":true,"station_id":"MRI","i_lat":-6.209883,"time":4,"line":2,"distance":1590,"transit":true,"station_name":"Manggarai","i_long":106.84912},{"time":2,"i_lat":-6.212485,"station_id":"MTR","distance":1275,"station_name":"Matraman","transit":false,"i_long":106.858896,"line":1,"is_transit":false},{"i_lat":-6.215091,"station_name":"Jatinegara","is_transit":true,"i_long":106.86807400000001,"time":8,"station_id":"JNG","line":1,"distance":1377,"transit":true},{"line":11,"station_id":"POK","i_long":106.861737,"station_name":"Pondok Jati","is_transit":false,"distance":1236,"time":2,"transit":false,"i_lat":-6.209188},{"is_transit":false,"i_long":106.855437,"station_name":"Kramat","line":11,"transit":false,"distance":1829,"time":2,"i_lat":-6.193792,"station_id":"KMT"},{"time":1,"distance":973,"station_id":"GST","i_lat":-6.185975,"line":11,"transit":false,"i_long":106.850107,"is_transit":false,"station_name":"Gang Sentiong"},{"is_transit":false,"i_long":106.84368,"station_name":"Pasar Senen","i_lat":-6.174784,"distance":1567,"transit":false,"line":11,"time":8,"station_id":"PSE"},{"distance":1436,"station_id":"KMO","transit":false,"i_long":106.839204,"time":4,"line":11,"station_name":"Kemayoran","is_transit":false,"i_lat":-6.161728},{"i_long":106.836569,"is_transit":false,"station_id":"RJW","transit":false,"i_lat":-6.14505,"station_name":"Rajawali","time":5,"distance":1901,"line":11},{"station_id":"KPB","time":3,"line":4,"i_lat":-6.132549,"distance":1444,"station_name":"Kampung Bandan","is_transit":true,"transit":true,"i_long":106.826365},{"distance":4102,"transit":false,"station_name":"Angke","is_transit":false,"line":1,"i_long":106.79867,"i_lat":-6.144674,"station_id":"AK","time":9},{"transit":false,"i_lat":-6.155215,"distance":1230,"station_id":"DU","is_transit":false,"station_name":"Duri","time":4,"line":1,"i_long":106.800832},{"station_name":"Tanah Abang","i_lat":-6.185545,"transit":false,"time":8,"station_id":"THB","i_long":106.811091,"distance":3632,"is_transit":false,"line":1},{"time":5,"distance":2029,"i_long":106.816351,"station_name":"Karet","line":1,"is_transit":false,"station_id":"KAT","i_lat":-6.20132,"transit":false},{"is_transit":false,"transit":false,"i_lat":-6.201433,"line":1,"i_long":106.819881,"station_id":"SUDB","time":1,"distance":471,"station_name":"Sudirman Baru"}]]}