{"data":[[{"station_name":"Jayakarta","station_id":"JAY","is_transit":false,"time":0,"transit":false,"i_long":106.820901,"line":2,"i_lat":-6.141205,"distance":0},{"i_long":106.82482,"station_id":"MGB","line":2,"station_name":"Manggabesar","time":2,"i_lat":-6.149769,"transit":false,"is_transit":false,"distance":1080},{"i_lat":-6.160725,"i_long":106.827103,"transit":false,"time":2,"station_name":"Sawah Besar","distance":906,"is_transit":false,"station_id":"SW","line":2},{"distance":1149,"station_id":"JUA","station_name":"Juanda","transit":false,"i_long":106.828284,"line":2,"is_transit":false,"i_lat":-6.166716,"time":2},{"i_lat":-6.186295,"transit":false,"i_long":106.832183,"line":2,"is_transit":false,"station_name":"Gondangdia","station_id":"GDD","time":4,"distance":2015},{"transit":false,"i_lat":-6.198556,"time":3,"station_name":"Cikini","i_long":106.840169,"line":2,"station_id":"CKI","is_transit":false,"distance":1750},{"station_name":"Manggarai","i_lat":-6.209883,"transit":false,"is_transit":false,"line":2,"time":4,"distance":1590,"station_id":"MRI","i_long":106.84912},{"i_lat":-6.226659,"transit":false,"i_long":106.857948,"distance":2610,"line":2,"time":4,"is_transit":false,"station_id":"TEB","station_name":"Tebet"},{"i_long":106.856607,"line":2,"distance":1230,"is_transit":false,"station_id":"CW","i_lat":-6.242512,"station_name":"Cawang","transit":false,"time":2},{"time":3,"station_name":"Duren Kalibata","i_lat":-6.255332,"line":2,"i_long":106.85449,"distance":1546,"station_id":"DRN","is_transit":false,"transit":false},{"line":2,"is_transit":false,"time":2,"station_id":"PSMB","i_long":106.851577,"distance":824,"i_lat":-6.263214,"transit":false,"station_name":"Pasar Minggu Baru"}],[{"transit":false,"line":2,"i_lat":-6.141205,"time":0,"station_id":"JAY","distance":0,"is_transit":false,"station_name":"Jayakarta","i_long":106.820901},{"line":2,"transit":true,"i_lat":-6.137569,"station_id":"JAKK","i_long":106.812439,"time":4,"distance":1264,"station_name":"Jakarta Kota","is_transit":true},{"transit":true,"station_id":"KPB","i_long":106.826365,"time":3,"is_transit":true,"station_name":"Kampung Bandan","distance":1364,"i_lat":-6.132549,"line":4},{"time":9,"i_long":106.79867,"distance":4102,"transit":false,"i_lat":-6.144674,"station_name":"Angke","is_transit":false,"station_id":"AK","line":1},{"station_id":"DU","is_transit":false,"i_long":106.800832,"line":1,"distance":1230,"i_lat":-6.155215,"transit":false,"time":4,"station_name":"Duri"},{"station_name":"Tanah Abang","i_long":106.811091,"distance":3632,"is_transit":false,"station_id":"THB","transit":false,"time":8,"i_lat":-6.185545,"line":1},{"station_id":"KAT","line":1,"i_lat":-6.20132,"i_long":106.816351,"transit":false,"time":5,"is_transit":false,"station_name":"Karet","distance":2029},{"station_name":"Sudirman Baru","station_id":"SUDB","i_lat":-6.201433,"is_transit":false,"transit":false,"time":1,"line":1,"i_long":106.819881,"distance":471},{"line":1,"distance":280,"transit":false,"time":1,"i_long":106.822649,"is_transit":false,"station_id":"SUD","i_lat":-6.202263,"station_name":"Sudirman"},{"line":2,"station_name":"Manggarai","distance":3186,"station_id":"MRI","is_transit":true,"transit":true,"time":4,"i_long":106.84912,"i_lat":-6.209883},{"is_transit":false,"i_long":106.857948,"distance":2610,"station_name":"Tebet","transit":false,"line":2,"time":4,"station_id":"TEB","i_lat":-6.226659},{"distance":1230,"station_id":"CW","is_transit":false,"i_lat":-6.242512,"line":2,"transit":false,"station_name":"Cawang","time":2,"i_long":106.856607},{"transit":false,"i_lat":-6.255332,"is_transit":false,"station_name":"Duren Kalibata","i_long":106.85449,"station_id":"DRN","line":2,"distance":1546,"time":3},{"line":2,"transit":false,"time":2,"i_lat":-6.263214,"station_name":"Pasar Minggu Baru","is_transit":false,"distance":824,"station_id":"PSMB","i_long":106.851577}],[{"is_transit":false,"station_name":"Jayakarta","time":0,"distance":0,"i_lat":-6.141205,"station_id":"JAY","i_long":106.820901,"line":2,"transit":false},{"i_lat":-6.137569,"time":4,"station_id":"JAKK","line":2,"station_name":"Jakarta Kota","is_transit":true,"distance":1264,"transit":true,"i_long":106.812439},{"time":3,"station_name":"Kampung Bandan","station_id":"KPB","is_transit":true,"transit":true,"distance":1364,"i_lat":-6.132549,"i_long":106.826365,"line":4},{"is_transit":false,"station_id":"RJW","transit":false,"distance":1444,"i_long":106.836569,"line":11,"station_name":"Rajawali","i_lat":-6.14505,"time":3},{"distance":1901,"time":5,"transit":false,"station_id":"KMO","i_long":106.839204,"line":11,"is_transit":false,"i_lat":-6.161728,"station_name":"Kemayoran"},{"time":4,"line":11,"station_name":"Pasar Senen","distance":1436,"is_transit":false,"i_lat":-6.174784,"transit":false,"station_id":"PSE","i_long":106.84368},{"station_id":"GST","time":8,"transit":false,"is_transit":false,"i_lat":-6.185975,"i_long":106.850107,"line":11,"station_name":"Gang Sentiong","distance":1567},{"station_name":"Kramat","i_lat":-6.193792,"time":1,"i_long":106.855437,"station_id":"KMT","distance":973,"line":11,"transit":false,"is_transit":false},{"distance":1829,"time":2,"line":11,"transit":false,"i_lat":-6.209188,"station_name":"Pondok Jati","station_id":"POK","i_long":106.861737,"is_transit":false},{"transit":true,"distance":1236,"i_long":106.86807400000001,"station_id":"JNG","is_transit":true,"time":9,"i_lat":-6.215091,"station_name":"Jatinegara","line":1},{"station_name":"Matraman","line":1,"transit":false,"is_transit":false,"station_id":"MTR","time":2,"i_lat":-6.212485,"distance":1377,"i_long":106.858896},{"distance":1275,"station_name":"Manggarai","i_lat":-6.209883,"time":2,"station_id":"MRI","line":2,"i_long":106.84912,"transit":true,"is_transit":true},{"time":4,"transit":false,"i_lat":-6.226659,"is_transit":false,"station_name":"Tebet","station_id":"TEB","i_long":106.857948,"distance":2610,"line":2},{"i_long":106.856607,"line":2,"station_name":"Cawang","transit":false,"distance":1230,"time":2,"is_transit":false,"i_lat":-6.242512,"station_id":"CW"},{"distance":1546,"transit":false,"time":3,"i_lat":-6.255332,"i_long":106.85449,"is_transit":false,"station_name":"Duren Kalibata","station_id":"DRN","line":2},{"line":2,"station_name":"Pasar Minggu Baru","time":2,"i_lat":-6.263214,"is_transit":false,"i_long":106.851577,"station_id":"PSMB","transit":false,"distance":824}]]}