{"data":[[{"i_lat":-6.141205,"line":2,"is_transit":false,"station_id":"JAY","transit":false,"distance":0,"station_name":"Jayakarta","time":0,"i_long":106.820901},{"time":4,"station_id":"JAKK","line":2,"station_name":"Jakarta Kota","is_transit":true,"transit":true,"i_lat":-6.137569,"i_long":106.812439,"distance":1264},{"line":4,"station_name":"Kampung Bandan","transit":true,"i_lat":-6.132549,"i_long":106.826365,"time":3,"station_id":"KPB","distance":1364,"is_transit":true},{"transit":false,"time":9,"station_name":"Angke","i_long":106.79867,"line":1,"station_id":"AK","distance":4102,"is_transit":false,"i_lat":-6.144674},{"i_long":106.800832,"time":4,"line":1,"station_id":"DU","station_name":"Duri","i_lat":-6.155215,"is_transit":false,"transit":false,"distance":1230},{"line":1,"distance":3632,"i_lat":-6.185545,"station_id":"THB","time":8,"transit":false,"is_transit":false,"i_long":106.811091,"station_name":"Tanah Abang"},{"distance":2029,"is_transit":false,"i_long":106.816351,"station_id":"KAT","time":5,"transit":false,"line":1,"i_lat":-6.20132,"station_name":"Karet"},{"distance":471,"transit":false,"time":1,"is_transit":false,"i_lat":-6.201433,"i_long":106.819881,"line":1,"station_id":"SUDB","station_name":"Sudirman Baru"}],[{"line":2,"distance":0,"station_id":"JAY","transit":false,"is_transit":false,"time":0,"station_name":"Jayakarta","i_long":106.820901,"i_lat":-6.141205},{"line":2,"transit":false,"time":2,"distance":1080,"station_name":"Manggabesar","i_lat":-6.149769,"i_long":106.82482,"station_id":"MGB","is_transit":false},{"station_id":"SW","distance":906,"line":2,"is_transit":false,"i_long":106.827103,"time":2,"i_lat":-6.160725,"station_name":"Sawah Besar","transit":false},{"station_name":"Juanda","i_lat":-6.166716,"station_id":"JUA","time":2,"transit":false,"distance":1149,"is_transit":false,"i_long":106.828284,"line":2},{"time":4,"is_transit":false,"i_lat":-6.186295,"transit":false,"line":2,"distance":2015,"station_name":"Gondangdia","i_long":106.832183,"station_id":"GDD"},{"distance":1750,"is_transit":false,"station_id":"CKI","station_name":"Cikini","i_long":106.840169,"time":3,"i_lat":-6.198556,"line":2,"transit":false},{"station_id":"MRI","i_lat":-6.209883,"time":4,"is_transit":true,"i_long":106.84912,"transit":true,"distance":1590,"station_name":"Manggarai","line":2},{"distance":3186,"is_transit":false,"time":4,"transit":false,"i_long":106.822649,"station_id":"SUD","i_lat":-6.202263,"station_name":"Sudirman","line":1},{"time":1,"distance":280,"i_long":106.819881,"station_name":"Sudirman Baru","station_id":"SUDB","transit":false,"is_transit":false,"line":1,"i_lat":-6.201433}],[{"transit":false,"is_transit":false,"station_name":"Jayakarta","distance":0,"line":2,"time":0,"i_lat":-6.141205,"station_id":"JAY","i_long":106.820901},{"distance":1264,"transit":true,"time":4,"station_id":"JAKK","station_name":"Jakarta Kota","is_transit":true,"i_long":106.812439,"line":2,"i_lat":-6.137569},{"line":4,"station_id":"KPB","transit":true,"distance":1364,"station_name":"Kampung Bandan","time":3,"is_transit":true,"i_lat":-6.132549,"i_long":106.826365},{"time":3,"is_transit":false,"i_lat":-6.14505,"line":11,"distance":1444,"station_name":"Rajawali","i_long":106.836569,"transit":false,"station_id":"RJW"},{"i_long":106.839204,"station_name":"Kemayoran","transit":false,"time":5,"is_transit":false,"i_lat":-6.161728,"station_id":"KMO","distance":1901,"line":11},{"station_id":"PSE","transit":false,"station_name":"Pasar Senen","distance":1436,"i_long":106.84368,"time":4,"is_transit":false,"i_lat":-6.174784,"line":11},{"time":8,"is_transit":false,"station_name":"Gang Sentiong","station_id":"GST","distance":1567,"i_lat":-6.185975,"transit":false,"line":11,"i_long":106.850107},{"i_lat":-6.193792,"distance":973,"station_id":"KMT","time":1,"i_long":106.855437,"transit":false,"station_name":"Kramat","is_transit":false,"line":11},{"i_lat":-6.209188,"time":2,"line":11,"is_transit":false,"i_long":106.861737,"station_id":"POK","transit":false,"distance":1829,"station_name":"Pondok Jati"},{"is_transit":true,"time":9,"transit":true,"distance":1236,"station_id":"JNG","station_name":"Jatinegara","i_lat":-6.215091,"line":1,"i_long":106.86807400000001},{"transit":false,"distance":1377,"is_transit":false,"i_lat":-6.212485,"station_id":"MTR","i_long":106.858896,"time":2,"line":1,"station_name":"Matraman"},{"i_lat":-6.209883,"time":2,"i_long":106.84912,"station_id":"MRI","is_transit":false,"transit":false,"distance":1275,"line":2,"station_name":"Manggarai"},{"time":4,"i_long":106.822649,"line":1,"is_transit":false,"distance":3186,"i_lat":-6.202263,"station_name":"Sudirman","station_id":"SUD","transit":false},{"station_id":"SUDB","distance":280,"i_long":106.819881,"i_lat":-6.201433,"line":1,"is_transit":false,"station_name":"Sudirman Baru","transit":false,"time":1}],[{"station_id":"JAY","distance":0,"line":2,"time":0,"station_name":"Jayakarta","i_long":106.820901,"transit":false,"is_transit":false,"i_lat":-6.141205},{"station_id":"MGB","i_lat":-6.149769,"i_long":106.82482,"distance":1080,"station_name":"Manggabesar","transit":false,"time":2,"is_transit":false,"line":2},{"station_name":"Sawah Besar","distance":906,"line":2,"i_long":106.827103,"transit":false,"time":2,"i_lat":-6.160725,"is_transit":false,"station_id":"SW"},{"i_long":106.828284,"distance":1149,"time":2,"is_transit":false,"i_lat":-6.166716,"transit":false,"station_name":"Juanda","line":2,"station_id":"JUA"},{"line":2,"station_name":"Gondangdia","i_long":106.832183,"station_id":"GDD","time":4,"transit":false,"i_lat":-6.186295,"distance":2015,"is_transit":false},{"i_lat":-6.198556,"is_transit":false,"station_name":"Cikini","station_id":"CKI","time":3,"distance":1750,"i_long":106.840169,"line":2,"transit":false},{"transit":true,"line":2,"station_name":"Manggarai","distance":1590,"time":4,"station_id":"MRI","is_transit":true,"i_lat":-6.209883,"i_long":106.84912},{"is_transit":false,"i_lat":-6.212485,"time":2,"distance":1275,"i_long":106.858896,"station_name":"Matraman","station_id":"MTR","transit":false,"line":1},{"time":8,"i_lat":-6.215091,"station_id":"JNG","distance":1377,"transit":true,"station_name":"Jatinegara","is_transit":true,"line":1,"i_long":106.86807400000001},{"distance":1236,"time":2,"station_id":"POK","station_name":"Pondok Jati","line":11,"is_transit":false,"i_lat":-6.209188,"i_long":106.861737,"transit":false},{"line":11,"transit":false,"distance":1829,"is_transit":false,"station_name":"Kramat","i_lat":-6.193792,"i_long":106.855437,"time":2,"station_id":"KMT"},{"distance":973,"station_name":"Gang Sentiong","is_transit":false,"line":11,"i_long":106.850107,"transit":false,"time":1,"i_lat":-6.185975,"station_id":"GST"},{"is_transit":false,"time":8,"station_name":"Pasar Senen","line":11,"station_id":"PSE","i_long":106.84368,"distance":1567,"i_lat":-6.174784,"transit":false},{"time":4,"station_name":"Kemayoran","i_lat":-6.161728,"is_transit":false,"station_id":"KMO","distance":1436,"i_long":106.839204,"transit":false,"line":11},{"transit":false,"i_lat":-6.14505,"time":5,"station_name":"Rajawali","i_long":106.836569,"line":11,"station_id":"RJW","distance":1901,"is_transit":false},{"station_id":"KPB","line":4,"time":3,"distance":1444,"transit":true,"is_transit":true,"station_name":"Kampung Bandan","i_lat":-6.132549,"i_long":106.826365},{"i_lat":-6.144674,"i_long":106.79867,"station_id":"AK","time":9,"station_name":"Angke","is_transit":false,"line":1,"transit":false,"distance":4102},{"transit":false,"i_long":106.800832,"is_transit":false,"time":4,"distance":1230,"i_lat":-6.155215,"station_name":"Duri","station_id":"DU","line":1},{"line":1,"time":8,"station_id":"THB","distance":3632,"is_transit":false,"transit":false,"i_lat":-6.185545,"i_long":106.811091,"station_name":"Tanah Abang"},{"transit":false,"line":1,"distance":2029,"is_transit":false,"station_id":"KAT","station_name":"Karet","i_lat":-6.20132,"time":5,"i_long":106.816351},{"line":1,"station_name":"Sudirman Baru","station_id":"SUDB","is_transit":false,"time":1,"i_lat":-6.201433,"distance":471,"i_long":106.819881,"transit":false}]]}