{"data":[[{"time":0,"station_id":"JAY","distance":0,"i_long":106.820901,"station_name":"Jayakarta","is_transit":false,"i_lat":-6.141205,"transit":false,"line":2},{"transit":true,"i_lat":-6.137569,"distance":1264,"line":2,"i_long":106.812439,"is_transit":true,"time":4,"station_name":"Jakarta Kota","station_id":"JAKK"},{"line":4,"station_name":"Kampung Bandan","transit":true,"is_transit":true,"station_id":"KPB","i_lat":-6.132549,"distance":1364,"time":3,"i_long":106.826365},{"transit":false,"i_lat":-6.144674,"station_name":"Angke","time":9,"station_id":"AK","i_long":106.79867,"distance":4102,"line":1,"is_transit":false},{"time":4,"line":1,"station_name":"Duri","transit":true,"is_transit":true,"station_id":"DU","distance":1230,"i_lat":-6.155215,"i_long":106.800832},{"i_lat":-6.162021,"station_name":"Grogol","line":5,"transit":false,"station_id":"GGL","distance":1700,"i_long":106.788277,"is_transit":false,"time":3},{"i_lat":-6.161433,"station_name":"Pesing","transit":false,"line":5,"i_long":106.771379,"distance":2036,"station_id":"PSG","is_transit":false,"time":2},{"i_lat":-6.1587309999999995,"i_long":106.756522,"line":5,"transit":false,"station_id":"TKO","is_transit":false,"time":2,"station_name":"Taman Kota","distance":1614},{"transit":false,"i_long":106.737035,"i_lat":-6.159876,"station_name":"Bojongindah","distance":2334,"is_transit":false,"time":2,"line":5,"station_id":"BOI"},{"distance":1152,"line":5,"station_id":"RW","is_transit":false,"time":4,"i_lat":-6.162758,"station_name":"Rawa Buaya","transit":false,"i_long":106.723064},{"line":5,"distance":2504,"station_name":"Kalideres","time":3,"i_long":106.701612,"i_lat":-6.166068,"station_id":"KDS","transit":false,"is_transit":false},{"transit":false,"i_lat":-6.169933,"station_name":"Poris","distance":2548,"line":5,"is_transit":false,"time":3,"i_long":106.679458,"station_id":"PI"}],[{"i_long":106.820901,"station_id":"JAY","line":2,"station_name":"Jayakarta","time":0,"transit":false,"distance":0,"i_lat":-6.141205,"is_transit":false},{"is_transit":false,"time":2,"transit":false,"i_lat":-6.149769,"line":2,"station_id":"MGB","distance":1080,"i_long":106.82482,"station_name":"Manggabesar"},{"i_long":106.827103,"line":2,"distance":906,"station_name":"Sawah Besar","i_lat":-6.160725,"transit":false,"time":2,"station_id":"SW","is_transit":false},{"i_long":106.828284,"is_transit":false,"transit":false,"station_id":"JUA","line":2,"station_name":"Juanda","distance":1149,"i_lat":-6.166716,"time":2},{"station_id":"GDD","i_lat":-6.186295,"time":4,"distance":2015,"i_long":106.832183,"line":2,"is_transit":false,"station_name":"Gondangdia","transit":false},{"transit":false,"line":2,"is_transit":false,"time":3,"station_name":"Cikini","distance":1750,"station_id":"CKI","i_long":106.840169,"i_lat":-6.198556},{"time":4,"station_id":"MRI","distance":1590,"i_lat":-6.209883,"is_transit":true,"i_long":106.84912,"line":2,"station_name":"Manggarai","transit":true},{"transit":false,"distance":3186,"time":4,"station_name":"Sudirman","i_long":106.822649,"line":1,"i_lat":-6.202263,"is_transit":false,"station_id":"SUD"},{"transit":false,"station_id":"SUDB","i_long":106.819881,"line":1,"time":1,"station_name":"Sudirman Baru","distance":280,"is_transit":false,"i_lat":-6.201433},{"distance":471,"i_lat":-6.20132,"transit":false,"station_name":"Karet","station_id":"KAT","i_long":106.816351,"line":1,"is_transit":false,"time":1},{"is_transit":false,"station_id":"THB","station_name":"Tanah Abang","distance":2029,"line":1,"transit":false,"time":5,"i_lat":-6.185545,"i_long":106.811091},{"i_long":106.800832,"distance":3632,"station_id":"DU","i_lat":-6.155215,"line":1,"is_transit":true,"transit":true,"time":8,"station_name":"Duri"},{"distance":1700,"is_transit":false,"line":5,"station_id":"GGL","station_name":"Grogol","transit":false,"time":3,"i_lat":-6.162021,"i_long":106.788277},{"i_lat":-6.161433,"line":5,"is_transit":false,"transit":false,"station_name":"Pesing","time":2,"distance":2036,"i_long":106.771379,"station_id":"PSG"},{"transit":false,"station_name":"Taman Kota","distance":1614,"i_lat":-6.1587309999999995,"station_id":"TKO","is_transit":false,"time":2,"line":5,"i_long":106.756522},{"station_name":"Bojongindah","distance":2334,"i_lat":-6.159876,"transit":false,"is_transit":false,"time":2,"i_long":106.737035,"station_id":"BOI","line":5},{"transit":false,"i_long":106.723064,"distance":1152,"i_lat":-6.162758,"station_name":"Rawa Buaya","station_id":"RW","time":4,"is_transit":false,"line":5},{"distance":2504,"i_long":106.701612,"is_transit":false,"line":5,"station_name":"Kalideres","time":3,"i_lat":-6.166068,"station_id":"KDS","transit":false},{"time":3,"i_long":106.679458,"distance":2548,"transit":false,"is_transit":false,"station_id":"PI","station_name":"Poris","line":5,"i_lat":-6.169933}],[{"i_lat":-6.141205,"line":2,"station_name":"Jayakarta","time":0,"transit":false,"is_transit":false,"i_long":106.820901,"station_id":"JAY","distance":0},{"time":4,"i_lat":-6.137569,"station_id":"JAKK","distance":1264,"i_long":106.812439,"line":2,"station_name":"Jakarta Kota","transit":true,"is_transit":true},{"station_id":"KPB","is_transit":true,"distance":1364,"transit":true,"line":4,"time":3,"i_lat":-6.132549,"station_name":"Kampung Bandan","i_long":106.826365},{"i_lat":-6.14505,"station_name":"Rajawali","is_transit":false,"i_long":106.836569,"time":3,"line":11,"distance":1444,"transit":false,"station_id":"RJW"},{"distance":1901,"station_id":"KMO","line":11,"is_transit":false,"i_long":106.839204,"station_name":"Kemayoran","time":5,"i_lat":-6.161728,"transit":false},{"is_transit":false,"time":4,"i_lat":-6.174784,"i_long":106.84368,"station_name":"Pasar Senen","transit":false,"line":11,"distance":1436,"station_id":"PSE"},{"station_id":"GST","distance":1567,"line":11,"is_transit":false,"i_lat":-6.185975,"station_name":"Gang Sentiong","transit":false,"i_long":106.850107,"time":8},{"time":1,"is_transit":false,"distance":973,"station_id":"KMT","transit":false,"i_lat":-6.193792,"i_long":106.855437,"station_name":"Kramat","line":11},{"i_long":106.861737,"line":11,"station_name":"Pondok Jati","time":2,"distance":1829,"transit":false,"station_id":"POK","i_lat":-6.209188,"is_transit":false},{"i_lat":-6.215091,"i_long":106.86807400000001,"transit":true,"time":9,"station_name":"Jatinegara","distance":1236,"line":1,"is_transit":true,"station_id":"JNG"},{"station_name":"Matraman","transit":false,"line":1,"distance":1377,"time":2,"is_transit":false,"i_lat":-6.212485,"station_id":"MTR","i_long":106.858896},{"line":2,"i_long":106.84912,"distance":1275,"time":2,"is_transit":false,"station_id":"MRI","transit":false,"i_lat":-6.209883,"station_name":"Manggarai"},{"is_transit":false,"transit":false,"station_name":"Sudirman","station_id":"SUD","distance":3186,"time":4,"i_lat":-6.202263,"i_long":106.822649,"line":1},{"distance":280,"i_long":106.819881,"i_lat":-6.201433,"station_name":"Sudirman Baru","time":1,"transit":false,"is_transit":false,"station_id":"SUDB","line":1},{"i_long":106.816351,"time":1,"station_name":"Karet","station_id":"KAT","line":1,"distance":471,"transit":false,"is_transit":false,"i_lat":-6.20132},{"distance":2029,"is_transit":false,"station_name":"Tanah Abang","transit":false,"station_id":"THB","time":5,"i_lat":-6.185545,"i_long":106.811091,"line":1},{"is_transit":true,"distance":3632,"i_lat":-6.155215,"time":8,"i_long":106.800832,"station_name":"Duri","transit":true,"station_id":"DU","line":1},{"is_transit":false,"station_name":"Grogol","i_long":106.788277,"station_id":"GGL","line":5,"transit":false,"i_lat":-6.162021,"distance":1700,"time":3},{"station_id":"PSG","i_lat":-6.161433,"line":5,"distance":2036,"time":2,"is_transit":false,"i_long":106.771379,"station_name":"Pesing","transit":false},{"line":5,"is_transit":false,"distance":1614,"i_lat":-6.1587309999999995,"i_long":106.756522,"transit":false,"time":2,"station_name":"Taman Kota","station_id":"TKO"},{"distance":2334,"line":5,"station_id":"BOI","transit":false,"is_transit":false,"i_lat":-6.159876,"station_name":"Bojongindah","i_long":106.737035,"time":2},{"station_name":"Rawa Buaya","transit":false,"i_lat":-6.162758,"i_long":106.723064,"line":5,"time":4,"is_transit":false,"station_id":"RW","distance":1152},{"i_long":106.701612,"transit":false,"i_lat":-6.166068,"line":5,"is_transit":false,"station_id":"KDS","time":3,"station_name":"Kalideres","distance":2504},{"station_id":"PI","line":5,"transit":false,"i_lat":-6.169933,"is_transit":false,"i_long":106.679458,"station_name":"Poris","time":3,"distance":2548}],[{"is_transit":false,"transit":false,"station_id":"JAY","distance":0,"i_long":106.820901,"line":2,"i_lat":-6.141205,"time":0,"station_name":"Jayakarta"},{"station_name":"Manggabesar","transit":false,"is_transit":false,"distance":1080,"time":2,"i_long":106.82482,"station_id":"MGB","i_lat":-6.149769,"line":2},{"is_transit":false,"station_id":"SW","line":2,"station_name":"Sawah Besar","i_long":106.827103,"distance":906,"time":2,"i_lat":-6.160725,"transit":false},{"transit":false,"i_lat":-6.166716,"station_id":"JUA","station_name":"Juanda","is_transit":false,"distance":1149,"i_long":106.828284,"time":2,"line":2},{"line":2,"transit":false,"time":4,"distance":2015,"station_name":"Gondangdia","i_lat":-6.186295,"is_transit":false,"i_long":106.832183,"station_id":"GDD"},{"transit":false,"line":2,"time":3,"station_id":"CKI","distance":1750,"is_transit":false,"i_lat":-6.198556,"station_name":"Cikini","i_long":106.840169},{"time":4,"i_lat":-6.209883,"distance":1590,"station_name":"Manggarai","transit":true,"is_transit":true,"i_long":106.84912,"line":2,"station_id":"MRI"},{"station_name":"Matraman","distance":1275,"time":2,"i_lat":-6.212485,"is_transit":false,"i_long":106.858896,"transit":false,"line":1,"station_id":"MTR"},{"line":1,"is_transit":true,"transit":true,"time":8,"station_name":"Jatinegara","station_id":"JNG","i_long":106.86807400000001,"distance":1377,"i_lat":-6.215091},{"station_name":"Pondok Jati","station_id":"POK","i_lat":-6.209188,"is_transit":false,"i_long":106.861737,"transit":false,"time":2,"line":11,"distance":1236},{"i_long":106.855437,"time":2,"is_transit":false,"line":11,"transit":false,"station_id":"KMT","station_name":"Kramat","i_lat":-6.193792,"distance":1829},{"station_id":"GST","i_lat":-6.185975,"distance":973,"is_transit":false,"time":1,"transit":false,"station_name":"Gang Sentiong","i_long":106.850107,"line":11},{"is_transit":false,"time":8,"i_long":106.84368,"station_id":"PSE","transit":false,"distance":1567,"i_lat":-6.174784,"line":11,"station_name":"Pasar Senen"},{"distance":1436,"station_id":"KMO","station_name":"Kemayoran","line":11,"i_long":106.839204,"time":4,"i_lat":-6.161728,"transit":false,"is_transit":false},{"station_name":"Rajawali","transit":false,"station_id":"RJW","time":5,"is_transit":false,"i_long":106.836569,"distance":1901,"i_lat":-6.14505,"line":11},{"line":4,"station_id":"KPB","transit":true,"is_transit":true,"distance":1444,"time":3,"i_lat":-6.132549,"i_long":106.826365,"station_name":"Kampung Bandan"},{"i_lat":-6.144674,"line":1,"station_name":"Angke","time":9,"distance":4102,"is_transit":false,"transit":false,"station_id":"AK","i_long":106.79867},{"distance":1230,"time":4,"station_name":"Duri","i_lat":-6.155215,"i_long":106.800832,"station_id":"DU","line":1,"transit":true,"is_transit":true},{"i_long":106.788277,"time":3,"distance":1700,"i_lat":-6.162021,"line":5,"station_name":"Grogol","is_transit":false,"station_id":"GGL","transit":false},{"i_lat":-6.161433,"is_transit":false,"transit":false,"station_id":"PSG","i_long":106.771379,"time":2,"station_name":"Pesing","distance":2036,"line":5},{"station_id":"TKO","station_name":"Taman Kota","transit":false,"is_transit":false,"distance":1614,"i_lat":-6.1587309999999995,"line":5,"time":2,"i_long":106.756522},{"time":2,"is_transit":false,"distance":2334,"station_name":"Bojongindah","transit":false,"line":5,"i_long":106.737035,"i_lat":-6.159876,"station_id":"BOI"},{"i_lat":-6.162758,"distance":1152,"is_transit":false,"line":5,"i_long":106.723064,"transit":false,"station_name":"Rawa Buaya","time":4,"station_id":"RW"},{"transit":false,"time":3,"i_lat":-6.166068,"distance":2504,"i_long":106.701612,"station_name":"Kalideres","is_transit":false,"line":5,"station_id":"KDS"},{"line":5,"distance":2548,"i_long":106.679458,"station_id":"PI","transit":false,"time":3,"is_transit":false,"i_lat":-6.169933,"station_name":"Poris"}]]}