{"data":[[{"transit":false,"time":0,"is_transit":false,"distance":0,"station_id":"JAY","station_name":"Jayakarta","i_lat":-6.141205,"i_long":106.820901,"line":2},{"is_transit":true,"station_id":"JAKK","i_long":106.812439,"station_name":"Jakarta Kota","time":4,"i_lat":-6.137569,"distance":1264,"transit":true,"line":2},{"distance":1364,"time":3,"i_lat":-6.132549,"i_long":106.826365,"is_transit":true,"station_id":"KPB","line":4,"station_name":"Kampung Bandan","transit":true},{"i_lat":-6.144674,"station_id":"AK","line":1,"distance":4102,"station_name":"Angke","transit":false,"i_long":106.79867,"time":9,"is_transit":false},{"transit":false,"station_name":"Duri","time":4,"is_transit":false,"distance":1230,"i_lat":-6.155215,"station_id":"DU","line":1,"i_long":106.800832},{"is_transit":true,"time":8,"line":1,"distance":3632,"transit":true,"station_id":"THB","station_name":"Tanah Abang","i_lat":-6.185545,"i_long":106.811091},{"transit":false,"i_long":106.79689,"is_transit":false,"line":6,"time":6,"distance":3191,"i_lat":-6.207404,"station_id":"PLM","station_name":"Palmerah"},{"is_transit":false,"station_id":"KBY","line":6,"station_name":"Kebayoran","time":7,"transit":false,"distance":3737,"i_long":106.780334,"i_lat":-6.237242},{"distance":6218,"time":8,"station_id":"PDJ","i_long":106.74273,"station_name":"Pondokranji","line":6,"transit":false,"is_transit":false,"i_lat":-6.276362},{"is_transit":false,"i_lat":-6.288927,"i_long":106.728916,"line":6,"time":3,"distance":2179,"transit":false,"station_name":"Jurangmangu","station_id":"JMU"},{"transit":false,"line":6,"station_id":"SDM","i_lat":-6.296963,"i_long":106.712277,"station_name":"Sudimara","time":4,"distance":1994,"is_transit":false},{"transit":false,"line":6,"station_name":"Rawa Buntu","time":6,"i_long":106.675475,"station_id":"RU","i_lat":-6.314823,"is_transit":false,"distance":4566},{"i_lat":-6.319871,"time":4,"is_transit":false,"i_long":106.66566,"line":6,"distance":2413,"transit":false,"station_id":"SRP","station_name":"Serpong"},{"i_long":106.640411,"station_id":"CSK","transit":false,"i_lat":-6.32484,"line":3,"distance":1784,"station_name":"Cisauk","time":4,"is_transit":false},{"station_name":"Cicayur","station_id":"CC","is_transit":false,"line":3,"i_long":106.617853,"i_lat":-6.329547,"time":4,"distance":2519,"transit":false},{"time":8,"i_long":106.568863,"transit":false,"i_lat":-6.3441410000000005,"is_transit":false,"distance":5968,"station_id":"PRP","station_name":"Parung Panjang","line":6},{"is_transit":false,"distance":7025,"station_name":"Cilejit","time":9,"station_id":"CJT","transit":false,"i_long":106.508482,"line":3,"i_lat":-6.354349},{"distance":2675,"i_lat":-6.338021,"line":0,"transit":false,"station_id":"DAR","time":6,"i_long":106.491338,"is_transit":false,"station_name":"Daru"}],[{"distance":0,"transit":false,"i_lat":-6.141205,"line":2,"station_id":"JAY","time":0,"station_name":"Jayakarta","is_transit":false,"i_long":106.820901},{"time":2,"line":2,"station_id":"MGB","i_lat":-6.149769,"station_name":"Manggabesar","is_transit":false,"distance":1080,"transit":false,"i_long":106.82482},{"station_id":"SW","i_lat":-6.160725,"line":2,"time":2,"distance":906,"transit":false,"is_transit":false,"station_name":"Sawah Besar","i_long":106.827103},{"line":2,"i_lat":-6.166716,"time":2,"is_transit":false,"station_name":"Juanda","station_id":"JUA","distance":1149,"i_long":106.828284,"transit":false},{"i_lat":-6.186295,"line":2,"i_long":106.832183,"station_id":"GDD","time":4,"distance":2015,"station_name":"Gondangdia","is_transit":false,"transit":false},{"station_name":"Cikini","transit":false,"i_lat":-6.198556,"time":3,"distance":1750,"is_transit":false,"i_long":106.840169,"station_id":"CKI","line":2},{"time":4,"i_lat":-6.209883,"i_long":106.84912,"line":2,"distance":1590,"station_id":"MRI","transit":true,"station_name":"Manggarai","is_transit":true},{"station_name":"Sudirman","i_lat":-6.202263,"line":1,"time":4,"station_id":"SUD","i_long":106.822649,"is_transit":false,"distance":3186,"transit":false},{"time":1,"station_name":"Sudirman Baru","distance":280,"i_long":106.819881,"transit":false,"line":1,"i_lat":-6.201433,"station_id":"SUDB","is_transit":false},{"line":1,"is_transit":false,"i_lat":-6.20132,"time":1,"station_id":"KAT","distance":471,"transit":false,"station_name":"Karet","i_long":106.816351},{"transit":true,"is_transit":true,"station_id":"THB","time":5,"station_name":"Tanah Abang","i_lat":-6.185545,"line":1,"distance":2029,"i_long":106.811091},{"is_transit":false,"station_name":"Palmerah","station_id":"PLM","transit":false,"line":6,"time":6,"distance":3191,"i_long":106.79689,"i_lat":-6.207404},{"i_lat":-6.237242,"distance":3737,"line":6,"is_transit":false,"transit":false,"station_id":"KBY","i_long":106.780334,"time":7,"station_name":"Kebayoran"},{"station_id":"PDJ","distance":6218,"i_long":106.74273,"station_name":"Pondokranji","line":6,"time":8,"transit":false,"i_lat":-6.276362,"is_transit":false},{"transit":false,"is_transit":false,"station_name":"Jurangmangu","station_id":"JMU","time":3,"distance":2179,"line":6,"i_long":106.728916,"i_lat":-6.288927},{"i_lat":-6.296963,"station_id":"SDM","station_name":"Sudimara","time":4,"is_transit":false,"line":6,"distance":1994,"transit":false,"i_long":106.712277},{"distance":4566,"station_name":"Rawa Buntu","i_long":106.675475,"time":6,"transit":false,"is_transit":false,"i_lat":-6.314823,"line":6,"station_id":"RU"},{"i_lat":-6.319871,"station_name":"Serpong","transit":false,"is_transit":false,"distance":2413,"i_long":106.66566,"line":6,"station_id":"SRP","time":4},{"distance":1784,"station_id":"CSK","is_transit":false,"transit":false,"i_lat":-6.32484,"i_long":106.640411,"time":4,"station_name":"Cisauk","line":3},{"i_lat":-6.329547,"i_long":106.617853,"line":3,"time":4,"transit":false,"distance":2519,"station_name":"Cicayur","station_id":"CC","is_transit":false},{"station_name":"Parung Panjang","i_lat":-6.3441410000000005,"distance":5968,"i_long":106.568863,"line":6,"time":8,"station_id":"PRP","is_transit":false,"transit":false},{"distance":7025,"i_lat":-6.354349,"line":3,"time":9,"i_long":106.508482,"transit":false,"station_id":"CJT","station_name":"Cilejit","is_transit":false},{"i_long":106.491338,"distance":2675,"transit":false,"i_lat":-6.338021,"line":0,"station_id":"DAR","is_transit":false,"station_name":"Daru","time":6}],[{"i_lat":-6.141205,"station_name":"Jayakarta","time":0,"station_id":"JAY","i_long":106.820901,"transit":false,"is_transit":false,"line":2,"distance":0},{"i_long":106.812439,"station_id":"JAKK","is_transit":true,"time":4,"distance":1264,"transit":true,"station_name":"Jakarta Kota","line":2,"i_lat":-6.137569},{"i_lat":-6.132549,"line":4,"station_name":"Kampung Bandan","i_long":106.826365,"station_id":"KPB","time":3,"transit":true,"distance":1364,"is_transit":true},{"time":3,"transit":false,"i_lat":-6.14505,"station_name":"Rajawali","station_id":"RJW","i_long":106.836569,"distance":1444,"line":11,"is_transit":false},{"transit":false,"station_name":"Kemayoran","i_long":106.839204,"line":11,"distance":1901,"i_lat":-6.161728,"station_id":"KMO","is_transit":false,"time":5},{"distance":1436,"i_long":106.84368,"time":4,"is_transit":false,"transit":false,"station_name":"Pasar Senen","i_lat":-6.174784,"station_id":"PSE","line":11},{"line":11,"distance":1567,"i_lat":-6.185975,"time":8,"station_name":"Gang Sentiong","i_long":106.850107,"station_id":"GST","transit":false,"is_transit":false},{"distance":973,"line":11,"station_name":"Kramat","time":1,"is_transit":false,"i_lat":-6.193792,"i_long":106.855437,"transit":false,"station_id":"KMT"},{"station_name":"Pondok Jati","time":2,"distance":1829,"is_transit":false,"i_lat":-6.209188,"station_id":"POK","i_long":106.861737,"line":11,"transit":false},{"station_name":"Jatinegara","line":1,"time":9,"distance":1236,"is_transit":true,"i_long":106.86807400000001,"station_id":"JNG","transit":true,"i_lat":-6.215091},{"is_transit":false,"i_lat":-6.212485,"time":2,"station_name":"Matraman","distance":1377,"station_id":"MTR","line":1,"transit":false,"i_long":106.858896},{"station_name":"Manggarai","i_lat":-6.209883,"distance":1275,"i_long":106.84912,"line":2,"transit":false,"station_id":"MRI","time":2,"is_transit":false},{"time":4,"distance":3186,"transit":false,"i_lat":-6.202263,"i_long":106.822649,"station_id":"SUD","line":1,"station_name":"Sudirman","is_transit":false},{"distance":280,"i_long":106.819881,"is_transit":false,"i_lat":-6.201433,"time":1,"line":1,"transit":false,"station_id":"SUDB","station_name":"Sudirman Baru"},{"time":1,"distance":471,"is_transit":false,"station_id":"KAT","line":1,"i_long":106.816351,"transit":false,"i_lat":-6.20132,"station_name":"Karet"},{"line":1,"transit":true,"station_name":"Tanah Abang","distance":2029,"i_long":106.811091,"is_transit":true,"time":5,"station_id":"THB","i_lat":-6.185545},{"i_lat":-6.207404,"time":6,"station_id":"PLM","i_long":106.79689,"distance":3191,"is_transit":false,"transit":false,"station_name":"Palmerah","line":6},{"station_name":"Kebayoran","distance":3737,"station_id":"KBY","i_lat":-6.237242,"transit":false,"line":6,"is_transit":false,"i_long":106.780334,"time":7},{"is_transit":false,"i_lat":-6.276362,"station_id":"PDJ","distance":6218,"station_name":"Pondokranji","time":8,"i_long":106.74273,"transit":false,"line":6},{"line":6,"station_name":"Jurangmangu","time":3,"transit":false,"i_long":106.728916,"is_transit":false,"station_id":"JMU","distance":2179,"i_lat":-6.288927},{"i_long":106.712277,"time":4,"i_lat":-6.296963,"line":6,"distance":1994,"station_name":"Sudimara","is_transit":false,"transit":false,"station_id":"SDM"},{"station_id":"RU","distance":4566,"line":6,"time":6,"transit":false,"station_name":"Rawa Buntu","is_transit":false,"i_lat":-6.314823,"i_long":106.675475},{"transit":false,"distance":2413,"station_id":"SRP","station_name":"Serpong","i_long":106.66566,"is_transit":false,"line":6,"time":4,"i_lat":-6.319871},{"station_name":"Cisauk","i_long":106.640411,"transit":false,"is_transit":false,"time":4,"line":3,"i_lat":-6.32484,"distance":1784,"station_id":"CSK"},{"is_transit":false,"i_lat":-6.329547,"line":3,"i_long":106.617853,"distance":2519,"time":4,"transit":false,"station_id":"CC","station_name":"Cicayur"},{"time":8,"i_long":106.568863,"transit":false,"station_id":"PRP","distance":5968,"is_transit":false,"station_name":"Parung Panjang","line":6,"i_lat":-6.3441410000000005},{"transit":false,"is_transit":false,"i_long":106.508482,"time":9,"station_name":"Cilejit","station_id":"CJT","line":3,"distance":7025,"i_lat":-6.354349},{"i_lat":-6.338021,"transit":false,"distance":2675,"is_transit":false,"station_name":"Daru","i_long":106.491338,"time":6,"line":0,"station_id":"DAR"}],[{"transit":false,"is_transit":false,"station_id":"JAY","station_name":"Jayakarta","distance":0,"time":0,"i_lat":-6.141205,"i_long":106.820901,"line":2},{"distance":1080,"i_long":106.82482,"time":2,"line":2,"station_id":"MGB","station_name":"Manggabesar","is_transit":false,"i_lat":-6.149769,"transit":false},{"i_lat":-6.160725,"distance":906,"line":2,"time":2,"i_long":106.827103,"transit":false,"station_id":"SW","is_transit":false,"station_name":"Sawah Besar"},{"i_lat":-6.166716,"line":2,"i_long":106.828284,"station_name":"Juanda","distance":1149,"is_transit":false,"time":2,"station_id":"JUA","transit":false},{"station_id":"GDD","distance":2015,"station_name":"Gondangdia","i_lat":-6.186295,"is_transit":false,"line":2,"transit":false,"time":4,"i_long":106.832183},{"station_id":"CKI","time":3,"station_name":"Cikini","distance":1750,"is_transit":false,"i_lat":-6.198556,"transit":false,"i_long":106.840169,"line":2},{"distance":1590,"station_name":"Manggarai","i_lat":-6.209883,"station_id":"MRI","is_transit":true,"transit":true,"line":2,"i_long":106.84912,"time":4},{"distance":1275,"station_id":"MTR","station_name":"Matraman","i_lat":-6.212485,"line":1,"i_long":106.858896,"transit":false,"time":2,"is_transit":false},{"station_id":"JNG","transit":true,"i_lat":-6.215091,"i_long":106.86807400000001,"is_transit":true,"line":1,"station_name":"Jatinegara","distance":1377,"time":8},{"distance":1236,"is_transit":false,"line":11,"i_long":106.861737,"transit":false,"station_id":"POK","time":2,"station_name":"Pondok Jati","i_lat":-6.209188},{"station_name":"Kramat","is_transit":false,"i_long":106.855437,"distance":1829,"time":2,"station_id":"KMT","i_lat":-6.193792,"line":11,"transit":false},{"transit":false,"distance":973,"i_lat":-6.185975,"station_name":"Gang Sentiong","station_id":"GST","i_long":106.850107,"line":11,"time":1,"is_transit":false},{"line":11,"i_long":106.84368,"station_id":"PSE","distance":1567,"is_transit":false,"time":8,"i_lat":-6.174784,"transit":false,"station_name":"Pasar Senen"},{"distance":1436,"is_transit":false,"i_lat":-6.161728,"station_name":"Kemayoran","station_id":"KMO","i_long":106.839204,"line":11,"time":4,"transit":false},{"i_lat":-6.14505,"is_transit":false,"i_long":106.836569,"station_id":"RJW","station_name":"Rajawali","time":5,"line":11,"distance":1901,"transit":false},{"distance":1444,"transit":true,"is_transit":true,"i_long":106.826365,"station_id":"KPB","line":4,"i_lat":-6.132549,"time":3,"station_name":"Kampung Bandan"},{"i_long":106.79867,"transit":false,"is_transit":false,"station_id":"AK","distance":4102,"i_lat":-6.144674,"line":1,"time":9,"station_name":"Angke"},{"i_long":106.800832,"line":1,"station_name":"Duri","is_transit":false,"time":4,"i_lat":-6.155215,"station_id":"DU","distance":1230,"transit":false},{"time":8,"transit":true,"station_name":"Tanah Abang","station_id":"THB","line":1,"distance":3632,"i_lat":-6.185545,"i_long":106.811091,"is_transit":true},{"station_name":"Palmerah","time":6,"line":6,"transit":false,"i_long":106.79689,"distance":3191,"i_lat":-6.207404,"station_id":"PLM","is_transit":false},{"transit":false,"line":6,"station_id":"KBY","time":7,"station_name":"Kebayoran","is_transit":false,"i_lat":-6.237242,"i_long":106.780334,"distance":3737},{"distance":6218,"station_name":"Pondokranji","station_id":"PDJ","transit":false,"is_transit":false,"i_lat":-6.276362,"i_long":106.74273,"time":8,"line":6},{"time":3,"transit":false,"station_id":"JMU","is_transit":false,"i_long":106.728916,"distance":2179,"i_lat":-6.288927,"line":6,"station_name":"Jurangmangu"},{"i_long":106.712277,"station_name":"Sudimara","station_id":"SDM","distance":1994,"transit":false,"i_lat":-6.296963,"time":4,"is_transit":false,"line":6},{"transit":false,"line":6,"is_transit":false,"station_name":"Rawa Buntu","time":6,"i_lat":-6.314823,"distance":4566,"i_long":106.675475,"station_id":"RU"},{"line":6,"time":4,"station_id":"SRP","is_transit":false,"station_name":"Serpong","distance":2413,"i_long":106.66566,"transit":false,"i_lat":-6.319871},{"i_lat":-6.32484,"station_name":"Cisauk","i_long":106.640411,"time":4,"is_transit":false,"line":3,"station_id":"CSK","distance":1784,"transit":false},{"transit":false,"station_name":"Cicayur","time":4,"i_long":106.617853,"is_transit":false,"station_id":"CC","distance":2519,"line":3,"i_lat":-6.329547},{"distance":5968,"station_id":"PRP","i_long":106.568863,"line":6,"time":8,"station_name":"Parung Panjang","is_transit":false,"transit":false,"i_lat":-6.3441410000000005},{"transit":false,"i_lat":-6.354349,"is_transit":false,"i_long":106.508482,"distance":7025,"line":3,"station_id":"CJT","time":9,"station_name":"Cilejit"},{"i_long":106.491338,"i_lat":-6.338021,"distance":2675,"time":6,"transit":false,"line":0,"station_id":"DAR","is_transit":false,"station_name":"Daru"}]]}