{"data":[[{"time":0,"i_long":106.820901,"station_id":"JAY","transit":false,"station_name":"Jayakarta","distance":0,"is_transit":false,"i_lat":-6.141205,"line":2},{"station_id":"MGB","i_long":106.82482,"time":2,"i_lat":-6.149769,"distance":1080,"station_name":"Manggabesar","is_transit":false,"line":2,"transit":false},{"line":2,"transit":false,"time":2,"distance":906,"station_name":"Sawah Besar","i_lat":-6.160725,"i_long":106.827103,"is_transit":false,"station_id":"SW"},{"is_transit":false,"i_lat":-6.166716,"station_id":"JUA","time":2,"distance":1149,"transit":false,"line":2,"station_name":"Juanda","i_long":106.828284},{"station_id":"GDD","station_name":"Gondangdia","distance":2015,"is_transit":false,"line":2,"i_long":106.832183,"time":4,"i_lat":-6.186295,"transit":false},{"time":3,"transit":false,"is_transit":false,"i_lat":-6.198556,"line":2,"station_name":"Cikini","distance":1750,"i_long":106.840169,"station_id":"CKI"},{"distance":1590,"is_transit":false,"i_lat":-6.209883,"transit":false,"station_name":"Manggarai","time":4,"station_id":"MRI","i_long":106.84912,"line":2},{"transit":false,"line":2,"distance":2610,"is_transit":false,"station_name":"Tebet","station_id":"TEB","i_long":106.857948,"time":4,"i_lat":-6.226659},{"station_id":"CW","transit":false,"station_name":"Cawang","line":2,"i_long":106.856607,"is_transit":false,"distance":1230,"i_lat":-6.242512,"time":2},{"transit":false,"station_name":"Duren Kalibata","distance":1546,"i_lat":-6.255332,"station_id":"DRN","i_long":106.85449,"time":3,"line":2,"is_transit":false},{"line":2,"distance":824,"is_transit":false,"station_id":"PSMB","time":2,"i_long":106.851577,"transit":false,"station_name":"Pasar Minggu Baru","i_lat":-6.263214},{"time":2,"i_lat":-6.2842400000000005,"distance":2380,"transit":false,"station_name":"Pasar Minggu","station_id":"PSM","is_transit":false,"line":2,"i_long":106.843999},{"line":2,"i_lat":-6.3080680000000005,"time":4,"distance":2820,"station_name":"Tanjung Barat","transit":false,"station_id":"TNT","is_transit":false,"i_long":106.838896}],[{"line":2,"i_long":106.820901,"transit":false,"time":0,"is_transit":false,"station_name":"Jayakarta","i_lat":-6.141205,"distance":0,"station_id":"JAY"},{"distance":1264,"is_transit":true,"line":2,"station_name":"Jakarta Kota","time":4,"i_lat":-6.137569,"i_long":106.812439,"transit":true,"station_id":"JAKK"},{"line":4,"i_long":106.826365,"time":3,"distance":1364,"i_lat":-6.132549,"transit":true,"station_name":"Kampung Bandan","is_transit":true,"station_id":"KPB"},{"is_transit":false,"time":9,"transit":false,"line":1,"distance":4102,"i_lat":-6.144674,"station_name":"Angke","station_id":"AK","i_long":106.79867},{"i_lat":-6.155215,"station_name":"Duri","line":1,"station_id":"DU","is_transit":false,"distance":1230,"time":4,"transit":false,"i_long":106.800832},{"station_name":"Tanah Abang","line":1,"time":8,"transit":false,"station_id":"THB","is_transit":false,"i_lat":-6.185545,"distance":3632,"i_long":106.811091},{"i_long":106.816351,"line":1,"distance":2029,"i_lat":-6.20132,"station_id":"KAT","transit":false,"station_name":"Karet","is_transit":false,"time":5},{"line":1,"time":1,"transit":false,"i_lat":-6.201433,"station_id":"SUDB","is_transit":false,"distance":471,"station_name":"Sudirman Baru","i_long":106.819881},{"distance":280,"station_name":"Sudirman","station_id":"SUD","time":1,"is_transit":false,"i_lat":-6.202263,"i_long":106.822649,"line":1,"transit":false},{"line":2,"is_transit":true,"station_id":"MRI","station_name":"Manggarai","time":4,"distance":3186,"i_long":106.84912,"transit":true,"i_lat":-6.209883},{"i_lat":-6.226659,"time":4,"station_id":"TEB","transit":false,"station_name":"Tebet","is_transit":false,"distance":2610,"i_long":106.857948,"line":2},{"transit":false,"station_name":"Cawang","is_transit":false,"time":2,"line":2,"i_long":106.856607,"distance":1230,"i_lat":-6.242512,"station_id":"CW"},{"transit":false,"is_transit":false,"time":3,"i_lat":-6.255332,"i_long":106.85449,"line":2,"distance":1546,"station_id":"DRN","station_name":"Duren Kalibata"},{"transit":false,"i_lat":-6.263214,"distance":824,"station_name":"Pasar Minggu Baru","time":2,"i_long":106.851577,"line":2,"station_id":"PSMB","is_transit":false},{"line":2,"station_id":"PSM","distance":2380,"station_name":"Pasar Minggu","is_transit":false,"i_long":106.843999,"transit":false,"time":2,"i_lat":-6.2842400000000005},{"station_id":"TNT","i_lat":-6.3080680000000005,"i_long":106.838896,"time":4,"is_transit":false,"station_name":"Tanjung Barat","transit":false,"line":2,"distance":2820}],[{"is_transit":false,"line":2,"station_id":"JAY","transit":false,"time":0,"i_long":106.820901,"distance":0,"i_lat":-6.141205,"station_name":"Jayakarta"},{"station_name":"Jakarta Kota","time":4,"station_id":"JAKK","i_lat":-6.137569,"i_long":106.812439,"line":2,"distance":1264,"transit":true,"is_transit":true},{"i_long":106.826365,"station_name":"Kampung Bandan","i_lat":-6.132549,"line":4,"distance":1364,"time":3,"transit":true,"station_id":"KPB","is_transit":true},{"time":3,"is_transit":false,"line":11,"station_name":"Rajawali","station_id":"RJW","distance":1444,"i_lat":-6.14505,"transit":false,"i_long":106.836569},{"i_long":106.839204,"station_name":"Kemayoran","transit":false,"station_id":"KMO","i_lat":-6.161728,"is_transit":false,"time":5,"distance":1901,"line":11},{"i_lat":-6.174784,"i_long":106.84368,"station_id":"PSE","station_name":"Pasar Senen","time":4,"is_transit":false,"distance":1436,"line":11,"transit":false},{"station_id":"GST","line":11,"station_name":"Gang Sentiong","i_long":106.850107,"transit":false,"is_transit":false,"distance":1567,"i_lat":-6.185975,"time":8},{"is_transit":false,"transit":false,"i_lat":-6.193792,"line":11,"distance":973,"station_name":"Kramat","station_id":"KMT","time":1,"i_long":106.855437},{"distance":1829,"i_long":106.861737,"transit":false,"i_lat":-6.209188,"line":11,"time":2,"station_name":"Pondok Jati","station_id":"POK","is_transit":false},{"distance":1236,"transit":true,"i_long":106.86807400000001,"station_id":"JNG","station_name":"Jatinegara","time":9,"is_transit":true,"i_lat":-6.215091,"line":1},{"line":1,"distance":1377,"transit":false,"time":2,"station_name":"Matraman","station_id":"MTR","i_lat":-6.212485,"i_long":106.858896,"is_transit":false},{"line":2,"time":2,"i_long":106.84912,"transit":true,"distance":1275,"station_name":"Manggarai","is_transit":true,"station_id":"MRI","i_lat":-6.209883},{"distance":2610,"station_id":"TEB","transit":false,"is_transit":false,"i_lat":-6.226659,"i_long":106.857948,"station_name":"Tebet","line":2,"time":4},{"transit":false,"is_transit":false,"distance":1230,"i_lat":-6.242512,"station_id":"CW","i_long":106.856607,"time":2,"line":2,"station_name":"Cawang"},{"transit":false,"i_long":106.85449,"station_id":"DRN","line":2,"station_name":"Duren Kalibata","distance":1546,"is_transit":false,"time":3,"i_lat":-6.255332},{"transit":false,"time":2,"is_transit":false,"distance":824,"i_long":106.851577,"station_name":"Pasar Minggu Baru","station_id":"PSMB","i_lat":-6.263214,"line":2},{"i_long":106.843999,"time":2,"distance":2380,"transit":false,"i_lat":-6.2842400000000005,"line":2,"station_name":"Pasar Minggu","station_id":"PSM","is_transit":false},{"line":2,"time":4,"distance":2820,"transit":false,"station_name":"Tanjung Barat","station_id":"TNT","i_lat":-6.3080680000000005,"i_long":106.838896,"is_transit":false}]]}