{"data":[[{"line":2,"distance":0,"i_lat":-6.141205,"is_transit":false,"station_name":"Jayakarta","time":0,"i_long":106.820901,"transit":false,"station_id":"JAY"},{"is_transit":false,"transit":false,"line":2,"i_lat":-6.149769,"station_id":"MGB","i_long":106.82482,"time":2,"station_name":"Manggabesar","distance":1080},{"time":2,"station_name":"Sawah Besar","station_id":"SW","is_transit":false,"i_long":106.827103,"line":2,"transit":false,"distance":906,"i_lat":-6.160725},{"line":2,"i_lat":-6.166716,"station_id":"JUA","distance":1149,"time":2,"transit":false,"is_transit":false,"station_name":"Juanda","i_long":106.828284},{"is_transit":false,"i_lat":-6.186295,"distance":2015,"station_name":"Gondangdia","i_long":106.832183,"station_id":"GDD","transit":false,"line":2,"time":4},{"i_long":106.840169,"i_lat":-6.198556,"line":2,"transit":false,"time":3,"station_id":"CKI","is_transit":false,"station_name":"Cikini","distance":1750},{"transit":false,"i_lat":-6.209883,"distance":1590,"line":2,"time":4,"station_id":"MRI","is_transit":false,"station_name":"Manggarai","i_long":106.84912},{"i_lat":-6.226659,"time":4,"distance":2610,"station_id":"TEB","line":2,"i_long":106.857948,"station_name":"Tebet","is_transit":false,"transit":false},{"distance":1230,"transit":false,"time":2,"i_long":106.856607,"i_lat":-6.242512,"line":2,"station_id":"CW","station_name":"Cawang","is_transit":false},{"station_name":"Duren Kalibata","line":2,"distance":1546,"is_transit":false,"transit":false,"i_lat":-6.255332,"time":3,"i_long":106.85449,"station_id":"DRN"},{"is_transit":false,"station_name":"Pasar Minggu Baru","line":2,"transit":false,"distance":824,"station_id":"PSMB","i_lat":-6.263214,"i_long":106.851577,"time":2},{"line":2,"time":2,"station_id":"PSM","distance":2380,"i_long":106.843999,"station_name":"Pasar Minggu","transit":false,"i_lat":-6.2842400000000005,"is_transit":false},{"station_id":"TNT","distance":2820,"station_name":"Tanjung Barat","is_transit":false,"transit":false,"i_lat":-6.3080680000000005,"time":4,"i_long":106.838896,"line":2},{"time":3,"station_name":"Lenteng Agung","i_lat":-6.330363,"distance":2671,"station_id":"LNA","i_long":106.832616,"is_transit":false,"transit":false,"line":2},{"i_long":106.834175,"line":2,"is_transit":false,"station_id":"UP","time":2,"transit":false,"distance":1029,"i_lat":-6.339291,"station_name":"Univ. Pancasila"},{"distance":2264,"is_transit":false,"transit":false,"time":3,"station_name":"Univ. Indonesia","i_lat":-6.360749,"i_long":106.831474,"line":2,"station_id":"UI"},{"transit":false,"is_transit":false,"i_long":106.831114,"time":2,"i_lat":-6.369073,"distance":1109,"station_name":"Pondok Cina","line":2,"station_id":"POC"},{"time":4,"station_id":"DPB","station_name":"Depokbaru","distance":2727,"is_transit":false,"transit":false,"i_lat":-6.391065,"i_long":106.819451,"line":2},{"distance":1584,"i_long":106.816926,"is_transit":false,"transit":false,"station_id":"DP","station_name":"Depok","time":3,"i_lat":-6.405256,"line":2},{"time":6,"station_name":"Citayam","i_lat":-6.448811,"is_transit":true,"transit":true,"i_long":106.800298,"line":2,"distance":5084,"station_id":"CTA"},{"station_name":"Pondok Rajeg","transit":false,"line":21,"is_transit":false,"distance":0,"time":0,"i_lat":-6.460735,"i_long":106.824374,"station_id":"PDRG"},{"transit":false,"station_id":"CBN","station_name":"Cibinong","is_transit":false,"i_long":106.851978,"line":21,"time":0,"i_lat":-6.46424,"distance":0}],[{"i_lat":-6.141205,"time":0,"station_name":"Jayakarta","transit":false,"i_long":106.820901,"station_id":"JAY","is_transit":false,"line":2,"distance":0},{"station_name":"Jakarta Kota","i_lat":-6.137569,"line":2,"station_id":"JAKK","transit":true,"distance":1264,"time":4,"i_long":106.812439,"is_transit":true},{"i_lat":-6.132549,"i_long":106.826365,"time":3,"is_transit":true,"station_id":"KPB","station_name":"Kampung Bandan","distance":1364,"line":4,"transit":true},{"i_lat":-6.144674,"station_id":"AK","time":9,"distance":4102,"is_transit":false,"station_name":"Angke","line":1,"transit":false,"i_long":106.79867},{"transit":false,"time":4,"line":1,"is_transit":false,"i_lat":-6.155215,"station_id":"DU","i_long":106.800832,"distance":1230,"station_name":"Duri"},{"line":1,"distance":3632,"station_id":"THB","station_name":"Tanah Abang","transit":false,"is_transit":false,"i_long":106.811091,"time":8,"i_lat":-6.185545},{"line":1,"transit":false,"i_lat":-6.20132,"distance":2029,"is_transit":false,"station_id":"KAT","i_long":106.816351,"time":5,"station_name":"Karet"},{"i_long":106.819881,"transit":false,"i_lat":-6.201433,"station_id":"SUDB","station_name":"Sudirman Baru","distance":471,"line":1,"time":1,"is_transit":false},{"station_id":"SUD","distance":280,"transit":false,"i_long":106.822649,"line":1,"station_name":"Sudirman","time":1,"is_transit":false,"i_lat":-6.202263},{"i_lat":-6.209883,"transit":true,"time":4,"is_transit":true,"i_long":106.84912,"line":2,"station_id":"MRI","station_name":"Manggarai","distance":3186},{"line":2,"station_name":"Tebet","is_transit":false,"station_id":"TEB","transit":false,"distance":2610,"time":4,"i_lat":-6.226659,"i_long":106.857948},{"i_lat":-6.242512,"line":2,"station_name":"Cawang","station_id":"CW","time":2,"distance":1230,"is_transit":false,"transit":false,"i_long":106.856607},{"transit":false,"i_long":106.85449,"station_name":"Duren Kalibata","distance":1546,"is_transit":false,"station_id":"DRN","i_lat":-6.255332,"line":2,"time":3},{"i_lat":-6.263214,"i_long":106.851577,"transit":false,"time":2,"is_transit":false,"line":2,"distance":824,"station_name":"Pasar Minggu Baru","station_id":"PSMB"},{"is_transit":false,"station_name":"Pasar Minggu","distance":2380,"time":2,"line":2,"transit":false,"station_id":"PSM","i_lat":-6.2842400000000005,"i_long":106.843999},{"is_transit":false,"station_name":"Tanjung Barat","i_long":106.838896,"i_lat":-6.3080680000000005,"time":4,"station_id":"TNT","distance":2820,"transit":false,"line":2},{"time":3,"distance":2671,"transit":false,"i_lat":-6.330363,"i_long":106.832616,"station_id":"LNA","is_transit":false,"line":2,"station_name":"Lenteng Agung"},{"time":2,"distance":1029,"transit":false,"station_name":"Univ. Pancasila","is_transit":false,"i_lat":-6.339291,"line":2,"i_long":106.834175,"station_id":"UP"},{"line":2,"station_id":"UI","distance":2264,"is_transit":false,"transit":false,"station_name":"Univ. Indonesia","i_lat":-6.360749,"time":3,"i_long":106.831474},{"station_id":"POC","i_lat":-6.369073,"line":2,"distance":1109,"is_transit":false,"time":2,"i_long":106.831114,"station_name":"Pondok Cina","transit":false},{"transit":false,"line":2,"is_transit":false,"station_id":"DPB","i_long":106.819451,"distance":2727,"time":4,"station_name":"Depokbaru","i_lat":-6.391065},{"distance":1584,"station_id":"DP","transit":false,"line":2,"is_transit":false,"station_name":"Depok","i_lat":-6.405256,"time":3,"i_long":106.816926},{"station_name":"Citayam","station_id":"CTA","time":6,"i_lat":-6.448811,"is_transit":true,"line":2,"transit":true,"i_long":106.800298,"distance":5084},{"i_long":106.824374,"station_name":"Pondok Rajeg","i_lat":-6.460735,"station_id":"PDRG","line":21,"is_transit":false,"distance":0,"time":0,"transit":false},{"line":21,"distance":0,"i_long":106.851978,"station_name":"Cibinong","station_id":"CBN","time":0,"is_transit":false,"transit":false,"i_lat":-6.46424}],[{"distance":0,"i_lat":-6.141205,"time":0,"line":2,"station_id":"JAY","transit":false,"station_name":"Jayakarta","i_long":106.820901,"is_transit":false},{"station_id":"JAKK","transit":true,"line":2,"time":4,"distance":1264,"i_lat":-6.137569,"station_name":"Jakarta Kota","is_transit":true,"i_long":106.812439},{"is_transit":true,"transit":true,"time":3,"i_long":106.826365,"distance":1364,"station_name":"Kampung Bandan","line":4,"station_id":"KPB","i_lat":-6.132549},{"station_name":"Rajawali","transit":false,"station_id":"RJW","time":3,"is_transit":false,"i_lat":-6.14505,"line":11,"distance":1444,"i_long":106.836569},{"is_transit":false,"i_lat":-6.161728,"line":11,"i_long":106.839204,"time":5,"transit":false,"distance":1901,"station_id":"KMO","station_name":"Kemayoran"},{"i_long":106.84368,"distance":1436,"station_name":"Pasar Senen","is_transit":false,"i_lat":-6.174784,"line":11,"station_id":"PSE","transit":false,"time":4},{"is_transit":false,"station_name":"Gang Sentiong","i_long":106.850107,"station_id":"GST","distance":1567,"line":11,"time":8,"i_lat":-6.185975,"transit":false},{"transit":false,"is_transit":false,"i_lat":-6.193792,"i_long":106.855437,"time":1,"station_id":"KMT","distance":973,"line":11,"station_name":"Kramat"},{"time":2,"line":11,"transit":false,"i_lat":-6.209188,"station_id":"POK","station_name":"Pondok Jati","distance":1829,"is_transit":false,"i_long":106.861737},{"station_name":"Jatinegara","distance":1236,"is_transit":true,"line":1,"transit":true,"i_lat":-6.215091,"i_long":106.86807400000001,"time":9,"station_id":"JNG"},{"transit":false,"is_transit":false,"i_lat":-6.212485,"i_long":106.858896,"line":1,"station_id":"MTR","time":2,"distance":1377,"station_name":"Matraman"},{"distance":1275,"time":2,"i_long":106.84912,"i_lat":-6.209883,"station_name":"Manggarai","is_transit":true,"transit":true,"station_id":"MRI","line":2},{"station_name":"Tebet","time":4,"distance":2610,"i_long":106.857948,"line":2,"i_lat":-6.226659,"transit":false,"station_id":"TEB","is_transit":false},{"distance":1230,"i_lat":-6.242512,"time":2,"i_long":106.856607,"is_transit":false,"line":2,"transit":false,"station_id":"CW","station_name":"Cawang"},{"line":2,"time":3,"station_id":"DRN","i_lat":-6.255332,"transit":false,"station_name":"Duren Kalibata","i_long":106.85449,"is_transit":false,"distance":1546},{"time":2,"transit":false,"is_transit":false,"i_long":106.851577,"line":2,"station_name":"Pasar Minggu Baru","i_lat":-6.263214,"station_id":"PSMB","distance":824},{"distance":2380,"station_id":"PSM","station_name":"Pasar Minggu","is_transit":false,"time":2,"i_lat":-6.2842400000000005,"line":2,"i_long":106.843999,"transit":false},{"transit":false,"station_id":"TNT","station_name":"Tanjung Barat","distance":2820,"is_transit":false,"i_lat":-6.3080680000000005,"i_long":106.838896,"time":4,"line":2},{"is_transit":false,"time":3,"transit":false,"i_lat":-6.330363,"station_name":"Lenteng Agung","i_long":106.832616,"station_id":"LNA","distance":2671,"line":2},{"i_lat":-6.339291,"station_name":"Univ. Pancasila","i_long":106.834175,"line":2,"time":2,"distance":1029,"is_transit":false,"station_id":"UP","transit":false},{"i_lat":-6.360749,"is_transit":false,"i_long":106.831474,"distance":2264,"transit":false,"time":3,"line":2,"station_id":"UI","station_name":"Univ. Indonesia"},{"line":2,"transit":false,"time":2,"station_id":"POC","i_lat":-6.369073,"i_long":106.831114,"distance":1109,"station_name":"Pondok Cina","is_transit":false},{"i_lat":-6.391065,"station_id":"DPB","is_transit":false,"time":4,"distance":2727,"i_long":106.819451,"line":2,"station_name":"Depokbaru","transit":false},{"line":2,"station_name":"Depok","time":3,"is_transit":false,"transit":false,"i_long":106.816926,"i_lat":-6.405256,"station_id":"DP","distance":1584},{"station_id":"CTA","line":2,"distance":5084,"time":6,"i_lat":-6.448811,"i_long":106.800298,"is_transit":true,"transit":true,"station_name":"Citayam"},{"i_lat":-6.460735,"line":21,"distance":0,"station_name":"Pondok Rajeg","i_long":106.824374,"is_transit":false,"station_id":"PDRG","transit":false,"time":0},{"is_transit":false,"i_long":106.851978,"station_name":"Cibinong","time":0,"distance":0,"transit":false,"i_lat":-6.46424,"line":21,"station_id":"CBN"}]]}