{"data":[[{"station_name":"Jayakarta","is_transit":false,"i_long":106.820901,"time":0,"i_lat":-6.141205,"station_id":"JAY","distance":0,"transit":false,"line":7},{"station_name":"Manggabesar","distance":1080,"time":2,"station_id":"MGB","i_long":106.82482,"line":2,"is_transit":false,"transit":false,"i_lat":-6.149769},{"station_id":"SW","station_name":"Sawah Besar","i_long":106.827103,"distance":906,"transit":false,"is_transit":false,"i_lat":-6.160725,"time":2,"line":2},{"station_name":"Juanda","i_lat":-6.166716,"is_transit":false,"line":2,"station_id":"JUA","transit":false,"time":2,"distance":1149,"i_long":106.828284},{"time":4,"transit":false,"i_long":106.832183,"station_name":"Gondangdia","line":2,"distance":2015,"station_id":"GDD","is_transit":false,"i_lat":-6.186295},{"station_name":"Cikini","is_transit":false,"station_id":"CKI","time":3,"distance":1750,"transit":false,"i_lat":-6.198556,"line":0,"i_long":106.840169},{"time":4,"i_long":106.84912,"distance":1590,"transit":true,"line":0,"station_id":"MRI","station_name":"Manggarai","i_lat":-6.209883,"is_transit":true},{"is_transit":false,"station_id":"SUD","distance":3186,"i_lat":-6.202263,"line":1,"i_long":106.822649,"transit":false,"station_name":"Sudirman","time":4}],[{"is_transit":false,"distance":0,"transit":false,"station_name":"Jayakarta","line":7,"time":0,"i_lat":-6.141205,"i_long":106.820901,"station_id":"JAY"},{"station_id":"JAKK","station_name":"Jakarta Kota","is_transit":true,"transit":true,"time":4,"i_lat":-6.137569,"distance":1264,"i_long":106.812439,"line":0},{"station_name":"Kampung Bandan","line":0,"is_transit":true,"station_id":"KPB","distance":1364,"i_lat":-6.132549,"time":3,"transit":false,"i_long":106.826365},{"i_lat":-6.144674,"line":0,"is_transit":false,"distance":4102,"station_id":"AK","time":9,"station_name":"Angke","i_long":106.79867,"transit":false},{"i_long":106.800832,"is_transit":true,"i_lat":-6.155215,"station_id":"DU","station_name":"Duri","transit":true,"line":1,"distance":1230,"time":4},{"station_name":"Tanah Abang","station_id":"THB","is_transit":true,"distance":3632,"time":8,"line":1,"transit":false,"i_long":106.811091,"i_lat":-6.185545},{"is_transit":false,"distance":2029,"transit":false,"station_name":"Karet","i_lat":-6.20132,"station_id":"KAT","time":5,"line":1,"i_long":106.816351},{"distance":471,"is_transit":false,"station_name":"Sudirman Baru","station_id":"SUDB","i_lat":-6.201433,"line":1,"time":1,"transit":false,"i_long":106.819881},{"distance":280,"transit":false,"line":1,"station_id":"SUD","i_long":106.822649,"is_transit":false,"i_lat":-6.202263,"station_name":"Sudirman","time":1}],[{"is_transit":false,"i_lat":-6.141205,"station_name":"Jayakarta","station_id":"JAY","time":0,"transit":false,"i_long":106.820901,"distance":0,"line":7},{"transit":true,"time":4,"station_name":"Jakarta Kota","is_transit":true,"station_id":"JAKK","distance":1264,"i_lat":-6.137569,"line":0,"i_long":106.812439},{"line":0,"transit":true,"is_transit":true,"station_id":"KPB","time":3,"i_lat":-6.132549,"station_name":"Kampung Bandan","distance":1364,"i_long":106.826365},{"distance":1444,"station_id":"RJW","line":11,"time":3,"i_long":106.836569,"transit":false,"i_lat":-6.14505,"station_name":"Rajawali","is_transit":false},{"station_name":"Kemayoran","is_transit":false,"transit":false,"i_long":106.839204,"line":11,"distance":1901,"i_lat":-6.161728,"time":5,"station_id":"KMO"},{"transit":false,"i_long":106.84368,"station_id":"PSE","time":4,"is_transit":false,"station_name":"Pasar Senen","i_lat":-6.174784,"line":11,"distance":1436},{"line":11,"transit":false,"distance":1567,"station_id":"GST","time":8,"is_transit":false,"i_long":106.850107,"i_lat":-6.185975,"station_name":"Gang Sentiong"},{"distance":973,"station_name":"Kramat","is_transit":false,"time":1,"station_id":"KMT","transit":false,"i_lat":-6.193792,"i_long":106.855437,"line":11},{"i_lat":-6.209188,"is_transit":false,"i_long":106.861737,"time":2,"station_id":"POK","station_name":"Pondok Jati","line":11,"transit":false,"distance":1829},{"line":0,"station_name":"Jatinegara","is_transit":true,"transit":true,"station_id":"JNG","i_lat":-6.215091,"time":9,"distance":1236,"i_long":106.86807400000001},{"transit":false,"station_id":"MTR","is_transit":false,"time":2,"i_lat":-6.212485,"distance":1377,"i_long":106.858896,"line":1,"station_name":"Matraman"},{"line":0,"station_id":"MRI","is_transit":true,"i_long":106.84912,"i_lat":-6.209883,"station_name":"Manggarai","time":2,"transit":false,"distance":1275},{"station_name":"Sudirman","station_id":"SUD","transit":false,"i_long":106.822649,"line":1,"is_transit":false,"time":4,"distance":3186,"i_lat":-6.202263}],[{"line":7,"station_id":"JAY","transit":false,"distance":0,"station_name":"Jayakarta","i_long":106.820901,"is_transit":false,"time":0,"i_lat":-6.141205},{"station_id":"MGB","i_long":106.82482,"line":2,"transit":false,"i_lat":-6.149769,"time":2,"station_name":"Manggabesar","distance":1080,"is_transit":false},{"time":2,"line":2,"station_name":"Sawah Besar","distance":906,"transit":false,"station_id":"SW","i_lat":-6.160725,"i_long":106.827103,"is_transit":false},{"transit":false,"i_long":106.828284,"is_transit":false,"i_lat":-6.166716,"station_name":"Juanda","distance":1149,"line":2,"station_id":"JUA","time":2},{"time":4,"is_transit":false,"distance":2015,"i_lat":-6.186295,"i_long":106.832183,"station_id":"GDD","station_name":"Gondangdia","transit":false,"line":2},{"line":0,"station_id":"CKI","is_transit":false,"station_name":"Cikini","transit":false,"i_lat":-6.198556,"distance":1750,"i_long":106.840169,"time":3},{"station_name":"Manggarai","station_id":"MRI","time":4,"distance":1590,"i_long":106.84912,"line":0,"i_lat":-6.209883,"transit":true,"is_transit":true},{"station_id":"MTR","time":2,"is_transit":false,"i_long":106.858896,"line":1,"transit":false,"distance":1275,"station_name":"Matraman","i_lat":-6.212485},{"is_transit":true,"distance":1377,"time":8,"station_name":"Jatinegara","i_lat":-6.215091,"line":0,"i_long":106.86807400000001,"station_id":"JNG","transit":true},{"distance":1236,"station_id":"POK","transit":false,"i_lat":-6.209188,"line":11,"is_transit":false,"station_name":"Pondok Jati","time":2,"i_long":106.861737},{"station_id":"KMT","transit":false,"station_name":"Kramat","i_lat":-6.193792,"line":11,"is_transit":false,"distance":1829,"i_long":106.855437,"time":2},{"i_long":106.850107,"station_name":"Gang Sentiong","station_id":"GST","i_lat":-6.185975,"is_transit":false,"distance":973,"line":11,"time":1,"transit":false},{"i_lat":-6.174784,"i_long":106.84368,"station_id":"PSE","distance":1567,"line":11,"station_name":"Pasar Senen","time":8,"is_transit":false,"transit":false},{"line":11,"i_long":106.839204,"station_id":"KMO","transit":false,"distance":1436,"station_name":"Kemayoran","is_transit":false,"time":4,"i_lat":-6.161728},{"line":11,"is_transit":false,"station_id":"RJW","station_name":"Rajawali","transit":false,"i_lat":-6.14505,"i_long":106.836569,"time":5,"distance":1901},{"station_name":"Kampung Bandan","is_transit":true,"time":3,"i_lat":-6.132549,"distance":1444,"transit":true,"station_id":"KPB","i_long":106.826365,"line":0},{"is_transit":false,"transit":false,"time":9,"station_name":"Angke","distance":4102,"i_long":106.79867,"i_lat":-6.144674,"line":0,"station_id":"AK"},{"time":4,"station_id":"DU","transit":true,"station_name":"Duri","i_long":106.800832,"i_lat":-6.155215,"is_transit":true,"line":1,"distance":1230},{"i_lat":-6.185545,"line":1,"is_transit":true,"transit":false,"station_id":"THB","time":8,"distance":3632,"i_long":106.811091,"station_name":"Tanah Abang"},{"i_lat":-6.20132,"station_id":"KAT","transit":false,"distance":2029,"station_name":"Karet","i_long":106.816351,"is_transit":false,"time":5,"line":1},{"station_id":"SUDB","is_transit":false,"distance":471,"transit":false,"i_lat":-6.201433,"station_name":"Sudirman Baru","i_long":106.819881,"line":1,"time":1},{"station_name":"Sudirman","i_long":106.822649,"is_transit":false,"station_id":"SUD","transit":false,"distance":280,"line":1,"i_lat":-6.202263,"time":1}]]}