{"data":[[{"i_lat":-6.141205,"line":2,"distance":0,"time":0,"station_id":"JAY","transit":false,"i_long":106.820901,"station_name":"Jayakarta","is_transit":false},{"station_name":"Jakarta Kota","i_lat":-6.137569,"line":2,"i_long":106.812439,"is_transit":true,"transit":true,"station_id":"JAKK","time":4,"distance":1264},{"time":3,"distance":1364,"line":4,"transit":true,"station_name":"Kampung Bandan","i_lat":-6.132549,"i_long":106.826365,"station_id":"KPB","is_transit":true},{"time":9,"distance":4102,"is_transit":false,"station_id":"AK","i_lat":-6.144674,"line":1,"station_name":"Angke","i_long":106.79867,"transit":false},{"station_name":"Duri","i_long":106.800832,"i_lat":-6.155215,"distance":1230,"station_id":"DU","transit":false,"time":4,"line":1,"is_transit":false},{"i_lat":-6.185545,"i_long":106.811091,"time":8,"distance":3632,"is_transit":true,"transit":true,"station_name":"Tanah Abang","station_id":"THB","line":1},{"transit":false,"distance":3191,"is_transit":false,"station_id":"PLM","station_name":"Palmerah","time":6,"i_long":106.79689,"line":6,"i_lat":-6.207404},{"i_lat":-6.237242,"distance":3737,"station_id":"KBY","transit":false,"line":6,"station_name":"Kebayoran","time":7,"is_transit":false,"i_long":106.780334},{"station_id":"PDJ","i_long":106.74273,"station_name":"Pondokranji","time":8,"distance":6218,"is_transit":false,"transit":false,"line":6,"i_lat":-6.276362},{"distance":2179,"station_id":"JMU","station_name":"Jurangmangu","transit":false,"i_lat":-6.288927,"i_long":106.728916,"line":6,"is_transit":false,"time":3},{"i_lat":-6.296963,"transit":false,"station_name":"Sudimara","time":4,"is_transit":false,"line":6,"i_long":106.712277,"distance":1994,"station_id":"SDM"},{"i_lat":-6.314823,"station_id":"RU","distance":4566,"time":6,"i_long":106.675475,"station_name":"Rawa Buntu","is_transit":false,"transit":false,"line":6},{"i_lat":-6.319871,"station_name":"Serpong","i_long":106.66566,"time":4,"transit":false,"distance":2413,"line":6,"is_transit":false,"station_id":"SRP"},{"time":4,"station_name":"Cisauk","transit":false,"station_id":"CSK","i_lat":-6.32484,"i_long":106.640411,"is_transit":false,"line":3,"distance":1784},{"station_name":"Cicayur","transit":false,"time":4,"is_transit":false,"i_lat":-6.329547,"distance":2519,"i_long":106.617853,"station_id":"CC","line":3},{"station_name":"Parung Panjang","i_long":106.568863,"station_id":"PRP","transit":false,"line":6,"is_transit":false,"distance":5968,"time":8,"i_lat":-6.3441410000000005},{"station_id":"CJT","line":3,"distance":7025,"station_name":"Cilejit","i_lat":-6.354349,"transit":false,"is_transit":false,"time":9,"i_long":106.508482},{"transit":false,"i_long":106.491338,"station_id":"DAR","i_lat":-6.338021,"station_name":"Daru","is_transit":false,"distance":2675,"line":0,"time":6},{"line":6,"distance":3902,"is_transit":false,"station_id":"TEJ","station_name":"Tenjo","time":5,"i_long":106.460812,"transit":false,"i_lat":-6.327251},{"line":6,"station_id":"TGS","distance":2974,"time":5,"i_lat":-6.328533,"is_transit":false,"i_long":106.425991,"transit":false,"station_name":"Tigaraksa"},{"line":3,"time":3,"station_name":"Cikoya","station_id":"CKY","i_lat":-6.33561,"i_long":106.411216,"distance":2651,"is_transit":false,"transit":false}],[{"time":0,"transit":false,"station_id":"JAY","i_long":106.820901,"i_lat":-6.141205,"line":2,"distance":0,"station_name":"Jayakarta","is_transit":false},{"transit":false,"distance":1080,"station_id":"MGB","station_name":"Manggabesar","time":2,"i_lat":-6.149769,"line":2,"i_long":106.82482,"is_transit":false},{"transit":false,"station_name":"Sawah Besar","i_lat":-6.160725,"i_long":106.827103,"is_transit":false,"distance":906,"time":2,"line":2,"station_id":"SW"},{"station_name":"Juanda","station_id":"JUA","time":2,"is_transit":false,"distance":1149,"i_lat":-6.166716,"transit":false,"line":2,"i_long":106.828284},{"distance":2015,"i_long":106.832183,"i_lat":-6.186295,"transit":false,"station_id":"GDD","station_name":"Gondangdia","is_transit":false,"line":2,"time":4},{"station_id":"CKI","is_transit":false,"i_long":106.840169,"time":3,"transit":false,"distance":1750,"line":2,"i_lat":-6.198556,"station_name":"Cikini"},{"line":2,"is_transit":true,"time":4,"station_id":"MRI","station_name":"Manggarai","distance":1590,"i_lat":-6.209883,"i_long":106.84912,"transit":true},{"station_name":"Sudirman","i_long":106.822649,"line":1,"time":4,"transit":false,"station_id":"SUD","i_lat":-6.202263,"distance":3186,"is_transit":false},{"station_id":"SUDB","i_long":106.819881,"distance":280,"i_lat":-6.201433,"transit":false,"line":1,"is_transit":false,"time":1,"station_name":"Sudirman Baru"},{"line":1,"station_name":"Karet","i_lat":-6.20132,"transit":false,"station_id":"KAT","is_transit":false,"time":1,"distance":471,"i_long":106.816351},{"transit":true,"i_long":106.811091,"station_id":"THB","i_lat":-6.185545,"station_name":"Tanah Abang","distance":2029,"is_transit":true,"line":1,"time":5},{"i_long":106.79689,"station_name":"Palmerah","is_transit":false,"time":6,"transit":false,"station_id":"PLM","i_lat":-6.207404,"distance":3191,"line":6},{"line":6,"i_long":106.780334,"transit":false,"is_transit":false,"station_name":"Kebayoran","time":7,"station_id":"KBY","i_lat":-6.237242,"distance":3737},{"time":8,"distance":6218,"i_lat":-6.276362,"line":6,"transit":false,"i_long":106.74273,"station_id":"PDJ","is_transit":false,"station_name":"Pondokranji"},{"station_id":"JMU","i_long":106.728916,"i_lat":-6.288927,"station_name":"Jurangmangu","transit":false,"line":6,"distance":2179,"is_transit":false,"time":3},{"line":6,"transit":false,"station_id":"SDM","time":4,"station_name":"Sudimara","distance":1994,"is_transit":false,"i_lat":-6.296963,"i_long":106.712277},{"station_name":"Rawa Buntu","transit":false,"i_long":106.675475,"time":6,"is_transit":false,"i_lat":-6.314823,"station_id":"RU","distance":4566,"line":6},{"station_name":"Serpong","transit":false,"i_lat":-6.319871,"station_id":"SRP","is_transit":false,"time":4,"distance":2413,"i_long":106.66566,"line":6},{"station_id":"CSK","time":4,"line":3,"distance":1784,"i_long":106.640411,"i_lat":-6.32484,"is_transit":false,"transit":false,"station_name":"Cisauk"},{"transit":false,"station_name":"Cicayur","station_id":"CC","i_lat":-6.329547,"line":3,"distance":2519,"is_transit":false,"time":4,"i_long":106.617853},{"is_transit":false,"station_name":"Parung Panjang","i_long":106.568863,"distance":5968,"time":8,"line":6,"station_id":"PRP","i_lat":-6.3441410000000005,"transit":false},{"line":3,"time":9,"transit":false,"i_long":106.508482,"is_transit":false,"station_name":"Cilejit","i_lat":-6.354349,"station_id":"CJT","distance":7025},{"i_lat":-6.338021,"line":0,"station_id":"DAR","station_name":"Daru","distance":2675,"i_long":106.491338,"transit":false,"is_transit":false,"time":6},{"i_long":106.460812,"i_lat":-6.327251,"station_name":"Tenjo","transit":false,"station_id":"TEJ","time":5,"distance":3902,"is_transit":false,"line":6},{"is_transit":false,"distance":2974,"i_lat":-6.328533,"time":5,"station_id":"TGS","station_name":"Tigaraksa","transit":false,"i_long":106.425991,"line":6},{"line":3,"station_name":"Cikoya","distance":2651,"time":3,"i_lat":-6.33561,"transit":false,"station_id":"CKY","is_transit":false,"i_long":106.411216}],[{"transit":false,"station_id":"JAY","line":2,"is_transit":false,"time":0,"i_long":106.820901,"station_name":"Jayakarta","distance":0,"i_lat":-6.141205},{"i_lat":-6.137569,"i_long":106.812439,"transit":true,"time":4,"distance":1264,"line":2,"station_id":"JAKK","is_transit":true,"station_name":"Jakarta Kota"},{"is_transit":true,"transit":true,"time":3,"distance":1364,"i_long":106.826365,"i_lat":-6.132549,"line":4,"station_id":"KPB","station_name":"Kampung Bandan"},{"i_lat":-6.14505,"i_long":106.836569,"is_transit":false,"distance":1444,"time":3,"line":11,"station_id":"RJW","transit":false,"station_name":"Rajawali"},{"station_id":"KMO","transit":false,"distance":1901,"i_lat":-6.161728,"i_long":106.839204,"time":5,"station_name":"Kemayoran","is_transit":false,"line":11},{"station_id":"PSE","station_name":"Pasar Senen","distance":1436,"i_lat":-6.174784,"i_long":106.84368,"is_transit":false,"time":4,"line":11,"transit":false},{"distance":1567,"station_name":"Gang Sentiong","i_lat":-6.185975,"line":11,"transit":false,"station_id":"GST","is_transit":false,"time":8,"i_long":106.850107},{"distance":973,"is_transit":false,"transit":false,"station_name":"Kramat","station_id":"KMT","time":1,"i_lat":-6.193792,"i_long":106.855437,"line":11},{"line":11,"i_long":106.861737,"station_name":"Pondok Jati","transit":false,"is_transit":false,"time":2,"station_id":"POK","i_lat":-6.209188,"distance":1829},{"station_id":"JNG","line":1,"station_name":"Jatinegara","distance":1236,"is_transit":true,"i_long":106.86807400000001,"i_lat":-6.215091,"time":9,"transit":true},{"time":2,"distance":1377,"station_id":"MTR","station_name":"Matraman","i_long":106.858896,"is_transit":false,"line":1,"transit":false,"i_lat":-6.212485},{"is_transit":false,"distance":1275,"i_long":106.84912,"i_lat":-6.209883,"station_id":"MRI","time":2,"transit":false,"line":2,"station_name":"Manggarai"},{"time":4,"i_long":106.822649,"transit":false,"is_transit":false,"station_id":"SUD","i_lat":-6.202263,"distance":3186,"line":1,"station_name":"Sudirman"},{"i_long":106.819881,"station_id":"SUDB","station_name":"Sudirman Baru","is_transit":false,"time":1,"i_lat":-6.201433,"transit":false,"line":1,"distance":280},{"line":1,"transit":false,"is_transit":false,"station_name":"Karet","time":1,"i_lat":-6.20132,"station_id":"KAT","i_long":106.816351,"distance":471},{"i_lat":-6.185545,"i_long":106.811091,"time":5,"station_id":"THB","is_transit":true,"distance":2029,"transit":true,"station_name":"Tanah Abang","line":1},{"station_name":"Palmerah","distance":3191,"time":6,"line":6,"i_long":106.79689,"is_transit":false,"i_lat":-6.207404,"transit":false,"station_id":"PLM"},{"i_long":106.780334,"time":7,"transit":false,"station_name":"Kebayoran","line":6,"distance":3737,"is_transit":false,"i_lat":-6.237242,"station_id":"KBY"},{"i_lat":-6.276362,"station_id":"PDJ","station_name":"Pondokranji","is_transit":false,"line":6,"i_long":106.74273,"time":8,"transit":false,"distance":6218},{"distance":2179,"line":6,"is_transit":false,"time":3,"transit":false,"station_name":"Jurangmangu","i_lat":-6.288927,"i_long":106.728916,"station_id":"JMU"},{"station_name":"Sudimara","is_transit":false,"line":6,"station_id":"SDM","distance":1994,"time":4,"transit":false,"i_long":106.712277,"i_lat":-6.296963},{"line":6,"distance":4566,"station_id":"RU","station_name":"Rawa Buntu","transit":false,"i_long":106.675475,"time":6,"i_lat":-6.314823,"is_transit":false},{"transit":false,"is_transit":false,"time":4,"line":6,"i_lat":-6.319871,"station_id":"SRP","distance":2413,"i_long":106.66566,"station_name":"Serpong"},{"transit":false,"station_id":"CSK","is_transit":false,"time":4,"distance":1784,"line":3,"i_long":106.640411,"station_name":"Cisauk","i_lat":-6.32484},{"station_id":"CC","time":4,"station_name":"Cicayur","i_lat":-6.329547,"i_long":106.617853,"line":3,"is_transit":false,"distance":2519,"transit":false},{"station_id":"PRP","station_name":"Parung Panjang","is_transit":false,"time":8,"line":6,"distance":5968,"i_long":106.568863,"i_lat":-6.3441410000000005,"transit":false},{"line":3,"time":9,"station_id":"CJT","i_lat":-6.354349,"station_name":"Cilejit","is_transit":false,"transit":false,"i_long":106.508482,"distance":7025},{"i_lat":-6.338021,"i_long":106.491338,"time":6,"transit":false,"station_id":"DAR","line":0,"distance":2675,"is_transit":false,"station_name":"Daru"},{"station_name":"Tenjo","transit":false,"station_id":"TEJ","time":5,"i_lat":-6.327251,"i_long":106.460812,"is_transit":false,"line":6,"distance":3902},{"station_id":"TGS","time":5,"line":6,"is_transit":false,"station_name":"Tigaraksa","i_lat":-6.328533,"transit":false,"i_long":106.425991,"distance":2974},{"time":3,"i_long":106.411216,"distance":2651,"is_transit":false,"transit":false,"station_name":"Cikoya","line":3,"station_id":"CKY","i_lat":-6.33561}],[{"is_transit":false,"station_name":"Jayakarta","station_id":"JAY","distance":0,"i_lat":-6.141205,"i_long":106.820901,"line":2,"time":0,"transit":false},{"station_name":"Manggabesar","distance":1080,"line":2,"is_transit":false,"transit":false,"time":2,"i_lat":-6.149769,"station_id":"MGB","i_long":106.82482},{"i_lat":-6.160725,"station_name":"Sawah Besar","station_id":"SW","transit":false,"is_transit":false,"line":2,"time":2,"distance":906,"i_long":106.827103},{"transit":false,"station_id":"JUA","is_transit":false,"i_long":106.828284,"line":2,"i_lat":-6.166716,"time":2,"station_name":"Juanda","distance":1149},{"station_name":"Gondangdia","is_transit":false,"time":4,"station_id":"GDD","distance":2015,"transit":false,"i_long":106.832183,"i_lat":-6.186295,"line":2},{"time":3,"transit":false,"station_name":"Cikini","is_transit":false,"i_long":106.840169,"station_id":"CKI","distance":1750,"i_lat":-6.198556,"line":2},{"station_name":"Manggarai","time":4,"line":2,"distance":1590,"i_long":106.84912,"transit":true,"i_lat":-6.209883,"is_transit":true,"station_id":"MRI"},{"station_id":"MTR","line":1,"is_transit":false,"distance":1275,"time":2,"i_long":106.858896,"transit":false,"i_lat":-6.212485,"station_name":"Matraman"},{"distance":1377,"station_id":"JNG","time":8,"transit":true,"is_transit":true,"i_lat":-6.215091,"station_name":"Jatinegara","i_long":106.86807400000001,"line":1},{"i_long":106.861737,"distance":1236,"time":2,"i_lat":-6.209188,"is_transit":false,"line":11,"transit":false,"station_id":"POK","station_name":"Pondok Jati"},{"time":2,"distance":1829,"station_name":"Kramat","station_id":"KMT","i_lat":-6.193792,"line":11,"i_long":106.855437,"is_transit":false,"transit":false},{"i_long":106.850107,"station_id":"GST","distance":973,"line":11,"time":1,"i_lat":-6.185975,"station_name":"Gang Sentiong","is_transit":false,"transit":false},{"is_transit":false,"line":11,"station_name":"Pasar Senen","i_long":106.84368,"time":8,"transit":false,"distance":1567,"i_lat":-6.174784,"station_id":"PSE"},{"i_long":106.839204,"transit":false,"is_transit":false,"time":4,"i_lat":-6.161728,"station_id":"KMO","station_name":"Kemayoran","distance":1436,"line":11},{"station_name":"Rajawali","i_lat":-6.14505,"transit":false,"i_long":106.836569,"distance":1901,"line":11,"is_transit":false,"time":5,"station_id":"RJW"},{"distance":1444,"station_id":"KPB","is_transit":true,"i_lat":-6.132549,"transit":true,"station_name":"Kampung Bandan","time":3,"i_long":106.826365,"line":4},{"i_long":106.79867,"transit":false,"station_id":"AK","station_name":"Angke","time":9,"is_transit":false,"distance":4102,"i_lat":-6.144674,"line":1},{"transit":false,"time":4,"i_long":106.800832,"line":1,"distance":1230,"i_lat":-6.155215,"station_name":"Duri","station_id":"DU","is_transit":false},{"transit":true,"i_long":106.811091,"time":8,"line":1,"station_name":"Tanah Abang","is_transit":true,"distance":3632,"i_lat":-6.185545,"station_id":"THB"},{"transit":false,"time":6,"station_id":"PLM","distance":3191,"i_lat":-6.207404,"station_name":"Palmerah","line":6,"is_transit":false,"i_long":106.79689},{"i_long":106.780334,"station_id":"KBY","time":7,"line":6,"i_lat":-6.237242,"distance":3737,"is_transit":false,"transit":false,"station_name":"Kebayoran"},{"distance":6218,"is_transit":false,"i_long":106.74273,"i_lat":-6.276362,"station_name":"Pondokranji","time":8,"station_id":"PDJ","transit":false,"line":6},{"i_lat":-6.288927,"time":3,"station_id":"JMU","is_transit":false,"i_long":106.728916,"distance":2179,"station_name":"Jurangmangu","line":6,"transit":false},{"station_name":"Sudimara","transit":false,"distance":1994,"i_lat":-6.296963,"i_long":106.712277,"is_transit":false,"line":6,"station_id":"SDM","time":4},{"is_transit":false,"time":6,"i_lat":-6.314823,"i_long":106.675475,"station_name":"Rawa Buntu","distance":4566,"station_id":"RU","line":6,"transit":false},{"station_name":"Serpong","transit":false,"station_id":"SRP","is_transit":false,"i_long":106.66566,"i_lat":-6.319871,"time":4,"distance":2413,"line":6},{"i_long":106.640411,"station_name":"Cisauk","i_lat":-6.32484,"line":3,"time":4,"station_id":"CSK","transit":false,"is_transit":false,"distance":1784},{"station_name":"Cicayur","distance":2519,"transit":false,"is_transit":false,"i_lat":-6.329547,"i_long":106.617853,"station_id":"CC","time":4,"line":3},{"i_lat":-6.3441410000000005,"is_transit":false,"station_id":"PRP","transit":false,"station_name":"Parung Panjang","time":8,"distance":5968,"line":6,"i_long":106.568863},{"is_transit":false,"station_name":"Cilejit","station_id":"CJT","transit":false,"i_lat":-6.354349,"time":9,"line":3,"i_long":106.508482,"distance":7025},{"i_lat":-6.338021,"transit":false,"time":6,"station_name":"Daru","line":0,"distance":2675,"i_long":106.491338,"station_id":"DAR","is_transit":false},{"distance":3902,"is_transit":false,"time":5,"i_long":106.460812,"line":6,"station_id":"TEJ","station_name":"Tenjo","transit":false,"i_lat":-6.327251},{"time":5,"i_lat":-6.328533,"line":6,"transit":false,"station_name":"Tigaraksa","is_transit":false,"i_long":106.425991,"distance":2974,"station_id":"TGS"},{"line":3,"transit":false,"station_name":"Cikoya","station_id":"CKY","is_transit":false,"time":3,"i_lat":-6.33561,"i_long":106.411216,"distance":2651}]]}