{"data":[[{"is_transit":false,"i_long":106.820901,"station_id":"JAY","time":0,"transit":false,"distance":0,"line":7,"i_lat":-6.141205,"station_name":"Jayakarta"},{"station_id":"JAKK","time":4,"is_transit":true,"transit":true,"distance":1264,"station_name":"Jakarta Kota","i_lat":-6.137569,"i_long":106.812439,"line":0},{"distance":1364,"i_long":106.826365,"is_transit":true,"transit":false,"time":3,"i_lat":-6.132549,"station_id":"KPB","line":0,"station_name":"Kampung Bandan"},{"station_id":"AK","i_long":106.79867,"is_transit":false,"station_name":"Angke","line":0,"time":9,"transit":false,"i_lat":-6.144674,"distance":4102},{"is_transit":true,"distance":1230,"i_long":106.800832,"time":4,"i_lat":-6.155215,"transit":true,"line":1,"station_id":"DU","station_name":"Duri"},{"distance":3632,"station_id":"THB","station_name":"Tanah Abang","i_lat":-6.185545,"i_long":106.811091,"is_transit":true,"line":1,"time":8,"transit":true},{"transit":false,"station_name":"Palmerah","line":6,"distance":3191,"station_id":"PLM","i_lat":-6.207404,"is_transit":false,"time":6,"i_long":106.79689},{"i_lat":-6.237242,"transit":false,"station_id":"KBY","line":6,"i_long":106.780334,"station_name":"Kebayoran","is_transit":false,"time":7,"distance":3737},{"i_long":106.74273,"station_id":"PDJ","time":8,"line":6,"station_name":"Pondokranji","i_lat":-6.276362,"transit":false,"is_transit":false,"distance":6218},{"time":3,"transit":false,"distance":2179,"station_id":"JMU","i_lat":-6.288927,"line":6,"i_long":106.728916,"is_transit":false,"station_name":"Jurangmangu"},{"station_name":"Sudimara","time":4,"i_lat":-6.296963,"is_transit":false,"distance":1994,"i_long":106.712277,"line":6,"transit":false,"station_id":"SDM"},{"time":6,"i_lat":-6.314823,"station_name":"Rawa Buntu","i_long":106.675475,"line":6,"station_id":"RU","transit":false,"distance":4566,"is_transit":false},{"station_id":"SRP","i_long":106.66566,"time":4,"i_lat":-6.319871,"distance":2413,"line":6,"station_name":"Serpong","transit":false,"is_transit":false},{"i_long":106.640411,"distance":1784,"transit":false,"i_lat":-6.32484,"station_name":"Cisauk","is_transit":false,"line":0,"time":4,"station_id":"CSK"},{"time":4,"station_id":"CC","i_lat":-6.329547,"station_name":"Cicayur","transit":false,"line":0,"distance":2519,"i_long":106.617853,"is_transit":false},{"is_transit":false,"i_long":106.568863,"transit":false,"i_lat":-6.3441410000000005,"station_id":"PRP","time":8,"station_name":"Parung Panjang","line":6,"distance":5968},{"i_lat":-6.354349,"time":9,"line":0,"is_transit":false,"i_long":106.508482,"station_name":"Cilejit","distance":7025,"transit":false,"station_id":"CJT"},{"station_name":"Daru","distance":2675,"transit":false,"station_id":"DAR","i_lat":-6.338021,"line":0,"i_long":106.491338,"time":6,"is_transit":false}],[{"i_lat":-6.141205,"time":0,"i_long":106.820901,"transit":false,"is_transit":false,"distance":0,"station_id":"JAY","line":7,"station_name":"Jayakarta"},{"distance":1080,"i_long":106.82482,"line":2,"station_id":"MGB","transit":false,"time":2,"i_lat":-6.149769,"station_name":"Manggabesar","is_transit":false},{"is_transit":false,"distance":906,"station_id":"SW","station_name":"Sawah Besar","i_lat":-6.160725,"transit":false,"i_long":106.827103,"line":2,"time":2},{"transit":false,"distance":1149,"time":2,"line":2,"station_name":"Juanda","station_id":"JUA","is_transit":false,"i_lat":-6.166716,"i_long":106.828284},{"i_long":106.832183,"i_lat":-6.186295,"station_name":"Gondangdia","is_transit":false,"station_id":"GDD","line":2,"transit":false,"time":4,"distance":2015},{"transit":false,"station_id":"CKI","i_lat":-6.198556,"time":3,"distance":1750,"station_name":"Cikini","is_transit":false,"i_long":106.840169,"line":0},{"i_long":106.84912,"line":0,"i_lat":-6.209883,"distance":1590,"time":4,"is_transit":true,"transit":true,"station_name":"Manggarai","station_id":"MRI"},{"station_name":"Sudirman","is_transit":false,"distance":3186,"station_id":"SUD","i_lat":-6.202263,"i_long":106.822649,"time":4,"line":1,"transit":false},{"is_transit":false,"i_lat":-6.201433,"distance":280,"time":1,"line":1,"station_id":"SUDB","i_long":106.819881,"station_name":"Sudirman Baru","transit":false},{"station_id":"KAT","distance":471,"i_long":106.816351,"station_name":"Karet","is_transit":false,"i_lat":-6.20132,"transit":false,"time":1,"line":1},{"station_id":"THB","distance":2029,"station_name":"Tanah Abang","transit":true,"time":5,"is_transit":true,"i_lat":-6.185545,"i_long":106.811091,"line":1},{"is_transit":false,"transit":false,"i_lat":-6.207404,"distance":3191,"time":6,"station_name":"Palmerah","station_id":"PLM","line":6,"i_long":106.79689},{"line":6,"i_lat":-6.237242,"time":7,"distance":3737,"station_id":"KBY","is_transit":false,"station_name":"Kebayoran","i_long":106.780334,"transit":false},{"i_long":106.74273,"is_transit":false,"transit":false,"line":6,"distance":6218,"i_lat":-6.276362,"station_name":"Pondokranji","time":8,"station_id":"PDJ"},{"transit":false,"distance":2179,"station_name":"Jurangmangu","i_lat":-6.288927,"line":6,"station_id":"JMU","i_long":106.728916,"time":3,"is_transit":false},{"distance":1994,"is_transit":false,"station_id":"SDM","i_long":106.712277,"i_lat":-6.296963,"line":6,"station_name":"Sudimara","time":4,"transit":false},{"line":6,"station_name":"Rawa Buntu","distance":4566,"time":6,"is_transit":false,"i_lat":-6.314823,"transit":false,"station_id":"RU","i_long":106.675475},{"station_id":"SRP","time":4,"i_long":106.66566,"line":6,"is_transit":false,"station_name":"Serpong","transit":false,"i_lat":-6.319871,"distance":2413},{"distance":1784,"line":0,"time":4,"i_long":106.640411,"station_id":"CSK","station_name":"Cisauk","is_transit":false,"transit":false,"i_lat":-6.32484},{"station_name":"Cicayur","distance":2519,"i_lat":-6.329547,"is_transit":false,"i_long":106.617853,"line":0,"transit":false,"time":4,"station_id":"CC"},{"i_lat":-6.3441410000000005,"distance":5968,"station_name":"Parung Panjang","is_transit":false,"station_id":"PRP","line":6,"i_long":106.568863,"time":8,"transit":false},{"i_lat":-6.354349,"is_transit":false,"time":9,"transit":false,"i_long":106.508482,"station_name":"Cilejit","distance":7025,"station_id":"CJT","line":0},{"transit":false,"line":0,"time":6,"is_transit":false,"i_lat":-6.338021,"i_long":106.491338,"station_name":"Daru","distance":2675,"station_id":"DAR"}],[{"station_id":"JAY","time":0,"is_transit":false,"distance":0,"i_lat":-6.141205,"line":7,"transit":false,"station_name":"Jayakarta","i_long":106.820901},{"time":4,"i_lat":-6.137569,"line":0,"station_name":"Jakarta Kota","station_id":"JAKK","distance":1264,"transit":true,"i_long":106.812439,"is_transit":true},{"transit":true,"station_name":"Kampung Bandan","distance":1364,"i_long":106.826365,"line":0,"time":3,"station_id":"KPB","is_transit":true,"i_lat":-6.132549},{"distance":1444,"line":11,"station_name":"Rajawali","is_transit":false,"i_long":106.836569,"time":3,"i_lat":-6.14505,"transit":false,"station_id":"RJW"},{"i_long":106.839204,"line":11,"station_name":"Kemayoran","is_transit":false,"station_id":"KMO","time":5,"distance":1901,"i_lat":-6.161728,"transit":false},{"i_long":106.84368,"i_lat":-6.174784,"station_name":"Pasar Senen","time":4,"is_transit":false,"transit":false,"station_id":"PSE","line":11,"distance":1436},{"station_id":"GST","transit":false,"i_long":106.850107,"line":11,"i_lat":-6.185975,"time":8,"distance":1567,"station_name":"Gang Sentiong","is_transit":false},{"line":11,"station_name":"Kramat","transit":false,"i_lat":-6.193792,"station_id":"KMT","is_transit":false,"time":1,"distance":973,"i_long":106.855437},{"time":2,"distance":1829,"station_id":"POK","transit":false,"is_transit":false,"i_lat":-6.209188,"line":11,"station_name":"Pondok Jati","i_long":106.861737},{"transit":true,"station_name":"Jatinegara","station_id":"JNG","i_lat":-6.215091,"line":0,"distance":1236,"is_transit":true,"i_long":106.86807400000001,"time":9},{"i_lat":-6.212485,"i_long":106.858896,"station_id":"MTR","distance":1377,"time":2,"station_name":"Matraman","is_transit":false,"transit":false,"line":1},{"station_id":"MRI","distance":1275,"i_long":106.84912,"station_name":"Manggarai","line":0,"time":2,"is_transit":true,"i_lat":-6.209883,"transit":false},{"station_id":"SUD","line":1,"is_transit":false,"i_lat":-6.202263,"time":4,"distance":3186,"i_long":106.822649,"station_name":"Sudirman","transit":false},{"transit":false,"station_name":"Sudirman Baru","distance":280,"line":1,"is_transit":false,"i_long":106.819881,"time":1,"station_id":"SUDB","i_lat":-6.201433},{"transit":false,"station_id":"KAT","line":1,"is_transit":false,"station_name":"Karet","i_long":106.816351,"i_lat":-6.20132,"time":1,"distance":471},{"i_long":106.811091,"station_name":"Tanah Abang","is_transit":true,"line":1,"time":5,"i_lat":-6.185545,"distance":2029,"transit":true,"station_id":"THB"},{"is_transit":false,"time":6,"i_lat":-6.207404,"i_long":106.79689,"station_id":"PLM","station_name":"Palmerah","line":6,"distance":3191,"transit":false},{"transit":false,"time":7,"distance":3737,"line":6,"i_long":106.780334,"station_name":"Kebayoran","station_id":"KBY","i_lat":-6.237242,"is_transit":false},{"line":6,"time":8,"distance":6218,"transit":false,"station_id":"PDJ","station_name":"Pondokranji","i_lat":-6.276362,"is_transit":false,"i_long":106.74273},{"i_lat":-6.288927,"line":6,"time":3,"station_id":"JMU","i_long":106.728916,"distance":2179,"is_transit":false,"transit":false,"station_name":"Jurangmangu"},{"line":6,"transit":false,"time":4,"station_id":"SDM","i_long":106.712277,"is_transit":false,"distance":1994,"station_name":"Sudimara","i_lat":-6.296963},{"transit":false,"station_id":"RU","i_lat":-6.314823,"line":6,"distance":4566,"station_name":"Rawa Buntu","i_long":106.675475,"time":6,"is_transit":false},{"station_id":"SRP","i_long":106.66566,"station_name":"Serpong","line":6,"transit":false,"time":4,"is_transit":false,"distance":2413,"i_lat":-6.319871},{"line":0,"transit":false,"distance":1784,"station_name":"Cisauk","i_long":106.640411,"time":4,"is_transit":false,"i_lat":-6.32484,"station_id":"CSK"},{"is_transit":false,"station_id":"CC","line":0,"distance":2519,"i_lat":-6.329547,"i_long":106.617853,"time":4,"transit":false,"station_name":"Cicayur"},{"i_long":106.568863,"time":8,"transit":false,"is_transit":false,"station_id":"PRP","i_lat":-6.3441410000000005,"station_name":"Parung Panjang","line":6,"distance":5968},{"line":0,"i_lat":-6.354349,"i_long":106.508482,"station_name":"Cilejit","station_id":"CJT","transit":false,"time":9,"distance":7025,"is_transit":false},{"station_id":"DAR","line":0,"transit":false,"distance":2675,"i_long":106.491338,"is_transit":false,"i_lat":-6.338021,"time":6,"station_name":"Daru"}],[{"is_transit":false,"transit":false,"time":0,"distance":0,"i_lat":-6.141205,"i_long":106.820901,"line":7,"station_name":"Jayakarta","station_id":"JAY"},{"i_long":106.82482,"station_name":"Manggabesar","is_transit":false,"time":2,"station_id":"MGB","transit":false,"distance":1080,"i_lat":-6.149769,"line":2},{"line":2,"transit":false,"distance":906,"i_lat":-6.160725,"time":2,"is_transit":false,"station_id":"SW","station_name":"Sawah Besar","i_long":106.827103},{"distance":1149,"is_transit":false,"i_lat":-6.166716,"i_long":106.828284,"time":2,"transit":false,"line":2,"station_id":"JUA","station_name":"Juanda"},{"station_id":"GDD","station_name":"Gondangdia","time":4,"i_lat":-6.186295,"transit":false,"line":2,"is_transit":false,"distance":2015,"i_long":106.832183},{"i_long":106.840169,"time":3,"station_name":"Cikini","line":0,"station_id":"CKI","distance":1750,"transit":false,"is_transit":false,"i_lat":-6.198556},{"station_name":"Manggarai","station_id":"MRI","distance":1590,"i_lat":-6.209883,"is_transit":true,"line":0,"transit":true,"time":4,"i_long":106.84912},{"i_long":106.858896,"transit":false,"station_id":"MTR","time":2,"distance":1275,"is_transit":false,"line":1,"station_name":"Matraman","i_lat":-6.212485},{"station_id":"JNG","transit":true,"station_name":"Jatinegara","time":8,"i_lat":-6.215091,"i_long":106.86807400000001,"line":0,"distance":1377,"is_transit":true},{"station_id":"POK","time":2,"is_transit":false,"i_lat":-6.209188,"line":11,"i_long":106.861737,"station_name":"Pondok Jati","transit":false,"distance":1236},{"station_id":"KMT","i_long":106.855437,"i_lat":-6.193792,"station_name":"Kramat","is_transit":false,"transit":false,"distance":1829,"time":2,"line":11},{"line":11,"transit":false,"time":1,"station_name":"Gang Sentiong","station_id":"GST","is_transit":false,"distance":973,"i_lat":-6.185975,"i_long":106.850107},{"transit":false,"station_name":"Pasar Senen","distance":1567,"line":11,"is_transit":false,"i_long":106.84368,"station_id":"PSE","i_lat":-6.174784,"time":8},{"i_lat":-6.161728,"station_id":"KMO","line":11,"transit":false,"time":4,"station_name":"Kemayoran","is_transit":false,"i_long":106.839204,"distance":1436},{"time":5,"is_transit":false,"i_long":106.836569,"i_lat":-6.14505,"station_name":"Rajawali","transit":false,"distance":1901,"station_id":"RJW","line":11},{"distance":1444,"i_long":106.826365,"line":0,"time":3,"i_lat":-6.132549,"is_transit":true,"station_id":"KPB","station_name":"Kampung Bandan","transit":true},{"time":9,"i_long":106.79867,"distance":4102,"station_id":"AK","station_name":"Angke","is_transit":false,"line":0,"transit":false,"i_lat":-6.144674},{"i_lat":-6.155215,"station_name":"Duri","time":4,"i_long":106.800832,"is_transit":true,"distance":1230,"line":1,"transit":true,"station_id":"DU"},{"line":1,"station_name":"Tanah Abang","time":8,"distance":3632,"is_transit":true,"transit":true,"station_id":"THB","i_lat":-6.185545,"i_long":106.811091},{"is_transit":false,"station_id":"PLM","i_lat":-6.207404,"transit":false,"i_long":106.79689,"time":6,"station_name":"Palmerah","line":6,"distance":3191},{"i_long":106.780334,"station_name":"Kebayoran","time":7,"is_transit":false,"distance":3737,"station_id":"KBY","transit":false,"i_lat":-6.237242,"line":6},{"transit":false,"time":8,"distance":6218,"station_id":"PDJ","i_long":106.74273,"line":6,"station_name":"Pondokranji","i_lat":-6.276362,"is_transit":false},{"i_lat":-6.288927,"is_transit":false,"distance":2179,"time":3,"station_name":"Jurangmangu","station_id":"JMU","line":6,"i_long":106.728916,"transit":false},{"time":4,"i_lat":-6.296963,"station_id":"SDM","i_long":106.712277,"is_transit":false,"station_name":"Sudimara","distance":1994,"transit":false,"line":6},{"is_transit":false,"station_name":"Rawa Buntu","time":6,"transit":false,"i_lat":-6.314823,"i_long":106.675475,"distance":4566,"station_id":"RU","line":6},{"station_name":"Serpong","i_lat":-6.319871,"transit":false,"distance":2413,"line":6,"is_transit":false,"station_id":"SRP","i_long":106.66566,"time":4},{"transit":false,"station_id":"CSK","i_lat":-6.32484,"line":0,"time":4,"station_name":"Cisauk","is_transit":false,"i_long":106.640411,"distance":1784},{"i_long":106.617853,"station_id":"CC","line":0,"time":4,"i_lat":-6.329547,"is_transit":false,"station_name":"Cicayur","transit":false,"distance":2519},{"distance":5968,"transit":false,"i_long":106.568863,"i_lat":-6.3441410000000005,"is_transit":false,"line":6,"time":8,"station_id":"PRP","station_name":"Parung Panjang"},{"station_name":"Cilejit","station_id":"CJT","time":9,"is_transit":false,"i_lat":-6.354349,"i_long":106.508482,"transit":false,"line":0,"distance":7025},{"distance":2675,"station_name":"Daru","i_long":106.491338,"line":0,"station_id":"DAR","i_lat":-6.338021,"is_transit":false,"transit":false,"time":6}]]}