{"data":[[{"transit":false,"i_lat":-6.141205,"time":0,"distance":0,"station_name":"Jayakarta","i_long":106.820901,"line":2,"station_id":"JAY","is_transit":false},{"line":2,"transit":true,"time":4,"distance":1264,"station_id":"JAKK","is_transit":true,"i_lat":-6.137569,"i_long":106.812439,"station_name":"Jakarta Kota"},{"i_lat":-6.132549,"time":3,"transit":true,"station_name":"Kampung Bandan","line":4,"i_long":106.826365,"distance":1364,"station_id":"KPB","is_transit":true},{"i_lat":-6.144674,"station_id":"AK","time":9,"line":1,"distance":4102,"transit":false,"i_long":106.79867,"station_name":"Angke","is_transit":false},{"distance":1230,"line":1,"station_id":"DU","station_name":"Duri","i_lat":-6.155215,"is_transit":false,"transit":false,"time":4,"i_long":106.800832},{"station_id":"THB","is_transit":true,"time":8,"station_name":"Tanah Abang","i_lat":-6.185545,"i_long":106.811091,"line":1,"transit":true,"distance":3632},{"station_id":"PLM","i_lat":-6.207404,"time":6,"i_long":106.79689,"line":6,"station_name":"Palmerah","is_transit":false,"transit":false,"distance":3191},{"station_name":"Kebayoran","is_transit":false,"line":6,"station_id":"KBY","i_long":106.780334,"time":7,"distance":3737,"transit":false,"i_lat":-6.237242},{"transit":false,"is_transit":false,"i_lat":-6.276362,"i_long":106.74273,"distance":6218,"time":8,"station_id":"PDJ","station_name":"Pondokranji","line":6},{"line":6,"time":3,"station_name":"Jurangmangu","i_lat":-6.288927,"transit":false,"station_id":"JMU","distance":2179,"is_transit":false,"i_long":106.728916},{"distance":1994,"station_name":"Sudimara","line":6,"station_id":"SDM","is_transit":false,"i_lat":-6.296963,"i_long":106.712277,"transit":false,"time":4},{"time":6,"station_id":"RU","i_lat":-6.314823,"i_long":106.675475,"is_transit":false,"line":6,"station_name":"Rawa Buntu","distance":4566,"transit":false},{"i_lat":-6.319871,"i_long":106.66566,"line":6,"station_id":"SRP","distance":2413,"station_name":"Serpong","time":4,"is_transit":false,"transit":false},{"transit":false,"time":4,"station_id":"CSK","i_lat":-6.32484,"i_long":106.640411,"distance":1784,"is_transit":false,"line":3,"station_name":"Cisauk"},{"line":3,"time":4,"transit":false,"station_id":"CC","i_long":106.617853,"is_transit":false,"i_lat":-6.329547,"distance":2519,"station_name":"Cicayur"},{"distance":5968,"is_transit":false,"i_long":106.568863,"station_id":"PRP","station_name":"Parung Panjang","transit":false,"i_lat":-6.3441410000000005,"time":8,"line":6},{"distance":7025,"line":3,"transit":false,"is_transit":false,"station_name":"Cilejit","i_long":106.508482,"time":9,"station_id":"CJT","i_lat":-6.354349},{"i_lat":-6.338021,"distance":2675,"station_id":"DAR","line":0,"time":6,"i_long":106.491338,"transit":false,"station_name":"Daru","is_transit":false},{"is_transit":false,"station_name":"Tenjo","line":6,"distance":3902,"station_id":"TEJ","time":5,"i_lat":-6.327251,"i_long":106.460812,"transit":false},{"i_long":106.425991,"time":5,"station_id":"TGS","i_lat":-6.328533,"line":6,"distance":2974,"transit":false,"station_name":"Tigaraksa","is_transit":false}],[{"i_lat":-6.141205,"distance":0,"station_id":"JAY","is_transit":false,"i_long":106.820901,"line":2,"time":0,"station_name":"Jayakarta","transit":false},{"i_long":106.82482,"i_lat":-6.149769,"time":2,"line":2,"transit":false,"is_transit":false,"station_id":"MGB","station_name":"Manggabesar","distance":1080},{"i_long":106.827103,"station_id":"SW","is_transit":false,"distance":906,"transit":false,"i_lat":-6.160725,"station_name":"Sawah Besar","line":2,"time":2},{"distance":1149,"is_transit":false,"station_name":"Juanda","i_lat":-6.166716,"line":2,"transit":false,"i_long":106.828284,"station_id":"JUA","time":2},{"i_lat":-6.186295,"time":4,"line":2,"distance":2015,"transit":false,"station_name":"Gondangdia","is_transit":false,"station_id":"GDD","i_long":106.832183},{"i_lat":-6.198556,"distance":1750,"station_name":"Cikini","time":3,"station_id":"CKI","line":2,"is_transit":false,"transit":false,"i_long":106.840169},{"time":4,"line":2,"i_long":106.84912,"transit":true,"i_lat":-6.209883,"distance":1590,"station_id":"MRI","is_transit":true,"station_name":"Manggarai"},{"distance":3186,"time":4,"i_long":106.822649,"i_lat":-6.202263,"station_name":"Sudirman","station_id":"SUD","transit":false,"line":1,"is_transit":false},{"is_transit":false,"line":1,"station_id":"SUDB","distance":280,"i_lat":-6.201433,"time":1,"station_name":"Sudirman Baru","transit":false,"i_long":106.819881},{"is_transit":false,"transit":false,"i_long":106.816351,"distance":471,"i_lat":-6.20132,"time":1,"station_id":"KAT","line":1,"station_name":"Karet"},{"line":1,"station_name":"Tanah Abang","distance":2029,"transit":true,"station_id":"THB","time":5,"is_transit":true,"i_lat":-6.185545,"i_long":106.811091},{"i_long":106.79689,"transit":false,"station_name":"Palmerah","distance":3191,"time":6,"line":6,"station_id":"PLM","i_lat":-6.207404,"is_transit":false},{"i_lat":-6.237242,"distance":3737,"station_id":"KBY","time":7,"station_name":"Kebayoran","i_long":106.780334,"is_transit":false,"transit":false,"line":6},{"is_transit":false,"distance":6218,"station_id":"PDJ","transit":false,"station_name":"Pondokranji","time":8,"line":6,"i_long":106.74273,"i_lat":-6.276362},{"line":6,"station_id":"JMU","station_name":"Jurangmangu","is_transit":false,"distance":2179,"i_long":106.728916,"time":3,"transit":false,"i_lat":-6.288927},{"time":4,"station_id":"SDM","i_long":106.712277,"distance":1994,"transit":false,"i_lat":-6.296963,"is_transit":false,"station_name":"Sudimara","line":6},{"line":6,"station_id":"RU","transit":false,"station_name":"Rawa Buntu","time":6,"is_transit":false,"distance":4566,"i_lat":-6.314823,"i_long":106.675475},{"time":4,"i_long":106.66566,"line":6,"transit":false,"station_name":"Serpong","station_id":"SRP","is_transit":false,"i_lat":-6.319871,"distance":2413},{"distance":1784,"station_name":"Cisauk","line":3,"i_long":106.640411,"station_id":"CSK","i_lat":-6.32484,"is_transit":false,"time":4,"transit":false},{"line":3,"station_id":"CC","transit":false,"distance":2519,"station_name":"Cicayur","time":4,"is_transit":false,"i_long":106.617853,"i_lat":-6.329547},{"i_lat":-6.3441410000000005,"station_name":"Parung Panjang","is_transit":false,"station_id":"PRP","transit":false,"i_long":106.568863,"distance":5968,"line":6,"time":8},{"distance":7025,"line":3,"i_long":106.508482,"station_name":"Cilejit","time":9,"transit":false,"i_lat":-6.354349,"station_id":"CJT","is_transit":false},{"line":0,"station_name":"Daru","station_id":"DAR","transit":false,"is_transit":false,"distance":2675,"i_long":106.491338,"time":6,"i_lat":-6.338021},{"distance":3902,"transit":false,"station_id":"TEJ","station_name":"Tenjo","i_lat":-6.327251,"i_long":106.460812,"is_transit":false,"line":6,"time":5},{"i_long":106.425991,"distance":2974,"station_name":"Tigaraksa","i_lat":-6.328533,"time":5,"is_transit":false,"transit":false,"station_id":"TGS","line":6}],[{"i_lat":-6.141205,"distance":0,"i_long":106.820901,"station_name":"Jayakarta","transit":false,"line":2,"time":0,"is_transit":false,"station_id":"JAY"},{"time":4,"is_transit":true,"station_name":"Jakarta Kota","station_id":"JAKK","i_lat":-6.137569,"i_long":106.812439,"line":2,"transit":true,"distance":1264},{"station_name":"Kampung Bandan","transit":true,"is_transit":true,"station_id":"KPB","time":3,"i_long":106.826365,"distance":1364,"line":4,"i_lat":-6.132549},{"transit":false,"i_lat":-6.14505,"station_id":"RJW","station_name":"Rajawali","i_long":106.836569,"line":11,"time":3,"distance":1444,"is_transit":false},{"i_lat":-6.161728,"transit":false,"i_long":106.839204,"distance":1901,"station_id":"KMO","line":11,"station_name":"Kemayoran","is_transit":false,"time":5},{"station_id":"PSE","is_transit":false,"i_long":106.84368,"distance":1436,"time":4,"line":11,"i_lat":-6.174784,"station_name":"Pasar Senen","transit":false},{"time":8,"distance":1567,"transit":false,"i_long":106.850107,"station_id":"GST","is_transit":false,"station_name":"Gang Sentiong","i_lat":-6.185975,"line":11},{"distance":973,"is_transit":false,"transit":false,"line":11,"time":1,"i_long":106.855437,"i_lat":-6.193792,"station_name":"Kramat","station_id":"KMT"},{"transit":false,"i_lat":-6.209188,"time":2,"station_name":"Pondok Jati","line":11,"station_id":"POK","distance":1829,"is_transit":false,"i_long":106.861737},{"station_name":"Jatinegara","is_transit":true,"distance":1236,"line":1,"time":9,"station_id":"JNG","transit":true,"i_long":106.86807400000001,"i_lat":-6.215091},{"distance":1377,"i_long":106.858896,"station_id":"MTR","time":2,"transit":false,"station_name":"Matraman","line":1,"is_transit":false,"i_lat":-6.212485},{"line":2,"station_name":"Manggarai","distance":1275,"time":2,"station_id":"MRI","transit":false,"i_lat":-6.209883,"is_transit":false,"i_long":106.84912},{"station_id":"SUD","time":4,"is_transit":false,"i_lat":-6.202263,"i_long":106.822649,"line":1,"distance":3186,"transit":false,"station_name":"Sudirman"},{"time":1,"distance":280,"line":1,"i_lat":-6.201433,"station_name":"Sudirman Baru","is_transit":false,"station_id":"SUDB","transit":false,"i_long":106.819881},{"line":1,"time":1,"station_id":"KAT","distance":471,"transit":false,"station_name":"Karet","is_transit":false,"i_lat":-6.20132,"i_long":106.816351},{"station_id":"THB","line":1,"i_lat":-6.185545,"time":5,"distance":2029,"transit":true,"is_transit":true,"i_long":106.811091,"station_name":"Tanah Abang"},{"station_id":"PLM","time":6,"is_transit":false,"station_name":"Palmerah","distance":3191,"i_long":106.79689,"transit":false,"line":6,"i_lat":-6.207404},{"station_id":"KBY","station_name":"Kebayoran","i_lat":-6.237242,"time":7,"is_transit":false,"i_long":106.780334,"line":6,"transit":false,"distance":3737},{"station_name":"Pondokranji","distance":6218,"transit":false,"line":6,"time":8,"is_transit":false,"i_lat":-6.276362,"station_id":"PDJ","i_long":106.74273},{"i_long":106.728916,"time":3,"station_name":"Jurangmangu","line":6,"transit":false,"i_lat":-6.288927,"station_id":"JMU","distance":2179,"is_transit":false},{"time":4,"station_id":"SDM","distance":1994,"transit":false,"station_name":"Sudimara","is_transit":false,"i_lat":-6.296963,"i_long":106.712277,"line":6},{"station_name":"Rawa Buntu","time":6,"i_long":106.675475,"line":6,"station_id":"RU","transit":false,"i_lat":-6.314823,"distance":4566,"is_transit":false},{"line":6,"i_long":106.66566,"i_lat":-6.319871,"distance":2413,"station_id":"SRP","transit":false,"time":4,"is_transit":false,"station_name":"Serpong"},{"transit":false,"station_id":"CSK","i_long":106.640411,"i_lat":-6.32484,"distance":1784,"line":3,"time":4,"station_name":"Cisauk","is_transit":false},{"transit":false,"i_lat":-6.329547,"i_long":106.617853,"station_id":"CC","station_name":"Cicayur","line":3,"distance":2519,"time":4,"is_transit":false},{"transit":false,"station_name":"Parung Panjang","station_id":"PRP","is_transit":false,"i_long":106.568863,"distance":5968,"line":6,"i_lat":-6.3441410000000005,"time":8},{"transit":false,"line":3,"station_id":"CJT","i_long":106.508482,"is_transit":false,"time":9,"distance":7025,"station_name":"Cilejit","i_lat":-6.354349},{"station_id":"DAR","transit":false,"time":6,"i_lat":-6.338021,"is_transit":false,"line":0,"station_name":"Daru","i_long":106.491338,"distance":2675},{"distance":3902,"station_id":"TEJ","transit":false,"is_transit":false,"i_lat":-6.327251,"i_long":106.460812,"line":6,"station_name":"Tenjo","time":5},{"i_lat":-6.328533,"time":5,"station_id":"TGS","transit":false,"distance":2974,"i_long":106.425991,"line":6,"is_transit":false,"station_name":"Tigaraksa"}],[{"station_name":"Jayakarta","distance":0,"line":2,"is_transit":false,"i_long":106.820901,"transit":false,"station_id":"JAY","i_lat":-6.141205,"time":0},{"transit":false,"i_long":106.82482,"i_lat":-6.149769,"time":2,"is_transit":false,"station_id":"MGB","distance":1080,"station_name":"Manggabesar","line":2},{"distance":906,"line":2,"transit":false,"time":2,"station_id":"SW","is_transit":false,"station_name":"Sawah Besar","i_lat":-6.160725,"i_long":106.827103},{"i_lat":-6.166716,"is_transit":false,"distance":1149,"transit":false,"station_name":"Juanda","i_long":106.828284,"line":2,"time":2,"station_id":"JUA"},{"transit":false,"line":2,"time":4,"station_name":"Gondangdia","distance":2015,"i_long":106.832183,"i_lat":-6.186295,"is_transit":false,"station_id":"GDD"},{"station_id":"CKI","time":3,"is_transit":false,"transit":false,"line":2,"i_lat":-6.198556,"distance":1750,"station_name":"Cikini","i_long":106.840169},{"is_transit":true,"time":4,"station_id":"MRI","i_lat":-6.209883,"distance":1590,"line":2,"station_name":"Manggarai","i_long":106.84912,"transit":true},{"transit":false,"station_name":"Matraman","distance":1275,"i_long":106.858896,"line":1,"time":2,"i_lat":-6.212485,"is_transit":false,"station_id":"MTR"},{"line":1,"transit":true,"station_name":"Jatinegara","i_long":106.86807400000001,"distance":1377,"station_id":"JNG","time":8,"is_transit":true,"i_lat":-6.215091},{"transit":false,"i_lat":-6.209188,"i_long":106.861737,"distance":1236,"is_transit":false,"station_id":"POK","time":2,"station_name":"Pondok Jati","line":11},{"station_id":"KMT","transit":false,"i_lat":-6.193792,"station_name":"Kramat","time":2,"is_transit":false,"line":11,"distance":1829,"i_long":106.855437},{"station_name":"Gang Sentiong","station_id":"GST","distance":973,"is_transit":false,"i_lat":-6.185975,"time":1,"transit":false,"line":11,"i_long":106.850107},{"i_long":106.84368,"line":11,"time":8,"transit":false,"station_name":"Pasar Senen","i_lat":-6.174784,"is_transit":false,"distance":1567,"station_id":"PSE"},{"i_lat":-6.161728,"time":4,"distance":1436,"is_transit":false,"line":11,"transit":false,"station_name":"Kemayoran","i_long":106.839204,"station_id":"KMO"},{"station_name":"Rajawali","distance":1901,"transit":false,"i_lat":-6.14505,"station_id":"RJW","time":5,"is_transit":false,"i_long":106.836569,"line":11},{"station_name":"Kampung Bandan","is_transit":true,"line":4,"station_id":"KPB","time":3,"transit":true,"distance":1444,"i_lat":-6.132549,"i_long":106.826365},{"distance":4102,"i_long":106.79867,"station_name":"Angke","station_id":"AK","i_lat":-6.144674,"line":1,"time":9,"transit":false,"is_transit":false},{"time":4,"station_id":"DU","station_name":"Duri","is_transit":false,"transit":false,"i_lat":-6.155215,"distance":1230,"line":1,"i_long":106.800832},{"line":1,"time":8,"station_id":"THB","transit":true,"i_lat":-6.185545,"i_long":106.811091,"is_transit":true,"station_name":"Tanah Abang","distance":3632},{"i_lat":-6.207404,"station_id":"PLM","station_name":"Palmerah","i_long":106.79689,"time":6,"transit":false,"distance":3191,"line":6,"is_transit":false},{"line":6,"station_id":"KBY","i_lat":-6.237242,"is_transit":false,"distance":3737,"time":7,"transit":false,"i_long":106.780334,"station_name":"Kebayoran"},{"is_transit":false,"station_name":"Pondokranji","i_lat":-6.276362,"i_long":106.74273,"distance":6218,"time":8,"station_id":"PDJ","transit":false,"line":6},{"distance":2179,"station_name":"Jurangmangu","transit":false,"i_lat":-6.288927,"i_long":106.728916,"line":6,"station_id":"JMU","is_transit":false,"time":3},{"i_long":106.712277,"is_transit":false,"transit":false,"time":4,"i_lat":-6.296963,"station_name":"Sudimara","station_id":"SDM","line":6,"distance":1994},{"station_id":"RU","i_long":106.675475,"line":6,"time":6,"transit":false,"i_lat":-6.314823,"distance":4566,"station_name":"Rawa Buntu","is_transit":false},{"distance":2413,"is_transit":false,"i_lat":-6.319871,"i_long":106.66566,"station_name":"Serpong","time":4,"line":6,"station_id":"SRP","transit":false},{"station_id":"CSK","i_lat":-6.32484,"i_long":106.640411,"time":4,"station_name":"Cisauk","distance":1784,"is_transit":false,"line":3,"transit":false},{"distance":2519,"i_lat":-6.329547,"i_long":106.617853,"station_name":"Cicayur","time":4,"transit":false,"station_id":"CC","line":3,"is_transit":false},{"transit":false,"is_transit":false,"station_name":"Parung Panjang","i_long":106.568863,"distance":5968,"station_id":"PRP","time":8,"i_lat":-6.3441410000000005,"line":6},{"distance":7025,"transit":false,"station_name":"Cilejit","i_lat":-6.354349,"i_long":106.508482,"station_id":"CJT","is_transit":false,"time":9,"line":3},{"i_long":106.491338,"station_id":"DAR","station_name":"Daru","distance":2675,"transit":false,"time":6,"i_lat":-6.338021,"line":0,"is_transit":false},{"station_id":"TEJ","station_name":"Tenjo","i_long":106.460812,"line":6,"transit":false,"is_transit":false,"distance":3902,"time":5,"i_lat":-6.327251},{"i_lat":-6.328533,"station_id":"TGS","i_long":106.425991,"transit":false,"station_name":"Tigaraksa","is_transit":false,"line":6,"distance":2974,"time":5}]]}