{"data":[[{"i_lat":-6.141205,"i_long":106.820901,"time":0,"station_id":"JAY","line":2,"is_transit":false,"distance":0,"station_name":"Jayakarta","transit":false},{"station_name":"Manggabesar","is_transit":false,"i_long":106.82482,"line":2,"distance":1080,"time":2,"transit":false,"station_id":"MGB","i_lat":-6.149769},{"is_transit":false,"line":2,"time":2,"station_id":"SW","transit":false,"i_long":106.827103,"i_lat":-6.160725,"distance":906,"station_name":"Sawah Besar"},{"is_transit":false,"line":2,"transit":false,"i_long":106.828284,"distance":1149,"time":2,"station_id":"JUA","station_name":"Juanda","i_lat":-6.166716},{"line":2,"station_name":"Gondangdia","is_transit":false,"station_id":"GDD","transit":false,"distance":2015,"i_long":106.832183,"i_lat":-6.186295,"time":4},{"station_name":"Cikini","is_transit":false,"time":3,"transit":false,"i_lat":-6.198556,"distance":1750,"line":2,"i_long":106.840169,"station_id":"CKI"},{"line":2,"transit":true,"station_id":"MRI","distance":1590,"i_lat":-6.209883,"station_name":"Manggarai","is_transit":true,"i_long":106.84912,"time":4},{"distance":1275,"i_long":106.858896,"is_transit":false,"line":1,"time":2,"transit":false,"i_lat":-6.212485,"station_name":"Matraman","station_id":"MTR"},{"i_long":106.86807400000001,"transit":false,"line":1,"i_lat":-6.215091,"distance":1377,"station_id":"JNG","station_name":"Jatinegara","time":8,"is_transit":false},{"is_transit":false,"distance":3395,"station_name":"Klender","transit":false,"station_id":"KLD","i_lat":-6.2135,"i_long":106.899548,"line":1,"time":3},{"station_id":"BUA","time":2,"i_long":106.922662,"station_name":"Buaran","line":1,"transit":false,"i_lat":-6.215568,"is_transit":false,"distance":3100},{"time":1,"transit":false,"distance":1305,"is_transit":false,"line":1,"i_lat":-6.217455,"i_long":106.939679,"station_id":"KLDB","station_name":"Klenderbaru"}],[{"i_lat":-6.141205,"station_name":"Jayakarta","line":2,"transit":false,"time":0,"distance":0,"station_id":"JAY","i_long":106.820901,"is_transit":false},{"time":4,"station_name":"Jakarta Kota","line":2,"distance":1264,"is_transit":true,"i_lat":-6.137569,"transit":true,"station_id":"JAKK","i_long":106.812439},{"station_id":"KPB","transit":true,"line":4,"distance":1364,"i_lat":-6.132549,"station_name":"Kampung Bandan","i_long":106.826365,"time":3,"is_transit":true},{"station_id":"RJW","is_transit":false,"station_name":"Rajawali","distance":1444,"i_lat":-6.14505,"line":11,"transit":false,"time":3,"i_long":106.836569},{"is_transit":false,"station_id":"KMO","station_name":"Kemayoran","distance":1901,"transit":false,"line":11,"time":5,"i_lat":-6.161728,"i_long":106.839204},{"station_name":"Pasar Senen","is_transit":false,"time":4,"i_lat":-6.174784,"line":11,"station_id":"PSE","transit":false,"i_long":106.84368,"distance":1436},{"line":11,"i_long":106.850107,"i_lat":-6.185975,"distance":1567,"is_transit":false,"station_id":"GST","time":8,"station_name":"Gang Sentiong","transit":false},{"line":11,"i_long":106.855437,"distance":973,"station_name":"Kramat","time":1,"i_lat":-6.193792,"is_transit":false,"station_id":"KMT","transit":false},{"line":11,"time":2,"i_lat":-6.209188,"i_long":106.861737,"is_transit":false,"station_name":"Pondok Jati","distance":1829,"station_id":"POK","transit":false},{"distance":1236,"i_long":106.86807400000001,"time":9,"is_transit":true,"i_lat":-6.215091,"station_id":"JNG","line":1,"transit":true,"station_name":"Jatinegara"},{"transit":false,"station_id":"KLD","station_name":"Klender","i_lat":-6.2135,"time":3,"line":1,"is_transit":false,"i_long":106.899548,"distance":3395},{"station_name":"Buaran","time":2,"station_id":"BUA","transit":false,"i_long":106.922662,"is_transit":false,"i_lat":-6.215568,"distance":3100,"line":1},{"distance":1305,"i_lat":-6.217455,"is_transit":false,"i_long":106.939679,"transit":false,"time":1,"station_id":"KLDB","station_name":"Klenderbaru","line":1}],[{"line":2,"station_name":"Jayakarta","transit":false,"i_long":106.820901,"time":0,"distance":0,"station_id":"JAY","is_transit":false,"i_lat":-6.141205},{"time":4,"is_transit":true,"transit":true,"distance":1264,"i_lat":-6.137569,"line":2,"i_long":106.812439,"station_id":"JAKK","station_name":"Jakarta Kota"},{"is_transit":true,"station_name":"Kampung Bandan","distance":1364,"i_lat":-6.132549,"i_long":106.826365,"transit":true,"line":4,"time":3,"station_id":"KPB"},{"distance":4102,"time":9,"line":1,"i_lat":-6.144674,"station_id":"AK","transit":false,"is_transit":false,"i_long":106.79867,"station_name":"Angke"},{"i_lat":-6.155215,"is_transit":false,"transit":false,"i_long":106.800832,"time":4,"station_id":"DU","station_name":"Duri","line":1,"distance":1230},{"station_id":"THB","i_long":106.811091,"distance":3632,"time":8,"transit":false,"station_name":"Tanah Abang","line":1,"i_lat":-6.185545,"is_transit":false},{"line":1,"station_id":"KAT","i_lat":-6.20132,"distance":2029,"time":5,"transit":false,"i_long":106.816351,"station_name":"Karet","is_transit":false},{"station_name":"Sudirman Baru","i_long":106.819881,"distance":471,"is_transit":false,"i_lat":-6.201433,"time":1,"station_id":"SUDB","transit":false,"line":1},{"i_long":106.822649,"distance":280,"station_name":"Sudirman","is_transit":false,"station_id":"SUD","transit":false,"line":1,"i_lat":-6.202263,"time":1},{"i_lat":-6.209883,"station_id":"MRI","is_transit":false,"line":2,"i_long":106.84912,"station_name":"Manggarai","time":4,"distance":3186,"transit":false},{"station_name":"Matraman","distance":1275,"station_id":"MTR","i_lat":-6.212485,"transit":false,"line":1,"is_transit":false,"i_long":106.858896,"time":2},{"is_transit":false,"i_lat":-6.215091,"station_id":"JNG","distance":1377,"station_name":"Jatinegara","time":8,"i_long":106.86807400000001,"transit":false,"line":1},{"line":1,"station_name":"Klender","time":3,"transit":false,"i_long":106.899548,"is_transit":false,"station_id":"KLD","distance":3395,"i_lat":-6.2135},{"i_long":106.922662,"time":2,"i_lat":-6.215568,"line":1,"distance":3100,"station_name":"Buaran","is_transit":false,"transit":false,"station_id":"BUA"},{"distance":1305,"station_id":"KLDB","line":1,"time":1,"station_name":"Klenderbaru","transit":false,"is_transit":false,"i_lat":-6.217455,"i_long":106.939679}],[{"transit":false,"distance":0,"station_id":"JAY","station_name":"Jayakarta","i_long":106.820901,"is_transit":false,"line":2,"time":0,"i_lat":-6.141205},{"station_name":"Manggabesar","i_long":106.82482,"transit":false,"is_transit":false,"time":2,"line":2,"i_lat":-6.149769,"distance":1080,"station_id":"MGB"},{"is_transit":false,"i_lat":-6.160725,"line":2,"i_long":106.827103,"distance":906,"time":2,"transit":false,"station_id":"SW","station_name":"Sawah Besar"},{"time":2,"i_long":106.828284,"transit":false,"station_id":"JUA","distance":1149,"is_transit":false,"station_name":"Juanda","line":2,"i_lat":-6.166716},{"transit":false,"is_transit":false,"i_long":106.832183,"time":4,"station_name":"Gondangdia","station_id":"GDD","line":2,"distance":2015,"i_lat":-6.186295},{"i_lat":-6.198556,"transit":false,"distance":1750,"station_name":"Cikini","is_transit":false,"i_long":106.840169,"time":3,"line":2,"station_id":"CKI"},{"transit":true,"station_name":"Manggarai","station_id":"MRI","is_transit":true,"distance":1590,"time":4,"i_lat":-6.209883,"i_long":106.84912,"line":2},{"distance":3186,"i_long":106.822649,"time":4,"line":1,"station_id":"SUD","station_name":"Sudirman","is_transit":false,"i_lat":-6.202263,"transit":false},{"i_lat":-6.201433,"distance":280,"line":1,"time":1,"i_long":106.819881,"transit":false,"station_id":"SUDB","station_name":"Sudirman Baru","is_transit":false},{"i_lat":-6.20132,"line":1,"i_long":106.816351,"station_name":"Karet","distance":471,"is_transit":false,"time":1,"station_id":"KAT","transit":false},{"station_id":"THB","distance":2029,"station_name":"Tanah Abang","i_lat":-6.185545,"is_transit":false,"line":1,"transit":false,"time":5,"i_long":106.811091},{"station_id":"DU","time":8,"station_name":"Duri","distance":3632,"is_transit":false,"i_lat":-6.155215,"transit":false,"i_long":106.800832,"line":1},{"distance":1230,"station_name":"Angke","i_lat":-6.144674,"station_id":"AK","is_transit":false,"transit":false,"line":1,"i_long":106.79867,"time":4},{"distance":4102,"station_id":"KPB","station_name":"Kampung Bandan","i_lat":-6.132549,"line":4,"i_long":106.826365,"transit":true,"time":9,"is_transit":true},{"station_id":"RJW","transit":false,"i_lat":-6.14505,"i_long":106.836569,"is_transit":false,"line":11,"station_name":"Rajawali","distance":1444,"time":3},{"distance":1901,"is_transit":false,"line":11,"i_long":106.839204,"transit":false,"station_id":"KMO","time":5,"station_name":"Kemayoran","i_lat":-6.161728},{"station_name":"Pasar Senen","is_transit":false,"i_long":106.84368,"distance":1436,"time":4,"station_id":"PSE","i_lat":-6.174784,"line":11,"transit":false},{"i_long":106.850107,"is_transit":false,"i_lat":-6.185975,"line":11,"station_id":"GST","transit":false,"station_name":"Gang Sentiong","time":8,"distance":1567},{"transit":false,"i_lat":-6.193792,"i_long":106.855437,"line":11,"distance":973,"time":1,"is_transit":false,"station_name":"Kramat","station_id":"KMT"},{"station_id":"POK","line":11,"transit":false,"i_lat":-6.209188,"is_transit":false,"i_long":106.861737,"time":2,"station_name":"Pondok Jati","distance":1829},{"transit":true,"time":9,"station_id":"JNG","is_transit":true,"i_long":106.86807400000001,"distance":1236,"line":1,"station_name":"Jatinegara","i_lat":-6.215091},{"i_lat":-6.2135,"line":1,"time":3,"station_name":"Klender","is_transit":false,"i_long":106.899548,"transit":false,"station_id":"KLD","distance":3395},{"distance":3100,"is_transit":false,"time":2,"i_long":106.922662,"station_id":"BUA","station_name":"Buaran","i_lat":-6.215568,"transit":false,"line":1},{"station_id":"KLDB","line":1,"is_transit":false,"i_lat":-6.217455,"time":1,"transit":false,"i_long":106.939679,"distance":1305,"station_name":"Klenderbaru"}]]}