{"data":[[{"station_name":"Jayakarta","i_lat":-6.141205,"time":0,"transit":false,"is_transit":false,"distance":0,"station_id":"JAY","i_long":106.820901,"line":2},{"station_id":"JAKK","transit":true,"is_transit":true,"i_long":106.812439,"line":2,"distance":1264,"i_lat":-6.137569,"station_name":"Jakarta Kota","time":4},{"station_name":"Kampung Bandan","transit":true,"station_id":"KPB","distance":1364,"i_long":106.826365,"line":4,"time":3,"is_transit":true,"i_lat":-6.132549},{"distance":4102,"i_lat":-6.144674,"line":1,"station_name":"Angke","time":9,"i_long":106.79867,"is_transit":false,"transit":false,"station_id":"AK"},{"time":4,"distance":1230,"transit":false,"i_long":106.800832,"line":1,"station_id":"DU","i_lat":-6.155215,"is_transit":false,"station_name":"Duri"},{"station_id":"THB","is_transit":true,"station_name":"Tanah Abang","i_long":106.811091,"line":1,"i_lat":-6.185545,"transit":true,"time":8,"distance":3632},{"line":6,"time":6,"distance":3191,"station_id":"PLM","i_long":106.79689,"is_transit":false,"transit":false,"i_lat":-6.207404,"station_name":"Palmerah"},{"i_lat":-6.237242,"station_name":"Kebayoran","is_transit":false,"time":7,"distance":3737,"i_long":106.780334,"station_id":"KBY","line":6,"transit":false},{"line":6,"i_lat":-6.276362,"i_long":106.74273,"transit":false,"station_name":"Pondokranji","is_transit":false,"time":8,"distance":6218,"station_id":"PDJ"},{"station_id":"JMU","time":3,"station_name":"Jurangmangu","line":6,"is_transit":false,"transit":false,"distance":2179,"i_lat":-6.288927,"i_long":106.728916},{"station_id":"SDM","i_lat":-6.296963,"time":4,"i_long":106.712277,"line":6,"station_name":"Sudimara","distance":1994,"transit":false,"is_transit":false},{"transit":false,"is_transit":false,"time":6,"line":6,"station_name":"Rawa Buntu","station_id":"RU","distance":4566,"i_lat":-6.314823,"i_long":106.675475},{"transit":false,"station_name":"Serpong","distance":2413,"line":6,"station_id":"SRP","i_long":106.66566,"time":4,"i_lat":-6.319871,"is_transit":false},{"i_long":106.640411,"station_name":"Cisauk","distance":1784,"is_transit":false,"transit":false,"time":4,"station_id":"CSK","i_lat":-6.32484,"line":3},{"distance":2519,"is_transit":false,"station_id":"CC","i_lat":-6.329547,"i_long":106.617853,"line":3,"time":4,"station_name":"Cicayur","transit":false},{"transit":false,"i_lat":-6.3441410000000005,"time":8,"line":6,"is_transit":false,"station_name":"Parung Panjang","i_long":106.568863,"station_id":"PRP","distance":5968},{"i_lat":-6.354349,"distance":7025,"time":9,"station_id":"CJT","station_name":"Cilejit","i_long":106.508482,"transit":false,"is_transit":false,"line":3},{"distance":2675,"time":6,"station_id":"DAR","line":0,"i_lat":-6.338021,"transit":false,"i_long":106.491338,"station_name":"Daru","is_transit":false},{"station_id":"TEJ","i_long":106.460812,"distance":3902,"is_transit":false,"i_lat":-6.327251,"line":6,"station_name":"Tenjo","time":5,"transit":false},{"transit":false,"i_long":106.425991,"i_lat":-6.328533,"station_id":"TGS","time":5,"distance":2974,"station_name":"Tigaraksa","line":6,"is_transit":false},{"i_long":106.411216,"distance":2651,"is_transit":false,"i_lat":-6.33561,"line":3,"time":3,"station_id":"CKY","station_name":"Cikoya","transit":false},{"i_long":106.394373,"time":4,"transit":false,"is_transit":false,"station_id":"MJ","distance":1853,"i_lat":-6.332307,"station_name":"Maja","line":6},{"i_lat":-6.334892,"distance":7293,"i_long":106.332092,"line":3,"time":10,"station_name":"Citeras","transit":false,"station_id":"CTR","is_transit":false},{"i_long":106.250396,"line":3,"station_name":"Rangkasbitung","time":13,"is_transit":false,"station_id":"RK","i_lat":-6.352675,"distance":9847,"transit":false}],[{"i_lat":-6.141205,"station_name":"Jayakarta","distance":0,"transit":false,"is_transit":false,"line":2,"i_long":106.820901,"time":0,"station_id":"JAY"},{"station_id":"MGB","i_lat":-6.149769,"line":2,"distance":1080,"is_transit":false,"transit":false,"time":2,"i_long":106.82482,"station_name":"Manggabesar"},{"transit":false,"i_long":106.827103,"i_lat":-6.160725,"distance":906,"station_name":"Sawah Besar","time":2,"line":2,"is_transit":false,"station_id":"SW"},{"station_name":"Juanda","time":2,"line":2,"transit":false,"station_id":"JUA","distance":1149,"is_transit":false,"i_lat":-6.166716,"i_long":106.828284},{"transit":false,"i_lat":-6.186295,"line":2,"station_id":"GDD","i_long":106.832183,"distance":2015,"station_name":"Gondangdia","time":4,"is_transit":false},{"time":3,"station_name":"Cikini","i_lat":-6.198556,"transit":false,"station_id":"CKI","i_long":106.840169,"distance":1750,"is_transit":false,"line":2},{"time":4,"is_transit":true,"i_lat":-6.209883,"line":2,"distance":1590,"station_name":"Manggarai","station_id":"MRI","i_long":106.84912,"transit":true},{"i_lat":-6.202263,"transit":false,"line":1,"station_id":"SUD","i_long":106.822649,"time":4,"distance":3186,"station_name":"Sudirman","is_transit":false},{"is_transit":false,"transit":false,"i_lat":-6.201433,"line":1,"time":1,"distance":280,"station_id":"SUDB","i_long":106.819881,"station_name":"Sudirman Baru"},{"station_id":"KAT","distance":471,"station_name":"Karet","i_long":106.816351,"line":1,"time":1,"is_transit":false,"i_lat":-6.20132,"transit":false},{"station_name":"Tanah Abang","i_long":106.811091,"time":5,"is_transit":true,"distance":2029,"i_lat":-6.185545,"line":1,"transit":true,"station_id":"THB"},{"distance":3191,"i_long":106.79689,"line":6,"is_transit":false,"i_lat":-6.207404,"station_name":"Palmerah","transit":false,"station_id":"PLM","time":6},{"time":7,"station_name":"Kebayoran","line":6,"i_lat":-6.237242,"transit":false,"distance":3737,"is_transit":false,"i_long":106.780334,"station_id":"KBY"},{"line":6,"station_name":"Pondokranji","is_transit":false,"i_long":106.74273,"station_id":"PDJ","distance":6218,"transit":false,"i_lat":-6.276362,"time":8},{"distance":2179,"is_transit":false,"i_lat":-6.288927,"line":6,"station_id":"JMU","station_name":"Jurangmangu","transit":false,"time":3,"i_long":106.728916},{"i_long":106.712277,"transit":false,"station_id":"SDM","is_transit":false,"distance":1994,"line":6,"time":4,"station_name":"Sudimara","i_lat":-6.296963},{"i_long":106.675475,"i_lat":-6.314823,"station_name":"Rawa Buntu","station_id":"RU","line":6,"distance":4566,"is_transit":false,"time":6,"transit":false},{"line":6,"distance":2413,"i_long":106.66566,"time":4,"transit":false,"station_id":"SRP","station_name":"Serpong","is_transit":false,"i_lat":-6.319871},{"i_lat":-6.32484,"station_id":"CSK","transit":false,"time":4,"station_name":"Cisauk","i_long":106.640411,"line":3,"distance":1784,"is_transit":false},{"is_transit":false,"i_lat":-6.329547,"station_name":"Cicayur","time":4,"line":3,"station_id":"CC","i_long":106.617853,"transit":false,"distance":2519},{"i_lat":-6.3441410000000005,"transit":false,"line":6,"station_id":"PRP","i_long":106.568863,"distance":5968,"time":8,"station_name":"Parung Panjang","is_transit":false},{"i_lat":-6.354349,"transit":false,"i_long":106.508482,"station_name":"Cilejit","distance":7025,"line":3,"station_id":"CJT","is_transit":false,"time":9},{"station_id":"DAR","time":6,"station_name":"Daru","is_transit":false,"i_lat":-6.338021,"transit":false,"line":0,"distance":2675,"i_long":106.491338},{"station_id":"TEJ","line":6,"time":5,"station_name":"Tenjo","is_transit":false,"i_lat":-6.327251,"distance":3902,"i_long":106.460812,"transit":false},{"station_id":"TGS","is_transit":false,"i_lat":-6.328533,"transit":false,"station_name":"Tigaraksa","distance":2974,"time":5,"i_long":106.425991,"line":6},{"station_name":"Cikoya","i_lat":-6.33561,"i_long":106.411216,"transit":false,"line":3,"time":3,"is_transit":false,"station_id":"CKY","distance":2651},{"is_transit":false,"station_name":"Maja","i_long":106.394373,"station_id":"MJ","time":4,"i_lat":-6.332307,"distance":1853,"line":6,"transit":false},{"is_transit":false,"distance":7293,"i_lat":-6.334892,"transit":false,"station_id":"CTR","station_name":"Citeras","time":10,"i_long":106.332092,"line":3},{"time":13,"i_lat":-6.352675,"i_long":106.250396,"station_id":"RK","station_name":"Rangkasbitung","transit":false,"is_transit":false,"distance":9847,"line":3}],[{"station_id":"JAY","distance":0,"i_long":106.820901,"line":2,"station_name":"Jayakarta","is_transit":false,"time":0,"transit":false,"i_lat":-6.141205},{"i_long":106.812439,"distance":1264,"station_name":"Jakarta Kota","is_transit":true,"time":4,"line":2,"transit":true,"i_lat":-6.137569,"station_id":"JAKK"},{"is_transit":true,"distance":1364,"station_id":"KPB","i_long":106.826365,"transit":true,"station_name":"Kampung Bandan","line":4,"i_lat":-6.132549,"time":3},{"distance":1444,"i_lat":-6.14505,"time":3,"i_long":106.836569,"station_name":"Rajawali","transit":false,"line":11,"is_transit":false,"station_id":"RJW"},{"transit":false,"time":5,"station_id":"KMO","i_lat":-6.161728,"station_name":"Kemayoran","is_transit":false,"i_long":106.839204,"line":11,"distance":1901},{"station_id":"PSE","i_lat":-6.174784,"distance":1436,"transit":false,"i_long":106.84368,"line":11,"station_name":"Pasar Senen","time":4,"is_transit":false},{"is_transit":false,"station_id":"GST","time":8,"transit":false,"station_name":"Gang Sentiong","distance":1567,"line":11,"i_lat":-6.185975,"i_long":106.850107},{"i_long":106.855437,"time":1,"is_transit":false,"line":11,"transit":false,"distance":973,"station_id":"KMT","station_name":"Kramat","i_lat":-6.193792},{"i_lat":-6.209188,"station_id":"POK","station_name":"Pondok Jati","is_transit":false,"i_long":106.861737,"time":2,"line":11,"transit":false,"distance":1829},{"is_transit":true,"line":1,"transit":true,"i_long":106.86807400000001,"station_id":"JNG","time":9,"distance":1236,"i_lat":-6.215091,"station_name":"Jatinegara"},{"time":2,"is_transit":false,"line":1,"i_lat":-6.212485,"station_name":"Matraman","transit":false,"i_long":106.858896,"station_id":"MTR","distance":1377},{"i_long":106.84912,"time":2,"distance":1275,"transit":false,"station_name":"Manggarai","station_id":"MRI","line":2,"is_transit":false,"i_lat":-6.209883},{"is_transit":false,"time":4,"i_lat":-6.202263,"station_name":"Sudirman","station_id":"SUD","i_long":106.822649,"transit":false,"distance":3186,"line":1},{"is_transit":false,"i_lat":-6.201433,"i_long":106.819881,"line":1,"distance":280,"time":1,"transit":false,"station_id":"SUDB","station_name":"Sudirman Baru"},{"distance":471,"i_lat":-6.20132,"transit":false,"i_long":106.816351,"station_name":"Karet","is_transit":false,"line":1,"time":1,"station_id":"KAT"},{"line":1,"station_name":"Tanah Abang","i_lat":-6.185545,"is_transit":true,"i_long":106.811091,"station_id":"THB","transit":true,"distance":2029,"time":5},{"distance":3191,"station_id":"PLM","i_long":106.79689,"line":6,"transit":false,"station_name":"Palmerah","time":6,"is_transit":false,"i_lat":-6.207404},{"i_lat":-6.237242,"transit":false,"time":7,"i_long":106.780334,"is_transit":false,"station_id":"KBY","station_name":"Kebayoran","line":6,"distance":3737},{"time":8,"distance":6218,"is_transit":false,"station_id":"PDJ","i_lat":-6.276362,"station_name":"Pondokranji","transit":false,"i_long":106.74273,"line":6},{"i_long":106.728916,"time":3,"station_id":"JMU","i_lat":-6.288927,"transit":false,"is_transit":false,"station_name":"Jurangmangu","distance":2179,"line":6},{"is_transit":false,"i_lat":-6.296963,"line":6,"distance":1994,"transit":false,"station_id":"SDM","time":4,"station_name":"Sudimara","i_long":106.712277},{"i_lat":-6.314823,"transit":false,"i_long":106.675475,"distance":4566,"line":6,"station_name":"Rawa Buntu","station_id":"RU","is_transit":false,"time":6},{"transit":false,"station_name":"Serpong","i_lat":-6.319871,"i_long":106.66566,"station_id":"SRP","line":6,"is_transit":false,"time":4,"distance":2413},{"i_long":106.640411,"line":3,"station_id":"CSK","distance":1784,"time":4,"station_name":"Cisauk","transit":false,"i_lat":-6.32484,"is_transit":false},{"station_id":"CC","station_name":"Cicayur","is_transit":false,"distance":2519,"line":3,"i_long":106.617853,"i_lat":-6.329547,"transit":false,"time":4},{"line":6,"station_id":"PRP","station_name":"Parung Panjang","distance":5968,"time":8,"i_lat":-6.3441410000000005,"is_transit":false,"transit":false,"i_long":106.568863},{"transit":false,"i_long":106.508482,"station_id":"CJT","station_name":"Cilejit","time":9,"is_transit":false,"i_lat":-6.354349,"distance":7025,"line":3},{"station_name":"Daru","line":0,"distance":2675,"i_long":106.491338,"transit":false,"is_transit":false,"time":6,"i_lat":-6.338021,"station_id":"DAR"},{"i_lat":-6.327251,"station_name":"Tenjo","transit":false,"is_transit":false,"station_id":"TEJ","distance":3902,"i_long":106.460812,"line":6,"time":5},{"is_transit":false,"time":5,"line":6,"transit":false,"station_id":"TGS","i_lat":-6.328533,"i_long":106.425991,"distance":2974,"station_name":"Tigaraksa"},{"station_id":"CKY","i_lat":-6.33561,"transit":false,"station_name":"Cikoya","i_long":106.411216,"time":3,"distance":2651,"is_transit":false,"line":3},{"distance":1853,"i_lat":-6.332307,"time":4,"is_transit":false,"station_name":"Maja","station_id":"MJ","transit":false,"i_long":106.394373,"line":6},{"transit":false,"time":10,"distance":7293,"i_long":106.332092,"line":3,"station_id":"CTR","station_name":"Citeras","is_transit":false,"i_lat":-6.334892},{"is_transit":false,"time":13,"line":3,"station_name":"Rangkasbitung","transit":false,"i_lat":-6.352675,"distance":9847,"i_long":106.250396,"station_id":"RK"}],[{"station_name":"Jayakarta","is_transit":false,"distance":0,"i_long":106.820901,"i_lat":-6.141205,"time":0,"transit":false,"station_id":"JAY","line":2},{"station_name":"Manggabesar","transit":false,"station_id":"MGB","is_transit":false,"i_long":106.82482,"distance":1080,"time":2,"i_lat":-6.149769,"line":2},{"i_lat":-6.160725,"line":2,"i_long":106.827103,"is_transit":false,"time":2,"transit":false,"station_name":"Sawah Besar","station_id":"SW","distance":906},{"station_id":"JUA","i_lat":-6.166716,"transit":false,"i_long":106.828284,"line":2,"is_transit":false,"distance":1149,"time":2,"station_name":"Juanda"},{"time":4,"is_transit":false,"distance":2015,"line":2,"i_lat":-6.186295,"transit":false,"station_id":"GDD","i_long":106.832183,"station_name":"Gondangdia"},{"time":3,"line":2,"station_id":"CKI","is_transit":false,"station_name":"Cikini","distance":1750,"transit":false,"i_lat":-6.198556,"i_long":106.840169},{"station_id":"MRI","station_name":"Manggarai","distance":1590,"is_transit":true,"time":4,"transit":true,"i_long":106.84912,"i_lat":-6.209883,"line":2},{"station_name":"Matraman","is_transit":false,"transit":false,"time":2,"station_id":"MTR","distance":1275,"i_long":106.858896,"line":1,"i_lat":-6.212485},{"is_transit":true,"station_id":"JNG","transit":true,"time":8,"distance":1377,"i_long":106.86807400000001,"station_name":"Jatinegara","i_lat":-6.215091,"line":1},{"is_transit":false,"time":2,"distance":1236,"i_lat":-6.209188,"transit":false,"i_long":106.861737,"station_id":"POK","line":11,"station_name":"Pondok Jati"},{"station_name":"Kramat","time":2,"line":11,"transit":false,"is_transit":false,"distance":1829,"i_lat":-6.193792,"station_id":"KMT","i_long":106.855437},{"i_long":106.850107,"station_id":"GST","time":1,"line":11,"station_name":"Gang Sentiong","distance":973,"i_lat":-6.185975,"transit":false,"is_transit":false},{"transit":false,"station_id":"PSE","is_transit":false,"time":8,"distance":1567,"i_long":106.84368,"station_name":"Pasar Senen","line":11,"i_lat":-6.174784},{"station_id":"KMO","time":4,"station_name":"Kemayoran","i_long":106.839204,"line":11,"is_transit":false,"i_lat":-6.161728,"distance":1436,"transit":false},{"i_lat":-6.14505,"i_long":106.836569,"transit":false,"is_transit":false,"station_name":"Rajawali","time":5,"station_id":"RJW","distance":1901,"line":11},{"station_name":"Kampung Bandan","is_transit":true,"i_long":106.826365,"transit":true,"distance":1444,"line":4,"i_lat":-6.132549,"station_id":"KPB","time":3},{"line":1,"is_transit":false,"station_name":"Angke","station_id":"AK","time":9,"i_long":106.79867,"distance":4102,"transit":false,"i_lat":-6.144674},{"line":1,"distance":1230,"station_name":"Duri","i_lat":-6.155215,"i_long":106.800832,"transit":false,"station_id":"DU","is_transit":false,"time":4},{"distance":3632,"i_long":106.811091,"station_name":"Tanah Abang","i_lat":-6.185545,"station_id":"THB","is_transit":true,"line":1,"transit":true,"time":8},{"time":6,"is_transit":false,"i_long":106.79689,"i_lat":-6.207404,"distance":3191,"station_name":"Palmerah","transit":false,"line":6,"station_id":"PLM"},{"time":7,"station_id":"KBY","i_long":106.780334,"station_name":"Kebayoran","transit":false,"distance":3737,"i_lat":-6.237242,"line":6,"is_transit":false},{"i_lat":-6.276362,"transit":false,"distance":6218,"i_long":106.74273,"line":6,"time":8,"is_transit":false,"station_name":"Pondokranji","station_id":"PDJ"},{"time":3,"station_id":"JMU","distance":2179,"station_name":"Jurangmangu","i_long":106.728916,"transit":false,"i_lat":-6.288927,"line":6,"is_transit":false},{"station_id":"SDM","i_lat":-6.296963,"line":6,"transit":false,"time":4,"distance":1994,"is_transit":false,"i_long":106.712277,"station_name":"Sudimara"},{"transit":false,"i_lat":-6.314823,"station_id":"RU","station_name":"Rawa Buntu","distance":4566,"i_long":106.675475,"is_transit":false,"time":6,"line":6},{"time":4,"transit":false,"i_lat":-6.319871,"is_transit":false,"station_name":"Serpong","distance":2413,"i_long":106.66566,"station_id":"SRP","line":6},{"distance":1784,"station_id":"CSK","is_transit":false,"i_long":106.640411,"station_name":"Cisauk","time":4,"transit":false,"i_lat":-6.32484,"line":3},{"line":3,"distance":2519,"station_name":"Cicayur","station_id":"CC","transit":false,"i_lat":-6.329547,"is_transit":false,"time":4,"i_long":106.617853},{"distance":5968,"station_name":"Parung Panjang","i_lat":-6.3441410000000005,"is_transit":false,"line":6,"station_id":"PRP","i_long":106.568863,"time":8,"transit":false},{"station_id":"CJT","station_name":"Cilejit","i_lat":-6.354349,"distance":7025,"i_long":106.508482,"line":3,"time":9,"transit":false,"is_transit":false},{"station_id":"DAR","distance":2675,"i_long":106.491338,"is_transit":false,"transit":false,"time":6,"line":0,"station_name":"Daru","i_lat":-6.338021},{"is_transit":false,"distance":3902,"i_lat":-6.327251,"time":5,"line":6,"station_name":"Tenjo","station_id":"TEJ","transit":false,"i_long":106.460812},{"transit":false,"i_lat":-6.328533,"i_long":106.425991,"line":6,"station_id":"TGS","time":5,"distance":2974,"station_name":"Tigaraksa","is_transit":false},{"time":3,"i_long":106.411216,"station_name":"Cikoya","station_id":"CKY","transit":false,"is_transit":false,"i_lat":-6.33561,"distance":2651,"line":3},{"station_name":"Maja","is_transit":false,"transit":false,"station_id":"MJ","i_long":106.394373,"line":6,"time":4,"distance":1853,"i_lat":-6.332307},{"is_transit":false,"station_id":"CTR","line":3,"time":10,"distance":7293,"i_long":106.332092,"i_lat":-6.334892,"station_name":"Citeras","transit":false},{"distance":9847,"i_lat":-6.352675,"transit":false,"is_transit":false,"station_name":"Rangkasbitung","station_id":"RK","time":13,"i_long":106.250396,"line":3}]]}