{"data":[[{"i_long":106.820901,"line":2,"is_transit":false,"station_name":"Jayakarta","time":0,"distance":0,"station_id":"JAY","i_lat":-6.141205,"transit":false},{"is_transit":false,"distance":1080,"station_id":"MGB","i_lat":-6.149769,"i_long":106.82482,"time":2,"line":2,"station_name":"Manggabesar","transit":false},{"i_lat":-6.160725,"i_long":106.827103,"is_transit":false,"station_name":"Sawah Besar","line":2,"time":2,"station_id":"SW","transit":false,"distance":906},{"i_lat":-6.166716,"distance":1149,"i_long":106.828284,"line":2,"station_id":"JUA","time":2,"station_name":"Juanda","transit":false,"is_transit":false},{"station_name":"Gondangdia","transit":false,"i_long":106.832183,"is_transit":false,"line":2,"i_lat":-6.186295,"distance":2015,"station_id":"GDD","time":4},{"is_transit":false,"time":3,"transit":false,"station_name":"Cikini","distance":1750,"station_id":"CKI","i_long":106.840169,"i_lat":-6.198556,"line":2},{"station_id":"MRI","distance":1590,"transit":true,"i_lat":-6.209883,"time":4,"line":2,"is_transit":true,"station_name":"Manggarai","i_long":106.84912},{"time":2,"transit":false,"i_lat":-6.212485,"is_transit":false,"i_long":106.858896,"distance":1275,"station_id":"MTR","station_name":"Matraman","line":1},{"distance":1377,"station_id":"JNG","i_lat":-6.215091,"i_long":106.86807400000001,"line":1,"station_name":"Jatinegara","is_transit":false,"transit":false,"time":8},{"is_transit":false,"station_name":"Klender","time":3,"distance":3395,"i_long":106.899548,"transit":false,"station_id":"KLD","i_lat":-6.2135,"line":1},{"distance":3100,"station_name":"Buaran","is_transit":false,"transit":false,"i_lat":-6.215568,"i_long":106.922662,"station_id":"BUA","line":1,"time":2},{"line":1,"time":1,"station_name":"Klenderbaru","distance":1305,"i_lat":-6.217455,"transit":false,"is_transit":false,"station_id":"KLDB","i_long":106.939679},{"station_id":"CUK","i_lat":-6.219053,"line":1,"time":8,"i_long":106.951283,"transit":false,"distance":1385,"is_transit":false,"station_name":"Cakung"}],[{"transit":false,"is_transit":false,"distance":0,"i_lat":-6.141205,"station_id":"JAY","i_long":106.820901,"station_name":"Jayakarta","line":2,"time":0},{"station_id":"JAKK","line":2,"transit":true,"time":4,"i_lat":-6.137569,"distance":1264,"is_transit":true,"i_long":106.812439,"station_name":"Jakarta Kota"},{"station_name":"Kampung Bandan","distance":1364,"is_transit":true,"station_id":"KPB","i_long":106.826365,"transit":true,"time":3,"i_lat":-6.132549,"line":4},{"transit":false,"is_transit":false,"line":11,"time":3,"station_name":"Rajawali","distance":1444,"station_id":"RJW","i_lat":-6.14505,"i_long":106.836569},{"is_transit":false,"station_name":"Kemayoran","time":5,"distance":1901,"station_id":"KMO","i_lat":-6.161728,"i_long":106.839204,"line":11,"transit":false},{"time":4,"transit":false,"station_name":"Pasar Senen","i_lat":-6.174784,"is_transit":false,"station_id":"PSE","i_long":106.84368,"distance":1436,"line":11},{"i_lat":-6.185975,"distance":1567,"transit":false,"station_id":"GST","is_transit":false,"line":11,"station_name":"Gang Sentiong","time":8,"i_long":106.850107},{"i_long":106.855437,"is_transit":false,"time":1,"distance":973,"transit":false,"line":11,"station_name":"Kramat","station_id":"KMT","i_lat":-6.193792},{"is_transit":false,"station_name":"Pondok Jati","time":2,"transit":false,"i_long":106.861737,"station_id":"POK","distance":1829,"line":11,"i_lat":-6.209188},{"i_lat":-6.215091,"transit":true,"is_transit":true,"time":9,"line":1,"i_long":106.86807400000001,"station_name":"Jatinegara","distance":1236,"station_id":"JNG"},{"i_long":106.899548,"station_name":"Klender","transit":false,"distance":3395,"i_lat":-6.2135,"time":3,"station_id":"KLD","is_transit":false,"line":1},{"i_lat":-6.215568,"station_id":"BUA","distance":3100,"transit":false,"station_name":"Buaran","line":1,"time":2,"i_long":106.922662,"is_transit":false},{"is_transit":false,"line":1,"station_name":"Klenderbaru","station_id":"KLDB","distance":1305,"i_lat":-6.217455,"time":1,"transit":false,"i_long":106.939679},{"transit":false,"i_lat":-6.219053,"time":8,"station_id":"CUK","line":1,"distance":1385,"station_name":"Cakung","is_transit":false,"i_long":106.951283}],[{"line":2,"i_lat":-6.141205,"is_transit":false,"distance":0,"i_long":106.820901,"transit":false,"station_name":"Jayakarta","time":0,"station_id":"JAY"},{"station_id":"JAKK","i_lat":-6.137569,"distance":1264,"is_transit":true,"i_long":106.812439,"time":4,"line":2,"station_name":"Jakarta Kota","transit":true},{"is_transit":true,"i_long":106.826365,"i_lat":-6.132549,"transit":true,"distance":1364,"line":4,"time":3,"station_id":"KPB","station_name":"Kampung Bandan"},{"distance":4102,"line":1,"transit":false,"station_id":"AK","is_transit":false,"station_name":"Angke","i_lat":-6.144674,"time":9,"i_long":106.79867},{"line":1,"distance":1230,"station_id":"DU","i_lat":-6.155215,"time":4,"transit":false,"is_transit":false,"i_long":106.800832,"station_name":"Duri"},{"station_id":"THB","line":1,"station_name":"Tanah Abang","i_lat":-6.185545,"distance":3632,"is_transit":false,"time":8,"i_long":106.811091,"transit":false},{"station_name":"Karet","transit":false,"distance":2029,"i_long":106.816351,"is_transit":false,"station_id":"KAT","time":5,"i_lat":-6.20132,"line":1},{"distance":471,"i_long":106.819881,"station_id":"SUDB","time":1,"i_lat":-6.201433,"is_transit":false,"line":1,"transit":false,"station_name":"Sudirman Baru"},{"distance":280,"i_lat":-6.202263,"transit":false,"line":1,"i_long":106.822649,"station_name":"Sudirman","time":1,"is_transit":false,"station_id":"SUD"},{"station_name":"Manggarai","i_lat":-6.209883,"i_long":106.84912,"transit":false,"is_transit":false,"line":2,"station_id":"MRI","time":4,"distance":3186},{"i_lat":-6.212485,"distance":1275,"i_long":106.858896,"time":2,"station_id":"MTR","line":1,"transit":false,"is_transit":false,"station_name":"Matraman"},{"distance":1377,"i_lat":-6.215091,"i_long":106.86807400000001,"line":1,"is_transit":false,"station_id":"JNG","station_name":"Jatinegara","transit":false,"time":8},{"station_id":"KLD","is_transit":false,"i_lat":-6.2135,"line":1,"transit":false,"time":3,"distance":3395,"i_long":106.899548,"station_name":"Klender"},{"i_long":106.922662,"station_id":"BUA","line":1,"is_transit":false,"time":2,"station_name":"Buaran","distance":3100,"i_lat":-6.215568,"transit":false},{"is_transit":false,"line":1,"i_long":106.939679,"transit":false,"i_lat":-6.217455,"distance":1305,"time":1,"station_id":"KLDB","station_name":"Klenderbaru"},{"station_name":"Cakung","time":8,"i_lat":-6.219053,"station_id":"CUK","transit":false,"is_transit":false,"distance":1385,"line":1,"i_long":106.951283}],[{"distance":0,"i_lat":-6.141205,"i_long":106.820901,"line":2,"is_transit":false,"station_name":"Jayakarta","station_id":"JAY","transit":false,"time":0},{"transit":false,"station_id":"MGB","line":2,"station_name":"Manggabesar","is_transit":false,"i_lat":-6.149769,"time":2,"distance":1080,"i_long":106.82482},{"transit":false,"is_transit":false,"i_long":106.827103,"distance":906,"time":2,"i_lat":-6.160725,"station_name":"Sawah Besar","station_id":"SW","line":2},{"line":2,"station_name":"Juanda","i_lat":-6.166716,"i_long":106.828284,"transit":false,"time":2,"is_transit":false,"distance":1149,"station_id":"JUA"},{"distance":2015,"transit":false,"line":2,"is_transit":false,"i_lat":-6.186295,"station_id":"GDD","station_name":"Gondangdia","time":4,"i_long":106.832183},{"station_id":"CKI","i_lat":-6.198556,"station_name":"Cikini","i_long":106.840169,"is_transit":false,"distance":1750,"time":3,"line":2,"transit":false},{"station_name":"Manggarai","distance":1590,"is_transit":true,"transit":true,"station_id":"MRI","i_lat":-6.209883,"i_long":106.84912,"line":2,"time":4},{"i_lat":-6.202263,"station_name":"Sudirman","line":1,"transit":false,"i_long":106.822649,"distance":3186,"station_id":"SUD","time":4,"is_transit":false},{"i_lat":-6.201433,"line":1,"time":1,"is_transit":false,"i_long":106.819881,"transit":false,"station_name":"Sudirman Baru","station_id":"SUDB","distance":280},{"line":1,"is_transit":false,"i_lat":-6.20132,"transit":false,"station_name":"Karet","station_id":"KAT","i_long":106.816351,"time":1,"distance":471},{"time":5,"distance":2029,"line":1,"i_lat":-6.185545,"i_long":106.811091,"is_transit":false,"transit":false,"station_name":"Tanah Abang","station_id":"THB"},{"is_transit":false,"station_id":"DU","transit":false,"i_lat":-6.155215,"time":8,"i_long":106.800832,"line":1,"station_name":"Duri","distance":3632},{"line":1,"i_long":106.79867,"i_lat":-6.144674,"station_name":"Angke","transit":false,"distance":1230,"time":4,"station_id":"AK","is_transit":false},{"time":9,"transit":true,"distance":4102,"station_id":"KPB","i_long":106.826365,"station_name":"Kampung Bandan","is_transit":true,"line":4,"i_lat":-6.132549},{"distance":1444,"time":3,"station_id":"RJW","i_long":106.836569,"transit":false,"i_lat":-6.14505,"is_transit":false,"station_name":"Rajawali","line":11},{"line":11,"i_long":106.839204,"station_name":"Kemayoran","distance":1901,"transit":false,"is_transit":false,"station_id":"KMO","time":5,"i_lat":-6.161728},{"distance":1436,"time":4,"transit":false,"station_id":"PSE","i_lat":-6.174784,"i_long":106.84368,"line":11,"station_name":"Pasar Senen","is_transit":false},{"i_long":106.850107,"station_id":"GST","distance":1567,"station_name":"Gang Sentiong","is_transit":false,"line":11,"time":8,"transit":false,"i_lat":-6.185975},{"station_id":"KMT","transit":false,"distance":973,"i_long":106.855437,"i_lat":-6.193792,"line":11,"time":1,"is_transit":false,"station_name":"Kramat"},{"is_transit":false,"station_id":"POK","time":2,"station_name":"Pondok Jati","transit":false,"i_lat":-6.209188,"i_long":106.861737,"distance":1829,"line":11},{"is_transit":true,"station_name":"Jatinegara","i_long":106.86807400000001,"station_id":"JNG","line":1,"i_lat":-6.215091,"transit":true,"time":9,"distance":1236},{"i_long":106.899548,"line":1,"station_name":"Klender","time":3,"transit":false,"i_lat":-6.2135,"station_id":"KLD","distance":3395,"is_transit":false},{"time":2,"is_transit":false,"station_id":"BUA","i_lat":-6.215568,"station_name":"Buaran","i_long":106.922662,"transit":false,"distance":3100,"line":1},{"transit":false,"time":1,"is_transit":false,"line":1,"station_id":"KLDB","distance":1305,"station_name":"Klenderbaru","i_long":106.939679,"i_lat":-6.217455},{"i_long":106.951283,"i_lat":-6.219053,"transit":false,"station_id":"CUK","station_name":"Cakung","line":1,"is_transit":false,"distance":1385,"time":8}]]}