{"data":[[{"station_id":"JAY","station_name":"Jayakarta","i_lat":-6.141205,"time":0,"i_long":106.820901,"is_transit":false,"transit":false,"distance":0,"line":2},{"station_id":"MGB","time":2,"is_transit":false,"station_name":"Manggabesar","i_long":106.82482,"distance":1080,"transit":false,"line":2,"i_lat":-6.149769},{"line":2,"is_transit":false,"transit":false,"time":2,"distance":906,"station_id":"SW","station_name":"Sawah Besar","i_lat":-6.160725,"i_long":106.827103},{"is_transit":false,"time":2,"i_lat":-6.166716,"station_name":"Juanda","station_id":"JUA","transit":false,"i_long":106.828284,"distance":1149,"line":2},{"distance":2015,"transit":false,"station_id":"GDD","i_long":106.832183,"station_name":"Gondangdia","time":4,"i_lat":-6.186295,"line":2,"is_transit":false},{"distance":1750,"station_name":"Cikini","line":2,"i_lat":-6.198556,"is_transit":false,"station_id":"CKI","i_long":106.840169,"time":3,"transit":false},{"distance":1590,"transit":false,"is_transit":false,"i_lat":-6.209883,"i_long":106.84912,"station_id":"MRI","time":4,"line":2,"station_name":"Manggarai"},{"is_transit":false,"station_id":"TEB","time":4,"i_long":106.857948,"station_name":"Tebet","line":2,"i_lat":-6.226659,"distance":2610,"transit":false},{"station_name":"Cawang","i_long":106.856607,"distance":1230,"i_lat":-6.242512,"time":2,"station_id":"CW","line":2,"transit":false,"is_transit":false},{"station_name":"Duren Kalibata","distance":1546,"transit":false,"line":2,"is_transit":false,"i_long":106.85449,"time":3,"station_id":"DRN","i_lat":-6.255332},{"station_name":"Pasar Minggu Baru","is_transit":false,"transit":false,"distance":824,"i_lat":-6.263214,"i_long":106.851577,"station_id":"PSMB","time":2,"line":2},{"station_name":"Pasar Minggu","line":2,"station_id":"PSM","distance":2380,"i_lat":-6.2842400000000005,"transit":false,"time":2,"i_long":106.843999,"is_transit":false},{"distance":2820,"station_id":"TNT","station_name":"Tanjung Barat","i_long":106.838896,"line":2,"i_lat":-6.3080680000000005,"time":4,"transit":false,"is_transit":false}],[{"i_long":106.820901,"line":2,"station_name":"Jayakarta","station_id":"JAY","transit":false,"distance":0,"time":0,"i_lat":-6.141205,"is_transit":false},{"distance":1264,"time":4,"station_id":"JAKK","transit":true,"station_name":"Jakarta Kota","line":2,"i_long":106.812439,"is_transit":true,"i_lat":-6.137569},{"time":3,"i_lat":-6.132549,"transit":true,"station_id":"KPB","i_long":106.826365,"distance":1364,"line":4,"station_name":"Kampung Bandan","is_transit":true},{"distance":4102,"station_name":"Angke","line":1,"i_lat":-6.144674,"time":9,"is_transit":false,"transit":false,"station_id":"AK","i_long":106.79867},{"time":4,"station_id":"DU","transit":false,"is_transit":false,"i_long":106.800832,"line":1,"i_lat":-6.155215,"distance":1230,"station_name":"Duri"},{"line":1,"station_name":"Tanah Abang","station_id":"THB","time":8,"is_transit":false,"i_lat":-6.185545,"distance":3632,"i_long":106.811091,"transit":false},{"is_transit":false,"distance":2029,"station_name":"Karet","time":5,"i_long":106.816351,"line":1,"i_lat":-6.20132,"transit":false,"station_id":"KAT"},{"is_transit":false,"time":1,"station_id":"SUDB","station_name":"Sudirman Baru","transit":false,"distance":471,"i_lat":-6.201433,"line":1,"i_long":106.819881},{"transit":false,"line":1,"is_transit":false,"i_long":106.822649,"distance":280,"time":1,"i_lat":-6.202263,"station_id":"SUD","station_name":"Sudirman"},{"distance":3186,"station_name":"Manggarai","i_lat":-6.209883,"line":2,"transit":true,"time":4,"station_id":"MRI","is_transit":true,"i_long":106.84912},{"i_long":106.857948,"station_id":"TEB","time":4,"is_transit":false,"station_name":"Tebet","distance":2610,"transit":false,"i_lat":-6.226659,"line":2},{"time":2,"i_lat":-6.242512,"line":2,"is_transit":false,"station_name":"Cawang","distance":1230,"transit":false,"station_id":"CW","i_long":106.856607},{"i_lat":-6.255332,"station_id":"DRN","i_long":106.85449,"time":3,"distance":1546,"station_name":"Duren Kalibata","transit":false,"is_transit":false,"line":2},{"time":2,"transit":false,"i_lat":-6.263214,"station_name":"Pasar Minggu Baru","distance":824,"is_transit":false,"station_id":"PSMB","i_long":106.851577,"line":2},{"time":2,"line":2,"distance":2380,"i_lat":-6.2842400000000005,"station_name":"Pasar Minggu","i_long":106.843999,"station_id":"PSM","is_transit":false,"transit":false},{"is_transit":false,"station_name":"Tanjung Barat","distance":2820,"station_id":"TNT","transit":false,"i_lat":-6.3080680000000005,"line":2,"time":4,"i_long":106.838896}],[{"i_long":106.820901,"distance":0,"line":2,"station_id":"JAY","is_transit":false,"i_lat":-6.141205,"transit":false,"station_name":"Jayakarta","time":0},{"station_id":"JAKK","station_name":"Jakarta Kota","i_long":106.812439,"time":4,"line":2,"is_transit":true,"distance":1264,"transit":true,"i_lat":-6.137569},{"distance":1364,"station_id":"KPB","i_lat":-6.132549,"transit":true,"line":4,"station_name":"Kampung Bandan","time":3,"is_transit":true,"i_long":106.826365},{"distance":1444,"i_long":106.836569,"line":11,"transit":false,"station_name":"Rajawali","station_id":"RJW","is_transit":false,"i_lat":-6.14505,"time":3},{"distance":1901,"station_name":"Kemayoran","line":11,"i_long":106.839204,"station_id":"KMO","i_lat":-6.161728,"is_transit":false,"time":5,"transit":false},{"line":11,"station_id":"PSE","transit":false,"distance":1436,"station_name":"Pasar Senen","time":4,"is_transit":false,"i_long":106.84368,"i_lat":-6.174784},{"i_lat":-6.185975,"station_name":"Gang Sentiong","is_transit":false,"station_id":"GST","transit":false,"i_long":106.850107,"distance":1567,"line":11,"time":8},{"distance":973,"line":11,"i_long":106.855437,"station_name":"Kramat","time":1,"transit":false,"i_lat":-6.193792,"station_id":"KMT","is_transit":false},{"line":11,"station_name":"Pondok Jati","station_id":"POK","is_transit":false,"transit":false,"distance":1829,"i_long":106.861737,"time":2,"i_lat":-6.209188},{"distance":1236,"transit":true,"station_id":"JNG","station_name":"Jatinegara","i_lat":-6.215091,"i_long":106.86807400000001,"is_transit":true,"line":1,"time":9},{"i_long":106.858896,"distance":1377,"station_name":"Matraman","i_lat":-6.212485,"time":2,"is_transit":false,"transit":false,"station_id":"MTR","line":1},{"i_lat":-6.209883,"distance":1275,"i_long":106.84912,"station_name":"Manggarai","transit":true,"line":2,"time":2,"is_transit":true,"station_id":"MRI"},{"distance":2610,"is_transit":false,"station_name":"Tebet","station_id":"TEB","i_lat":-6.226659,"i_long":106.857948,"line":2,"transit":false,"time":4},{"station_name":"Cawang","is_transit":false,"transit":false,"time":2,"station_id":"CW","i_long":106.856607,"distance":1230,"line":2,"i_lat":-6.242512},{"transit":false,"i_lat":-6.255332,"station_id":"DRN","station_name":"Duren Kalibata","i_long":106.85449,"line":2,"time":3,"distance":1546,"is_transit":false},{"i_lat":-6.263214,"transit":false,"i_long":106.851577,"distance":824,"station_id":"PSMB","line":2,"station_name":"Pasar Minggu Baru","is_transit":false,"time":2},{"station_id":"PSM","is_transit":false,"i_long":106.843999,"time":2,"distance":2380,"line":2,"i_lat":-6.2842400000000005,"station_name":"Pasar Minggu","transit":false},{"i_long":106.838896,"line":2,"station_id":"TNT","distance":2820,"time":4,"is_transit":false,"i_lat":-6.3080680000000005,"station_name":"Tanjung Barat","transit":false}]]}