{"data":[[{"is_transit":false,"station_name":"Jayakarta","distance":0,"i_lat":-6.141205,"station_id":"JAY","time":0,"transit":false,"i_long":106.820901,"line":2},{"transit":true,"distance":1264,"i_lat":-6.137569,"station_name":"Jakarta Kota","station_id":"JAKK","time":4,"is_transit":true,"i_long":106.812439,"line":2},{"i_long":106.826365,"is_transit":true,"i_lat":-6.132549,"time":3,"distance":1364,"transit":true,"station_name":"Kampung Bandan","line":4,"station_id":"KPB"},{"station_id":"AK","distance":4102,"i_lat":-6.144674,"line":1,"transit":false,"time":9,"i_long":106.79867,"station_name":"Angke","is_transit":false},{"time":4,"distance":1230,"i_long":106.800832,"i_lat":-6.155215,"transit":false,"is_transit":false,"line":1,"station_id":"DU","station_name":"Duri"},{"station_id":"THB","time":8,"station_name":"Tanah Abang","i_lat":-6.185545,"transit":true,"line":1,"is_transit":true,"i_long":106.811091,"distance":3632},{"is_transit":false,"distance":3191,"time":6,"station_id":"PLM","line":6,"station_name":"Palmerah","i_long":106.79689,"i_lat":-6.207404,"transit":false},{"is_transit":false,"transit":false,"station_name":"Kebayoran","time":7,"distance":3737,"i_lat":-6.237242,"i_long":106.780334,"line":6,"station_id":"KBY"},{"transit":false,"i_long":106.74273,"i_lat":-6.276362,"distance":6218,"is_transit":false,"station_name":"Pondokranji","line":6,"station_id":"PDJ","time":8},{"i_long":106.728916,"is_transit":false,"i_lat":-6.288927,"station_id":"JMU","transit":false,"distance":2179,"line":6,"station_name":"Jurangmangu","time":3},{"station_name":"Sudimara","distance":1994,"i_lat":-6.296963,"i_long":106.712277,"time":4,"line":6,"station_id":"SDM","transit":false,"is_transit":false},{"station_name":"Rawa Buntu","time":6,"transit":false,"distance":4566,"station_id":"RU","is_transit":false,"i_long":106.675475,"line":6,"i_lat":-6.314823},{"i_long":106.66566,"line":6,"is_transit":false,"distance":2413,"transit":false,"time":4,"station_name":"Serpong","station_id":"SRP","i_lat":-6.319871},{"transit":false,"is_transit":false,"i_long":106.640411,"station_name":"Cisauk","station_id":"CSK","i_lat":-6.32484,"distance":1784,"time":4,"line":3},{"line":3,"is_transit":false,"station_name":"Cicayur","station_id":"CC","time":4,"distance":2519,"transit":false,"i_long":106.617853,"i_lat":-6.329547},{"distance":5968,"line":6,"station_name":"Parung Panjang","station_id":"PRP","time":8,"transit":false,"i_long":106.568863,"i_lat":-6.3441410000000005,"is_transit":false},{"time":9,"station_name":"Cilejit","station_id":"CJT","is_transit":false,"i_lat":-6.354349,"i_long":106.508482,"line":3,"transit":false,"distance":7025},{"station_id":"DAR","is_transit":false,"i_lat":-6.338021,"time":6,"transit":false,"distance":2675,"station_name":"Daru","i_long":106.491338,"line":0},{"station_id":"TEJ","is_transit":false,"distance":3902,"i_lat":-6.327251,"i_long":106.460812,"line":6,"station_name":"Tenjo","time":5,"transit":false},{"station_id":"TGS","is_transit":false,"station_name":"Tigaraksa","i_long":106.425991,"time":5,"line":6,"distance":2974,"i_lat":-6.328533,"transit":false}],[{"station_id":"JAY","time":0,"i_lat":-6.141205,"distance":0,"station_name":"Jayakarta","i_long":106.820901,"line":2,"is_transit":false,"transit":false},{"station_name":"Manggabesar","line":2,"i_long":106.82482,"time":2,"station_id":"MGB","i_lat":-6.149769,"transit":false,"distance":1080,"is_transit":false},{"is_transit":false,"time":2,"i_long":106.827103,"station_id":"SW","distance":906,"line":2,"transit":false,"station_name":"Sawah Besar","i_lat":-6.160725},{"station_name":"Juanda","is_transit":false,"distance":1149,"i_long":106.828284,"transit":false,"i_lat":-6.166716,"line":2,"station_id":"JUA","time":2},{"distance":2015,"transit":false,"station_name":"Gondangdia","i_lat":-6.186295,"i_long":106.832183,"is_transit":false,"time":4,"line":2,"station_id":"GDD"},{"distance":1750,"i_lat":-6.198556,"is_transit":false,"station_id":"CKI","i_long":106.840169,"transit":false,"time":3,"line":2,"station_name":"Cikini"},{"distance":1590,"i_long":106.84912,"line":2,"i_lat":-6.209883,"station_name":"Manggarai","transit":true,"station_id":"MRI","is_transit":true,"time":4},{"i_lat":-6.202263,"is_transit":false,"time":4,"station_name":"Sudirman","station_id":"SUD","transit":false,"distance":3186,"i_long":106.822649,"line":1},{"i_lat":-6.201433,"transit":false,"station_id":"SUDB","line":1,"station_name":"Sudirman Baru","distance":280,"i_long":106.819881,"is_transit":false,"time":1},{"transit":false,"i_long":106.816351,"time":1,"is_transit":false,"distance":471,"line":1,"station_name":"Karet","i_lat":-6.20132,"station_id":"KAT"},{"line":1,"distance":2029,"station_name":"Tanah Abang","is_transit":true,"transit":true,"i_lat":-6.185545,"station_id":"THB","time":5,"i_long":106.811091},{"i_lat":-6.207404,"line":6,"i_long":106.79689,"station_id":"PLM","transit":false,"station_name":"Palmerah","is_transit":false,"time":6,"distance":3191},{"time":7,"i_long":106.780334,"distance":3737,"line":6,"i_lat":-6.237242,"transit":false,"is_transit":false,"station_name":"Kebayoran","station_id":"KBY"},{"line":6,"transit":false,"station_id":"PDJ","station_name":"Pondokranji","time":8,"distance":6218,"i_long":106.74273,"i_lat":-6.276362,"is_transit":false},{"time":3,"distance":2179,"i_long":106.728916,"station_id":"JMU","line":6,"station_name":"Jurangmangu","i_lat":-6.288927,"is_transit":false,"transit":false},{"station_name":"Sudimara","i_lat":-6.296963,"transit":false,"distance":1994,"time":4,"line":6,"station_id":"SDM","i_long":106.712277,"is_transit":false},{"station_id":"RU","i_lat":-6.314823,"distance":4566,"is_transit":false,"transit":false,"time":6,"station_name":"Rawa Buntu","i_long":106.675475,"line":6},{"time":4,"line":6,"i_lat":-6.319871,"station_name":"Serpong","is_transit":false,"distance":2413,"i_long":106.66566,"transit":false,"station_id":"SRP"},{"line":3,"time":4,"distance":1784,"i_long":106.640411,"station_name":"Cisauk","station_id":"CSK","is_transit":false,"transit":false,"i_lat":-6.32484},{"station_id":"CC","station_name":"Cicayur","time":4,"line":3,"distance":2519,"i_long":106.617853,"i_lat":-6.329547,"transit":false,"is_transit":false},{"time":8,"station_name":"Parung Panjang","station_id":"PRP","is_transit":false,"distance":5968,"transit":false,"i_long":106.568863,"line":6,"i_lat":-6.3441410000000005},{"line":3,"i_long":106.508482,"distance":7025,"is_transit":false,"station_id":"CJT","i_lat":-6.354349,"transit":false,"time":9,"station_name":"Cilejit"},{"i_long":106.491338,"station_name":"Daru","i_lat":-6.338021,"station_id":"DAR","transit":false,"distance":2675,"time":6,"is_transit":false,"line":0},{"station_name":"Tenjo","is_transit":false,"time":5,"station_id":"TEJ","transit":false,"distance":3902,"i_lat":-6.327251,"i_long":106.460812,"line":6},{"i_long":106.425991,"line":6,"transit":false,"distance":2974,"station_name":"Tigaraksa","station_id":"TGS","time":5,"is_transit":false,"i_lat":-6.328533}],[{"i_long":106.820901,"line":2,"distance":0,"station_id":"JAY","transit":false,"time":0,"is_transit":false,"station_name":"Jayakarta","i_lat":-6.141205},{"i_long":106.812439,"station_name":"Jakarta Kota","distance":1264,"is_transit":true,"transit":true,"i_lat":-6.137569,"station_id":"JAKK","line":2,"time":4},{"time":3,"station_name":"Kampung Bandan","is_transit":true,"station_id":"KPB","i_long":106.826365,"distance":1364,"i_lat":-6.132549,"line":4,"transit":true},{"station_name":"Rajawali","i_long":106.836569,"line":11,"transit":false,"distance":1444,"i_lat":-6.14505,"time":3,"is_transit":false,"station_id":"RJW"},{"station_id":"KMO","i_lat":-6.161728,"distance":1901,"line":11,"i_long":106.839204,"station_name":"Kemayoran","transit":false,"time":5,"is_transit":false},{"i_lat":-6.174784,"station_name":"Pasar Senen","i_long":106.84368,"distance":1436,"line":11,"time":4,"is_transit":false,"transit":false,"station_id":"PSE"},{"station_id":"GST","distance":1567,"i_lat":-6.185975,"line":11,"i_long":106.850107,"station_name":"Gang Sentiong","time":8,"transit":false,"is_transit":false},{"station_name":"Kramat","is_transit":false,"transit":false,"station_id":"KMT","time":1,"distance":973,"i_lat":-6.193792,"i_long":106.855437,"line":11},{"i_lat":-6.209188,"transit":false,"time":2,"line":11,"station_name":"Pondok Jati","i_long":106.861737,"station_id":"POK","distance":1829,"is_transit":false},{"time":9,"i_lat":-6.215091,"distance":1236,"i_long":106.86807400000001,"transit":true,"station_id":"JNG","is_transit":true,"station_name":"Jatinegara","line":1},{"is_transit":false,"station_name":"Matraman","station_id":"MTR","i_long":106.858896,"distance":1377,"line":1,"transit":false,"time":2,"i_lat":-6.212485},{"distance":1275,"transit":false,"i_lat":-6.209883,"station_name":"Manggarai","time":2,"line":2,"station_id":"MRI","i_long":106.84912,"is_transit":false},{"station_id":"SUD","line":1,"station_name":"Sudirman","distance":3186,"i_lat":-6.202263,"time":4,"transit":false,"is_transit":false,"i_long":106.822649},{"i_lat":-6.201433,"time":1,"i_long":106.819881,"station_name":"Sudirman Baru","transit":false,"station_id":"SUDB","distance":280,"is_transit":false,"line":1},{"transit":false,"is_transit":false,"i_lat":-6.20132,"i_long":106.816351,"line":1,"station_name":"Karet","distance":471,"station_id":"KAT","time":1},{"station_id":"THB","is_transit":true,"i_lat":-6.185545,"station_name":"Tanah Abang","line":1,"i_long":106.811091,"distance":2029,"time":5,"transit":true},{"station_id":"PLM","time":6,"distance":3191,"i_lat":-6.207404,"i_long":106.79689,"transit":false,"station_name":"Palmerah","is_transit":false,"line":6},{"station_name":"Kebayoran","line":6,"time":7,"is_transit":false,"transit":false,"station_id":"KBY","distance":3737,"i_lat":-6.237242,"i_long":106.780334},{"station_id":"PDJ","distance":6218,"station_name":"Pondokranji","line":6,"i_long":106.74273,"is_transit":false,"time":8,"i_lat":-6.276362,"transit":false},{"is_transit":false,"station_name":"Jurangmangu","distance":2179,"time":3,"line":6,"i_lat":-6.288927,"transit":false,"i_long":106.728916,"station_id":"JMU"},{"transit":false,"is_transit":false,"i_lat":-6.296963,"station_id":"SDM","time":4,"station_name":"Sudimara","line":6,"distance":1994,"i_long":106.712277},{"station_name":"Rawa Buntu","i_lat":-6.314823,"distance":4566,"line":6,"transit":false,"station_id":"RU","is_transit":false,"i_long":106.675475,"time":6},{"time":4,"i_lat":-6.319871,"i_long":106.66566,"distance":2413,"is_transit":false,"transit":false,"line":6,"station_id":"SRP","station_name":"Serpong"},{"i_lat":-6.32484,"station_name":"Cisauk","transit":false,"station_id":"CSK","distance":1784,"time":4,"is_transit":false,"line":3,"i_long":106.640411},{"station_name":"Cicayur","i_lat":-6.329547,"transit":false,"distance":2519,"is_transit":false,"i_long":106.617853,"line":3,"time":4,"station_id":"CC"},{"transit":false,"station_id":"PRP","station_name":"Parung Panjang","i_long":106.568863,"distance":5968,"time":8,"i_lat":-6.3441410000000005,"is_transit":false,"line":6},{"i_lat":-6.354349,"time":9,"station_id":"CJT","distance":7025,"i_long":106.508482,"transit":false,"line":3,"station_name":"Cilejit","is_transit":false},{"transit":false,"is_transit":false,"time":6,"line":0,"i_lat":-6.338021,"station_name":"Daru","distance":2675,"station_id":"DAR","i_long":106.491338},{"station_id":"TEJ","is_transit":false,"distance":3902,"i_lat":-6.327251,"i_long":106.460812,"line":6,"station_name":"Tenjo","time":5,"transit":false},{"station_id":"TGS","distance":2974,"line":6,"i_long":106.425991,"is_transit":false,"station_name":"Tigaraksa","i_lat":-6.328533,"transit":false,"time":5}],[{"station_name":"Jayakarta","line":2,"station_id":"JAY","is_transit":false,"time":0,"i_long":106.820901,"transit":false,"distance":0,"i_lat":-6.141205},{"i_lat":-6.149769,"is_transit":false,"i_long":106.82482,"distance":1080,"line":2,"station_name":"Manggabesar","time":2,"station_id":"MGB","transit":false},{"transit":false,"station_name":"Sawah Besar","line":2,"station_id":"SW","time":2,"i_lat":-6.160725,"i_long":106.827103,"is_transit":false,"distance":906},{"time":2,"station_id":"JUA","is_transit":false,"i_lat":-6.166716,"station_name":"Juanda","i_long":106.828284,"transit":false,"distance":1149,"line":2},{"station_name":"Gondangdia","distance":2015,"line":2,"i_lat":-6.186295,"station_id":"GDD","i_long":106.832183,"time":4,"is_transit":false,"transit":false},{"distance":1750,"station_name":"Cikini","i_lat":-6.198556,"transit":false,"line":2,"station_id":"CKI","time":3,"is_transit":false,"i_long":106.840169},{"is_transit":true,"line":2,"station_name":"Manggarai","station_id":"MRI","i_long":106.84912,"time":4,"transit":true,"distance":1590,"i_lat":-6.209883},{"i_long":106.858896,"time":2,"is_transit":false,"station_name":"Matraman","line":1,"i_lat":-6.212485,"transit":false,"station_id":"MTR","distance":1275},{"line":1,"station_name":"Jatinegara","distance":1377,"time":8,"transit":true,"is_transit":true,"i_lat":-6.215091,"station_id":"JNG","i_long":106.86807400000001},{"station_name":"Pondok Jati","line":11,"time":2,"distance":1236,"i_long":106.861737,"is_transit":false,"i_lat":-6.209188,"transit":false,"station_id":"POK"},{"station_name":"Kramat","transit":false,"station_id":"KMT","is_transit":false,"line":11,"distance":1829,"i_long":106.855437,"time":2,"i_lat":-6.193792},{"line":11,"time":1,"station_name":"Gang Sentiong","distance":973,"is_transit":false,"transit":false,"station_id":"GST","i_long":106.850107,"i_lat":-6.185975},{"transit":false,"station_id":"PSE","time":8,"i_lat":-6.174784,"line":11,"i_long":106.84368,"distance":1567,"is_transit":false,"station_name":"Pasar Senen"},{"transit":false,"line":11,"station_id":"KMO","is_transit":false,"station_name":"Kemayoran","time":4,"i_lat":-6.161728,"i_long":106.839204,"distance":1436},{"is_transit":false,"distance":1901,"station_name":"Rajawali","i_lat":-6.14505,"i_long":106.836569,"transit":false,"station_id":"RJW","time":5,"line":11},{"time":3,"line":4,"distance":1444,"i_long":106.826365,"transit":true,"i_lat":-6.132549,"station_name":"Kampung Bandan","station_id":"KPB","is_transit":true},{"station_id":"AK","time":9,"distance":4102,"i_long":106.79867,"is_transit":false,"transit":false,"line":1,"i_lat":-6.144674,"station_name":"Angke"},{"is_transit":false,"time":4,"distance":1230,"i_lat":-6.155215,"i_long":106.800832,"station_name":"Duri","line":1,"transit":false,"station_id":"DU"},{"line":1,"station_name":"Tanah Abang","i_lat":-6.185545,"transit":true,"station_id":"THB","i_long":106.811091,"time":8,"distance":3632,"is_transit":true},{"station_id":"PLM","i_lat":-6.207404,"station_name":"Palmerah","is_transit":false,"transit":false,"i_long":106.79689,"line":6,"time":6,"distance":3191},{"i_long":106.780334,"i_lat":-6.237242,"is_transit":false,"line":6,"distance":3737,"transit":false,"station_id":"KBY","time":7,"station_name":"Kebayoran"},{"line":6,"i_long":106.74273,"i_lat":-6.276362,"time":8,"is_transit":false,"station_name":"Pondokranji","distance":6218,"transit":false,"station_id":"PDJ"},{"i_lat":-6.288927,"time":3,"transit":false,"station_name":"Jurangmangu","station_id":"JMU","line":6,"distance":2179,"i_long":106.728916,"is_transit":false},{"station_id":"SDM","time":4,"distance":1994,"i_lat":-6.296963,"line":6,"station_name":"Sudimara","transit":false,"i_long":106.712277,"is_transit":false},{"time":6,"distance":4566,"i_lat":-6.314823,"line":6,"is_transit":false,"i_long":106.675475,"transit":false,"station_name":"Rawa Buntu","station_id":"RU"},{"transit":false,"distance":2413,"time":4,"i_lat":-6.319871,"i_long":106.66566,"station_id":"SRP","station_name":"Serpong","line":6,"is_transit":false},{"time":4,"station_name":"Cisauk","distance":1784,"transit":false,"station_id":"CSK","i_long":106.640411,"is_transit":false,"i_lat":-6.32484,"line":3},{"station_id":"CC","transit":false,"is_transit":false,"i_lat":-6.329547,"time":4,"distance":2519,"i_long":106.617853,"station_name":"Cicayur","line":3},{"transit":false,"station_name":"Parung Panjang","station_id":"PRP","distance":5968,"is_transit":false,"i_long":106.568863,"time":8,"i_lat":-6.3441410000000005,"line":6},{"i_long":106.508482,"transit":false,"time":9,"distance":7025,"station_name":"Cilejit","station_id":"CJT","is_transit":false,"i_lat":-6.354349,"line":3},{"i_lat":-6.338021,"is_transit":false,"i_long":106.491338,"distance":2675,"line":0,"station_name":"Daru","station_id":"DAR","transit":false,"time":6},{"time":5,"i_lat":-6.327251,"i_long":106.460812,"line":6,"station_id":"TEJ","is_transit":false,"distance":3902,"station_name":"Tenjo","transit":false},{"i_lat":-6.328533,"station_id":"TGS","transit":false,"time":5,"is_transit":false,"line":6,"i_long":106.425991,"station_name":"Tigaraksa","distance":2974}]]}