{"data":[[{"i_lat":-6.141205,"transit":false,"station_id":"JAY","station_name":"Jayakarta","is_transit":false,"time":0,"distance":0,"i_long":106.820901,"line":7},{"is_transit":false,"line":2,"station_id":"MGB","i_lat":-6.149769,"transit":false,"time":2,"distance":1080,"station_name":"Manggabesar","i_long":106.82482},{"i_long":106.827103,"station_name":"Sawah Besar","transit":false,"distance":906,"i_lat":-6.160725,"station_id":"SW","is_transit":false,"time":2,"line":2},{"i_lat":-6.166716,"distance":1149,"i_long":106.828284,"transit":false,"station_id":"JUA","station_name":"Juanda","line":2,"time":2,"is_transit":false},{"distance":2015,"i_lat":-6.186295,"transit":false,"time":4,"i_long":106.832183,"station_name":"Gondangdia","is_transit":false,"line":2,"station_id":"GDD"},{"line":0,"is_transit":false,"i_long":106.840169,"i_lat":-6.198556,"distance":1750,"station_id":"CKI","transit":false,"time":3,"station_name":"Cikini"},{"time":4,"station_name":"Manggarai","line":0,"station_id":"MRI","transit":true,"i_lat":-6.209883,"i_long":106.84912,"distance":1590,"is_transit":true},{"i_long":106.857948,"time":4,"station_name":"Tebet","i_lat":-6.226659,"is_transit":false,"station_id":"TEB","line":2,"distance":2610,"transit":false},{"transit":false,"station_id":"CW","time":2,"distance":1230,"line":0,"station_name":"Cawang","i_long":106.856607,"is_transit":false,"i_lat":-6.242512},{"station_id":"DRN","station_name":"Duren Kalibata","is_transit":false,"time":3,"transit":false,"i_long":106.85449,"line":0,"i_lat":-6.255332,"distance":1546},{"is_transit":false,"distance":824,"station_id":"PSMB","transit":false,"station_name":"Pasar Minggu Baru","i_lat":-6.263214,"i_long":106.851577,"line":2,"time":2}],[{"station_id":"JAY","i_long":106.820901,"station_name":"Jayakarta","line":7,"distance":0,"transit":false,"is_transit":false,"i_lat":-6.141205,"time":0},{"i_lat":-6.137569,"distance":1264,"station_name":"Jakarta Kota","is_transit":true,"time":4,"transit":true,"i_long":106.812439,"station_id":"JAKK","line":0},{"station_name":"Kampung Bandan","is_transit":true,"i_long":106.826365,"line":0,"station_id":"KPB","distance":1364,"time":3,"transit":false,"i_lat":-6.132549},{"i_long":106.79867,"transit":false,"i_lat":-6.144674,"station_id":"AK","is_transit":false,"time":9,"distance":4102,"line":0,"station_name":"Angke"},{"is_transit":true,"station_name":"Duri","distance":1230,"time":4,"line":1,"i_long":106.800832,"transit":true,"i_lat":-6.155215,"station_id":"DU"},{"time":8,"distance":3632,"is_transit":true,"line":1,"i_lat":-6.185545,"station_id":"THB","station_name":"Tanah Abang","transit":false,"i_long":106.811091},{"station_id":"KAT","is_transit":false,"i_lat":-6.20132,"distance":2029,"transit":false,"i_long":106.816351,"line":1,"time":5,"station_name":"Karet"},{"i_lat":-6.201433,"line":1,"distance":471,"station_id":"SUDB","station_name":"Sudirman Baru","transit":false,"i_long":106.819881,"is_transit":false,"time":1},{"is_transit":false,"i_long":106.822649,"station_id":"SUD","time":1,"transit":false,"distance":280,"station_name":"Sudirman","i_lat":-6.202263,"line":1},{"time":4,"transit":true,"distance":3186,"i_long":106.84912,"i_lat":-6.209883,"line":0,"station_name":"Manggarai","is_transit":true,"station_id":"MRI"},{"time":4,"i_long":106.857948,"station_name":"Tebet","transit":false,"is_transit":false,"station_id":"TEB","line":2,"i_lat":-6.226659,"distance":2610},{"station_id":"CW","i_long":106.856607,"distance":1230,"transit":false,"station_name":"Cawang","is_transit":false,"line":0,"time":2,"i_lat":-6.242512},{"station_id":"DRN","line":0,"station_name":"Duren Kalibata","distance":1546,"i_long":106.85449,"is_transit":false,"time":3,"transit":false,"i_lat":-6.255332},{"line":2,"i_lat":-6.263214,"station_id":"PSMB","time":2,"is_transit":false,"i_long":106.851577,"transit":false,"station_name":"Pasar Minggu Baru","distance":824}],[{"station_id":"JAY","time":0,"distance":0,"i_lat":-6.141205,"is_transit":false,"transit":false,"i_long":106.820901,"line":7,"station_name":"Jayakarta"},{"i_long":106.812439,"station_name":"Jakarta Kota","time":4,"distance":1264,"i_lat":-6.137569,"station_id":"JAKK","line":0,"is_transit":true,"transit":true},{"time":3,"is_transit":true,"transit":true,"station_name":"Kampung Bandan","distance":1364,"i_lat":-6.132549,"line":0,"station_id":"KPB","i_long":106.826365},{"is_transit":false,"distance":1444,"transit":false,"time":3,"station_id":"RJW","i_lat":-6.14505,"i_long":106.836569,"station_name":"Rajawali","line":11},{"time":5,"transit":false,"distance":1901,"i_long":106.839204,"station_name":"Kemayoran","is_transit":false,"line":11,"station_id":"KMO","i_lat":-6.161728},{"is_transit":false,"transit":false,"station_id":"PSE","time":4,"line":11,"i_lat":-6.174784,"i_long":106.84368,"station_name":"Pasar Senen","distance":1436},{"i_lat":-6.185975,"i_long":106.850107,"distance":1567,"transit":false,"station_id":"GST","time":8,"station_name":"Gang Sentiong","is_transit":false,"line":11},{"transit":false,"i_lat":-6.193792,"is_transit":false,"station_id":"KMT","i_long":106.855437,"distance":973,"line":11,"time":1,"station_name":"Kramat"},{"i_lat":-6.209188,"transit":false,"i_long":106.861737,"is_transit":false,"station_name":"Pondok Jati","time":2,"distance":1829,"line":11,"station_id":"POK"},{"line":0,"distance":1236,"station_id":"JNG","time":9,"transit":true,"station_name":"Jatinegara","i_lat":-6.215091,"is_transit":true,"i_long":106.86807400000001},{"transit":false,"station_id":"MTR","time":2,"station_name":"Matraman","i_lat":-6.212485,"is_transit":false,"distance":1377,"i_long":106.858896,"line":1},{"station_name":"Manggarai","i_long":106.84912,"time":2,"i_lat":-6.209883,"station_id":"MRI","distance":1275,"is_transit":true,"transit":true,"line":0},{"i_lat":-6.226659,"distance":2610,"station_id":"TEB","i_long":106.857948,"time":4,"is_transit":false,"transit":false,"line":2,"station_name":"Tebet"},{"distance":1230,"line":0,"station_name":"Cawang","is_transit":false,"transit":false,"i_long":106.856607,"i_lat":-6.242512,"time":2,"station_id":"CW"},{"time":3,"station_name":"Duren Kalibata","transit":false,"distance":1546,"i_lat":-6.255332,"i_long":106.85449,"line":0,"is_transit":false,"station_id":"DRN"},{"station_name":"Pasar Minggu Baru","line":2,"time":2,"i_lat":-6.263214,"transit":false,"i_long":106.851577,"is_transit":false,"station_id":"PSMB","distance":824}]]}