{"data":[[{"station_name":"Jayakarta","time":0,"line":7,"station_id":"JAY","distance":0,"is_transit":false,"i_long":106.820901,"i_lat":-6.141205,"transit":false},{"i_long":106.812439,"line":0,"is_transit":true,"time":4,"station_name":"Jakarta Kota","transit":true,"distance":1264,"station_id":"JAKK","i_lat":-6.137569},{"is_transit":true,"station_name":"Kampung Bandan","station_id":"KPB","transit":false,"time":3,"line":0,"i_lat":-6.132549,"i_long":106.826365,"distance":1364},{"station_id":"AK","time":9,"i_long":106.79867,"i_lat":-6.144674,"is_transit":false,"line":0,"station_name":"Angke","distance":4102,"transit":false},{"station_id":"DU","distance":1230,"station_name":"Duri","i_lat":-6.155215,"time":4,"line":1,"transit":true,"i_long":106.800832,"is_transit":true},{"station_name":"Tanah Abang","distance":3632,"i_lat":-6.185545,"line":1,"station_id":"THB","i_long":106.811091,"transit":true,"is_transit":true,"time":8},{"time":6,"distance":3191,"transit":false,"i_lat":-6.207404,"line":6,"i_long":106.79689,"station_name":"Palmerah","is_transit":false,"station_id":"PLM"}],[{"is_transit":false,"time":0,"distance":0,"station_name":"Jayakarta","station_id":"JAY","i_lat":-6.141205,"transit":false,"line":7,"i_long":106.820901},{"is_transit":false,"line":2,"time":2,"station_name":"Manggabesar","transit":false,"station_id":"MGB","i_lat":-6.149769,"i_long":106.82482,"distance":1080},{"is_transit":false,"distance":906,"i_long":106.827103,"station_name":"Sawah Besar","station_id":"SW","i_lat":-6.160725,"transit":false,"time":2,"line":2},{"transit":false,"is_transit":false,"time":2,"i_lat":-6.166716,"station_name":"Juanda","i_long":106.828284,"line":2,"station_id":"JUA","distance":1149},{"line":2,"i_lat":-6.186295,"is_transit":false,"time":4,"transit":false,"station_name":"Gondangdia","station_id":"GDD","distance":2015,"i_long":106.832183},{"time":3,"transit":false,"is_transit":false,"distance":1750,"line":0,"station_id":"CKI","i_long":106.840169,"station_name":"Cikini","i_lat":-6.198556},{"distance":1590,"i_long":106.84912,"transit":true,"line":0,"i_lat":-6.209883,"station_name":"Manggarai","time":4,"is_transit":true,"station_id":"MRI"},{"station_id":"SUD","time":4,"station_name":"Sudirman","i_long":106.822649,"i_lat":-6.202263,"is_transit":false,"distance":3186,"line":1,"transit":false},{"time":1,"is_transit":false,"distance":280,"i_lat":-6.201433,"i_long":106.819881,"line":1,"station_name":"Sudirman Baru","transit":false,"station_id":"SUDB"},{"station_id":"KAT","time":1,"transit":false,"station_name":"Karet","i_long":106.816351,"distance":471,"line":1,"i_lat":-6.20132,"is_transit":false},{"station_name":"Tanah Abang","line":1,"i_long":106.811091,"transit":true,"station_id":"THB","distance":2029,"is_transit":true,"time":5,"i_lat":-6.185545},{"line":6,"distance":3191,"i_lat":-6.207404,"time":6,"transit":false,"station_name":"Palmerah","station_id":"PLM","is_transit":false,"i_long":106.79689}],[{"transit":false,"is_transit":false,"station_id":"JAY","station_name":"Jayakarta","time":0,"i_lat":-6.141205,"distance":0,"i_long":106.820901,"line":7},{"time":4,"is_transit":true,"i_long":106.812439,"distance":1264,"station_id":"JAKK","station_name":"Jakarta Kota","line":0,"transit":true,"i_lat":-6.137569},{"station_id":"KPB","is_transit":true,"time":3,"i_lat":-6.132549,"line":0,"i_long":106.826365,"transit":true,"station_name":"Kampung Bandan","distance":1364},{"line":11,"i_long":106.836569,"transit":false,"i_lat":-6.14505,"time":3,"is_transit":false,"distance":1444,"station_name":"Rajawali","station_id":"RJW"},{"i_long":106.839204,"i_lat":-6.161728,"station_name":"Kemayoran","time":5,"distance":1901,"is_transit":false,"transit":false,"station_id":"KMO","line":11},{"station_id":"PSE","time":4,"distance":1436,"transit":false,"i_lat":-6.174784,"line":11,"is_transit":false,"station_name":"Pasar Senen","i_long":106.84368},{"time":8,"station_name":"Gang Sentiong","transit":false,"station_id":"GST","distance":1567,"i_long":106.850107,"is_transit":false,"line":11,"i_lat":-6.185975},{"line":11,"time":1,"distance":973,"is_transit":false,"i_lat":-6.193792,"station_name":"Kramat","station_id":"KMT","transit":false,"i_long":106.855437},{"i_long":106.861737,"line":11,"transit":false,"distance":1829,"i_lat":-6.209188,"is_transit":false,"time":2,"station_id":"POK","station_name":"Pondok Jati"},{"line":0,"station_id":"JNG","is_transit":true,"time":9,"i_lat":-6.215091,"distance":1236,"transit":true,"station_name":"Jatinegara","i_long":106.86807400000001},{"station_id":"MTR","i_lat":-6.212485,"transit":false,"i_long":106.858896,"is_transit":false,"line":1,"distance":1377,"time":2,"station_name":"Matraman"},{"station_name":"Manggarai","i_lat":-6.209883,"is_transit":true,"time":2,"line":0,"distance":1275,"transit":false,"i_long":106.84912,"station_id":"MRI"},{"station_name":"Sudirman","is_transit":false,"station_id":"SUD","time":4,"transit":false,"i_long":106.822649,"i_lat":-6.202263,"distance":3186,"line":1},{"distance":280,"time":1,"station_id":"SUDB","is_transit":false,"i_long":106.819881,"station_name":"Sudirman Baru","line":1,"transit":false,"i_lat":-6.201433},{"is_transit":false,"transit":false,"time":1,"distance":471,"station_name":"Karet","station_id":"KAT","i_long":106.816351,"i_lat":-6.20132,"line":1},{"transit":true,"i_long":106.811091,"distance":2029,"is_transit":true,"time":5,"station_name":"Tanah Abang","station_id":"THB","i_lat":-6.185545,"line":1},{"station_name":"Palmerah","station_id":"PLM","time":6,"distance":3191,"i_long":106.79689,"line":6,"transit":false,"is_transit":false,"i_lat":-6.207404}],[{"i_long":106.820901,"transit":false,"station_name":"Jayakarta","is_transit":false,"station_id":"JAY","time":0,"i_lat":-6.141205,"line":7,"distance":0},{"station_name":"Manggabesar","i_lat":-6.149769,"line":2,"station_id":"MGB","is_transit":false,"i_long":106.82482,"time":2,"distance":1080,"transit":false},{"transit":false,"station_name":"Sawah Besar","distance":906,"is_transit":false,"time":2,"i_long":106.827103,"station_id":"SW","i_lat":-6.160725,"line":2},{"transit":false,"is_transit":false,"line":2,"i_lat":-6.166716,"i_long":106.828284,"station_id":"JUA","time":2,"distance":1149,"station_name":"Juanda"},{"i_long":106.832183,"station_id":"GDD","time":4,"station_name":"Gondangdia","i_lat":-6.186295,"line":2,"is_transit":false,"transit":false,"distance":2015},{"station_id":"CKI","i_long":106.840169,"distance":1750,"transit":false,"line":0,"is_transit":false,"station_name":"Cikini","i_lat":-6.198556,"time":3},{"i_long":106.84912,"transit":true,"time":4,"distance":1590,"i_lat":-6.209883,"station_id":"MRI","line":0,"station_name":"Manggarai","is_transit":true},{"station_name":"Matraman","is_transit":false,"i_lat":-6.212485,"distance":1275,"station_id":"MTR","time":2,"transit":false,"i_long":106.858896,"line":1},{"is_transit":true,"station_name":"Jatinegara","transit":true,"station_id":"JNG","time":8,"i_lat":-6.215091,"line":0,"i_long":106.86807400000001,"distance":1377},{"line":11,"time":2,"station_id":"POK","transit":false,"station_name":"Pondok Jati","is_transit":false,"distance":1236,"i_lat":-6.209188,"i_long":106.861737},{"i_long":106.855437,"station_id":"KMT","time":2,"is_transit":false,"station_name":"Kramat","transit":false,"line":11,"i_lat":-6.193792,"distance":1829},{"time":1,"station_id":"GST","i_lat":-6.185975,"is_transit":false,"distance":973,"transit":false,"station_name":"Gang Sentiong","i_long":106.850107,"line":11},{"line":11,"is_transit":false,"i_lat":-6.174784,"distance":1567,"time":8,"transit":false,"station_id":"PSE","station_name":"Pasar Senen","i_long":106.84368},{"station_name":"Kemayoran","station_id":"KMO","is_transit":false,"i_lat":-6.161728,"line":11,"time":4,"transit":false,"distance":1436,"i_long":106.839204},{"transit":false,"i_lat":-6.14505,"distance":1901,"is_transit":false,"i_long":106.836569,"line":11,"time":5,"station_id":"RJW","station_name":"Rajawali"},{"time":3,"transit":true,"station_name":"Kampung Bandan","is_transit":true,"distance":1444,"i_lat":-6.132549,"i_long":106.826365,"station_id":"KPB","line":0},{"i_long":106.79867,"i_lat":-6.144674,"time":9,"distance":4102,"station_id":"AK","station_name":"Angke","is_transit":false,"line":0,"transit":false},{"i_lat":-6.155215,"station_name":"Duri","station_id":"DU","line":1,"is_transit":true,"transit":true,"distance":1230,"i_long":106.800832,"time":4},{"i_lat":-6.185545,"transit":true,"is_transit":true,"line":1,"station_id":"THB","distance":3632,"time":8,"i_long":106.811091,"station_name":"Tanah Abang"},{"time":6,"is_transit":false,"distance":3191,"line":6,"transit":false,"i_lat":-6.207404,"station_id":"PLM","station_name":"Palmerah","i_long":106.79689}]]}