{"data":[[{"line":2,"station_name":"Jayakarta","time":0,"i_lat":-6.141205,"station_id":"JAY","i_long":106.820901,"transit":false,"is_transit":false,"distance":0},{"i_lat":-6.149769,"i_long":106.82482,"line":2,"distance":1080,"is_transit":false,"station_id":"MGB","station_name":"Manggabesar","time":2,"transit":false},{"station_name":"Sawah Besar","distance":906,"line":2,"i_lat":-6.160725,"station_id":"SW","transit":false,"is_transit":false,"time":2,"i_long":106.827103},{"station_name":"Juanda","i_lat":-6.166716,"time":2,"is_transit":false,"transit":false,"station_id":"JUA","i_long":106.828284,"line":2,"distance":1149},{"time":4,"transit":false,"i_long":106.832183,"distance":2015,"station_name":"Gondangdia","is_transit":false,"station_id":"GDD","line":2,"i_lat":-6.186295},{"station_id":"CKI","line":2,"distance":1750,"time":3,"is_transit":false,"transit":false,"i_long":106.840169,"station_name":"Cikini","i_lat":-6.198556},{"station_name":"Manggarai","line":2,"i_long":106.84912,"station_id":"MRI","distance":1590,"time":4,"i_lat":-6.209883,"transit":false,"is_transit":false},{"transit":false,"i_lat":-6.226659,"time":4,"is_transit":false,"distance":2610,"station_name":"Tebet","i_long":106.857948,"station_id":"TEB","line":2},{"line":2,"i_lat":-6.242512,"i_long":106.856607,"is_transit":false,"distance":1230,"time":2,"station_id":"CW","station_name":"Cawang","transit":false},{"station_id":"DRN","distance":1546,"line":2,"is_transit":false,"station_name":"Duren Kalibata","transit":false,"time":3,"i_lat":-6.255332,"i_long":106.85449},{"transit":false,"time":2,"i_lat":-6.263214,"distance":824,"line":2,"station_id":"PSMB","i_long":106.851577,"is_transit":false,"station_name":"Pasar Minggu Baru"},{"station_id":"PSM","time":2,"transit":false,"distance":2380,"i_long":106.843999,"line":2,"station_name":"Pasar Minggu","i_lat":-6.2842400000000005,"is_transit":false},{"is_transit":false,"i_long":106.838896,"station_name":"Tanjung Barat","i_lat":-6.3080680000000005,"line":2,"station_id":"TNT","distance":2820,"transit":false,"time":4}],[{"line":2,"time":0,"station_id":"JAY","station_name":"Jayakarta","i_long":106.820901,"transit":false,"distance":0,"is_transit":false,"i_lat":-6.141205},{"is_transit":true,"i_lat":-6.137569,"i_long":106.812439,"transit":true,"station_id":"JAKK","line":2,"time":4,"station_name":"Jakarta Kota","distance":1264},{"station_id":"KPB","station_name":"Kampung Bandan","transit":true,"i_lat":-6.132549,"time":3,"is_transit":true,"i_long":106.826365,"distance":1364,"line":4},{"line":1,"station_id":"AK","i_long":106.79867,"time":9,"i_lat":-6.144674,"distance":4102,"is_transit":false,"station_name":"Angke","transit":false},{"distance":1230,"is_transit":false,"station_id":"DU","station_name":"Duri","i_lat":-6.155215,"time":4,"transit":false,"i_long":106.800832,"line":1},{"station_name":"Tanah Abang","is_transit":false,"transit":false,"distance":3632,"i_lat":-6.185545,"station_id":"THB","line":1,"i_long":106.811091,"time":8},{"line":1,"transit":false,"i_long":106.816351,"station_id":"KAT","is_transit":false,"time":5,"station_name":"Karet","distance":2029,"i_lat":-6.20132},{"station_name":"Sudirman Baru","i_lat":-6.201433,"line":1,"time":1,"i_long":106.819881,"station_id":"SUDB","transit":false,"distance":471,"is_transit":false},{"line":1,"i_long":106.822649,"time":1,"is_transit":false,"station_id":"SUD","i_lat":-6.202263,"transit":false,"distance":280,"station_name":"Sudirman"},{"is_transit":true,"station_name":"Manggarai","distance":3186,"i_long":106.84912,"line":2,"i_lat":-6.209883,"time":4,"transit":true,"station_id":"MRI"},{"is_transit":false,"station_id":"TEB","distance":2610,"time":4,"station_name":"Tebet","transit":false,"i_long":106.857948,"line":2,"i_lat":-6.226659},{"i_long":106.856607,"station_id":"CW","i_lat":-6.242512,"time":2,"line":2,"distance":1230,"station_name":"Cawang","is_transit":false,"transit":false},{"distance":1546,"time":3,"i_long":106.85449,"line":2,"station_id":"DRN","is_transit":false,"transit":false,"station_name":"Duren Kalibata","i_lat":-6.255332},{"distance":824,"is_transit":false,"i_lat":-6.263214,"transit":false,"time":2,"station_name":"Pasar Minggu Baru","i_long":106.851577,"station_id":"PSMB","line":2},{"station_name":"Pasar Minggu","time":2,"i_lat":-6.2842400000000005,"is_transit":false,"transit":false,"line":2,"i_long":106.843999,"distance":2380,"station_id":"PSM"},{"time":4,"station_name":"Tanjung Barat","i_long":106.838896,"station_id":"TNT","i_lat":-6.3080680000000005,"is_transit":false,"line":2,"transit":false,"distance":2820}],[{"distance":0,"i_lat":-6.141205,"i_long":106.820901,"station_id":"JAY","station_name":"Jayakarta","is_transit":false,"time":0,"line":2,"transit":false},{"line":2,"station_name":"Jakarta Kota","transit":true,"distance":1264,"station_id":"JAKK","is_transit":true,"i_long":106.812439,"time":4,"i_lat":-6.137569},{"i_long":106.826365,"station_id":"KPB","station_name":"Kampung Bandan","is_transit":true,"line":4,"distance":1364,"time":3,"transit":true,"i_lat":-6.132549},{"transit":false,"distance":1444,"station_name":"Rajawali","is_transit":false,"i_lat":-6.14505,"line":11,"time":3,"i_long":106.836569,"station_id":"RJW"},{"transit":false,"distance":1901,"station_name":"Kemayoran","is_transit":false,"time":5,"i_lat":-6.161728,"i_long":106.839204,"line":11,"station_id":"KMO"},{"line":11,"station_name":"Pasar Senen","station_id":"PSE","transit":false,"i_lat":-6.174784,"distance":1436,"is_transit":false,"time":4,"i_long":106.84368},{"i_long":106.850107,"distance":1567,"transit":false,"time":8,"station_id":"GST","i_lat":-6.185975,"station_name":"Gang Sentiong","is_transit":false,"line":11},{"line":11,"station_name":"Kramat","time":1,"is_transit":false,"i_lat":-6.193792,"distance":973,"i_long":106.855437,"station_id":"KMT","transit":false},{"line":11,"i_long":106.861737,"station_id":"POK","transit":false,"station_name":"Pondok Jati","is_transit":false,"time":2,"i_lat":-6.209188,"distance":1829},{"station_name":"Jatinegara","is_transit":true,"i_lat":-6.215091,"i_long":106.86807400000001,"station_id":"JNG","line":1,"transit":true,"distance":1236,"time":9},{"line":1,"distance":1377,"i_long":106.858896,"transit":false,"is_transit":false,"station_name":"Matraman","time":2,"station_id":"MTR","i_lat":-6.212485},{"is_transit":true,"transit":true,"i_lat":-6.209883,"distance":1275,"station_name":"Manggarai","line":2,"station_id":"MRI","i_long":106.84912,"time":2},{"transit":false,"is_transit":false,"station_id":"TEB","station_name":"Tebet","i_long":106.857948,"time":4,"i_lat":-6.226659,"distance":2610,"line":2},{"station_name":"Cawang","distance":1230,"line":2,"station_id":"CW","i_lat":-6.242512,"is_transit":false,"transit":false,"i_long":106.856607,"time":2},{"is_transit":false,"station_name":"Duren Kalibata","i_lat":-6.255332,"time":3,"distance":1546,"station_id":"DRN","i_long":106.85449,"line":2,"transit":false},{"is_transit":false,"i_long":106.851577,"line":2,"i_lat":-6.263214,"distance":824,"station_name":"Pasar Minggu Baru","transit":false,"time":2,"station_id":"PSMB"},{"i_lat":-6.2842400000000005,"i_long":106.843999,"line":2,"station_id":"PSM","station_name":"Pasar Minggu","time":2,"transit":false,"distance":2380,"is_transit":false},{"i_lat":-6.3080680000000005,"transit":false,"line":2,"station_id":"TNT","i_long":106.838896,"time":4,"is_transit":false,"distance":2820,"station_name":"Tanjung Barat"}]]}