{"data":[[{"i_lat":-6.141205,"is_transit":false,"i_long":106.820901,"station_name":"Jayakarta","transit":false,"station_id":"JAY","line":2,"distance":0,"time":0},{"time":4,"station_name":"Jakarta Kota","i_lat":-6.137569,"is_transit":true,"station_id":"JAKK","transit":true,"i_long":106.812439,"distance":1264,"line":2},{"station_name":"Kampung Bandan","is_transit":true,"time":3,"i_lat":-6.132549,"transit":true,"station_id":"KPB","i_long":106.826365,"distance":1364,"line":4},{"station_name":"Angke","i_lat":-6.144674,"time":9,"distance":4102,"line":1,"i_long":106.79867,"station_id":"AK","transit":false,"is_transit":false},{"is_transit":true,"station_name":"Duri","time":4,"distance":1230,"i_lat":-6.155215,"transit":true,"station_id":"DU","i_long":106.800832,"line":1},{"station_name":"Grogol","i_lat":-6.162021,"time":3,"transit":false,"i_long":106.788277,"station_id":"GGL","distance":1700,"is_transit":false,"line":5},{"station_name":"Pesing","transit":false,"time":2,"distance":2036,"i_long":106.771379,"i_lat":-6.161433,"is_transit":false,"line":5,"station_id":"PSG"},{"line":5,"station_id":"TKO","i_lat":-6.1587309999999995,"is_transit":false,"i_long":106.756522,"station_name":"Taman Kota","transit":false,"distance":1614,"time":2},{"station_id":"BOI","transit":false,"i_long":106.737035,"i_lat":-6.159876,"is_transit":false,"line":5,"time":2,"distance":2334,"station_name":"Bojongindah"},{"line":5,"is_transit":false,"transit":false,"time":4,"station_name":"Rawa Buaya","distance":1152,"station_id":"RW","i_lat":-6.162758,"i_long":106.723064}],[{"is_transit":false,"distance":0,"i_lat":-6.141205,"time":0,"i_long":106.820901,"line":2,"transit":false,"station_id":"JAY","station_name":"Jayakarta"},{"i_long":106.82482,"station_name":"Manggabesar","station_id":"MGB","distance":1080,"line":2,"time":2,"is_transit":false,"transit":false,"i_lat":-6.149769},{"i_lat":-6.160725,"i_long":106.827103,"station_name":"Sawah Besar","distance":906,"transit":false,"is_transit":false,"time":2,"station_id":"SW","line":2},{"station_name":"Juanda","i_lat":-6.166716,"line":2,"i_long":106.828284,"transit":false,"is_transit":false,"time":2,"distance":1149,"station_id":"JUA"},{"station_id":"GDD","station_name":"Gondangdia","time":4,"distance":2015,"i_long":106.832183,"transit":false,"line":2,"is_transit":false,"i_lat":-6.186295},{"station_id":"CKI","i_lat":-6.198556,"i_long":106.840169,"station_name":"Cikini","line":2,"transit":false,"time":3,"is_transit":false,"distance":1750},{"station_id":"MRI","distance":1590,"transit":true,"time":4,"i_lat":-6.209883,"is_transit":true,"i_long":106.84912,"station_name":"Manggarai","line":2},{"station_name":"Sudirman","i_long":106.822649,"line":1,"station_id":"SUD","transit":false,"distance":3186,"i_lat":-6.202263,"is_transit":false,"time":4},{"station_name":"Sudirman Baru","i_lat":-6.201433,"time":1,"i_long":106.819881,"distance":280,"transit":false,"is_transit":false,"station_id":"SUDB","line":1},{"is_transit":false,"i_long":106.816351,"line":1,"i_lat":-6.20132,"distance":471,"transit":false,"time":1,"station_name":"Karet","station_id":"KAT"},{"i_lat":-6.185545,"i_long":106.811091,"time":5,"is_transit":false,"line":1,"station_name":"Tanah Abang","transit":false,"distance":2029,"station_id":"THB"},{"time":8,"i_long":106.800832,"line":1,"station_id":"DU","is_transit":true,"i_lat":-6.155215,"station_name":"Duri","transit":true,"distance":3632},{"distance":1700,"station_id":"GGL","i_lat":-6.162021,"transit":false,"line":5,"station_name":"Grogol","i_long":106.788277,"time":3,"is_transit":false},{"time":2,"line":5,"is_transit":false,"distance":2036,"station_id":"PSG","transit":false,"station_name":"Pesing","i_lat":-6.161433,"i_long":106.771379},{"time":2,"i_lat":-6.1587309999999995,"is_transit":false,"i_long":106.756522,"station_name":"Taman Kota","line":5,"distance":1614,"transit":false,"station_id":"TKO"},{"distance":2334,"station_id":"BOI","is_transit":false,"transit":false,"line":5,"i_long":106.737035,"station_name":"Bojongindah","time":2,"i_lat":-6.159876},{"line":5,"station_name":"Rawa Buaya","distance":1152,"is_transit":false,"station_id":"RW","transit":false,"i_long":106.723064,"time":4,"i_lat":-6.162758}],[{"i_long":106.820901,"transit":false,"station_name":"Jayakarta","time":0,"is_transit":false,"station_id":"JAY","line":2,"i_lat":-6.141205,"distance":0},{"time":4,"i_lat":-6.137569,"is_transit":true,"i_long":106.812439,"distance":1264,"line":2,"station_id":"JAKK","station_name":"Jakarta Kota","transit":true},{"i_lat":-6.132549,"line":4,"station_name":"Kampung Bandan","time":3,"station_id":"KPB","distance":1364,"transit":true,"is_transit":true,"i_long":106.826365},{"distance":1444,"time":3,"is_transit":false,"i_long":106.836569,"station_id":"RJW","station_name":"Rajawali","line":11,"transit":false,"i_lat":-6.14505},{"is_transit":false,"station_name":"Kemayoran","line":11,"station_id":"KMO","distance":1901,"time":5,"i_lat":-6.161728,"transit":false,"i_long":106.839204},{"is_transit":false,"station_id":"PSE","station_name":"Pasar Senen","transit":false,"time":4,"line":11,"i_long":106.84368,"i_lat":-6.174784,"distance":1436},{"line":11,"distance":1567,"station_id":"GST","i_lat":-6.185975,"station_name":"Gang Sentiong","i_long":106.850107,"is_transit":false,"transit":false,"time":8},{"distance":973,"station_name":"Kramat","i_lat":-6.193792,"time":1,"station_id":"KMT","is_transit":false,"transit":false,"i_long":106.855437,"line":11},{"is_transit":false,"time":2,"station_name":"Pondok Jati","i_long":106.861737,"i_lat":-6.209188,"transit":false,"station_id":"POK","distance":1829,"line":11},{"line":1,"station_name":"Jatinegara","i_lat":-6.215091,"time":9,"distance":1236,"is_transit":true,"transit":true,"station_id":"JNG","i_long":106.86807400000001},{"transit":false,"line":1,"i_long":106.858896,"station_name":"Matraman","time":2,"is_transit":false,"distance":1377,"station_id":"MTR","i_lat":-6.212485},{"i_long":106.84912,"line":2,"station_id":"MRI","station_name":"Manggarai","i_lat":-6.209883,"time":2,"distance":1275,"transit":false,"is_transit":false},{"station_id":"SUD","i_long":106.822649,"i_lat":-6.202263,"distance":3186,"time":4,"line":1,"station_name":"Sudirman","transit":false,"is_transit":false},{"is_transit":false,"station_id":"SUDB","i_long":106.819881,"station_name":"Sudirman Baru","transit":false,"i_lat":-6.201433,"distance":280,"time":1,"line":1},{"i_long":106.816351,"station_id":"KAT","i_lat":-6.20132,"transit":false,"line":1,"time":1,"station_name":"Karet","distance":471,"is_transit":false},{"line":1,"time":5,"transit":false,"station_name":"Tanah Abang","is_transit":false,"distance":2029,"station_id":"THB","i_long":106.811091,"i_lat":-6.185545},{"i_long":106.800832,"is_transit":true,"station_id":"DU","station_name":"Duri","distance":3632,"line":1,"transit":true,"time":8,"i_lat":-6.155215},{"station_name":"Grogol","i_long":106.788277,"station_id":"GGL","is_transit":false,"distance":1700,"time":3,"i_lat":-6.162021,"transit":false,"line":5},{"distance":2036,"time":2,"i_long":106.771379,"line":5,"transit":false,"station_id":"PSG","is_transit":false,"station_name":"Pesing","i_lat":-6.161433},{"station_name":"Taman Kota","is_transit":false,"station_id":"TKO","transit":false,"time":2,"distance":1614,"line":5,"i_long":106.756522,"i_lat":-6.1587309999999995},{"i_long":106.737035,"station_name":"Bojongindah","transit":false,"station_id":"BOI","distance":2334,"line":5,"i_lat":-6.159876,"time":2,"is_transit":false},{"i_long":106.723064,"station_name":"Rawa Buaya","i_lat":-6.162758,"line":5,"transit":false,"station_id":"RW","time":4,"distance":1152,"is_transit":false}],[{"i_long":106.820901,"line":2,"transit":false,"is_transit":false,"station_name":"Jayakarta","time":0,"distance":0,"station_id":"JAY","i_lat":-6.141205},{"time":2,"station_name":"Manggabesar","i_lat":-6.149769,"distance":1080,"i_long":106.82482,"station_id":"MGB","transit":false,"is_transit":false,"line":2},{"station_name":"Sawah Besar","transit":false,"station_id":"SW","time":2,"distance":906,"i_lat":-6.160725,"line":2,"i_long":106.827103,"is_transit":false},{"i_lat":-6.166716,"i_long":106.828284,"time":2,"distance":1149,"line":2,"station_id":"JUA","station_name":"Juanda","transit":false,"is_transit":false},{"distance":2015,"i_long":106.832183,"station_id":"GDD","is_transit":false,"time":4,"station_name":"Gondangdia","transit":false,"i_lat":-6.186295,"line":2},{"distance":1750,"time":3,"station_name":"Cikini","i_lat":-6.198556,"i_long":106.840169,"station_id":"CKI","line":2,"transit":false,"is_transit":false},{"i_long":106.84912,"time":4,"distance":1590,"i_lat":-6.209883,"line":2,"station_name":"Manggarai","is_transit":true,"station_id":"MRI","transit":true},{"i_lat":-6.212485,"is_transit":false,"transit":false,"station_id":"MTR","i_long":106.858896,"time":2,"station_name":"Matraman","distance":1275,"line":1},{"station_id":"JNG","transit":true,"station_name":"Jatinegara","is_transit":true,"distance":1377,"i_lat":-6.215091,"line":1,"time":8,"i_long":106.86807400000001},{"time":2,"is_transit":false,"distance":1236,"transit":false,"station_name":"Pondok Jati","line":11,"i_long":106.861737,"i_lat":-6.209188,"station_id":"POK"},{"i_lat":-6.193792,"distance":1829,"is_transit":false,"line":11,"i_long":106.855437,"transit":false,"time":2,"station_name":"Kramat","station_id":"KMT"},{"transit":false,"time":1,"i_lat":-6.185975,"distance":973,"i_long":106.850107,"station_name":"Gang Sentiong","is_transit":false,"line":11,"station_id":"GST"},{"line":11,"distance":1567,"i_long":106.84368,"station_id":"PSE","transit":false,"time":8,"is_transit":false,"i_lat":-6.174784,"station_name":"Pasar Senen"},{"is_transit":false,"i_lat":-6.161728,"station_name":"Kemayoran","i_long":106.839204,"line":11,"time":4,"distance":1436,"transit":false,"station_id":"KMO"},{"distance":1901,"transit":false,"i_long":106.836569,"line":11,"is_transit":false,"station_id":"RJW","time":5,"station_name":"Rajawali","i_lat":-6.14505},{"station_id":"KPB","station_name":"Kampung Bandan","transit":true,"i_lat":-6.132549,"i_long":106.826365,"time":3,"is_transit":true,"distance":1444,"line":4},{"station_name":"Angke","transit":false,"i_lat":-6.144674,"i_long":106.79867,"is_transit":false,"line":1,"distance":4102,"station_id":"AK","time":9},{"station_name":"Duri","time":4,"i_long":106.800832,"i_lat":-6.155215,"transit":true,"distance":1230,"is_transit":true,"line":1,"station_id":"DU"},{"transit":false,"is_transit":false,"i_lat":-6.162021,"i_long":106.788277,"station_name":"Grogol","distance":1700,"station_id":"GGL","line":5,"time":3},{"station_name":"Pesing","distance":2036,"i_lat":-6.161433,"is_transit":false,"line":5,"station_id":"PSG","time":2,"transit":false,"i_long":106.771379},{"i_lat":-6.1587309999999995,"distance":1614,"station_name":"Taman Kota","is_transit":false,"i_long":106.756522,"station_id":"TKO","time":2,"line":5,"transit":false},{"distance":2334,"i_long":106.737035,"station_id":"BOI","station_name":"Bojongindah","i_lat":-6.159876,"is_transit":false,"transit":false,"time":2,"line":5},{"distance":1152,"i_long":106.723064,"is_transit":false,"station_id":"RW","i_lat":-6.162758,"line":5,"transit":false,"station_name":"Rawa Buaya","time":4}]]}