{"data":[[{"i_lat":-6.141205,"station_id":"JAY","transit":false,"time":0,"is_transit":false,"distance":0,"station_name":"Jayakarta","i_long":106.820901,"line":2},{"i_long":106.812439,"is_transit":true,"line":2,"station_name":"Jakarta Kota","i_lat":-6.137569,"station_id":"JAKK","distance":1264,"time":4,"transit":true},{"line":4,"station_name":"Kampung Bandan","station_id":"KPB","i_lat":-6.132549,"distance":1364,"is_transit":true,"time":3,"i_long":106.826365,"transit":true},{"station_name":"Angke","station_id":"AK","i_lat":-6.144674,"time":9,"transit":false,"is_transit":false,"i_long":106.79867,"distance":4102,"line":1},{"station_name":"Duri","time":4,"is_transit":false,"station_id":"DU","distance":1230,"transit":false,"i_lat":-6.155215,"i_long":106.800832,"line":1}],[{"station_id":"JAY","line":2,"time":0,"is_transit":false,"i_lat":-6.141205,"distance":0,"station_name":"Jayakarta","i_long":106.820901,"transit":false},{"distance":1080,"transit":false,"time":2,"i_lat":-6.149769,"is_transit":false,"station_name":"Manggabesar","i_long":106.82482,"line":2,"station_id":"MGB"},{"is_transit":false,"station_id":"SW","i_lat":-6.160725,"line":2,"time":2,"distance":906,"transit":false,"i_long":106.827103,"station_name":"Sawah Besar"},{"station_name":"Juanda","line":2,"is_transit":false,"transit":false,"time":2,"distance":1149,"i_lat":-6.166716,"i_long":106.828284,"station_id":"JUA"},{"transit":false,"i_lat":-6.186295,"i_long":106.832183,"is_transit":false,"line":2,"distance":2015,"station_name":"Gondangdia","station_id":"GDD","time":4},{"time":3,"station_name":"Cikini","station_id":"CKI","line":2,"i_lat":-6.198556,"i_long":106.840169,"is_transit":false,"transit":false,"distance":1750},{"transit":true,"time":4,"i_lat":-6.209883,"line":2,"distance":1590,"i_long":106.84912,"is_transit":true,"station_name":"Manggarai","station_id":"MRI"},{"i_long":106.822649,"station_name":"Sudirman","line":1,"is_transit":false,"time":4,"i_lat":-6.202263,"distance":3186,"transit":false,"station_id":"SUD"},{"time":1,"station_id":"SUDB","i_lat":-6.201433,"is_transit":false,"station_name":"Sudirman Baru","distance":280,"transit":false,"i_long":106.819881,"line":1},{"i_lat":-6.20132,"station_id":"KAT","distance":471,"transit":false,"line":1,"i_long":106.816351,"time":1,"station_name":"Karet","is_transit":false},{"i_lat":-6.185545,"line":1,"transit":false,"station_name":"Tanah Abang","distance":2029,"time":5,"is_transit":false,"station_id":"THB","i_long":106.811091},{"is_transit":false,"i_lat":-6.155215,"line":1,"transit":false,"distance":3632,"i_long":106.800832,"time":8,"station_name":"Duri","station_id":"DU"}],[{"line":2,"transit":false,"is_transit":false,"time":0,"station_name":"Jayakarta","station_id":"JAY","i_lat":-6.141205,"i_long":106.820901,"distance":0},{"distance":1264,"i_lat":-6.137569,"time":4,"is_transit":true,"station_name":"Jakarta Kota","station_id":"JAKK","i_long":106.812439,"line":2,"transit":true},{"station_id":"KPB","is_transit":true,"i_long":106.826365,"transit":true,"i_lat":-6.132549,"time":3,"station_name":"Kampung Bandan","line":4,"distance":1364},{"is_transit":false,"transit":false,"i_long":106.836569,"time":3,"station_id":"RJW","station_name":"Rajawali","distance":1444,"i_lat":-6.14505,"line":11},{"line":11,"distance":1901,"is_transit":false,"i_long":106.839204,"station_name":"Kemayoran","station_id":"KMO","transit":false,"time":5,"i_lat":-6.161728},{"time":4,"station_name":"Pasar Senen","is_transit":false,"station_id":"PSE","transit":false,"i_lat":-6.174784,"i_long":106.84368,"distance":1436,"line":11},{"i_long":106.850107,"i_lat":-6.185975,"line":11,"time":8,"transit":false,"is_transit":false,"distance":1567,"station_id":"GST","station_name":"Gang Sentiong"},{"i_long":106.855437,"station_id":"KMT","station_name":"Kramat","i_lat":-6.193792,"line":11,"time":1,"transit":false,"distance":973,"is_transit":false},{"line":11,"station_id":"POK","i_lat":-6.209188,"station_name":"Pondok Jati","is_transit":false,"time":2,"transit":false,"distance":1829,"i_long":106.861737},{"time":9,"distance":1236,"station_id":"JNG","is_transit":true,"transit":true,"i_long":106.86807400000001,"line":1,"i_lat":-6.215091,"station_name":"Jatinegara"},{"line":1,"is_transit":false,"station_id":"MTR","distance":1377,"i_lat":-6.212485,"transit":false,"station_name":"Matraman","time":2,"i_long":106.858896},{"time":2,"line":2,"distance":1275,"is_transit":false,"station_id":"MRI","transit":false,"i_lat":-6.209883,"i_long":106.84912,"station_name":"Manggarai"},{"transit":false,"line":1,"is_transit":false,"station_name":"Sudirman","distance":3186,"station_id":"SUD","i_lat":-6.202263,"i_long":106.822649,"time":4},{"i_lat":-6.201433,"distance":280,"is_transit":false,"station_name":"Sudirman Baru","station_id":"SUDB","i_long":106.819881,"line":1,"time":1,"transit":false},{"station_name":"Karet","station_id":"KAT","distance":471,"i_lat":-6.20132,"is_transit":false,"line":1,"time":1,"i_long":106.816351,"transit":false},{"distance":2029,"time":5,"station_name":"Tanah Abang","line":1,"i_lat":-6.185545,"station_id":"THB","transit":false,"i_long":106.811091,"is_transit":false},{"is_transit":false,"i_lat":-6.155215,"station_name":"Duri","station_id":"DU","time":8,"distance":3632,"line":1,"i_long":106.800832,"transit":false}],[{"line":2,"time":0,"is_transit":false,"station_name":"Jayakarta","station_id":"JAY","i_long":106.820901,"distance":0,"i_lat":-6.141205,"transit":false},{"i_lat":-6.149769,"time":2,"line":2,"distance":1080,"is_transit":false,"station_id":"MGB","transit":false,"station_name":"Manggabesar","i_long":106.82482},{"is_transit":false,"i_lat":-6.160725,"i_long":106.827103,"transit":false,"time":2,"station_id":"SW","line":2,"station_name":"Sawah Besar","distance":906},{"is_transit":false,"station_name":"Juanda","station_id":"JUA","i_lat":-6.166716,"time":2,"i_long":106.828284,"distance":1149,"transit":false,"line":2},{"station_name":"Gondangdia","line":2,"i_long":106.832183,"i_lat":-6.186295,"transit":false,"station_id":"GDD","time":4,"distance":2015,"is_transit":false},{"distance":1750,"time":3,"i_lat":-6.198556,"station_name":"Cikini","is_transit":false,"transit":false,"station_id":"CKI","line":2,"i_long":106.840169},{"transit":true,"distance":1590,"i_lat":-6.209883,"station_id":"MRI","line":2,"is_transit":true,"station_name":"Manggarai","i_long":106.84912,"time":4},{"line":1,"distance":1275,"i_lat":-6.212485,"station_id":"MTR","time":2,"station_name":"Matraman","is_transit":false,"transit":false,"i_long":106.858896},{"i_lat":-6.215091,"time":8,"i_long":106.86807400000001,"line":1,"is_transit":true,"distance":1377,"station_name":"Jatinegara","station_id":"JNG","transit":true},{"transit":false,"i_long":106.861737,"distance":1236,"is_transit":false,"time":2,"station_name":"Pondok Jati","i_lat":-6.209188,"station_id":"POK","line":11},{"station_name":"Kramat","is_transit":false,"line":11,"time":2,"i_long":106.855437,"station_id":"KMT","distance":1829,"i_lat":-6.193792,"transit":false},{"transit":false,"line":11,"station_name":"Gang Sentiong","station_id":"GST","time":1,"is_transit":false,"i_lat":-6.185975,"distance":973,"i_long":106.850107},{"transit":false,"i_long":106.84368,"line":11,"station_name":"Pasar Senen","is_transit":false,"distance":1567,"station_id":"PSE","i_lat":-6.174784,"time":8},{"transit":false,"station_id":"KMO","time":4,"i_lat":-6.161728,"station_name":"Kemayoran","line":11,"distance":1436,"is_transit":false,"i_long":106.839204},{"line":11,"is_transit":false,"distance":1901,"i_long":106.836569,"station_name":"Rajawali","station_id":"RJW","transit":false,"i_lat":-6.14505,"time":5},{"distance":1444,"i_lat":-6.132549,"line":4,"i_long":106.826365,"is_transit":true,"transit":true,"station_name":"Kampung Bandan","time":3,"station_id":"KPB"},{"is_transit":false,"i_lat":-6.144674,"i_long":106.79867,"time":9,"distance":4102,"line":1,"station_name":"Angke","transit":false,"station_id":"AK"},{"transit":false,"distance":1230,"station_name":"Duri","station_id":"DU","i_lat":-6.155215,"line":1,"time":4,"i_long":106.800832,"is_transit":false}]]}