{"data":[[{"i_lat":-6.141205,"transit":false,"distance":0,"is_transit":false,"station_id":"JAY","line":7,"i_long":106.820901,"station_name":"Jayakarta","time":0},{"distance":1080,"i_lat":-6.149769,"line":2,"is_transit":false,"station_name":"Manggabesar","transit":false,"i_long":106.82482,"station_id":"MGB","time":2},{"is_transit":false,"line":2,"time":2,"i_lat":-6.160725,"distance":906,"transit":false,"i_long":106.827103,"station_id":"SW","station_name":"Sawah Besar"},{"time":2,"distance":1149,"i_lat":-6.166716,"station_id":"JUA","is_transit":false,"station_name":"Juanda","line":2,"transit":false,"i_long":106.828284},{"station_id":"GDD","is_transit":false,"transit":false,"time":4,"station_name":"Gondangdia","i_lat":-6.186295,"distance":2015,"line":2,"i_long":106.832183},{"station_id":"CKI","i_lat":-6.198556,"i_long":106.840169,"time":3,"station_name":"Cikini","transit":false,"is_transit":false,"line":0,"distance":1750},{"time":4,"i_long":106.84912,"station_name":"Manggarai","station_id":"MRI","is_transit":true,"transit":true,"i_lat":-6.209883,"line":0,"distance":1590},{"i_lat":-6.212485,"i_long":106.858896,"station_id":"MTR","time":2,"distance":1275,"station_name":"Matraman","transit":false,"is_transit":false,"line":1},{"transit":false,"i_lat":-6.215091,"i_long":106.86807400000001,"station_name":"Jatinegara","line":0,"station_id":"JNG","time":8,"distance":1377,"is_transit":true},{"line":1,"station_name":"Klender","is_transit":false,"i_lat":-6.2135,"distance":3395,"i_long":106.899548,"station_id":"KLD","time":3,"transit":false},{"i_long":106.922662,"time":2,"i_lat":-6.215568,"station_id":"BUA","is_transit":false,"station_name":"Buaran","transit":false,"distance":3100,"line":0},{"station_id":"KLDB","i_lat":-6.217455,"transit":false,"station_name":"Klenderbaru","i_long":106.939679,"line":1,"is_transit":false,"time":1,"distance":1305}],[{"time":0,"station_name":"Jayakarta","is_transit":false,"i_lat":-6.141205,"transit":false,"line":7,"distance":0,"i_long":106.820901,"station_id":"JAY"},{"i_long":106.812439,"is_transit":true,"transit":true,"i_lat":-6.137569,"line":0,"station_id":"JAKK","station_name":"Jakarta Kota","time":4,"distance":1264},{"is_transit":true,"distance":1364,"station_name":"Kampung Bandan","transit":true,"line":0,"time":3,"station_id":"KPB","i_long":106.826365,"i_lat":-6.132549},{"line":11,"i_lat":-6.14505,"station_id":"RJW","is_transit":false,"transit":false,"distance":1444,"time":3,"station_name":"Rajawali","i_long":106.836569},{"is_transit":false,"i_long":106.839204,"i_lat":-6.161728,"line":11,"station_id":"KMO","time":5,"station_name":"Kemayoran","distance":1901,"transit":false},{"time":4,"line":11,"station_id":"PSE","transit":false,"i_lat":-6.174784,"distance":1436,"station_name":"Pasar Senen","is_transit":false,"i_long":106.84368},{"time":8,"distance":1567,"station_id":"GST","station_name":"Gang Sentiong","transit":false,"is_transit":false,"i_lat":-6.185975,"i_long":106.850107,"line":11},{"station_name":"Kramat","i_long":106.855437,"distance":973,"line":11,"time":1,"i_lat":-6.193792,"is_transit":false,"station_id":"KMT","transit":false},{"station_name":"Pondok Jati","time":2,"is_transit":false,"station_id":"POK","distance":1829,"transit":false,"i_lat":-6.209188,"i_long":106.861737,"line":11},{"distance":1236,"transit":true,"time":9,"station_id":"JNG","is_transit":true,"line":0,"i_lat":-6.215091,"i_long":106.86807400000001,"station_name":"Jatinegara"},{"time":3,"distance":3395,"transit":false,"i_lat":-6.2135,"station_id":"KLD","i_long":106.899548,"station_name":"Klender","line":1,"is_transit":false},{"station_name":"Buaran","i_long":106.922662,"station_id":"BUA","time":2,"line":0,"is_transit":false,"distance":3100,"transit":false,"i_lat":-6.215568},{"time":1,"is_transit":false,"i_lat":-6.217455,"station_id":"KLDB","distance":1305,"transit":false,"i_long":106.939679,"line":1,"station_name":"Klenderbaru"}],[{"station_name":"Jayakarta","i_lat":-6.141205,"line":7,"distance":0,"i_long":106.820901,"time":0,"transit":false,"station_id":"JAY","is_transit":false},{"station_id":"JAKK","is_transit":true,"time":4,"i_long":106.812439,"distance":1264,"transit":true,"station_name":"Jakarta Kota","i_lat":-6.137569,"line":0},{"line":0,"station_id":"KPB","station_name":"Kampung Bandan","is_transit":true,"time":3,"i_lat":-6.132549,"i_long":106.826365,"transit":false,"distance":1364},{"is_transit":false,"distance":4102,"i_long":106.79867,"station_id":"AK","transit":false,"i_lat":-6.144674,"station_name":"Angke","line":0,"time":9},{"i_lat":-6.155215,"i_long":106.800832,"distance":1230,"time":4,"is_transit":true,"line":1,"station_id":"DU","transit":true,"station_name":"Duri"},{"transit":false,"station_name":"Tanah Abang","i_long":106.811091,"distance":3632,"station_id":"THB","is_transit":true,"time":8,"i_lat":-6.185545,"line":1},{"transit":false,"i_lat":-6.20132,"i_long":106.816351,"is_transit":false,"time":5,"line":1,"station_id":"KAT","distance":2029,"station_name":"Karet"},{"line":1,"is_transit":false,"time":1,"station_name":"Sudirman Baru","distance":471,"i_long":106.819881,"station_id":"SUDB","transit":false,"i_lat":-6.201433},{"i_long":106.822649,"station_name":"Sudirman","is_transit":false,"time":1,"transit":false,"station_id":"SUD","distance":280,"i_lat":-6.202263,"line":1},{"transit":false,"i_lat":-6.209883,"line":0,"station_name":"Manggarai","distance":3186,"i_long":106.84912,"station_id":"MRI","is_transit":true,"time":4},{"station_id":"MTR","is_transit":false,"station_name":"Matraman","transit":false,"time":2,"line":1,"distance":1275,"i_lat":-6.212485,"i_long":106.858896},{"is_transit":true,"station_name":"Jatinegara","time":8,"i_lat":-6.215091,"distance":1377,"i_long":106.86807400000001,"line":0,"station_id":"JNG","transit":false},{"i_lat":-6.2135,"station_name":"Klender","station_id":"KLD","is_transit":false,"time":3,"distance":3395,"i_long":106.899548,"line":1,"transit":false},{"time":2,"distance":3100,"transit":false,"station_name":"Buaran","i_long":106.922662,"is_transit":false,"i_lat":-6.215568,"line":0,"station_id":"BUA"},{"transit":false,"distance":1305,"i_long":106.939679,"station_name":"Klenderbaru","line":1,"is_transit":false,"station_id":"KLDB","time":1,"i_lat":-6.217455}],[{"station_id":"JAY","i_lat":-6.141205,"time":0,"distance":0,"is_transit":false,"i_long":106.820901,"transit":false,"line":7,"station_name":"Jayakarta"},{"station_name":"Manggabesar","i_long":106.82482,"is_transit":false,"station_id":"MGB","distance":1080,"i_lat":-6.149769,"line":2,"transit":false,"time":2},{"station_id":"SW","is_transit":false,"distance":906,"station_name":"Sawah Besar","transit":false,"i_lat":-6.160725,"line":2,"time":2,"i_long":106.827103},{"i_lat":-6.166716,"is_transit":false,"i_long":106.828284,"transit":false,"time":2,"station_id":"JUA","station_name":"Juanda","line":2,"distance":1149},{"station_name":"Gondangdia","i_lat":-6.186295,"i_long":106.832183,"distance":2015,"station_id":"GDD","time":4,"is_transit":false,"transit":false,"line":2},{"is_transit":false,"i_long":106.840169,"station_name":"Cikini","station_id":"CKI","transit":false,"line":0,"time":3,"distance":1750,"i_lat":-6.198556},{"i_long":106.84912,"i_lat":-6.209883,"time":4,"distance":1590,"station_name":"Manggarai","station_id":"MRI","is_transit":true,"transit":true,"line":0},{"time":4,"station_id":"SUD","station_name":"Sudirman","i_long":106.822649,"is_transit":false,"i_lat":-6.202263,"distance":3186,"line":1,"transit":false},{"i_lat":-6.201433,"is_transit":false,"distance":280,"i_long":106.819881,"station_id":"SUDB","time":1,"station_name":"Sudirman Baru","transit":false,"line":1},{"i_long":106.816351,"time":1,"transit":false,"station_id":"KAT","is_transit":false,"i_lat":-6.20132,"line":1,"distance":471,"station_name":"Karet"},{"station_name":"Tanah Abang","i_lat":-6.185545,"transit":false,"line":1,"is_transit":true,"station_id":"THB","i_long":106.811091,"time":5,"distance":2029},{"station_id":"DU","station_name":"Duri","transit":true,"time":8,"line":1,"i_lat":-6.155215,"is_transit":true,"i_long":106.800832,"distance":3632},{"is_transit":false,"distance":1230,"station_name":"Angke","transit":false,"line":0,"i_long":106.79867,"i_lat":-6.144674,"time":4,"station_id":"AK"},{"station_id":"KPB","line":0,"time":9,"distance":4102,"i_long":106.826365,"is_transit":true,"transit":true,"i_lat":-6.132549,"station_name":"Kampung Bandan"},{"time":3,"i_lat":-6.14505,"is_transit":false,"station_name":"Rajawali","distance":1444,"i_long":106.836569,"line":11,"station_id":"RJW","transit":false},{"transit":false,"line":11,"distance":1901,"is_transit":false,"station_id":"KMO","time":5,"i_lat":-6.161728,"i_long":106.839204,"station_name":"Kemayoran"},{"station_name":"Pasar Senen","distance":1436,"time":4,"i_lat":-6.174784,"station_id":"PSE","line":11,"i_long":106.84368,"is_transit":false,"transit":false},{"time":8,"is_transit":false,"distance":1567,"i_long":106.850107,"transit":false,"station_name":"Gang Sentiong","line":11,"i_lat":-6.185975,"station_id":"GST"},{"distance":973,"station_name":"Kramat","station_id":"KMT","is_transit":false,"time":1,"i_long":106.855437,"line":11,"transit":false,"i_lat":-6.193792},{"i_lat":-6.209188,"distance":1829,"is_transit":false,"time":2,"station_id":"POK","station_name":"Pondok Jati","transit":false,"line":11,"i_long":106.861737},{"time":9,"station_name":"Jatinegara","i_lat":-6.215091,"i_long":106.86807400000001,"station_id":"JNG","is_transit":true,"line":0,"distance":1236,"transit":true},{"i_lat":-6.2135,"is_transit":false,"time":3,"station_id":"KLD","station_name":"Klender","distance":3395,"i_long":106.899548,"transit":false,"line":1},{"station_name":"Buaran","is_transit":false,"line":0,"station_id":"BUA","transit":false,"distance":3100,"i_long":106.922662,"i_lat":-6.215568,"time":2},{"station_id":"KLDB","distance":1305,"line":1,"i_long":106.939679,"is_transit":false,"time":1,"transit":false,"i_lat":-6.217455,"station_name":"Klenderbaru"}]]}