{"data":[[{"time":0,"i_long":106.820901,"station_name":"Jayakarta","station_id":"JAY","line":7,"distance":0,"i_lat":-6.141205,"is_transit":false,"transit":false},{"transit":true,"station_id":"JAKK","time":4,"i_long":106.812439,"line":0,"i_lat":-6.137569,"distance":1264,"is_transit":true,"station_name":"Jakarta Kota"},{"distance":1364,"station_id":"KPB","transit":false,"station_name":"Kampung Bandan","time":3,"is_transit":true,"line":0,"i_lat":-6.132549,"i_long":106.826365},{"i_lat":-6.144674,"station_name":"Angke","i_long":106.79867,"line":0,"transit":false,"station_id":"AK","is_transit":false,"time":9,"distance":4102},{"transit":true,"line":1,"time":4,"i_lat":-6.155215,"station_name":"Duri","distance":1230,"i_long":106.800832,"is_transit":true,"station_id":"DU"},{"distance":1700,"time":3,"station_id":"GGL","transit":false,"is_transit":false,"i_lat":-6.162021,"station_name":"Grogol","i_long":106.788277,"line":5},{"time":2,"transit":false,"distance":2036,"line":5,"is_transit":false,"station_id":"PSG","station_name":"Pesing","i_long":106.771379,"i_lat":-6.161433},{"time":2,"i_long":106.756522,"station_name":"Taman Kota","line":5,"station_id":"TKO","is_transit":false,"transit":false,"i_lat":-6.1587309999999995,"distance":1614},{"distance":2334,"transit":false,"time":2,"station_id":"BOI","is_transit":false,"i_lat":-6.159876,"i_long":106.737035,"station_name":"Bojongindah","line":0},{"transit":false,"i_long":106.723064,"station_id":"RW","is_transit":false,"line":5,"i_lat":-6.162758,"distance":1152,"station_name":"Rawa Buaya","time":4}],[{"transit":false,"station_id":"JAY","is_transit":false,"station_name":"Jayakarta","line":7,"i_lat":-6.141205,"i_long":106.820901,"time":0,"distance":0},{"time":2,"i_long":106.82482,"is_transit":false,"station_name":"Manggabesar","transit":false,"line":2,"distance":1080,"i_lat":-6.149769,"station_id":"MGB"},{"distance":906,"line":2,"i_long":106.827103,"station_id":"SW","station_name":"Sawah Besar","is_transit":false,"time":2,"transit":false,"i_lat":-6.160725},{"line":2,"transit":false,"station_name":"Juanda","i_lat":-6.166716,"i_long":106.828284,"time":2,"distance":1149,"is_transit":false,"station_id":"JUA"},{"station_name":"Gondangdia","i_long":106.832183,"is_transit":false,"station_id":"GDD","time":4,"distance":2015,"transit":false,"i_lat":-6.186295,"line":2},{"time":3,"distance":1750,"is_transit":false,"i_long":106.840169,"station_name":"Cikini","station_id":"CKI","transit":false,"line":0,"i_lat":-6.198556},{"station_name":"Manggarai","transit":true,"i_long":106.84912,"line":0,"is_transit":true,"time":4,"station_id":"MRI","i_lat":-6.209883,"distance":1590},{"station_name":"Sudirman","i_lat":-6.202263,"station_id":"SUD","transit":false,"distance":3186,"time":4,"line":1,"i_long":106.822649,"is_transit":false},{"is_transit":false,"i_long":106.819881,"station_id":"SUDB","line":1,"i_lat":-6.201433,"time":1,"station_name":"Sudirman Baru","distance":280,"transit":false},{"station_id":"KAT","distance":471,"line":1,"i_long":106.816351,"time":1,"i_lat":-6.20132,"is_transit":false,"transit":false,"station_name":"Karet"},{"station_id":"THB","i_long":106.811091,"is_transit":true,"transit":false,"distance":2029,"i_lat":-6.185545,"line":1,"time":5,"station_name":"Tanah Abang"},{"is_transit":true,"distance":3632,"station_id":"DU","station_name":"Duri","transit":true,"line":1,"time":8,"i_long":106.800832,"i_lat":-6.155215},{"line":5,"station_name":"Grogol","station_id":"GGL","i_long":106.788277,"is_transit":false,"transit":false,"time":3,"distance":1700,"i_lat":-6.162021},{"line":5,"station_id":"PSG","distance":2036,"i_lat":-6.161433,"time":2,"station_name":"Pesing","is_transit":false,"i_long":106.771379,"transit":false},{"i_long":106.756522,"time":2,"station_id":"TKO","is_transit":false,"line":5,"distance":1614,"station_name":"Taman Kota","transit":false,"i_lat":-6.1587309999999995},{"transit":false,"station_id":"BOI","station_name":"Bojongindah","i_long":106.737035,"is_transit":false,"i_lat":-6.159876,"distance":2334,"line":0,"time":2},{"is_transit":false,"transit":false,"i_long":106.723064,"distance":1152,"time":4,"i_lat":-6.162758,"station_id":"RW","station_name":"Rawa Buaya","line":5}],[{"i_lat":-6.141205,"station_name":"Jayakarta","transit":false,"line":7,"i_long":106.820901,"station_id":"JAY","is_transit":false,"time":0,"distance":0},{"time":4,"station_id":"JAKK","i_lat":-6.137569,"distance":1264,"transit":true,"station_name":"Jakarta Kota","is_transit":true,"i_long":106.812439,"line":0},{"i_long":106.826365,"station_name":"Kampung Bandan","time":3,"station_id":"KPB","line":0,"is_transit":true,"distance":1364,"transit":true,"i_lat":-6.132549},{"i_lat":-6.14505,"is_transit":false,"line":11,"station_id":"RJW","i_long":106.836569,"transit":false,"time":3,"distance":1444,"station_name":"Rajawali"},{"distance":1901,"station_id":"KMO","i_long":106.839204,"transit":false,"time":5,"station_name":"Kemayoran","is_transit":false,"i_lat":-6.161728,"line":11},{"time":4,"station_id":"PSE","is_transit":false,"i_lat":-6.174784,"distance":1436,"transit":false,"station_name":"Pasar Senen","i_long":106.84368,"line":11},{"time":8,"distance":1567,"transit":false,"i_lat":-6.185975,"i_long":106.850107,"line":11,"is_transit":false,"station_name":"Gang Sentiong","station_id":"GST"},{"station_id":"KMT","station_name":"Kramat","distance":973,"time":1,"is_transit":false,"line":11,"i_long":106.855437,"i_lat":-6.193792,"transit":false},{"station_id":"POK","is_transit":false,"station_name":"Pondok Jati","i_long":106.861737,"line":11,"transit":false,"distance":1829,"time":2,"i_lat":-6.209188},{"i_lat":-6.215091,"station_id":"JNG","i_long":106.86807400000001,"is_transit":true,"distance":1236,"transit":true,"station_name":"Jatinegara","line":0,"time":9},{"station_id":"MTR","time":2,"transit":false,"station_name":"Matraman","distance":1377,"i_long":106.858896,"i_lat":-6.212485,"line":1,"is_transit":false},{"station_id":"MRI","transit":false,"is_transit":true,"i_lat":-6.209883,"station_name":"Manggarai","i_long":106.84912,"distance":1275,"time":2,"line":0},{"station_name":"Sudirman","transit":false,"i_lat":-6.202263,"station_id":"SUD","i_long":106.822649,"is_transit":false,"time":4,"distance":3186,"line":1},{"transit":false,"station_name":"Sudirman Baru","i_lat":-6.201433,"i_long":106.819881,"line":1,"distance":280,"time":1,"is_transit":false,"station_id":"SUDB"},{"time":1,"is_transit":false,"transit":false,"station_name":"Karet","distance":471,"i_long":106.816351,"i_lat":-6.20132,"station_id":"KAT","line":1},{"i_long":106.811091,"distance":2029,"i_lat":-6.185545,"transit":false,"station_name":"Tanah Abang","station_id":"THB","is_transit":true,"time":5,"line":1},{"station_id":"DU","i_lat":-6.155215,"time":8,"transit":true,"line":1,"distance":3632,"is_transit":true,"station_name":"Duri","i_long":106.800832},{"station_id":"GGL","distance":1700,"transit":false,"line":5,"is_transit":false,"i_long":106.788277,"time":3,"station_name":"Grogol","i_lat":-6.162021},{"i_lat":-6.161433,"time":2,"is_transit":false,"line":5,"transit":false,"i_long":106.771379,"station_name":"Pesing","distance":2036,"station_id":"PSG"},{"station_name":"Taman Kota","line":5,"station_id":"TKO","i_lat":-6.1587309999999995,"i_long":106.756522,"is_transit":false,"distance":1614,"transit":false,"time":2},{"distance":2334,"transit":false,"i_long":106.737035,"line":0,"is_transit":false,"i_lat":-6.159876,"station_id":"BOI","station_name":"Bojongindah","time":2},{"distance":1152,"station_name":"Rawa Buaya","time":4,"is_transit":false,"line":5,"i_long":106.723064,"transit":false,"station_id":"RW","i_lat":-6.162758}],[{"station_id":"JAY","distance":0,"transit":false,"i_lat":-6.141205,"station_name":"Jayakarta","line":7,"i_long":106.820901,"is_transit":false,"time":0},{"is_transit":false,"distance":1080,"line":2,"time":2,"station_id":"MGB","i_lat":-6.149769,"transit":false,"i_long":106.82482,"station_name":"Manggabesar"},{"station_name":"Sawah Besar","i_long":106.827103,"line":2,"i_lat":-6.160725,"station_id":"SW","is_transit":false,"time":2,"transit":false,"distance":906},{"time":2,"station_id":"JUA","transit":false,"i_long":106.828284,"is_transit":false,"distance":1149,"i_lat":-6.166716,"line":2,"station_name":"Juanda"},{"transit":false,"is_transit":false,"distance":2015,"i_lat":-6.186295,"time":4,"station_id":"GDD","i_long":106.832183,"station_name":"Gondangdia","line":2},{"transit":false,"i_lat":-6.198556,"is_transit":false,"station_id":"CKI","station_name":"Cikini","i_long":106.840169,"time":3,"distance":1750,"line":0},{"i_long":106.84912,"distance":1590,"station_id":"MRI","time":4,"is_transit":true,"line":0,"station_name":"Manggarai","transit":true,"i_lat":-6.209883},{"distance":1275,"transit":false,"time":2,"i_lat":-6.212485,"station_id":"MTR","line":1,"is_transit":false,"i_long":106.858896,"station_name":"Matraman"},{"station_name":"Jatinegara","time":8,"i_lat":-6.215091,"is_transit":true,"i_long":106.86807400000001,"distance":1377,"line":0,"station_id":"JNG","transit":true},{"station_id":"POK","line":11,"station_name":"Pondok Jati","distance":1236,"is_transit":false,"i_lat":-6.209188,"transit":false,"time":2,"i_long":106.861737},{"distance":1829,"time":2,"transit":false,"i_lat":-6.193792,"i_long":106.855437,"station_id":"KMT","station_name":"Kramat","is_transit":false,"line":11},{"station_id":"GST","time":1,"transit":false,"i_long":106.850107,"station_name":"Gang Sentiong","distance":973,"is_transit":false,"line":11,"i_lat":-6.185975},{"transit":false,"distance":1567,"line":11,"station_id":"PSE","i_long":106.84368,"i_lat":-6.174784,"time":8,"is_transit":false,"station_name":"Pasar Senen"},{"i_long":106.839204,"is_transit":false,"line":11,"transit":false,"i_lat":-6.161728,"time":4,"station_name":"Kemayoran","distance":1436,"station_id":"KMO"},{"i_lat":-6.14505,"line":11,"transit":false,"is_transit":false,"station_id":"RJW","time":5,"station_name":"Rajawali","i_long":106.836569,"distance":1901},{"distance":1444,"station_name":"Kampung Bandan","station_id":"KPB","is_transit":true,"time":3,"i_lat":-6.132549,"line":0,"transit":true,"i_long":106.826365},{"station_id":"AK","is_transit":false,"i_long":106.79867,"station_name":"Angke","time":9,"distance":4102,"i_lat":-6.144674,"transit":false,"line":0},{"line":1,"station_name":"Duri","is_transit":true,"i_long":106.800832,"transit":true,"time":4,"station_id":"DU","distance":1230,"i_lat":-6.155215},{"transit":false,"time":3,"i_lat":-6.162021,"station_id":"GGL","i_long":106.788277,"station_name":"Grogol","is_transit":false,"distance":1700,"line":5},{"station_name":"Pesing","distance":2036,"transit":false,"i_lat":-6.161433,"i_long":106.771379,"is_transit":false,"line":5,"station_id":"PSG","time":2},{"station_id":"TKO","i_lat":-6.1587309999999995,"is_transit":false,"line":5,"time":2,"distance":1614,"station_name":"Taman Kota","transit":false,"i_long":106.756522},{"time":2,"distance":2334,"is_transit":false,"i_long":106.737035,"line":0,"station_id":"BOI","i_lat":-6.159876,"transit":false,"station_name":"Bojongindah"},{"distance":1152,"is_transit":false,"transit":false,"line":5,"i_lat":-6.162758,"i_long":106.723064,"station_id":"RW","station_name":"Rawa Buaya","time":4}]]}