{"data":[[{"distance":0,"time":0,"is_transit":false,"transit":false,"i_lat":-6.141205,"station_id":"JAY","line":2,"i_long":106.820901,"station_name":"Jayakarta"},{"station_name":"Manggabesar","time":2,"station_id":"MGB","transit":false,"is_transit":false,"i_lat":-6.149769,"line":2,"i_long":106.82482,"distance":1080},{"station_id":"SW","station_name":"Sawah Besar","is_transit":false,"i_long":106.827103,"distance":906,"time":2,"transit":false,"line":2,"i_lat":-6.160725},{"time":2,"distance":1149,"transit":false,"line":2,"i_lat":-6.166716,"station_name":"Juanda","station_id":"JUA","i_long":106.828284,"is_transit":false},{"is_transit":false,"line":2,"time":4,"transit":false,"distance":2015,"station_name":"Gondangdia","i_long":106.832183,"i_lat":-6.186295,"station_id":"GDD"},{"line":2,"is_transit":false,"i_long":106.840169,"distance":1750,"station_name":"Cikini","transit":false,"station_id":"CKI","i_lat":-6.198556,"time":3},{"station_id":"MRI","line":2,"time":4,"distance":1590,"station_name":"Manggarai","is_transit":true,"i_lat":-6.209883,"transit":true,"i_long":106.84912},{"i_lat":-6.212485,"distance":1275,"i_long":106.858896,"station_name":"Matraman","is_transit":false,"station_id":"MTR","transit":false,"line":1,"time":2},{"transit":false,"distance":1377,"station_name":"Jatinegara","is_transit":false,"i_lat":-6.215091,"i_long":106.86807400000001,"line":1,"station_id":"JNG","time":8},{"distance":3395,"i_long":106.899548,"station_id":"KLD","time":3,"is_transit":false,"transit":false,"station_name":"Klender","i_lat":-6.2135,"line":1}],[{"time":0,"station_name":"Jayakarta","i_long":106.820901,"line":2,"is_transit":false,"transit":false,"distance":0,"station_id":"JAY","i_lat":-6.141205},{"i_lat":-6.137569,"distance":1264,"line":2,"time":4,"station_id":"JAKK","station_name":"Jakarta Kota","is_transit":true,"transit":true,"i_long":106.812439},{"line":4,"transit":true,"i_long":106.826365,"i_lat":-6.132549,"station_name":"Kampung Bandan","station_id":"KPB","distance":1364,"is_transit":true,"time":3},{"i_long":106.836569,"time":3,"is_transit":false,"distance":1444,"transit":false,"station_name":"Rajawali","station_id":"RJW","line":11,"i_lat":-6.14505},{"line":11,"time":5,"station_id":"KMO","is_transit":false,"distance":1901,"transit":false,"station_name":"Kemayoran","i_long":106.839204,"i_lat":-6.161728},{"distance":1436,"station_name":"Pasar Senen","time":4,"transit":false,"i_long":106.84368,"is_transit":false,"i_lat":-6.174784,"line":11,"station_id":"PSE"},{"transit":false,"station_id":"GST","is_transit":false,"station_name":"Gang Sentiong","i_lat":-6.185975,"i_long":106.850107,"line":11,"time":8,"distance":1567},{"station_id":"KMT","time":1,"line":11,"transit":false,"is_transit":false,"station_name":"Kramat","distance":973,"i_lat":-6.193792,"i_long":106.855437},{"i_lat":-6.209188,"station_name":"Pondok Jati","line":11,"i_long":106.861737,"distance":1829,"time":2,"is_transit":false,"transit":false,"station_id":"POK"},{"time":9,"transit":true,"station_id":"JNG","is_transit":true,"line":1,"distance":1236,"i_lat":-6.215091,"i_long":106.86807400000001,"station_name":"Jatinegara"},{"i_long":106.899548,"station_name":"Klender","transit":false,"time":3,"i_lat":-6.2135,"is_transit":false,"distance":3395,"station_id":"KLD","line":1}],[{"line":2,"i_long":106.820901,"is_transit":false,"i_lat":-6.141205,"distance":0,"time":0,"transit":false,"station_id":"JAY","station_name":"Jayakarta"},{"time":4,"station_id":"JAKK","is_transit":true,"transit":true,"station_name":"Jakarta Kota","i_lat":-6.137569,"line":2,"i_long":106.812439,"distance":1264},{"line":4,"is_transit":true,"station_id":"KPB","distance":1364,"transit":true,"time":3,"station_name":"Kampung Bandan","i_long":106.826365,"i_lat":-6.132549},{"time":9,"transit":false,"distance":4102,"station_id":"AK","i_lat":-6.144674,"line":1,"is_transit":false,"i_long":106.79867,"station_name":"Angke"},{"distance":1230,"transit":false,"line":1,"is_transit":false,"time":4,"station_id":"DU","station_name":"Duri","i_lat":-6.155215,"i_long":106.800832},{"distance":3632,"station_id":"THB","is_transit":false,"station_name":"Tanah Abang","i_long":106.811091,"i_lat":-6.185545,"line":1,"time":8,"transit":false},{"i_lat":-6.20132,"is_transit":false,"time":5,"station_name":"Karet","transit":false,"line":1,"distance":2029,"station_id":"KAT","i_long":106.816351},{"i_long":106.819881,"time":1,"distance":471,"i_lat":-6.201433,"line":1,"transit":false,"is_transit":false,"station_id":"SUDB","station_name":"Sudirman Baru"},{"station_name":"Sudirman","i_lat":-6.202263,"i_long":106.822649,"line":1,"time":1,"is_transit":false,"station_id":"SUD","transit":false,"distance":280},{"is_transit":false,"distance":3186,"station_id":"MRI","time":4,"transit":false,"station_name":"Manggarai","i_long":106.84912,"line":2,"i_lat":-6.209883},{"i_lat":-6.212485,"is_transit":false,"transit":false,"station_name":"Matraman","i_long":106.858896,"station_id":"MTR","time":2,"line":1,"distance":1275},{"transit":false,"i_lat":-6.215091,"is_transit":false,"line":1,"time":8,"distance":1377,"station_name":"Jatinegara","station_id":"JNG","i_long":106.86807400000001},{"i_lat":-6.2135,"line":1,"time":3,"distance":3395,"station_name":"Klender","station_id":"KLD","transit":false,"i_long":106.899548,"is_transit":false}],[{"line":2,"station_id":"JAY","time":0,"transit":false,"is_transit":false,"station_name":"Jayakarta","distance":0,"i_lat":-6.141205,"i_long":106.820901},{"distance":1080,"i_long":106.82482,"is_transit":false,"transit":false,"station_id":"MGB","i_lat":-6.149769,"line":2,"time":2,"station_name":"Manggabesar"},{"station_id":"SW","i_long":106.827103,"line":2,"time":2,"distance":906,"transit":false,"is_transit":false,"station_name":"Sawah Besar","i_lat":-6.160725},{"time":2,"transit":false,"i_lat":-6.166716,"is_transit":false,"station_id":"JUA","line":2,"distance":1149,"station_name":"Juanda","i_long":106.828284},{"is_transit":false,"i_lat":-6.186295,"station_id":"GDD","distance":2015,"line":2,"i_long":106.832183,"time":4,"transit":false,"station_name":"Gondangdia"},{"station_name":"Cikini","time":3,"transit":false,"line":2,"is_transit":false,"i_lat":-6.198556,"distance":1750,"i_long":106.840169,"station_id":"CKI"},{"i_long":106.84912,"time":4,"is_transit":true,"i_lat":-6.209883,"station_id":"MRI","transit":true,"station_name":"Manggarai","distance":1590,"line":2},{"station_id":"SUD","is_transit":false,"station_name":"Sudirman","i_long":106.822649,"transit":false,"distance":3186,"i_lat":-6.202263,"time":4,"line":1},{"is_transit":false,"i_lat":-6.201433,"i_long":106.819881,"line":1,"distance":280,"station_id":"SUDB","transit":false,"station_name":"Sudirman Baru","time":1},{"line":1,"is_transit":false,"time":1,"station_id":"KAT","station_name":"Karet","transit":false,"i_long":106.816351,"i_lat":-6.20132,"distance":471},{"is_transit":false,"i_lat":-6.185545,"i_long":106.811091,"transit":false,"distance":2029,"station_id":"THB","time":5,"station_name":"Tanah Abang","line":1},{"time":8,"is_transit":false,"station_name":"Duri","line":1,"station_id":"DU","distance":3632,"transit":false,"i_lat":-6.155215,"i_long":106.800832},{"i_lat":-6.144674,"time":4,"line":1,"station_name":"Angke","transit":false,"i_long":106.79867,"is_transit":false,"distance":1230,"station_id":"AK"},{"station_name":"Kampung Bandan","transit":true,"station_id":"KPB","i_long":106.826365,"line":4,"distance":4102,"is_transit":true,"time":9,"i_lat":-6.132549},{"distance":1444,"i_lat":-6.14505,"i_long":106.836569,"time":3,"is_transit":false,"line":11,"station_id":"RJW","station_name":"Rajawali","transit":false},{"station_id":"KMO","is_transit":false,"station_name":"Kemayoran","i_long":106.839204,"time":5,"distance":1901,"transit":false,"i_lat":-6.161728,"line":11},{"time":4,"distance":1436,"is_transit":false,"transit":false,"station_name":"Pasar Senen","line":11,"i_lat":-6.174784,"i_long":106.84368,"station_id":"PSE"},{"time":8,"i_lat":-6.185975,"is_transit":false,"station_name":"Gang Sentiong","distance":1567,"station_id":"GST","transit":false,"i_long":106.850107,"line":11},{"distance":973,"line":11,"transit":false,"time":1,"station_name":"Kramat","is_transit":false,"i_long":106.855437,"station_id":"KMT","i_lat":-6.193792},{"distance":1829,"station_name":"Pondok Jati","i_long":106.861737,"station_id":"POK","transit":false,"line":11,"time":2,"i_lat":-6.209188,"is_transit":false},{"i_lat":-6.215091,"i_long":106.86807400000001,"station_name":"Jatinegara","transit":true,"station_id":"JNG","line":1,"time":9,"is_transit":true,"distance":1236},{"is_transit":false,"transit":false,"station_id":"KLD","station_name":"Klender","i_long":106.899548,"i_lat":-6.2135,"line":1,"distance":3395,"time":3}]]}