{"data":[[{"station_name":"Jayakarta","time":0,"transit":false,"i_long":106.820901,"line":7,"station_id":"JAY","is_transit":false,"distance":0,"i_lat":-6.141205},{"station_name":"Jakarta Kota","station_id":"JAKK","transit":true,"i_lat":-6.137569,"i_long":106.812439,"line":0,"time":4,"is_transit":true,"distance":1264},{"is_transit":true,"station_name":"Kampung Bandan","i_long":106.826365,"time":3,"transit":false,"i_lat":-6.132549,"distance":1364,"station_id":"KPB","line":0},{"time":9,"i_lat":-6.144674,"station_id":"AK","distance":4102,"station_name":"Angke","transit":false,"is_transit":false,"i_long":106.79867,"line":0},{"station_name":"Duri","transit":true,"distance":1230,"i_lat":-6.155215,"i_long":106.800832,"time":4,"line":1,"station_id":"DU","is_transit":true},{"distance":3632,"station_name":"Tanah Abang","i_long":106.811091,"line":1,"station_id":"THB","is_transit":true,"time":8,"transit":true,"i_lat":-6.185545},{"transit":false,"station_id":"PLM","i_long":106.79689,"line":6,"is_transit":false,"distance":3191,"station_name":"Palmerah","i_lat":-6.207404,"time":6},{"is_transit":false,"distance":3737,"i_lat":-6.237242,"i_long":106.780334,"station_name":"Kebayoran","line":6,"transit":false,"station_id":"KBY","time":7},{"transit":false,"line":6,"i_long":106.74273,"time":8,"distance":6218,"i_lat":-6.276362,"station_id":"PDJ","is_transit":false,"station_name":"Pondokranji"},{"i_long":106.728916,"distance":2179,"time":3,"transit":false,"line":6,"is_transit":false,"station_name":"Jurangmangu","i_lat":-6.288927,"station_id":"JMU"},{"is_transit":false,"i_long":106.712277,"station_id":"SDM","station_name":"Sudimara","transit":false,"line":6,"i_lat":-6.296963,"time":4,"distance":1994},{"time":6,"station_id":"RU","i_long":106.675475,"is_transit":false,"line":6,"distance":4566,"transit":false,"i_lat":-6.314823,"station_name":"Rawa Buntu"},{"i_long":106.66566,"station_id":"SRP","station_name":"Serpong","i_lat":-6.319871,"line":6,"distance":2413,"is_transit":false,"time":4,"transit":false},{"time":4,"distance":1784,"transit":false,"i_long":106.640411,"station_id":"CSK","station_name":"Cisauk","i_lat":-6.32484,"is_transit":false,"line":0},{"distance":2519,"is_transit":false,"time":4,"station_name":"Cicayur","line":0,"i_long":106.617853,"transit":false,"i_lat":-6.329547,"station_id":"CC"}],[{"i_long":106.820901,"transit":false,"station_id":"JAY","is_transit":false,"i_lat":-6.141205,"time":0,"line":7,"distance":0,"station_name":"Jayakarta"},{"i_lat":-6.149769,"time":2,"station_name":"Manggabesar","is_transit":false,"distance":1080,"i_long":106.82482,"line":2,"station_id":"MGB","transit":false},{"time":2,"i_long":106.827103,"is_transit":false,"station_name":"Sawah Besar","i_lat":-6.160725,"line":2,"station_id":"SW","distance":906,"transit":false},{"time":2,"is_transit":false,"i_long":106.828284,"distance":1149,"station_name":"Juanda","transit":false,"i_lat":-6.166716,"line":2,"station_id":"JUA"},{"transit":false,"is_transit":false,"line":2,"i_long":106.832183,"distance":2015,"time":4,"station_id":"GDD","station_name":"Gondangdia","i_lat":-6.186295},{"i_lat":-6.198556,"station_name":"Cikini","i_long":106.840169,"is_transit":false,"line":0,"distance":1750,"transit":false,"station_id":"CKI","time":3},{"distance":1590,"transit":true,"station_name":"Manggarai","line":0,"station_id":"MRI","is_transit":true,"time":4,"i_lat":-6.209883,"i_long":106.84912},{"line":1,"time":4,"station_name":"Sudirman","transit":false,"station_id":"SUD","i_lat":-6.202263,"i_long":106.822649,"is_transit":false,"distance":3186},{"is_transit":false,"time":1,"station_id":"SUDB","distance":280,"transit":false,"line":1,"i_lat":-6.201433,"station_name":"Sudirman Baru","i_long":106.819881},{"distance":471,"line":1,"is_transit":false,"station_id":"KAT","time":1,"i_lat":-6.20132,"i_long":106.816351,"transit":false,"station_name":"Karet"},{"transit":true,"line":1,"time":5,"i_long":106.811091,"station_name":"Tanah Abang","distance":2029,"i_lat":-6.185545,"station_id":"THB","is_transit":true},{"i_long":106.79689,"station_id":"PLM","line":6,"transit":false,"is_transit":false,"station_name":"Palmerah","distance":3191,"time":6,"i_lat":-6.207404},{"transit":false,"i_lat":-6.237242,"i_long":106.780334,"line":6,"time":7,"station_id":"KBY","is_transit":false,"station_name":"Kebayoran","distance":3737},{"station_id":"PDJ","line":6,"transit":false,"is_transit":false,"i_lat":-6.276362,"station_name":"Pondokranji","time":8,"distance":6218,"i_long":106.74273},{"station_id":"JMU","station_name":"Jurangmangu","i_long":106.728916,"is_transit":false,"line":6,"transit":false,"i_lat":-6.288927,"time":3,"distance":2179},{"transit":false,"i_lat":-6.296963,"is_transit":false,"distance":1994,"line":6,"station_id":"SDM","station_name":"Sudimara","time":4,"i_long":106.712277},{"i_long":106.675475,"station_id":"RU","transit":false,"distance":4566,"is_transit":false,"station_name":"Rawa Buntu","time":6,"i_lat":-6.314823,"line":6},{"transit":false,"line":6,"i_lat":-6.319871,"i_long":106.66566,"time":4,"station_id":"SRP","distance":2413,"is_transit":false,"station_name":"Serpong"},{"is_transit":false,"station_name":"Cisauk","transit":false,"i_lat":-6.32484,"line":0,"i_long":106.640411,"station_id":"CSK","time":4,"distance":1784},{"is_transit":false,"transit":false,"line":0,"station_name":"Cicayur","i_lat":-6.329547,"station_id":"CC","distance":2519,"i_long":106.617853,"time":4}],[{"is_transit":false,"i_long":106.820901,"transit":false,"distance":0,"i_lat":-6.141205,"time":0,"station_name":"Jayakarta","line":7,"station_id":"JAY"},{"station_id":"JAKK","is_transit":true,"distance":1264,"i_lat":-6.137569,"transit":true,"time":4,"line":0,"station_name":"Jakarta Kota","i_long":106.812439},{"is_transit":true,"distance":1364,"station_name":"Kampung Bandan","i_long":106.826365,"station_id":"KPB","time":3,"transit":true,"i_lat":-6.132549,"line":0},{"i_long":106.836569,"is_transit":false,"time":3,"station_name":"Rajawali","transit":false,"line":11,"station_id":"RJW","i_lat":-6.14505,"distance":1444},{"distance":1901,"is_transit":false,"i_long":106.839204,"i_lat":-6.161728,"station_name":"Kemayoran","station_id":"KMO","transit":false,"time":5,"line":11},{"i_lat":-6.174784,"line":11,"i_long":106.84368,"distance":1436,"station_id":"PSE","station_name":"Pasar Senen","transit":false,"is_transit":false,"time":4},{"i_long":106.850107,"line":11,"time":8,"distance":1567,"station_name":"Gang Sentiong","is_transit":false,"station_id":"GST","transit":false,"i_lat":-6.185975},{"time":1,"i_long":106.855437,"is_transit":false,"station_id":"KMT","i_lat":-6.193792,"distance":973,"line":11,"station_name":"Kramat","transit":false},{"time":2,"is_transit":false,"station_name":"Pondok Jati","i_lat":-6.209188,"station_id":"POK","distance":1829,"transit":false,"i_long":106.861737,"line":11},{"is_transit":true,"line":0,"station_id":"JNG","distance":1236,"time":9,"station_name":"Jatinegara","transit":true,"i_lat":-6.215091,"i_long":106.86807400000001},{"line":1,"is_transit":false,"transit":false,"i_lat":-6.212485,"time":2,"station_id":"MTR","station_name":"Matraman","i_long":106.858896,"distance":1377},{"time":2,"line":0,"i_lat":-6.209883,"transit":false,"station_id":"MRI","i_long":106.84912,"distance":1275,"is_transit":true,"station_name":"Manggarai"},{"i_long":106.822649,"time":4,"station_id":"SUD","is_transit":false,"i_lat":-6.202263,"line":1,"station_name":"Sudirman","transit":false,"distance":3186},{"line":1,"transit":false,"time":1,"station_id":"SUDB","distance":280,"i_long":106.819881,"is_transit":false,"i_lat":-6.201433,"station_name":"Sudirman Baru"},{"distance":471,"line":1,"station_name":"Karet","transit":false,"i_long":106.816351,"i_lat":-6.20132,"station_id":"KAT","time":1,"is_transit":false},{"i_long":106.811091,"station_name":"Tanah Abang","line":1,"time":5,"transit":true,"is_transit":true,"distance":2029,"i_lat":-6.185545,"station_id":"THB"},{"transit":false,"time":6,"i_long":106.79689,"line":6,"is_transit":false,"i_lat":-6.207404,"distance":3191,"station_name":"Palmerah","station_id":"PLM"},{"is_transit":false,"distance":3737,"station_id":"KBY","line":6,"time":7,"station_name":"Kebayoran","transit":false,"i_lat":-6.237242,"i_long":106.780334},{"transit":false,"station_name":"Pondokranji","distance":6218,"time":8,"station_id":"PDJ","i_long":106.74273,"i_lat":-6.276362,"line":6,"is_transit":false},{"i_long":106.728916,"time":3,"distance":2179,"transit":false,"is_transit":false,"i_lat":-6.288927,"station_id":"JMU","station_name":"Jurangmangu","line":6},{"station_name":"Sudimara","i_lat":-6.296963,"time":4,"transit":false,"station_id":"SDM","line":6,"distance":1994,"is_transit":false,"i_long":106.712277},{"distance":4566,"i_long":106.675475,"i_lat":-6.314823,"station_name":"Rawa Buntu","is_transit":false,"line":6,"station_id":"RU","time":6,"transit":false},{"is_transit":false,"station_name":"Serpong","station_id":"SRP","distance":2413,"transit":false,"i_lat":-6.319871,"i_long":106.66566,"line":6,"time":4},{"is_transit":false,"i_lat":-6.32484,"distance":1784,"station_id":"CSK","time":4,"transit":false,"i_long":106.640411,"station_name":"Cisauk","line":0},{"i_long":106.617853,"station_id":"CC","transit":false,"station_name":"Cicayur","line":0,"i_lat":-6.329547,"time":4,"distance":2519,"is_transit":false}],[{"time":0,"station_id":"JAY","line":7,"station_name":"Jayakarta","i_long":106.820901,"i_lat":-6.141205,"transit":false,"distance":0,"is_transit":false},{"i_lat":-6.149769,"i_long":106.82482,"station_id":"MGB","time":2,"is_transit":false,"station_name":"Manggabesar","transit":false,"distance":1080,"line":2},{"time":2,"i_lat":-6.160725,"station_name":"Sawah Besar","distance":906,"station_id":"SW","is_transit":false,"i_long":106.827103,"line":2,"transit":false},{"i_lat":-6.166716,"is_transit":false,"time":2,"station_name":"Juanda","transit":false,"distance":1149,"i_long":106.828284,"station_id":"JUA","line":2},{"station_name":"Gondangdia","line":2,"station_id":"GDD","is_transit":false,"time":4,"transit":false,"i_long":106.832183,"distance":2015,"i_lat":-6.186295},{"station_name":"Cikini","i_lat":-6.198556,"i_long":106.840169,"time":3,"line":0,"distance":1750,"is_transit":false,"station_id":"CKI","transit":false},{"station_id":"MRI","time":4,"i_lat":-6.209883,"i_long":106.84912,"station_name":"Manggarai","distance":1590,"is_transit":true,"line":0,"transit":true},{"i_lat":-6.212485,"i_long":106.858896,"is_transit":false,"station_name":"Matraman","line":1,"time":2,"distance":1275,"station_id":"MTR","transit":false},{"transit":true,"i_long":106.86807400000001,"distance":1377,"i_lat":-6.215091,"line":0,"time":8,"station_id":"JNG","is_transit":true,"station_name":"Jatinegara"},{"transit":false,"i_long":106.861737,"line":11,"i_lat":-6.209188,"is_transit":false,"time":2,"station_id":"POK","distance":1236,"station_name":"Pondok Jati"},{"station_id":"KMT","time":2,"distance":1829,"station_name":"Kramat","transit":false,"line":11,"is_transit":false,"i_long":106.855437,"i_lat":-6.193792},{"transit":false,"i_lat":-6.185975,"time":1,"station_name":"Gang Sentiong","station_id":"GST","line":11,"distance":973,"i_long":106.850107,"is_transit":false},{"line":11,"station_id":"PSE","time":8,"transit":false,"i_long":106.84368,"station_name":"Pasar Senen","distance":1567,"i_lat":-6.174784,"is_transit":false},{"i_lat":-6.161728,"station_name":"Kemayoran","line":11,"is_transit":false,"time":4,"transit":false,"distance":1436,"i_long":106.839204,"station_id":"KMO"},{"station_name":"Rajawali","i_long":106.836569,"time":5,"i_lat":-6.14505,"line":11,"station_id":"RJW","transit":false,"distance":1901,"is_transit":false},{"is_transit":true,"i_long":106.826365,"station_id":"KPB","time":3,"i_lat":-6.132549,"station_name":"Kampung Bandan","distance":1444,"line":0,"transit":true},{"station_id":"AK","is_transit":false,"i_long":106.79867,"line":0,"transit":false,"time":9,"station_name":"Angke","distance":4102,"i_lat":-6.144674},{"station_name":"Duri","is_transit":true,"time":4,"distance":1230,"i_lat":-6.155215,"line":1,"transit":true,"station_id":"DU","i_long":106.800832},{"station_name":"Tanah Abang","i_lat":-6.185545,"distance":3632,"line":1,"transit":true,"i_long":106.811091,"is_transit":true,"station_id":"THB","time":8},{"station_name":"Palmerah","line":6,"distance":3191,"i_lat":-6.207404,"station_id":"PLM","is_transit":false,"time":6,"i_long":106.79689,"transit":false},{"line":6,"station_id":"KBY","time":7,"distance":3737,"i_lat":-6.237242,"i_long":106.780334,"is_transit":false,"transit":false,"station_name":"Kebayoran"},{"station_id":"PDJ","time":8,"distance":6218,"i_long":106.74273,"station_name":"Pondokranji","is_transit":false,"i_lat":-6.276362,"transit":false,"line":6},{"station_name":"Jurangmangu","i_lat":-6.288927,"transit":false,"time":3,"distance":2179,"i_long":106.728916,"is_transit":false,"station_id":"JMU","line":6},{"i_long":106.712277,"station_name":"Sudimara","transit":false,"station_id":"SDM","time":4,"is_transit":false,"distance":1994,"i_lat":-6.296963,"line":6},{"time":6,"distance":4566,"i_long":106.675475,"line":6,"station_id":"RU","transit":false,"i_lat":-6.314823,"station_name":"Rawa Buntu","is_transit":false},{"distance":2413,"line":6,"time":4,"i_long":106.66566,"station_id":"SRP","station_name":"Serpong","i_lat":-6.319871,"is_transit":false,"transit":false},{"i_long":106.640411,"station_name":"Cisauk","is_transit":false,"distance":1784,"transit":false,"time":4,"i_lat":-6.32484,"line":0,"station_id":"CSK"},{"distance":2519,"i_long":106.617853,"station_id":"CC","i_lat":-6.329547,"time":4,"transit":false,"line":0,"station_name":"Cicayur","is_transit":false}]]}