{"data":[[{"is_transit":false,"station_id":"JAY","line":2,"i_long":106.820901,"distance":0,"time":0,"transit":false,"i_lat":-6.141205,"station_name":"Jayakarta"},{"is_transit":false,"i_lat":-6.149769,"i_long":106.82482,"transit":false,"station_id":"MGB","time":2,"line":2,"station_name":"Manggabesar","distance":1080},{"time":2,"line":2,"transit":false,"station_name":"Sawah Besar","i_lat":-6.160725,"is_transit":false,"distance":906,"i_long":106.827103,"station_id":"SW"},{"i_lat":-6.166716,"distance":1149,"i_long":106.828284,"is_transit":false,"station_id":"JUA","station_name":"Juanda","time":2,"transit":false,"line":2},{"i_lat":-6.186295,"transit":false,"i_long":106.832183,"station_name":"Gondangdia","is_transit":false,"time":4,"line":2,"station_id":"GDD","distance":2015},{"transit":false,"distance":1750,"station_name":"Cikini","time":3,"i_lat":-6.198556,"station_id":"CKI","i_long":106.840169,"line":2,"is_transit":false},{"transit":false,"is_transit":false,"time":4,"i_long":106.84912,"line":2,"i_lat":-6.209883,"distance":1590,"station_id":"MRI","station_name":"Manggarai"}],[{"is_transit":false,"i_lat":-6.141205,"line":2,"station_name":"Jayakarta","time":0,"distance":0,"i_long":106.820901,"station_id":"JAY","transit":false},{"i_lat":-6.137569,"i_long":106.812439,"station_name":"Jakarta Kota","distance":1264,"is_transit":true,"time":4,"station_id":"JAKK","transit":true,"line":2},{"transit":true,"is_transit":true,"time":3,"station_id":"KPB","station_name":"Kampung Bandan","i_lat":-6.132549,"i_long":106.826365,"line":4,"distance":1364},{"distance":4102,"line":1,"transit":false,"time":9,"i_lat":-6.144674,"is_transit":false,"station_id":"AK","station_name":"Angke","i_long":106.79867},{"i_long":106.800832,"is_transit":false,"station_id":"DU","line":1,"station_name":"Duri","distance":1230,"i_lat":-6.155215,"transit":false,"time":4},{"transit":false,"is_transit":false,"i_lat":-6.185545,"distance":3632,"station_id":"THB","i_long":106.811091,"time":8,"line":1,"station_name":"Tanah Abang"},{"station_name":"Karet","is_transit":false,"time":5,"transit":false,"line":1,"distance":2029,"station_id":"KAT","i_long":106.816351,"i_lat":-6.20132},{"station_id":"SUDB","station_name":"Sudirman Baru","transit":false,"line":1,"distance":471,"i_long":106.819881,"is_transit":false,"time":1,"i_lat":-6.201433},{"is_transit":false,"line":1,"i_lat":-6.202263,"station_id":"SUD","transit":false,"distance":280,"station_name":"Sudirman","time":1,"i_long":106.822649},{"is_transit":false,"line":2,"i_long":106.84912,"i_lat":-6.209883,"distance":3186,"station_name":"Manggarai","station_id":"MRI","transit":false,"time":4}],[{"i_long":106.820901,"line":2,"is_transit":false,"time":0,"distance":0,"station_id":"JAY","station_name":"Jayakarta","transit":false,"i_lat":-6.141205},{"i_lat":-6.137569,"time":4,"i_long":106.812439,"station_name":"Jakarta Kota","transit":true,"line":2,"station_id":"JAKK","is_transit":true,"distance":1264},{"is_transit":true,"i_long":106.826365,"i_lat":-6.132549,"station_name":"Kampung Bandan","time":3,"transit":true,"distance":1364,"line":4,"station_id":"KPB"},{"transit":false,"line":11,"station_id":"RJW","time":3,"distance":1444,"is_transit":false,"i_long":106.836569,"i_lat":-6.14505,"station_name":"Rajawali"},{"station_name":"Kemayoran","i_long":106.839204,"transit":false,"is_transit":false,"station_id":"KMO","distance":1901,"line":11,"i_lat":-6.161728,"time":5},{"i_long":106.84368,"line":11,"i_lat":-6.174784,"time":4,"is_transit":false,"transit":false,"station_name":"Pasar Senen","station_id":"PSE","distance":1436},{"station_id":"GST","is_transit":false,"i_long":106.850107,"line":11,"transit":false,"station_name":"Gang Sentiong","distance":1567,"time":8,"i_lat":-6.185975},{"transit":false,"station_name":"Kramat","i_lat":-6.193792,"distance":973,"i_long":106.855437,"time":1,"is_transit":false,"line":11,"station_id":"KMT"},{"station_id":"POK","line":11,"time":2,"i_lat":-6.209188,"transit":false,"distance":1829,"i_long":106.861737,"is_transit":false,"station_name":"Pondok Jati"},{"transit":true,"i_lat":-6.215091,"station_name":"Jatinegara","i_long":106.86807400000001,"station_id":"JNG","is_transit":true,"time":9,"distance":1236,"line":1},{"line":1,"is_transit":false,"distance":1377,"i_lat":-6.212485,"transit":false,"time":2,"station_id":"MTR","station_name":"Matraman","i_long":106.858896},{"station_id":"MRI","is_transit":false,"station_name":"Manggarai","time":2,"i_lat":-6.209883,"line":2,"transit":false,"distance":1275,"i_long":106.84912}]]}