{"data":[[{"transit":false,"line":7,"station_name":"Jayakarta","time":0,"distance":0,"is_transit":false,"i_lat":-6.141205,"station_id":"JAY","i_long":106.820901},{"is_transit":true,"line":0,"station_name":"Jakarta Kota","transit":true,"time":4,"i_lat":-6.137569,"i_long":106.812439,"distance":1264,"station_id":"JAKK"},{"transit":true,"station_id":"KPB","i_lat":-6.132549,"i_long":106.826365,"is_transit":true,"station_name":"Kampung Bandan","distance":1364,"line":0,"time":3},{"station_name":"Rajawali","time":3,"i_long":106.836569,"station_id":"RJW","is_transit":false,"transit":false,"distance":1444,"i_lat":-6.14505,"line":11},{"station_id":"KMO","is_transit":false,"transit":false,"line":11,"station_name":"Kemayoran","i_long":106.839204,"time":5,"distance":1901,"i_lat":-6.161728},{"distance":1436,"line":11,"is_transit":false,"i_long":106.84368,"station_id":"PSE","transit":false,"time":4,"i_lat":-6.174784,"station_name":"Pasar Senen"}],[{"distance":0,"i_long":106.820901,"station_id":"JAY","time":0,"transit":false,"station_name":"Jayakarta","is_transit":false,"i_lat":-6.141205,"line":7},{"station_id":"MGB","transit":false,"i_lat":-6.149769,"station_name":"Manggabesar","distance":1080,"line":2,"is_transit":false,"i_long":106.82482,"time":2},{"station_name":"Sawah Besar","i_long":106.827103,"i_lat":-6.160725,"is_transit":false,"station_id":"SW","line":2,"time":2,"transit":false,"distance":906},{"distance":1149,"i_lat":-6.166716,"i_long":106.828284,"station_id":"JUA","time":2,"line":2,"transit":false,"is_transit":false,"station_name":"Juanda"},{"station_id":"GDD","distance":2015,"line":2,"transit":false,"i_long":106.832183,"time":4,"is_transit":false,"station_name":"Gondangdia","i_lat":-6.186295},{"station_id":"CKI","time":3,"transit":false,"i_lat":-6.198556,"distance":1750,"i_long":106.840169,"station_name":"Cikini","is_transit":false,"line":0},{"i_lat":-6.209883,"station_id":"MRI","line":0,"station_name":"Manggarai","transit":true,"is_transit":true,"time":4,"i_long":106.84912,"distance":1590},{"time":2,"station_id":"MTR","is_transit":false,"i_long":106.858896,"distance":1275,"i_lat":-6.212485,"transit":false,"line":1,"station_name":"Matraman"},{"i_long":106.86807400000001,"distance":1377,"i_lat":-6.215091,"is_transit":true,"line":0,"station_name":"Jatinegara","station_id":"JNG","transit":true,"time":8},{"station_name":"Pondok Jati","line":11,"is_transit":false,"i_lat":-6.209188,"station_id":"POK","time":2,"transit":false,"i_long":106.861737,"distance":1236},{"distance":1829,"i_lat":-6.193792,"line":11,"transit":false,"is_transit":false,"i_long":106.855437,"time":2,"station_name":"Kramat","station_id":"KMT"},{"distance":973,"station_name":"Gang Sentiong","i_lat":-6.185975,"is_transit":false,"time":1,"line":11,"transit":false,"station_id":"GST","i_long":106.850107},{"station_id":"PSE","time":8,"transit":false,"station_name":"Pasar Senen","distance":1567,"line":11,"i_lat":-6.174784,"i_long":106.84368,"is_transit":false}],[{"distance":0,"is_transit":false,"i_long":106.820901,"transit":false,"station_id":"JAY","line":7,"i_lat":-6.141205,"station_name":"Jayakarta","time":0},{"time":4,"distance":1264,"i_long":106.812439,"station_name":"Jakarta Kota","is_transit":true,"station_id":"JAKK","transit":true,"i_lat":-6.137569,"line":0},{"station_id":"KPB","is_transit":true,"time":3,"transit":false,"i_lat":-6.132549,"i_long":106.826365,"line":0,"distance":1364,"station_name":"Kampung Bandan"},{"is_transit":false,"distance":4102,"i_lat":-6.144674,"station_name":"Angke","i_long":106.79867,"line":0,"station_id":"AK","time":9,"transit":false},{"transit":true,"station_id":"DU","is_transit":true,"line":1,"station_name":"Duri","distance":1230,"i_lat":-6.155215,"time":4,"i_long":106.800832},{"transit":false,"station_id":"THB","distance":3632,"is_transit":true,"line":1,"station_name":"Tanah Abang","i_lat":-6.185545,"time":8,"i_long":106.811091},{"line":1,"transit":false,"station_id":"KAT","time":5,"distance":2029,"i_lat":-6.20132,"is_transit":false,"i_long":106.816351,"station_name":"Karet"},{"station_name":"Sudirman Baru","i_lat":-6.201433,"time":1,"transit":false,"distance":471,"is_transit":false,"station_id":"SUDB","i_long":106.819881,"line":1},{"transit":false,"is_transit":false,"station_id":"SUD","time":1,"line":1,"station_name":"Sudirman","i_long":106.822649,"i_lat":-6.202263,"distance":280},{"time":4,"transit":false,"i_long":106.84912,"distance":3186,"line":0,"i_lat":-6.209883,"is_transit":true,"station_id":"MRI","station_name":"Manggarai"},{"station_id":"MTR","line":1,"i_long":106.858896,"i_lat":-6.212485,"time":2,"transit":false,"station_name":"Matraman","is_transit":false,"distance":1275},{"i_long":106.86807400000001,"line":0,"transit":true,"station_id":"JNG","station_name":"Jatinegara","time":8,"i_lat":-6.215091,"distance":1377,"is_transit":true},{"transit":false,"station_id":"POK","is_transit":false,"distance":1236,"i_lat":-6.209188,"i_long":106.861737,"station_name":"Pondok Jati","time":2,"line":11},{"station_id":"KMT","is_transit":false,"i_long":106.855437,"i_lat":-6.193792,"distance":1829,"time":2,"station_name":"Kramat","transit":false,"line":11},{"is_transit":false,"distance":973,"station_id":"GST","line":11,"i_lat":-6.185975,"i_long":106.850107,"time":1,"transit":false,"station_name":"Gang Sentiong"},{"transit":false,"i_long":106.84368,"station_name":"Pasar Senen","i_lat":-6.174784,"distance":1567,"station_id":"PSE","is_transit":false,"time":8,"line":11}],[{"station_id":"JAY","line":7,"is_transit":false,"station_name":"Jayakarta","i_long":106.820901,"distance":0,"transit":false,"time":0,"i_lat":-6.141205},{"station_name":"Manggabesar","i_long":106.82482,"transit":false,"i_lat":-6.149769,"line":2,"time":2,"distance":1080,"station_id":"MGB","is_transit":false},{"time":2,"station_name":"Sawah Besar","distance":906,"is_transit":false,"i_lat":-6.160725,"i_long":106.827103,"transit":false,"line":2,"station_id":"SW"},{"station_id":"JUA","transit":false,"station_name":"Juanda","line":2,"is_transit":false,"i_long":106.828284,"distance":1149,"i_lat":-6.166716,"time":2},{"line":2,"i_long":106.832183,"distance":2015,"time":4,"transit":false,"is_transit":false,"i_lat":-6.186295,"station_name":"Gondangdia","station_id":"GDD"},{"distance":1750,"transit":false,"i_lat":-6.198556,"i_long":106.840169,"station_id":"CKI","line":0,"station_name":"Cikini","is_transit":false,"time":3},{"transit":true,"line":0,"i_lat":-6.209883,"station_id":"MRI","i_long":106.84912,"is_transit":true,"time":4,"distance":1590,"station_name":"Manggarai"},{"is_transit":false,"transit":false,"i_lat":-6.202263,"i_long":106.822649,"line":1,"time":4,"distance":3186,"station_name":"Sudirman","station_id":"SUD"},{"station_id":"SUDB","distance":280,"station_name":"Sudirman Baru","transit":false,"i_lat":-6.201433,"is_transit":false,"line":1,"time":1,"i_long":106.819881},{"time":1,"i_long":106.816351,"i_lat":-6.20132,"line":1,"distance":471,"is_transit":false,"station_id":"KAT","station_name":"Karet","transit":false},{"station_id":"THB","station_name":"Tanah Abang","distance":2029,"i_long":106.811091,"time":5,"transit":false,"is_transit":true,"i_lat":-6.185545,"line":1},{"transit":true,"distance":3632,"time":8,"i_long":106.800832,"station_name":"Duri","line":1,"station_id":"DU","i_lat":-6.155215,"is_transit":true},{"line":0,"station_name":"Angke","transit":false,"time":4,"i_lat":-6.144674,"i_long":106.79867,"distance":1230,"station_id":"AK","is_transit":false},{"is_transit":true,"station_id":"KPB","distance":4102,"i_lat":-6.132549,"i_long":106.826365,"transit":true,"line":0,"station_name":"Kampung Bandan","time":9},{"is_transit":false,"distance":1444,"i_long":106.836569,"line":11,"station_name":"Rajawali","station_id":"RJW","i_lat":-6.14505,"transit":false,"time":3},{"distance":1901,"station_name":"Kemayoran","station_id":"KMO","is_transit":false,"time":5,"transit":false,"i_lat":-6.161728,"i_long":106.839204,"line":11},{"is_transit":false,"station_name":"Pasar Senen","distance":1436,"line":11,"time":4,"transit":false,"i_lat":-6.174784,"i_long":106.84368,"station_id":"PSE"}]]}