{"data":[[{"i_lat":-6.141205,"i_long":106.820901,"is_transit":false,"distance":0,"time":0,"line":2,"station_id":"JAY","station_name":"Jayakarta","transit":false},{"station_id":"MGB","transit":false,"distance":1080,"i_lat":-6.149769,"i_long":106.82482,"time":2,"station_name":"Manggabesar","is_transit":false,"line":2},{"station_id":"SW","distance":906,"station_name":"Sawah Besar","i_lat":-6.160725,"i_long":106.827103,"is_transit":false,"time":2,"line":2,"transit":false},{"distance":1149,"station_name":"Juanda","i_lat":-6.166716,"line":2,"time":2,"station_id":"JUA","is_transit":false,"transit":false,"i_long":106.828284},{"distance":2015,"is_transit":false,"transit":false,"station_name":"Gondangdia","time":4,"station_id":"GDD","i_lat":-6.186295,"i_long":106.832183,"line":2},{"line":2,"i_long":106.840169,"station_name":"Cikini","transit":false,"is_transit":false,"time":3,"station_id":"CKI","i_lat":-6.198556,"distance":1750},{"station_id":"MRI","line":2,"distance":1590,"station_name":"Manggarai","is_transit":false,"i_long":106.84912,"i_lat":-6.209883,"time":4,"transit":false},{"time":4,"distance":2610,"station_id":"TEB","station_name":"Tebet","i_long":106.857948,"is_transit":false,"line":2,"transit":false,"i_lat":-6.226659},{"is_transit":false,"distance":1230,"i_long":106.856607,"i_lat":-6.242512,"station_id":"CW","time":2,"transit":false,"line":2,"station_name":"Cawang"},{"time":3,"i_long":106.85449,"transit":false,"is_transit":false,"station_id":"DRN","i_lat":-6.255332,"distance":1546,"line":2,"station_name":"Duren Kalibata"},{"i_long":106.851577,"station_id":"PSMB","time":2,"station_name":"Pasar Minggu Baru","is_transit":false,"i_lat":-6.263214,"transit":false,"line":2,"distance":824},{"line":2,"is_transit":false,"transit":false,"time":2,"station_name":"Pasar Minggu","i_lat":-6.2842400000000005,"station_id":"PSM","i_long":106.843999,"distance":2380},{"i_lat":-6.3080680000000005,"i_long":106.838896,"time":4,"station_id":"TNT","is_transit":false,"distance":2820,"transit":false,"station_name":"Tanjung Barat","line":2},{"station_name":"Lenteng Agung","distance":2671,"time":3,"line":2,"i_long":106.832616,"is_transit":false,"i_lat":-6.330363,"station_id":"LNA","transit":false},{"station_id":"UP","time":2,"distance":1029,"is_transit":false,"i_lat":-6.339291,"station_name":"Univ. Pancasila","line":2,"transit":false,"i_long":106.834175},{"distance":2264,"is_transit":false,"line":2,"i_lat":-6.360749,"i_long":106.831474,"station_id":"UI","transit":false,"time":3,"station_name":"Univ. Indonesia"},{"distance":1109,"station_name":"Pondok Cina","transit":false,"station_id":"POC","line":2,"is_transit":false,"time":2,"i_long":106.831114,"i_lat":-6.369073},{"distance":2727,"line":2,"station_id":"DPB","time":4,"is_transit":false,"i_lat":-6.391065,"i_long":106.819451,"transit":false,"station_name":"Depokbaru"},{"distance":1584,"line":2,"transit":false,"time":3,"i_lat":-6.405256,"i_long":106.816926,"is_transit":false,"station_name":"Depok","station_id":"DP"},{"transit":true,"distance":5084,"i_long":106.800298,"i_lat":-6.448811,"line":2,"station_id":"CTA","is_transit":true,"time":6,"station_name":"Citayam"},{"i_lat":-6.460735,"i_long":106.824374,"time":0,"distance":0,"line":21,"is_transit":false,"station_id":"PDRG","transit":false,"station_name":"Pondok Rajeg"},{"line":21,"is_transit":false,"i_long":106.851978,"transit":false,"station_id":"CBN","i_lat":-6.46424,"station_name":"Cibinong","time":0,"distance":0},{"is_transit":false,"transit":false,"distance":6527,"time":10,"i_long":106.905196,"i_lat":-6.466285,"line":21,"station_name":"Nambo","station_id":"NMO"}],[{"time":0,"i_lat":-6.141205,"station_name":"Jayakarta","station_id":"JAY","transit":false,"line":2,"i_long":106.820901,"is_transit":false,"distance":0},{"i_lat":-6.137569,"line":2,"is_transit":true,"transit":true,"time":4,"i_long":106.812439,"station_name":"Jakarta Kota","distance":1264,"station_id":"JAKK"},{"is_transit":true,"distance":1364,"station_id":"KPB","time":3,"i_lat":-6.132549,"i_long":106.826365,"transit":true,"line":4,"station_name":"Kampung Bandan"},{"station_name":"Angke","transit":false,"time":9,"is_transit":false,"i_lat":-6.144674,"station_id":"AK","i_long":106.79867,"distance":4102,"line":1},{"transit":false,"distance":1230,"station_id":"DU","i_lat":-6.155215,"i_long":106.800832,"is_transit":false,"time":4,"station_name":"Duri","line":1},{"station_name":"Tanah Abang","station_id":"THB","line":1,"time":8,"is_transit":false,"transit":false,"distance":3632,"i_lat":-6.185545,"i_long":106.811091},{"is_transit":false,"station_id":"KAT","i_lat":-6.20132,"distance":2029,"line":1,"transit":false,"time":5,"station_name":"Karet","i_long":106.816351},{"station_name":"Sudirman Baru","is_transit":false,"time":1,"line":1,"i_long":106.819881,"station_id":"SUDB","transit":false,"i_lat":-6.201433,"distance":471},{"i_lat":-6.202263,"time":1,"transit":false,"station_name":"Sudirman","station_id":"SUD","is_transit":false,"line":1,"i_long":106.822649,"distance":280},{"station_id":"MRI","distance":3186,"is_transit":true,"station_name":"Manggarai","i_lat":-6.209883,"i_long":106.84912,"line":2,"transit":true,"time":4},{"station_id":"TEB","transit":false,"i_lat":-6.226659,"line":2,"time":4,"i_long":106.857948,"distance":2610,"station_name":"Tebet","is_transit":false},{"station_id":"CW","station_name":"Cawang","distance":1230,"i_long":106.856607,"is_transit":false,"transit":false,"time":2,"line":2,"i_lat":-6.242512},{"i_lat":-6.255332,"i_long":106.85449,"line":2,"is_transit":false,"transit":false,"station_id":"DRN","time":3,"station_name":"Duren Kalibata","distance":1546},{"is_transit":false,"transit":false,"distance":824,"station_id":"PSMB","time":2,"i_long":106.851577,"line":2,"station_name":"Pasar Minggu Baru","i_lat":-6.263214},{"transit":false,"i_lat":-6.2842400000000005,"i_long":106.843999,"line":2,"station_name":"Pasar Minggu","distance":2380,"station_id":"PSM","time":2,"is_transit":false},{"transit":false,"station_name":"Tanjung Barat","distance":2820,"is_transit":false,"station_id":"TNT","i_lat":-6.3080680000000005,"i_long":106.838896,"line":2,"time":4},{"station_name":"Lenteng Agung","transit":false,"is_transit":false,"distance":2671,"i_lat":-6.330363,"time":3,"station_id":"LNA","i_long":106.832616,"line":2},{"i_lat":-6.339291,"transit":false,"is_transit":false,"station_name":"Univ. Pancasila","line":2,"i_long":106.834175,"distance":1029,"time":2,"station_id":"UP"},{"line":2,"is_transit":false,"time":3,"station_name":"Univ. Indonesia","station_id":"UI","i_lat":-6.360749,"i_long":106.831474,"transit":false,"distance":2264},{"i_lat":-6.369073,"line":2,"distance":1109,"transit":false,"is_transit":false,"station_name":"Pondok Cina","time":2,"station_id":"POC","i_long":106.831114},{"i_long":106.819451,"time":4,"station_id":"DPB","transit":false,"i_lat":-6.391065,"station_name":"Depokbaru","distance":2727,"line":2,"is_transit":false},{"station_name":"Depok","line":2,"transit":false,"station_id":"DP","i_long":106.816926,"time":3,"i_lat":-6.405256,"is_transit":false,"distance":1584},{"is_transit":true,"station_id":"CTA","time":6,"line":2,"transit":true,"station_name":"Citayam","distance":5084,"i_long":106.800298,"i_lat":-6.448811},{"time":0,"i_long":106.824374,"distance":0,"station_name":"Pondok Rajeg","station_id":"PDRG","i_lat":-6.460735,"is_transit":false,"line":21,"transit":false},{"time":0,"distance":0,"line":21,"is_transit":false,"transit":false,"station_name":"Cibinong","station_id":"CBN","i_lat":-6.46424,"i_long":106.851978},{"transit":false,"station_id":"NMO","i_lat":-6.466285,"distance":6527,"line":21,"is_transit":false,"time":10,"station_name":"Nambo","i_long":106.905196}],[{"distance":0,"i_long":106.820901,"station_name":"Jayakarta","time":0,"station_id":"JAY","is_transit":false,"line":2,"i_lat":-6.141205,"transit":false},{"station_name":"Jakarta Kota","distance":1264,"transit":true,"i_lat":-6.137569,"line":2,"i_long":106.812439,"station_id":"JAKK","time":4,"is_transit":true},{"i_long":106.826365,"distance":1364,"station_id":"KPB","is_transit":true,"line":4,"transit":true,"i_lat":-6.132549,"station_name":"Kampung Bandan","time":3},{"line":11,"station_name":"Rajawali","distance":1444,"i_long":106.836569,"i_lat":-6.14505,"is_transit":false,"station_id":"RJW","time":3,"transit":false},{"is_transit":false,"station_id":"KMO","i_lat":-6.161728,"i_long":106.839204,"line":11,"transit":false,"station_name":"Kemayoran","distance":1901,"time":5},{"station_name":"Pasar Senen","station_id":"PSE","i_long":106.84368,"transit":false,"line":11,"distance":1436,"time":4,"is_transit":false,"i_lat":-6.174784},{"distance":1567,"station_id":"GST","i_long":106.850107,"line":11,"transit":false,"time":8,"station_name":"Gang Sentiong","i_lat":-6.185975,"is_transit":false},{"i_long":106.855437,"i_lat":-6.193792,"distance":973,"transit":false,"line":11,"station_name":"Kramat","station_id":"KMT","time":1,"is_transit":false},{"transit":false,"is_transit":false,"i_lat":-6.209188,"line":11,"time":2,"distance":1829,"station_name":"Pondok Jati","station_id":"POK","i_long":106.861737},{"station_name":"Jatinegara","is_transit":true,"station_id":"JNG","i_long":106.86807400000001,"i_lat":-6.215091,"time":9,"distance":1236,"transit":true,"line":1},{"i_long":106.858896,"is_transit":false,"station_id":"MTR","line":1,"transit":false,"i_lat":-6.212485,"station_name":"Matraman","distance":1377,"time":2},{"is_transit":true,"distance":1275,"i_lat":-6.209883,"line":2,"transit":true,"station_id":"MRI","station_name":"Manggarai","time":2,"i_long":106.84912},{"station_name":"Tebet","i_lat":-6.226659,"is_transit":false,"distance":2610,"station_id":"TEB","i_long":106.857948,"transit":false,"time":4,"line":2},{"i_lat":-6.242512,"transit":false,"station_name":"Cawang","time":2,"i_long":106.856607,"line":2,"is_transit":false,"station_id":"CW","distance":1230},{"station_name":"Duren Kalibata","distance":1546,"transit":false,"time":3,"i_long":106.85449,"line":2,"i_lat":-6.255332,"station_id":"DRN","is_transit":false},{"time":2,"distance":824,"i_lat":-6.263214,"station_id":"PSMB","line":2,"station_name":"Pasar Minggu Baru","transit":false,"i_long":106.851577,"is_transit":false},{"i_long":106.843999,"transit":false,"station_name":"Pasar Minggu","i_lat":-6.2842400000000005,"station_id":"PSM","line":2,"is_transit":false,"distance":2380,"time":2},{"i_long":106.838896,"line":2,"time":4,"distance":2820,"station_name":"Tanjung Barat","station_id":"TNT","transit":false,"i_lat":-6.3080680000000005,"is_transit":false},{"transit":false,"time":3,"distance":2671,"i_lat":-6.330363,"station_name":"Lenteng Agung","line":2,"station_id":"LNA","is_transit":false,"i_long":106.832616},{"i_lat":-6.339291,"distance":1029,"station_id":"UP","i_long":106.834175,"transit":false,"time":2,"is_transit":false,"station_name":"Univ. Pancasila","line":2},{"distance":2264,"station_id":"UI","transit":false,"i_lat":-6.360749,"station_name":"Univ. Indonesia","i_long":106.831474,"line":2,"time":3,"is_transit":false},{"i_lat":-6.369073,"distance":1109,"station_id":"POC","time":2,"station_name":"Pondok Cina","is_transit":false,"transit":false,"i_long":106.831114,"line":2},{"station_id":"DPB","is_transit":false,"transit":false,"time":4,"i_lat":-6.391065,"i_long":106.819451,"station_name":"Depokbaru","distance":2727,"line":2},{"station_name":"Depok","time":3,"i_lat":-6.405256,"i_long":106.816926,"distance":1584,"is_transit":false,"transit":false,"station_id":"DP","line":2},{"i_long":106.800298,"transit":true,"i_lat":-6.448811,"station_name":"Citayam","line":2,"station_id":"CTA","distance":5084,"time":6,"is_transit":true},{"is_transit":false,"time":0,"distance":0,"transit":false,"station_name":"Pondok Rajeg","station_id":"PDRG","i_lat":-6.460735,"i_long":106.824374,"line":21},{"i_long":106.851978,"line":21,"distance":0,"is_transit":false,"station_id":"CBN","i_lat":-6.46424,"station_name":"Cibinong","time":0,"transit":false},{"station_name":"Nambo","station_id":"NMO","time":10,"i_lat":-6.466285,"i_long":106.905196,"is_transit":false,"distance":6527,"line":21,"transit":false}]]}