{"data":[[{"station_name":"Jayakarta","line":2,"time":0,"distance":0,"is_transit":false,"i_long":106.820901,"station_id":"JAY","transit":false,"i_lat":-6.141205},{"is_transit":true,"i_lat":-6.137569,"time":4,"station_name":"Jakarta Kota","distance":1264,"station_id":"JAKK","line":2,"transit":true,"i_long":106.812439},{"is_transit":true,"i_lat":-6.132549,"distance":1364,"i_long":106.826365,"line":4,"transit":true,"station_id":"KPB","time":3,"station_name":"Kampung Bandan"},{"time":3,"distance":1444,"transit":false,"i_lat":-6.14505,"i_long":106.836569,"station_id":"RJW","line":11,"station_name":"Rajawali","is_transit":false},{"distance":1901,"i_long":106.839204,"is_transit":false,"i_lat":-6.161728,"time":5,"line":11,"transit":false,"station_id":"KMO","station_name":"Kemayoran"},{"time":4,"distance":1436,"is_transit":false,"station_id":"PSE","line":11,"i_long":106.84368,"transit":false,"i_lat":-6.174784,"station_name":"Pasar Senen"}],[{"line":2,"transit":false,"station_name":"Jayakarta","distance":0,"i_long":106.820901,"is_transit":false,"time":0,"station_id":"JAY","i_lat":-6.141205},{"i_lat":-6.149769,"time":2,"station_id":"MGB","i_long":106.82482,"distance":1080,"is_transit":false,"transit":false,"station_name":"Manggabesar","line":2},{"line":2,"i_long":106.827103,"station_id":"SW","distance":906,"time":2,"is_transit":false,"i_lat":-6.160725,"station_name":"Sawah Besar","transit":false},{"is_transit":false,"i_long":106.828284,"station_id":"JUA","distance":1149,"transit":false,"i_lat":-6.166716,"line":2,"time":2,"station_name":"Juanda"},{"station_name":"Gondangdia","is_transit":false,"time":4,"distance":2015,"transit":false,"i_lat":-6.186295,"station_id":"GDD","line":2,"i_long":106.832183},{"time":3,"station_id":"CKI","transit":false,"distance":1750,"station_name":"Cikini","i_lat":-6.198556,"is_transit":false,"i_long":106.840169,"line":2},{"station_name":"Manggarai","transit":true,"time":4,"station_id":"MRI","is_transit":true,"i_lat":-6.209883,"distance":1590,"i_long":106.84912,"line":2},{"station_name":"Matraman","transit":false,"line":1,"i_long":106.858896,"time":2,"station_id":"MTR","i_lat":-6.212485,"is_transit":false,"distance":1275},{"time":8,"i_lat":-6.215091,"station_id":"JNG","station_name":"Jatinegara","is_transit":true,"i_long":106.86807400000001,"line":1,"transit":true,"distance":1377},{"time":2,"distance":1236,"i_lat":-6.209188,"station_id":"POK","line":11,"transit":false,"station_name":"Pondok Jati","is_transit":false,"i_long":106.861737},{"time":2,"station_id":"KMT","transit":false,"i_lat":-6.193792,"is_transit":false,"distance":1829,"station_name":"Kramat","line":11,"i_long":106.855437},{"i_long":106.850107,"distance":973,"time":1,"transit":false,"station_id":"GST","i_lat":-6.185975,"is_transit":false,"station_name":"Gang Sentiong","line":11},{"line":11,"distance":1567,"is_transit":false,"i_long":106.84368,"station_name":"Pasar Senen","time":8,"station_id":"PSE","i_lat":-6.174784,"transit":false}],[{"i_long":106.820901,"transit":false,"distance":0,"time":0,"station_name":"Jayakarta","station_id":"JAY","i_lat":-6.141205,"is_transit":false,"line":2},{"is_transit":true,"time":4,"station_id":"JAKK","station_name":"Jakarta Kota","transit":true,"line":2,"i_lat":-6.137569,"distance":1264,"i_long":106.812439},{"station_id":"KPB","distance":1364,"station_name":"Kampung Bandan","i_lat":-6.132549,"time":3,"i_long":106.826365,"transit":true,"line":4,"is_transit":true},{"is_transit":false,"time":9,"i_lat":-6.144674,"i_long":106.79867,"line":1,"station_name":"Angke","distance":4102,"station_id":"AK","transit":false},{"station_id":"DU","line":1,"i_long":106.800832,"transit":false,"i_lat":-6.155215,"is_transit":false,"distance":1230,"station_name":"Duri","time":4},{"station_id":"THB","i_long":106.811091,"is_transit":false,"time":8,"distance":3632,"i_lat":-6.185545,"station_name":"Tanah Abang","transit":false,"line":1},{"time":5,"distance":2029,"i_long":106.816351,"i_lat":-6.20132,"is_transit":false,"station_name":"Karet","station_id":"KAT","transit":false,"line":1},{"station_id":"SUDB","is_transit":false,"station_name":"Sudirman Baru","i_lat":-6.201433,"time":1,"line":1,"i_long":106.819881,"transit":false,"distance":471},{"station_id":"SUD","transit":false,"i_long":106.822649,"distance":280,"station_name":"Sudirman","time":1,"i_lat":-6.202263,"is_transit":false,"line":1},{"is_transit":false,"transit":false,"distance":3186,"line":2,"i_lat":-6.209883,"station_id":"MRI","time":4,"i_long":106.84912,"station_name":"Manggarai"},{"i_lat":-6.212485,"station_name":"Matraman","line":1,"time":2,"distance":1275,"station_id":"MTR","is_transit":false,"i_long":106.858896,"transit":false},{"station_name":"Jatinegara","time":8,"distance":1377,"station_id":"JNG","line":1,"is_transit":true,"i_lat":-6.215091,"transit":true,"i_long":106.86807400000001},{"station_name":"Pondok Jati","is_transit":false,"transit":false,"i_lat":-6.209188,"time":2,"station_id":"POK","i_long":106.861737,"line":11,"distance":1236},{"time":2,"distance":1829,"i_long":106.855437,"station_id":"KMT","station_name":"Kramat","is_transit":false,"transit":false,"i_lat":-6.193792,"line":11},{"line":11,"i_lat":-6.185975,"distance":973,"is_transit":false,"transit":false,"i_long":106.850107,"time":1,"station_name":"Gang Sentiong","station_id":"GST"},{"distance":1567,"transit":false,"i_long":106.84368,"is_transit":false,"station_name":"Pasar Senen","time":8,"line":11,"station_id":"PSE","i_lat":-6.174784}],[{"i_long":106.820901,"transit":false,"distance":0,"line":2,"station_id":"JAY","time":0,"i_lat":-6.141205,"station_name":"Jayakarta","is_transit":false},{"line":2,"i_lat":-6.149769,"i_long":106.82482,"time":2,"station_name":"Manggabesar","is_transit":false,"distance":1080,"station_id":"MGB","transit":false},{"station_name":"Sawah Besar","transit":false,"station_id":"SW","is_transit":false,"i_lat":-6.160725,"i_long":106.827103,"distance":906,"line":2,"time":2},{"i_lat":-6.166716,"i_long":106.828284,"distance":1149,"station_name":"Juanda","is_transit":false,"line":2,"time":2,"transit":false,"station_id":"JUA"},{"i_long":106.832183,"station_id":"GDD","distance":2015,"station_name":"Gondangdia","is_transit":false,"i_lat":-6.186295,"line":2,"transit":false,"time":4},{"i_long":106.840169,"time":3,"station_name":"Cikini","station_id":"CKI","i_lat":-6.198556,"line":2,"transit":false,"distance":1750,"is_transit":false},{"distance":1590,"transit":true,"station_id":"MRI","is_transit":true,"i_lat":-6.209883,"i_long":106.84912,"line":2,"time":4,"station_name":"Manggarai"},{"station_name":"Sudirman","transit":false,"is_transit":false,"i_lat":-6.202263,"station_id":"SUD","i_long":106.822649,"line":1,"distance":3186,"time":4},{"i_lat":-6.201433,"i_long":106.819881,"station_name":"Sudirman Baru","station_id":"SUDB","time":1,"distance":280,"is_transit":false,"transit":false,"line":1},{"i_long":106.816351,"is_transit":false,"station_id":"KAT","line":1,"time":1,"station_name":"Karet","transit":false,"i_lat":-6.20132,"distance":471},{"distance":2029,"transit":false,"i_lat":-6.185545,"station_id":"THB","line":1,"is_transit":false,"i_long":106.811091,"station_name":"Tanah Abang","time":5},{"station_name":"Duri","is_transit":false,"transit":false,"line":1,"time":8,"distance":3632,"i_lat":-6.155215,"i_long":106.800832,"station_id":"DU"},{"is_transit":false,"station_id":"AK","station_name":"Angke","line":1,"time":4,"transit":false,"i_lat":-6.144674,"i_long":106.79867,"distance":1230},{"station_name":"Kampung Bandan","time":9,"transit":true,"i_long":106.826365,"distance":4102,"station_id":"KPB","i_lat":-6.132549,"is_transit":true,"line":4},{"time":3,"i_long":106.836569,"is_transit":false,"line":11,"station_id":"RJW","transit":false,"distance":1444,"i_lat":-6.14505,"station_name":"Rajawali"},{"line":11,"station_name":"Kemayoran","transit":false,"is_transit":false,"time":5,"station_id":"KMO","i_lat":-6.161728,"distance":1901,"i_long":106.839204},{"is_transit":false,"transit":false,"i_lat":-6.174784,"i_long":106.84368,"station_id":"PSE","distance":1436,"line":11,"station_name":"Pasar Senen","time":4}]]}