{"data":[[{"i_lat":-6.141205,"station_id":"JAY","i_long":106.820901,"line":2,"station_name":"Jayakarta","is_transit":false,"transit":false,"distance":0,"time":0},{"transit":true,"station_id":"JAKK","i_lat":-6.137569,"is_transit":true,"i_long":106.812439,"line":2,"station_name":"Jakarta Kota","distance":1264,"time":4},{"time":3,"i_long":106.826365,"station_name":"Kampung Bandan","transit":true,"is_transit":true,"distance":1364,"station_id":"KPB","i_lat":-6.132549,"line":4},{"i_lat":-6.14505,"distance":1444,"i_long":106.836569,"transit":false,"is_transit":false,"station_id":"RJW","station_name":"Rajawali","line":11,"time":3}],[{"is_transit":false,"i_lat":-6.141205,"i_long":106.820901,"line":2,"time":0,"station_name":"Jayakarta","distance":0,"transit":false,"station_id":"JAY"},{"distance":1080,"time":2,"i_long":106.82482,"station_id":"MGB","i_lat":-6.149769,"is_transit":false,"line":2,"transit":false,"station_name":"Manggabesar"},{"distance":906,"i_lat":-6.160725,"transit":false,"line":2,"is_transit":false,"i_long":106.827103,"station_name":"Sawah Besar","time":2,"station_id":"SW"},{"line":2,"i_long":106.828284,"station_id":"JUA","station_name":"Juanda","i_lat":-6.166716,"is_transit":false,"transit":false,"time":2,"distance":1149},{"time":4,"i_lat":-6.186295,"station_name":"Gondangdia","station_id":"GDD","line":2,"transit":false,"i_long":106.832183,"distance":2015,"is_transit":false},{"line":2,"i_lat":-6.198556,"station_name":"Cikini","i_long":106.840169,"distance":1750,"is_transit":false,"station_id":"CKI","time":3,"transit":false},{"transit":true,"station_id":"MRI","i_lat":-6.209883,"i_long":106.84912,"station_name":"Manggarai","is_transit":true,"time":4,"line":2,"distance":1590},{"i_long":106.858896,"station_id":"MTR","line":1,"transit":false,"is_transit":false,"time":2,"i_lat":-6.212485,"distance":1275,"station_name":"Matraman"},{"station_name":"Jatinegara","time":8,"i_lat":-6.215091,"distance":1377,"transit":true,"line":1,"i_long":106.86807400000001,"station_id":"JNG","is_transit":true},{"is_transit":false,"i_lat":-6.209188,"station_id":"POK","line":11,"station_name":"Pondok Jati","transit":false,"i_long":106.861737,"time":2,"distance":1236},{"i_long":106.855437,"time":2,"is_transit":false,"station_name":"Kramat","i_lat":-6.193792,"distance":1829,"line":11,"transit":false,"station_id":"KMT"},{"time":1,"station_name":"Gang Sentiong","station_id":"GST","distance":973,"line":11,"transit":false,"is_transit":false,"i_long":106.850107,"i_lat":-6.185975},{"i_long":106.84368,"line":11,"transit":false,"station_name":"Pasar Senen","distance":1567,"is_transit":false,"time":8,"station_id":"PSE","i_lat":-6.174784},{"station_id":"KMO","distance":1436,"is_transit":false,"station_name":"Kemayoran","i_lat":-6.161728,"line":11,"time":4,"i_long":106.839204,"transit":false},{"station_name":"Rajawali","time":5,"line":11,"i_long":106.836569,"i_lat":-6.14505,"distance":1901,"transit":false,"is_transit":false,"station_id":"RJW"}],[{"i_lat":-6.141205,"line":2,"station_id":"JAY","time":0,"is_transit":false,"station_name":"Jayakarta","i_long":106.820901,"transit":false,"distance":0},{"is_transit":false,"time":2,"i_lat":-6.149769,"line":2,"transit":false,"station_name":"Manggabesar","distance":1080,"station_id":"MGB","i_long":106.82482},{"transit":false,"station_id":"SW","i_lat":-6.160725,"line":2,"time":2,"i_long":106.827103,"is_transit":false,"station_name":"Sawah Besar","distance":906},{"i_long":106.828284,"station_id":"JUA","line":2,"i_lat":-6.166716,"is_transit":false,"time":2,"distance":1149,"station_name":"Juanda","transit":false},{"station_id":"GDD","i_lat":-6.186295,"line":2,"distance":2015,"is_transit":false,"transit":false,"station_name":"Gondangdia","i_long":106.832183,"time":4},{"i_lat":-6.198556,"station_name":"Cikini","transit":false,"is_transit":false,"time":3,"i_long":106.840169,"distance":1750,"station_id":"CKI","line":2},{"transit":true,"distance":1590,"is_transit":true,"station_name":"Manggarai","time":4,"station_id":"MRI","i_long":106.84912,"line":2,"i_lat":-6.209883},{"transit":false,"time":4,"line":1,"i_lat":-6.202263,"i_long":106.822649,"is_transit":false,"station_name":"Sudirman","station_id":"SUD","distance":3186},{"i_lat":-6.201433,"time":1,"line":1,"distance":280,"station_name":"Sudirman Baru","is_transit":false,"transit":false,"i_long":106.819881,"station_id":"SUDB"},{"i_lat":-6.20132,"transit":false,"distance":471,"station_name":"Karet","is_transit":false,"time":1,"station_id":"KAT","i_long":106.816351,"line":1},{"station_name":"Tanah Abang","station_id":"THB","i_lat":-6.185545,"line":1,"i_long":106.811091,"transit":false,"time":5,"distance":2029,"is_transit":false},{"station_id":"DU","station_name":"Duri","line":1,"i_lat":-6.155215,"time":8,"distance":3632,"transit":false,"is_transit":false,"i_long":106.800832},{"time":4,"transit":false,"station_name":"Angke","distance":1230,"station_id":"AK","is_transit":false,"i_lat":-6.144674,"i_long":106.79867,"line":1},{"station_id":"KPB","station_name":"Kampung Bandan","transit":true,"time":9,"i_lat":-6.132549,"line":4,"is_transit":true,"distance":4102,"i_long":106.826365},{"line":11,"is_transit":false,"transit":false,"station_id":"RJW","i_lat":-6.14505,"station_name":"Rajawali","time":3,"distance":1444,"i_long":106.836569}],[{"is_transit":false,"i_lat":-6.141205,"time":0,"distance":0,"station_name":"Jayakarta","station_id":"JAY","i_long":106.820901,"transit":false,"line":2},{"time":4,"line":2,"distance":1264,"i_lat":-6.137569,"i_long":106.812439,"station_name":"Jakarta Kota","transit":true,"is_transit":true,"station_id":"JAKK"},{"time":3,"i_lat":-6.132549,"i_long":106.826365,"line":4,"station_id":"KPB","station_name":"Kampung Bandan","transit":true,"is_transit":true,"distance":1364},{"time":9,"i_lat":-6.144674,"line":1,"distance":4102,"station_name":"Angke","transit":false,"i_long":106.79867,"is_transit":false,"station_id":"AK"},{"line":1,"transit":false,"i_lat":-6.155215,"station_name":"Duri","i_long":106.800832,"station_id":"DU","distance":1230,"is_transit":false,"time":4},{"station_name":"Tanah Abang","distance":3632,"i_lat":-6.185545,"time":8,"i_long":106.811091,"is_transit":false,"transit":false,"line":1,"station_id":"THB"},{"is_transit":false,"i_long":106.816351,"station_id":"KAT","line":1,"transit":false,"distance":2029,"time":5,"station_name":"Karet","i_lat":-6.20132},{"station_name":"Sudirman Baru","line":1,"distance":471,"is_transit":false,"transit":false,"i_lat":-6.201433,"time":1,"i_long":106.819881,"station_id":"SUDB"},{"station_id":"SUD","i_lat":-6.202263,"is_transit":false,"station_name":"Sudirman","line":1,"time":1,"distance":280,"i_long":106.822649,"transit":false},{"station_name":"Manggarai","time":4,"transit":false,"station_id":"MRI","distance":3186,"i_lat":-6.209883,"line":2,"is_transit":false,"i_long":106.84912},{"transit":false,"station_name":"Matraman","distance":1275,"station_id":"MTR","time":2,"i_lat":-6.212485,"is_transit":false,"i_long":106.858896,"line":1},{"i_long":106.86807400000001,"station_name":"Jatinegara","time":8,"line":1,"distance":1377,"i_lat":-6.215091,"is_transit":true,"station_id":"JNG","transit":true},{"transit":false,"station_name":"Pondok Jati","is_transit":false,"i_long":106.861737,"time":2,"distance":1236,"station_id":"POK","line":11,"i_lat":-6.209188},{"i_long":106.855437,"station_name":"Kramat","is_transit":false,"time":2,"line":11,"station_id":"KMT","distance":1829,"i_lat":-6.193792,"transit":false},{"transit":false,"is_transit":false,"time":1,"station_name":"Gang Sentiong","i_long":106.850107,"distance":973,"i_lat":-6.185975,"station_id":"GST","line":11},{"line":11,"time":8,"distance":1567,"i_lat":-6.174784,"i_long":106.84368,"is_transit":false,"station_name":"Pasar Senen","station_id":"PSE","transit":false},{"time":4,"i_long":106.839204,"line":11,"distance":1436,"transit":false,"is_transit":false,"station_id":"KMO","i_lat":-6.161728,"station_name":"Kemayoran"},{"time":5,"i_long":106.836569,"station_id":"RJW","line":11,"i_lat":-6.14505,"transit":false,"distance":1901,"station_name":"Rajawali","is_transit":false}]]}