{"data":[[{"time":0,"is_transit":false,"i_lat":-6.141205,"distance":0,"transit":false,"i_long":106.820901,"line":7,"station_id":"JAY","station_name":"Jayakarta"},{"station_id":"MGB","distance":1080,"is_transit":false,"transit":false,"station_name":"Manggabesar","line":2,"i_lat":-6.149769,"i_long":106.82482,"time":2},{"time":2,"transit":false,"distance":906,"i_long":106.827103,"station_name":"Sawah Besar","i_lat":-6.160725,"line":2,"is_transit":false,"station_id":"SW"},{"station_name":"Juanda","i_long":106.828284,"transit":false,"station_id":"JUA","is_transit":false,"line":2,"time":2,"i_lat":-6.166716,"distance":1149},{"i_long":106.832183,"is_transit":false,"station_id":"GDD","time":4,"i_lat":-6.186295,"distance":2015,"line":2,"station_name":"Gondangdia","transit":false},{"is_transit":false,"i_lat":-6.198556,"time":3,"station_name":"Cikini","transit":false,"station_id":"CKI","i_long":106.840169,"line":0,"distance":1750},{"time":4,"transit":true,"line":0,"i_lat":-6.209883,"station_id":"MRI","distance":1590,"is_transit":true,"station_name":"Manggarai","i_long":106.84912},{"station_name":"Tebet","line":2,"distance":2610,"time":4,"transit":false,"is_transit":false,"i_long":106.857948,"station_id":"TEB","i_lat":-6.226659},{"transit":false,"i_lat":-6.242512,"line":0,"distance":1230,"i_long":106.856607,"is_transit":false,"time":2,"station_name":"Cawang","station_id":"CW"}],[{"transit":false,"i_long":106.820901,"distance":0,"i_lat":-6.141205,"station_id":"JAY","is_transit":false,"line":7,"station_name":"Jayakarta","time":0},{"station_name":"Jakarta Kota","distance":1264,"line":0,"i_lat":-6.137569,"i_long":106.812439,"time":4,"transit":true,"is_transit":true,"station_id":"JAKK"},{"transit":false,"distance":1364,"line":0,"time":3,"station_name":"Kampung Bandan","is_transit":true,"i_lat":-6.132549,"i_long":106.826365,"station_id":"KPB"},{"is_transit":false,"transit":false,"time":9,"distance":4102,"station_name":"Angke","i_lat":-6.144674,"i_long":106.79867,"station_id":"AK","line":0},{"station_id":"DU","station_name":"Duri","i_lat":-6.155215,"line":1,"is_transit":true,"time":4,"distance":1230,"transit":true,"i_long":106.800832},{"i_long":106.811091,"distance":3632,"transit":false,"station_id":"THB","time":8,"is_transit":true,"line":1,"station_name":"Tanah Abang","i_lat":-6.185545},{"i_lat":-6.20132,"line":1,"distance":2029,"station_name":"Karet","transit":false,"i_long":106.816351,"time":5,"station_id":"KAT","is_transit":false},{"time":1,"i_long":106.819881,"i_lat":-6.201433,"station_id":"SUDB","distance":471,"is_transit":false,"station_name":"Sudirman Baru","transit":false,"line":1},{"station_name":"Sudirman","is_transit":false,"distance":280,"i_lat":-6.202263,"i_long":106.822649,"transit":false,"time":1,"line":1,"station_id":"SUD"},{"station_id":"MRI","is_transit":true,"distance":3186,"time":4,"i_lat":-6.209883,"i_long":106.84912,"station_name":"Manggarai","line":0,"transit":true},{"distance":2610,"i_lat":-6.226659,"i_long":106.857948,"transit":false,"station_name":"Tebet","time":4,"line":2,"is_transit":false,"station_id":"TEB"},{"is_transit":false,"transit":false,"distance":1230,"station_id":"CW","i_long":106.856607,"line":0,"time":2,"station_name":"Cawang","i_lat":-6.242512}],[{"line":7,"is_transit":false,"transit":false,"time":0,"i_lat":-6.141205,"distance":0,"station_id":"JAY","station_name":"Jayakarta","i_long":106.820901},{"distance":1264,"time":4,"transit":true,"station_id":"JAKK","i_long":106.812439,"line":0,"is_transit":true,"i_lat":-6.137569,"station_name":"Jakarta Kota"},{"station_name":"Kampung Bandan","line":0,"time":3,"is_transit":true,"distance":1364,"i_lat":-6.132549,"transit":true,"i_long":106.826365,"station_id":"KPB"},{"line":11,"station_id":"RJW","time":3,"i_long":106.836569,"transit":false,"station_name":"Rajawali","i_lat":-6.14505,"is_transit":false,"distance":1444},{"i_lat":-6.161728,"distance":1901,"station_id":"KMO","is_transit":false,"time":5,"station_name":"Kemayoran","i_long":106.839204,"line":11,"transit":false},{"i_long":106.84368,"station_id":"PSE","station_name":"Pasar Senen","transit":false,"line":11,"distance":1436,"time":4,"is_transit":false,"i_lat":-6.174784},{"station_id":"GST","station_name":"Gang Sentiong","i_long":106.850107,"is_transit":false,"distance":1567,"time":8,"transit":false,"line":11,"i_lat":-6.185975},{"time":1,"station_id":"KMT","distance":973,"is_transit":false,"station_name":"Kramat","line":11,"transit":false,"i_long":106.855437,"i_lat":-6.193792},{"station_name":"Pondok Jati","i_long":106.861737,"is_transit":false,"line":11,"distance":1829,"time":2,"station_id":"POK","transit":false,"i_lat":-6.209188},{"i_long":106.86807400000001,"transit":true,"line":0,"station_name":"Jatinegara","time":9,"station_id":"JNG","is_transit":true,"distance":1236,"i_lat":-6.215091},{"i_long":106.858896,"line":1,"i_lat":-6.212485,"station_name":"Matraman","is_transit":false,"time":2,"station_id":"MTR","distance":1377,"transit":false},{"i_long":106.84912,"time":2,"transit":true,"i_lat":-6.209883,"line":0,"is_transit":true,"distance":1275,"station_name":"Manggarai","station_id":"MRI"},{"is_transit":false,"time":4,"distance":2610,"i_lat":-6.226659,"line":2,"station_id":"TEB","transit":false,"i_long":106.857948,"station_name":"Tebet"},{"is_transit":false,"line":0,"transit":false,"time":2,"station_id":"CW","i_lat":-6.242512,"distance":1230,"station_name":"Cawang","i_long":106.856607}]]}