{"data":[[{"is_transit":false,"station_name":"Jayakarta","i_lat":-6.141205,"transit":false,"i_long":106.820901,"distance":0,"line":7,"time":0,"station_id":"JAY"},{"time":4,"distance":1264,"i_long":106.812439,"is_transit":true,"station_name":"Jakarta Kota","line":0,"transit":true,"i_lat":-6.137569,"station_id":"JAKK"},{"is_transit":true,"distance":1364,"i_long":106.826365,"transit":false,"i_lat":-6.132549,"line":0,"station_name":"Kampung Bandan","time":3,"station_id":"KPB"},{"time":9,"i_long":106.79867,"station_id":"AK","distance":4102,"i_lat":-6.144674,"line":0,"station_name":"Angke","transit":false,"is_transit":false},{"station_id":"DU","distance":1230,"station_name":"Duri","is_transit":true,"line":1,"i_long":106.800832,"i_lat":-6.155215,"transit":true,"time":4},{"distance":3632,"i_long":106.811091,"is_transit":true,"i_lat":-6.185545,"time":8,"station_id":"THB","transit":false,"station_name":"Tanah Abang","line":1}],[{"line":7,"is_transit":false,"station_id":"JAY","time":0,"distance":0,"station_name":"Jayakarta","transit":false,"i_lat":-6.141205,"i_long":106.820901},{"distance":1080,"station_name":"Manggabesar","time":2,"is_transit":false,"i_lat":-6.149769,"i_long":106.82482,"line":2,"transit":false,"station_id":"MGB"},{"station_name":"Sawah Besar","distance":906,"time":2,"i_long":106.827103,"line":2,"i_lat":-6.160725,"station_id":"SW","transit":false,"is_transit":false},{"station_id":"JUA","is_transit":false,"distance":1149,"station_name":"Juanda","transit":false,"line":2,"time":2,"i_lat":-6.166716,"i_long":106.828284},{"distance":2015,"station_id":"GDD","transit":false,"time":4,"line":2,"station_name":"Gondangdia","i_lat":-6.186295,"i_long":106.832183,"is_transit":false},{"transit":false,"station_name":"Cikini","station_id":"CKI","i_long":106.840169,"i_lat":-6.198556,"distance":1750,"is_transit":false,"time":3,"line":0},{"distance":1590,"i_long":106.84912,"station_name":"Manggarai","i_lat":-6.209883,"time":4,"station_id":"MRI","transit":true,"line":0,"is_transit":true},{"i_long":106.822649,"line":1,"time":4,"distance":3186,"transit":false,"i_lat":-6.202263,"station_name":"Sudirman","is_transit":false,"station_id":"SUD"},{"is_transit":false,"i_long":106.819881,"station_id":"SUDB","time":1,"line":1,"distance":280,"transit":false,"i_lat":-6.201433,"station_name":"Sudirman Baru"},{"station_name":"Karet","i_lat":-6.20132,"station_id":"KAT","is_transit":false,"distance":471,"time":1,"transit":false,"line":1,"i_long":106.816351},{"line":1,"is_transit":true,"time":5,"distance":2029,"transit":false,"i_lat":-6.185545,"i_long":106.811091,"station_id":"THB","station_name":"Tanah Abang"}],[{"is_transit":false,"distance":0,"i_lat":-6.141205,"time":0,"i_long":106.820901,"station_name":"Jayakarta","transit":false,"station_id":"JAY","line":7},{"station_name":"Jakarta Kota","time":4,"distance":1264,"i_lat":-6.137569,"line":0,"transit":true,"i_long":106.812439,"is_transit":true,"station_id":"JAKK"},{"i_lat":-6.132549,"i_long":106.826365,"time":3,"station_id":"KPB","distance":1364,"transit":true,"station_name":"Kampung Bandan","line":0,"is_transit":true},{"station_id":"RJW","i_lat":-6.14505,"distance":1444,"transit":false,"time":3,"is_transit":false,"line":11,"station_name":"Rajawali","i_long":106.836569},{"distance":1901,"is_transit":false,"time":5,"transit":false,"station_id":"KMO","i_long":106.839204,"i_lat":-6.161728,"line":11,"station_name":"Kemayoran"},{"distance":1436,"transit":false,"i_lat":-6.174784,"i_long":106.84368,"line":11,"is_transit":false,"station_name":"Pasar Senen","time":4,"station_id":"PSE"},{"is_transit":false,"distance":1567,"line":11,"station_id":"GST","station_name":"Gang Sentiong","transit":false,"i_lat":-6.185975,"time":8,"i_long":106.850107},{"is_transit":false,"station_name":"Kramat","i_lat":-6.193792,"line":11,"i_long":106.855437,"distance":973,"transit":false,"station_id":"KMT","time":1},{"station_name":"Pondok Jati","station_id":"POK","transit":false,"time":2,"distance":1829,"i_lat":-6.209188,"is_transit":false,"i_long":106.861737,"line":11},{"line":0,"is_transit":true,"time":9,"transit":true,"distance":1236,"i_long":106.86807400000001,"station_id":"JNG","station_name":"Jatinegara","i_lat":-6.215091},{"time":2,"i_long":106.858896,"i_lat":-6.212485,"station_name":"Matraman","transit":false,"line":1,"is_transit":false,"distance":1377,"station_id":"MTR"},{"station_id":"MRI","transit":false,"is_transit":true,"station_name":"Manggarai","time":2,"distance":1275,"i_long":106.84912,"line":0,"i_lat":-6.209883},{"time":4,"station_name":"Sudirman","station_id":"SUD","is_transit":false,"transit":false,"i_lat":-6.202263,"distance":3186,"i_long":106.822649,"line":1},{"i_lat":-6.201433,"is_transit":false,"i_long":106.819881,"station_name":"Sudirman Baru","line":1,"distance":280,"station_id":"SUDB","time":1,"transit":false},{"is_transit":false,"i_lat":-6.20132,"station_name":"Karet","i_long":106.816351,"distance":471,"time":1,"transit":false,"line":1,"station_id":"KAT"},{"line":1,"station_id":"THB","distance":2029,"i_long":106.811091,"is_transit":true,"i_lat":-6.185545,"station_name":"Tanah Abang","time":5,"transit":false}],[{"line":7,"i_lat":-6.141205,"station_id":"JAY","time":0,"transit":false,"is_transit":false,"station_name":"Jayakarta","i_long":106.820901,"distance":0},{"transit":false,"i_lat":-6.149769,"station_id":"MGB","is_transit":false,"i_long":106.82482,"line":2,"station_name":"Manggabesar","time":2,"distance":1080},{"time":2,"i_lat":-6.160725,"is_transit":false,"transit":false,"distance":906,"line":2,"station_name":"Sawah Besar","station_id":"SW","i_long":106.827103},{"transit":false,"line":2,"time":2,"is_transit":false,"i_lat":-6.166716,"station_name":"Juanda","distance":1149,"station_id":"JUA","i_long":106.828284},{"line":2,"station_id":"GDD","transit":false,"distance":2015,"is_transit":false,"i_long":106.832183,"station_name":"Gondangdia","i_lat":-6.186295,"time":4},{"is_transit":false,"distance":1750,"i_long":106.840169,"station_id":"CKI","station_name":"Cikini","transit":false,"i_lat":-6.198556,"line":0,"time":3},{"is_transit":true,"distance":1590,"i_lat":-6.209883,"transit":true,"line":0,"station_name":"Manggarai","i_long":106.84912,"time":4,"station_id":"MRI"},{"i_long":106.858896,"distance":1275,"station_id":"MTR","station_name":"Matraman","is_transit":false,"transit":false,"i_lat":-6.212485,"line":1,"time":2},{"distance":1377,"time":8,"station_id":"JNG","is_transit":true,"station_name":"Jatinegara","transit":true,"i_long":106.86807400000001,"i_lat":-6.215091,"line":0},{"line":11,"distance":1236,"station_id":"POK","station_name":"Pondok Jati","time":2,"i_lat":-6.209188,"i_long":106.861737,"transit":false,"is_transit":false},{"time":2,"distance":1829,"station_name":"Kramat","line":11,"station_id":"KMT","is_transit":false,"transit":false,"i_lat":-6.193792,"i_long":106.855437},{"station_id":"GST","transit":false,"i_lat":-6.185975,"distance":973,"is_transit":false,"i_long":106.850107,"line":11,"time":1,"station_name":"Gang Sentiong"},{"transit":false,"i_long":106.84368,"station_id":"PSE","time":8,"distance":1567,"station_name":"Pasar Senen","line":11,"is_transit":false,"i_lat":-6.174784},{"station_name":"Kemayoran","time":4,"line":11,"station_id":"KMO","is_transit":false,"transit":false,"distance":1436,"i_long":106.839204,"i_lat":-6.161728},{"i_lat":-6.14505,"i_long":106.836569,"distance":1901,"time":5,"station_id":"RJW","line":11,"station_name":"Rajawali","transit":false,"is_transit":false},{"time":3,"station_name":"Kampung Bandan","distance":1444,"i_lat":-6.132549,"i_long":106.826365,"is_transit":true,"line":0,"station_id":"KPB","transit":true},{"station_id":"AK","transit":false,"i_long":106.79867,"line":0,"i_lat":-6.144674,"distance":4102,"is_transit":false,"time":9,"station_name":"Angke"},{"station_id":"DU","distance":1230,"i_lat":-6.155215,"time":4,"station_name":"Duri","is_transit":true,"transit":true,"i_long":106.800832,"line":1},{"station_id":"THB","transit":false,"i_long":106.811091,"is_transit":true,"time":8,"distance":3632,"i_lat":-6.185545,"line":1,"station_name":"Tanah Abang"}]]}