{"data":[[{"i_lat":-6.141205,"station_id":"JAY","is_transit":false,"station_name":"Jayakarta","distance":0,"i_long":106.820901,"line":7,"time":0,"transit":false},{"distance":1080,"station_id":"MGB","is_transit":false,"i_lat":-6.149769,"i_long":106.82482,"time":2,"line":2,"station_name":"Manggabesar","transit":false},{"is_transit":false,"i_long":106.827103,"i_lat":-6.160725,"station_name":"Sawah Besar","line":2,"station_id":"SW","transit":false,"distance":906,"time":2},{"station_name":"Juanda","distance":1149,"transit":false,"line":2,"is_transit":false,"station_id":"JUA","i_long":106.828284,"i_lat":-6.166716,"time":2},{"time":4,"transit":false,"distance":2015,"station_name":"Gondangdia","line":2,"is_transit":false,"i_lat":-6.186295,"i_long":106.832183,"station_id":"GDD"},{"time":3,"distance":1750,"station_id":"CKI","i_lat":-6.198556,"line":0,"i_long":106.840169,"transit":false,"station_name":"Cikini","is_transit":false},{"station_id":"MRI","is_transit":true,"time":4,"line":0,"transit":true,"station_name":"Manggarai","i_lat":-6.209883,"distance":1590,"i_long":106.84912},{"i_lat":-6.226659,"line":2,"i_long":106.857948,"time":4,"transit":false,"distance":2610,"is_transit":false,"station_id":"TEB","station_name":"Tebet"},{"station_name":"Cawang","is_transit":false,"time":2,"transit":false,"station_id":"CW","i_lat":-6.242512,"i_long":106.856607,"distance":1230,"line":0},{"station_id":"DRN","i_long":106.85449,"transit":false,"i_lat":-6.255332,"distance":1546,"line":0,"station_name":"Duren Kalibata","time":3,"is_transit":false},{"distance":824,"i_lat":-6.263214,"time":2,"i_long":106.851577,"station_name":"Pasar Minggu Baru","line":2,"is_transit":false,"transit":false,"station_id":"PSMB"},{"station_id":"PSM","is_transit":false,"distance":2380,"station_name":"Pasar Minggu","time":2,"i_long":106.843999,"line":2,"transit":false,"i_lat":-6.2842400000000005},{"is_transit":false,"transit":false,"i_lat":-6.3080680000000005,"station_name":"Tanjung Barat","line":2,"time":4,"distance":2820,"i_long":106.838896,"station_id":"TNT"},{"station_name":"Lenteng Agung","line":2,"i_long":106.832616,"time":3,"distance":2671,"transit":false,"i_lat":-6.330363,"is_transit":false,"station_id":"LNA"},{"is_transit":false,"time":2,"line":2,"station_name":"Univ. Pancasila","i_lat":-6.339291,"distance":1029,"transit":false,"station_id":"UP","i_long":106.834175},{"is_transit":false,"line":2,"time":3,"transit":false,"distance":2264,"i_lat":-6.360749,"i_long":106.831474,"station_name":"Univ. Indonesia","station_id":"UI"},{"line":2,"station_name":"Pondok Cina","transit":false,"i_long":106.831114,"i_lat":-6.369073,"time":2,"is_transit":false,"distance":1109,"station_id":"POC"},{"station_id":"DPB","station_name":"Depokbaru","distance":2727,"i_long":106.819451,"line":0,"time":4,"i_lat":-6.391065,"is_transit":false,"transit":false},{"line":0,"is_transit":false,"station_name":"Depok","distance":1584,"i_lat":-6.405256,"i_long":106.816926,"transit":false,"station_id":"DP","time":3},{"time":6,"station_name":"Citayam","i_long":106.800298,"line":1,"station_id":"CTA","distance":5084,"i_lat":-6.448811,"is_transit":true,"transit":false},{"station_name":"Cibinong","time":10,"distance":6740,"transit":false,"i_lat":-6.46424,"station_id":"CBN","is_transit":false,"line":0,"i_long":106.851978},{"is_transit":false,"i_long":106.905196,"line":21,"distance":6527,"station_name":"Nambo","i_lat":-6.466285,"station_id":"NMO","time":10,"transit":false}],[{"i_long":106.820901,"time":0,"line":7,"station_name":"Jayakarta","transit":false,"i_lat":-6.141205,"distance":0,"station_id":"JAY","is_transit":false},{"station_id":"JAKK","time":4,"i_lat":-6.137569,"line":0,"is_transit":true,"distance":1264,"i_long":106.812439,"transit":true,"station_name":"Jakarta Kota"},{"i_long":106.826365,"line":0,"station_id":"KPB","is_transit":true,"transit":false,"station_name":"Kampung Bandan","distance":1364,"time":3,"i_lat":-6.132549},{"station_id":"AK","line":0,"time":9,"transit":false,"is_transit":false,"i_long":106.79867,"station_name":"Angke","i_lat":-6.144674,"distance":4102},{"distance":1230,"i_lat":-6.155215,"station_id":"DU","station_name":"Duri","time":4,"i_long":106.800832,"is_transit":true,"transit":true,"line":1},{"distance":3632,"transit":false,"is_transit":true,"station_name":"Tanah Abang","i_long":106.811091,"i_lat":-6.185545,"line":1,"time":8,"station_id":"THB"},{"is_transit":false,"station_id":"KAT","line":1,"distance":2029,"i_long":106.816351,"time":5,"i_lat":-6.20132,"transit":false,"station_name":"Karet"},{"line":1,"station_name":"Sudirman Baru","distance":471,"is_transit":false,"station_id":"SUDB","i_lat":-6.201433,"time":1,"transit":false,"i_long":106.819881},{"is_transit":false,"station_name":"Sudirman","i_long":106.822649,"time":1,"distance":280,"transit":false,"i_lat":-6.202263,"station_id":"SUD","line":1},{"line":0,"i_long":106.84912,"distance":3186,"station_id":"MRI","station_name":"Manggarai","is_transit":true,"i_lat":-6.209883,"time":4,"transit":true},{"i_lat":-6.226659,"line":2,"station_id":"TEB","time":4,"station_name":"Tebet","distance":2610,"transit":false,"i_long":106.857948,"is_transit":false},{"is_transit":false,"transit":false,"i_long":106.856607,"i_lat":-6.242512,"distance":1230,"station_name":"Cawang","time":2,"station_id":"CW","line":0},{"station_name":"Duren Kalibata","distance":1546,"is_transit":false,"station_id":"DRN","line":0,"i_long":106.85449,"time":3,"transit":false,"i_lat":-6.255332},{"time":2,"i_lat":-6.263214,"station_name":"Pasar Minggu Baru","is_transit":false,"i_long":106.851577,"line":2,"transit":false,"station_id":"PSMB","distance":824},{"line":2,"is_transit":false,"time":2,"station_id":"PSM","i_lat":-6.2842400000000005,"distance":2380,"i_long":106.843999,"station_name":"Pasar Minggu","transit":false},{"station_id":"TNT","i_long":106.838896,"is_transit":false,"distance":2820,"i_lat":-6.3080680000000005,"line":2,"transit":false,"station_name":"Tanjung Barat","time":4},{"i_lat":-6.330363,"line":2,"transit":false,"time":3,"is_transit":false,"i_long":106.832616,"station_name":"Lenteng Agung","station_id":"LNA","distance":2671},{"line":2,"station_id":"UP","is_transit":false,"distance":1029,"station_name":"Univ. Pancasila","time":2,"transit":false,"i_lat":-6.339291,"i_long":106.834175},{"station_name":"Univ. Indonesia","distance":2264,"time":3,"line":2,"station_id":"UI","transit":false,"i_long":106.831474,"is_transit":false,"i_lat":-6.360749},{"i_lat":-6.369073,"distance":1109,"is_transit":false,"station_id":"POC","time":2,"transit":false,"i_long":106.831114,"line":2,"station_name":"Pondok Cina"},{"station_name":"Depokbaru","is_transit":false,"transit":false,"time":4,"i_lat":-6.391065,"line":0,"station_id":"DPB","distance":2727,"i_long":106.819451},{"i_lat":-6.405256,"transit":false,"i_long":106.816926,"station_id":"DP","line":0,"station_name":"Depok","is_transit":false,"time":3,"distance":1584},{"distance":5084,"i_lat":-6.448811,"transit":false,"i_long":106.800298,"station_id":"CTA","time":6,"station_name":"Citayam","is_transit":true,"line":1},{"time":10,"line":0,"transit":false,"distance":6740,"i_lat":-6.46424,"i_long":106.851978,"station_name":"Cibinong","station_id":"CBN","is_transit":false},{"distance":6527,"time":10,"transit":false,"i_lat":-6.466285,"i_long":106.905196,"station_name":"Nambo","is_transit":false,"line":21,"station_id":"NMO"}],[{"i_lat":-6.141205,"station_id":"JAY","is_transit":false,"line":7,"transit":false,"i_long":106.820901,"distance":0,"time":0,"station_name":"Jayakarta"},{"distance":1264,"station_name":"Jakarta Kota","i_long":106.812439,"is_transit":true,"time":4,"station_id":"JAKK","i_lat":-6.137569,"line":0,"transit":true},{"transit":true,"time":3,"distance":1364,"is_transit":true,"station_id":"KPB","i_lat":-6.132549,"station_name":"Kampung Bandan","i_long":106.826365,"line":0},{"distance":1444,"station_name":"Rajawali","i_lat":-6.14505,"time":3,"i_long":106.836569,"is_transit":false,"line":11,"station_id":"RJW","transit":false},{"time":5,"i_long":106.839204,"is_transit":false,"distance":1901,"i_lat":-6.161728,"line":11,"transit":false,"station_name":"Kemayoran","station_id":"KMO"},{"station_id":"PSE","i_long":106.84368,"time":4,"distance":1436,"station_name":"Pasar Senen","i_lat":-6.174784,"is_transit":false,"transit":false,"line":11},{"is_transit":false,"transit":false,"i_lat":-6.185975,"distance":1567,"i_long":106.850107,"line":11,"station_id":"GST","time":8,"station_name":"Gang Sentiong"},{"line":11,"i_lat":-6.193792,"is_transit":false,"distance":973,"time":1,"transit":false,"station_name":"Kramat","station_id":"KMT","i_long":106.855437},{"line":11,"distance":1829,"transit":false,"is_transit":false,"i_lat":-6.209188,"station_name":"Pondok Jati","station_id":"POK","time":2,"i_long":106.861737},{"station_name":"Jatinegara","is_transit":true,"transit":true,"time":9,"i_lat":-6.215091,"line":0,"i_long":106.86807400000001,"station_id":"JNG","distance":1236},{"i_long":106.858896,"station_id":"MTR","transit":false,"station_name":"Matraman","time":2,"is_transit":false,"distance":1377,"line":1,"i_lat":-6.212485},{"is_transit":true,"station_name":"Manggarai","i_long":106.84912,"line":0,"transit":true,"station_id":"MRI","time":2,"distance":1275,"i_lat":-6.209883},{"transit":false,"time":4,"i_long":106.857948,"station_id":"TEB","station_name":"Tebet","distance":2610,"i_lat":-6.226659,"is_transit":false,"line":2},{"line":0,"distance":1230,"i_lat":-6.242512,"station_id":"CW","time":2,"station_name":"Cawang","is_transit":false,"transit":false,"i_long":106.856607},{"distance":1546,"station_name":"Duren Kalibata","is_transit":false,"time":3,"i_long":106.85449,"i_lat":-6.255332,"station_id":"DRN","line":0,"transit":false},{"line":2,"station_id":"PSMB","time":2,"station_name":"Pasar Minggu Baru","i_long":106.851577,"is_transit":false,"transit":false,"distance":824,"i_lat":-6.263214},{"time":2,"station_name":"Pasar Minggu","station_id":"PSM","i_long":106.843999,"transit":false,"distance":2380,"i_lat":-6.2842400000000005,"line":2,"is_transit":false},{"is_transit":false,"transit":false,"i_lat":-6.3080680000000005,"i_long":106.838896,"time":4,"line":2,"distance":2820,"station_id":"TNT","station_name":"Tanjung Barat"},{"is_transit":false,"station_name":"Lenteng Agung","i_long":106.832616,"i_lat":-6.330363,"distance":2671,"time":3,"station_id":"LNA","transit":false,"line":2},{"is_transit":false,"i_lat":-6.339291,"time":2,"station_name":"Univ. Pancasila","i_long":106.834175,"distance":1029,"line":2,"transit":false,"station_id":"UP"},{"station_name":"Univ. Indonesia","time":3,"distance":2264,"transit":false,"line":2,"station_id":"UI","is_transit":false,"i_long":106.831474,"i_lat":-6.360749},{"station_id":"POC","line":2,"time":2,"station_name":"Pondok Cina","i_lat":-6.369073,"i_long":106.831114,"transit":false,"distance":1109,"is_transit":false},{"is_transit":false,"station_name":"Depokbaru","station_id":"DPB","time":4,"i_lat":-6.391065,"distance":2727,"transit":false,"i_long":106.819451,"line":0},{"station_id":"DP","station_name":"Depok","time":3,"distance":1584,"i_long":106.816926,"transit":false,"i_lat":-6.405256,"is_transit":false,"line":0},{"transit":false,"line":1,"i_long":106.800298,"i_lat":-6.448811,"time":6,"is_transit":true,"distance":5084,"station_id":"CTA","station_name":"Citayam"},{"station_name":"Cibinong","distance":6740,"time":10,"transit":false,"i_long":106.851978,"line":0,"i_lat":-6.46424,"is_transit":false,"station_id":"CBN"},{"distance":6527,"i_lat":-6.466285,"i_long":106.905196,"line":21,"station_id":"NMO","is_transit":false,"transit":false,"station_name":"Nambo","time":10}]]}