{"data":[[{"transit":false,"station_id":"JAY","i_lat":-6.141205,"distance":0,"line":7,"station_name":"Jayakarta","i_long":106.820901,"is_transit":false,"time":0},{"line":0,"time":4,"i_lat":-6.137569,"distance":1264,"i_long":106.812439,"station_id":"JAKK","station_name":"Jakarta Kota","is_transit":true,"transit":true},{"distance":1364,"time":3,"transit":true,"i_long":106.826365,"station_id":"KPB","line":0,"is_transit":true,"station_name":"Kampung Bandan","i_lat":-6.132549},{"line":11,"i_long":106.836569,"station_name":"Rajawali","is_transit":false,"i_lat":-6.14505,"station_id":"RJW","distance":1444,"transit":false,"time":3},{"is_transit":false,"i_lat":-6.161728,"distance":1901,"line":11,"time":5,"station_id":"KMO","transit":false,"station_name":"Kemayoran","i_long":106.839204},{"time":4,"transit":false,"i_lat":-6.174784,"distance":1436,"station_id":"PSE","station_name":"Pasar Senen","is_transit":false,"i_long":106.84368,"line":11},{"distance":1567,"i_long":106.850107,"is_transit":false,"transit":false,"time":8,"station_id":"GST","i_lat":-6.185975,"line":11,"station_name":"Gang Sentiong"},{"is_transit":false,"distance":973,"i_long":106.855437,"i_lat":-6.193792,"station_id":"KMT","transit":false,"station_name":"Kramat","line":11,"time":1},{"station_id":"POK","station_name":"Pondok Jati","is_transit":false,"transit":false,"i_long":106.861737,"distance":1829,"i_lat":-6.209188,"time":2,"line":11}],[{"is_transit":false,"line":7,"transit":false,"station_id":"JAY","time":0,"distance":0,"i_lat":-6.141205,"i_long":106.820901,"station_name":"Jayakarta"},{"time":2,"station_name":"Manggabesar","i_long":106.82482,"distance":1080,"i_lat":-6.149769,"station_id":"MGB","line":2,"transit":false,"is_transit":false},{"is_transit":false,"distance":906,"i_long":106.827103,"station_name":"Sawah Besar","station_id":"SW","time":2,"transit":false,"line":2,"i_lat":-6.160725},{"distance":1149,"station_name":"Juanda","line":2,"time":2,"station_id":"JUA","is_transit":false,"transit":false,"i_lat":-6.166716,"i_long":106.828284},{"station_name":"Gondangdia","line":2,"i_long":106.832183,"time":4,"station_id":"GDD","distance":2015,"is_transit":false,"transit":false,"i_lat":-6.186295},{"station_name":"Cikini","line":0,"station_id":"CKI","is_transit":false,"distance":1750,"i_lat":-6.198556,"i_long":106.840169,"time":3,"transit":false},{"i_long":106.84912,"station_id":"MRI","distance":1590,"line":0,"i_lat":-6.209883,"time":4,"station_name":"Manggarai","is_transit":true,"transit":true},{"i_long":106.858896,"station_id":"MTR","distance":1275,"i_lat":-6.212485,"station_name":"Matraman","time":2,"is_transit":false,"line":1,"transit":false},{"time":8,"station_id":"JNG","i_lat":-6.215091,"is_transit":true,"transit":true,"line":0,"station_name":"Jatinegara","i_long":106.86807400000001,"distance":1377},{"distance":1236,"is_transit":false,"transit":false,"i_lat":-6.209188,"station_name":"Pondok Jati","time":2,"i_long":106.861737,"line":11,"station_id":"POK"}],[{"i_lat":-6.141205,"time":0,"station_name":"Jayakarta","station_id":"JAY","distance":0,"transit":false,"i_long":106.820901,"line":7,"is_transit":false},{"station_id":"JAKK","station_name":"Jakarta Kota","is_transit":true,"distance":1264,"i_long":106.812439,"line":0,"time":4,"transit":true,"i_lat":-6.137569},{"time":3,"station_name":"Kampung Bandan","is_transit":true,"transit":false,"i_long":106.826365,"distance":1364,"i_lat":-6.132549,"station_id":"KPB","line":0},{"is_transit":false,"station_id":"AK","i_long":106.79867,"distance":4102,"line":0,"time":9,"station_name":"Angke","i_lat":-6.144674,"transit":false},{"transit":true,"time":4,"i_long":106.800832,"station_id":"DU","is_transit":true,"station_name":"Duri","i_lat":-6.155215,"distance":1230,"line":1},{"is_transit":true,"i_long":106.811091,"station_name":"Tanah Abang","distance":3632,"transit":false,"station_id":"THB","line":1,"time":8,"i_lat":-6.185545},{"line":1,"time":5,"distance":2029,"station_name":"Karet","station_id":"KAT","is_transit":false,"i_lat":-6.20132,"i_long":106.816351,"transit":false},{"i_lat":-6.201433,"station_id":"SUDB","transit":false,"station_name":"Sudirman Baru","line":1,"is_transit":false,"time":1,"i_long":106.819881,"distance":471},{"transit":false,"i_long":106.822649,"station_name":"Sudirman","line":1,"i_lat":-6.202263,"time":1,"distance":280,"station_id":"SUD","is_transit":false},{"transit":false,"distance":3186,"station_name":"Manggarai","station_id":"MRI","is_transit":true,"line":0,"i_long":106.84912,"time":4,"i_lat":-6.209883},{"line":1,"station_id":"MTR","i_long":106.858896,"i_lat":-6.212485,"is_transit":false,"time":2,"station_name":"Matraman","transit":false,"distance":1275},{"is_transit":true,"station_id":"JNG","line":0,"transit":true,"i_long":106.86807400000001,"distance":1377,"station_name":"Jatinegara","time":8,"i_lat":-6.215091},{"station_id":"POK","time":2,"i_lat":-6.209188,"distance":1236,"station_name":"Pondok Jati","is_transit":false,"line":11,"transit":false,"i_long":106.861737}],[{"i_lat":-6.141205,"station_id":"JAY","is_transit":false,"time":0,"distance":0,"station_name":"Jayakarta","line":7,"transit":false,"i_long":106.820901},{"transit":false,"is_transit":false,"station_name":"Manggabesar","time":2,"station_id":"MGB","i_lat":-6.149769,"line":2,"i_long":106.82482,"distance":1080},{"distance":906,"transit":false,"i_long":106.827103,"station_id":"SW","i_lat":-6.160725,"is_transit":false,"time":2,"line":2,"station_name":"Sawah Besar"},{"is_transit":false,"station_id":"JUA","i_lat":-6.166716,"i_long":106.828284,"distance":1149,"transit":false,"line":2,"time":2,"station_name":"Juanda"},{"i_lat":-6.186295,"is_transit":false,"transit":false,"station_name":"Gondangdia","i_long":106.832183,"line":2,"time":4,"distance":2015,"station_id":"GDD"},{"station_name":"Cikini","time":3,"i_lat":-6.198556,"i_long":106.840169,"is_transit":false,"transit":false,"line":0,"distance":1750,"station_id":"CKI"},{"time":4,"distance":1590,"transit":true,"line":0,"station_id":"MRI","i_long":106.84912,"i_lat":-6.209883,"station_name":"Manggarai","is_transit":true},{"i_long":106.822649,"line":1,"time":4,"is_transit":false,"station_id":"SUD","transit":false,"station_name":"Sudirman","distance":3186,"i_lat":-6.202263},{"transit":false,"time":1,"distance":280,"i_long":106.819881,"i_lat":-6.201433,"station_name":"Sudirman Baru","line":1,"station_id":"SUDB","is_transit":false},{"line":1,"i_lat":-6.20132,"distance":471,"time":1,"station_id":"KAT","i_long":106.816351,"station_name":"Karet","transit":false,"is_transit":false},{"distance":2029,"i_lat":-6.185545,"i_long":106.811091,"transit":false,"line":1,"station_name":"Tanah Abang","station_id":"THB","is_transit":true,"time":5},{"line":1,"station_name":"Duri","time":8,"i_long":106.800832,"distance":3632,"transit":true,"i_lat":-6.155215,"is_transit":true,"station_id":"DU"},{"station_name":"Angke","line":0,"is_transit":false,"i_lat":-6.144674,"transit":false,"station_id":"AK","i_long":106.79867,"distance":1230,"time":4},{"transit":true,"i_long":106.826365,"i_lat":-6.132549,"line":0,"distance":4102,"time":9,"station_id":"KPB","is_transit":true,"station_name":"Kampung Bandan"},{"i_long":106.836569,"is_transit":false,"line":11,"time":3,"station_name":"Rajawali","station_id":"RJW","transit":false,"i_lat":-6.14505,"distance":1444},{"distance":1901,"i_long":106.839204,"i_lat":-6.161728,"transit":false,"is_transit":false,"line":11,"station_id":"KMO","time":5,"station_name":"Kemayoran"},{"station_name":"Pasar Senen","line":11,"time":4,"is_transit":false,"i_lat":-6.174784,"i_long":106.84368,"station_id":"PSE","distance":1436,"transit":false},{"station_name":"Gang Sentiong","line":11,"time":8,"station_id":"GST","i_lat":-6.185975,"is_transit":false,"i_long":106.850107,"distance":1567,"transit":false},{"is_transit":false,"transit":false,"station_name":"Kramat","time":1,"i_lat":-6.193792,"station_id":"KMT","line":11,"distance":973,"i_long":106.855437},{"line":11,"i_lat":-6.209188,"station_name":"Pondok Jati","i_long":106.861737,"station_id":"POK","is_transit":false,"transit":false,"time":2,"distance":1829}]]}