{"data":[[{"time":0,"station_id":"JAY","is_transit":false,"transit":false,"i_long":106.820901,"distance":0,"station_name":"Jayakarta","i_lat":-6.141205,"line":2},{"time":2,"station_id":"MGB","is_transit":false,"i_long":106.82482,"line":2,"station_name":"Manggabesar","transit":false,"i_lat":-6.149769,"distance":1080},{"station_id":"SW","station_name":"Sawah Besar","line":2,"transit":false,"is_transit":false,"time":2,"distance":906,"i_lat":-6.160725,"i_long":106.827103},{"transit":false,"line":2,"station_id":"JUA","station_name":"Juanda","is_transit":false,"i_lat":-6.166716,"time":2,"distance":1149,"i_long":106.828284},{"station_name":"Gondangdia","station_id":"GDD","is_transit":false,"distance":2015,"transit":false,"i_long":106.832183,"time":4,"i_lat":-6.186295,"line":2},{"line":2,"i_long":106.840169,"transit":false,"station_id":"CKI","i_lat":-6.198556,"time":3,"station_name":"Cikini","is_transit":false,"distance":1750},{"i_lat":-6.209883,"line":2,"time":4,"i_long":106.84912,"station_id":"MRI","station_name":"Manggarai","distance":1590,"transit":true,"is_transit":true},{"i_long":106.822649,"is_transit":false,"transit":false,"i_lat":-6.202263,"time":4,"station_name":"Sudirman","line":1,"distance":3186,"station_id":"SUD"}],[{"transit":false,"distance":0,"time":0,"i_long":106.820901,"i_lat":-6.141205,"line":2,"station_id":"JAY","station_name":"Jayakarta","is_transit":false},{"is_transit":true,"distance":1264,"station_name":"Jakarta Kota","i_lat":-6.137569,"i_long":106.812439,"time":4,"transit":true,"station_id":"JAKK","line":2},{"distance":1364,"line":4,"station_name":"Kampung Bandan","is_transit":true,"time":3,"i_lat":-6.132549,"station_id":"KPB","i_long":106.826365,"transit":true},{"i_lat":-6.144674,"i_long":106.79867,"time":9,"distance":4102,"station_id":"AK","is_transit":false,"line":1,"transit":false,"station_name":"Angke"},{"distance":1230,"is_transit":false,"i_long":106.800832,"station_id":"DU","line":1,"transit":false,"station_name":"Duri","i_lat":-6.155215,"time":4},{"time":8,"distance":3632,"station_name":"Tanah Abang","station_id":"THB","is_transit":false,"i_long":106.811091,"transit":false,"i_lat":-6.185545,"line":1},{"line":1,"time":5,"is_transit":false,"i_lat":-6.20132,"station_name":"Karet","i_long":106.816351,"distance":2029,"station_id":"KAT","transit":false},{"line":1,"time":1,"station_id":"SUDB","distance":471,"i_lat":-6.201433,"station_name":"Sudirman Baru","i_long":106.819881,"is_transit":false,"transit":false},{"line":1,"distance":280,"station_name":"Sudirman","transit":false,"i_lat":-6.202263,"station_id":"SUD","is_transit":false,"i_long":106.822649,"time":1}],[{"is_transit":false,"distance":0,"transit":false,"i_long":106.820901,"station_id":"JAY","line":2,"i_lat":-6.141205,"time":0,"station_name":"Jayakarta"},{"is_transit":true,"i_long":106.812439,"time":4,"distance":1264,"transit":true,"line":2,"i_lat":-6.137569,"station_name":"Jakarta Kota","station_id":"JAKK"},{"station_name":"Kampung Bandan","transit":true,"i_lat":-6.132549,"distance":1364,"station_id":"KPB","line":4,"is_transit":true,"i_long":106.826365,"time":3},{"station_id":"RJW","station_name":"Rajawali","transit":false,"time":3,"is_transit":false,"distance":1444,"i_lat":-6.14505,"i_long":106.836569,"line":11},{"i_lat":-6.161728,"line":11,"i_long":106.839204,"time":5,"is_transit":false,"distance":1901,"station_name":"Kemayoran","transit":false,"station_id":"KMO"},{"i_long":106.84368,"line":11,"transit":false,"distance":1436,"station_name":"Pasar Senen","time":4,"is_transit":false,"i_lat":-6.174784,"station_id":"PSE"},{"station_name":"Gang Sentiong","line":11,"distance":1567,"station_id":"GST","i_lat":-6.185975,"time":8,"is_transit":false,"transit":false,"i_long":106.850107},{"transit":false,"is_transit":false,"station_id":"KMT","time":1,"i_lat":-6.193792,"i_long":106.855437,"distance":973,"line":11,"station_name":"Kramat"},{"transit":false,"line":11,"distance":1829,"is_transit":false,"station_name":"Pondok Jati","time":2,"station_id":"POK","i_lat":-6.209188,"i_long":106.861737},{"transit":true,"station_name":"Jatinegara","is_transit":true,"time":9,"station_id":"JNG","distance":1236,"line":1,"i_long":106.86807400000001,"i_lat":-6.215091},{"distance":1377,"station_name":"Matraman","line":1,"is_transit":false,"station_id":"MTR","time":2,"i_lat":-6.212485,"i_long":106.858896,"transit":false},{"is_transit":false,"i_long":106.84912,"line":2,"transit":false,"i_lat":-6.209883,"station_name":"Manggarai","distance":1275,"time":2,"station_id":"MRI"},{"time":4,"i_long":106.822649,"distance":3186,"transit":false,"is_transit":false,"i_lat":-6.202263,"line":1,"station_name":"Sudirman","station_id":"SUD"}],[{"line":2,"distance":0,"time":0,"station_name":"Jayakarta","i_long":106.820901,"i_lat":-6.141205,"transit":false,"station_id":"JAY","is_transit":false},{"line":2,"distance":1080,"is_transit":false,"time":2,"station_id":"MGB","transit":false,"i_lat":-6.149769,"i_long":106.82482,"station_name":"Manggabesar"},{"station_id":"SW","station_name":"Sawah Besar","distance":906,"transit":false,"i_long":106.827103,"is_transit":false,"line":2,"time":2,"i_lat":-6.160725},{"station_id":"JUA","distance":1149,"station_name":"Juanda","is_transit":false,"time":2,"transit":false,"i_lat":-6.166716,"i_long":106.828284,"line":2},{"station_name":"Gondangdia","line":2,"transit":false,"time":4,"station_id":"GDD","i_lat":-6.186295,"i_long":106.832183,"is_transit":false,"distance":2015},{"line":2,"i_long":106.840169,"distance":1750,"station_name":"Cikini","is_transit":false,"transit":false,"i_lat":-6.198556,"station_id":"CKI","time":3},{"distance":1590,"is_transit":true,"transit":true,"time":4,"station_id":"MRI","i_long":106.84912,"station_name":"Manggarai","i_lat":-6.209883,"line":2},{"time":2,"transit":false,"distance":1275,"station_name":"Matraman","i_long":106.858896,"line":1,"i_lat":-6.212485,"is_transit":false,"station_id":"MTR"},{"time":8,"i_lat":-6.215091,"station_id":"JNG","distance":1377,"station_name":"Jatinegara","transit":true,"is_transit":true,"i_long":106.86807400000001,"line":1},{"time":2,"i_lat":-6.209188,"is_transit":false,"line":11,"transit":false,"distance":1236,"station_name":"Pondok Jati","station_id":"POK","i_long":106.861737},{"i_lat":-6.193792,"station_id":"KMT","transit":false,"i_long":106.855437,"distance":1829,"station_name":"Kramat","is_transit":false,"line":11,"time":2},{"time":1,"station_name":"Gang Sentiong","is_transit":false,"distance":973,"transit":false,"i_lat":-6.185975,"i_long":106.850107,"station_id":"GST","line":11},{"time":8,"station_id":"PSE","is_transit":false,"transit":false,"i_lat":-6.174784,"distance":1567,"i_long":106.84368,"station_name":"Pasar Senen","line":11},{"time":4,"station_id":"KMO","station_name":"Kemayoran","transit":false,"line":11,"distance":1436,"i_long":106.839204,"i_lat":-6.161728,"is_transit":false},{"time":5,"station_name":"Rajawali","station_id":"RJW","i_lat":-6.14505,"distance":1901,"is_transit":false,"i_long":106.836569,"transit":false,"line":11},{"time":3,"transit":true,"distance":1444,"station_id":"KPB","line":4,"is_transit":true,"i_lat":-6.132549,"i_long":106.826365,"station_name":"Kampung Bandan"},{"is_transit":false,"transit":false,"station_name":"Angke","distance":4102,"time":9,"station_id":"AK","i_long":106.79867,"line":1,"i_lat":-6.144674},{"is_transit":false,"time":4,"transit":false,"i_long":106.800832,"station_id":"DU","line":1,"i_lat":-6.155215,"station_name":"Duri","distance":1230},{"i_lat":-6.185545,"is_transit":false,"station_name":"Tanah Abang","i_long":106.811091,"time":8,"line":1,"station_id":"THB","distance":3632,"transit":false},{"i_long":106.816351,"station_id":"KAT","is_transit":false,"time":5,"station_name":"Karet","i_lat":-6.20132,"line":1,"transit":false,"distance":2029},{"station_id":"SUDB","i_long":106.819881,"station_name":"Sudirman Baru","transit":false,"is_transit":false,"time":1,"i_lat":-6.201433,"line":1,"distance":471},{"transit":false,"distance":280,"i_long":106.822649,"station_id":"SUD","is_transit":false,"time":1,"station_name":"Sudirman","i_lat":-6.202263,"line":1}]]}