{"data":[[{"line":2,"distance":0,"station_id":"JAY","transit":false,"is_transit":false,"station_name":"Jayakarta","i_lat":-6.141205,"i_long":106.820901,"time":0},{"transit":true,"distance":1264,"is_transit":true,"time":4,"i_lat":-6.137569,"i_long":106.812439,"line":2,"station_name":"Jakarta Kota","station_id":"JAKK"},{"time":3,"distance":1364,"line":4,"transit":true,"i_long":106.826365,"is_transit":true,"station_name":"Kampung Bandan","i_lat":-6.132549,"station_id":"KPB"},{"line":11,"distance":1444,"time":3,"transit":false,"is_transit":false,"i_long":106.836569,"station_name":"Rajawali","station_id":"RJW","i_lat":-6.14505},{"i_long":106.839204,"station_id":"KMO","station_name":"Kemayoran","transit":false,"time":5,"i_lat":-6.161728,"distance":1901,"line":11,"is_transit":false},{"i_long":106.84368,"transit":false,"station_name":"Pasar Senen","distance":1436,"is_transit":false,"i_lat":-6.174784,"station_id":"PSE","line":11,"time":4},{"line":11,"i_long":106.850107,"station_name":"Gang Sentiong","is_transit":false,"time":8,"station_id":"GST","i_lat":-6.185975,"transit":false,"distance":1567},{"transit":false,"station_id":"KMT","time":1,"is_transit":false,"i_lat":-6.193792,"line":11,"distance":973,"station_name":"Kramat","i_long":106.855437},{"distance":1829,"station_name":"Pondok Jati","time":2,"i_lat":-6.209188,"transit":false,"is_transit":false,"station_id":"POK","i_long":106.861737,"line":11}],[{"i_long":106.820901,"transit":false,"time":0,"is_transit":false,"station_name":"Jayakarta","station_id":"JAY","i_lat":-6.141205,"line":2,"distance":0},{"time":2,"station_name":"Manggabesar","i_long":106.82482,"line":2,"distance":1080,"station_id":"MGB","transit":false,"i_lat":-6.149769,"is_transit":false},{"i_long":106.827103,"time":2,"i_lat":-6.160725,"line":2,"station_name":"Sawah Besar","is_transit":false,"station_id":"SW","transit":false,"distance":906},{"i_lat":-6.166716,"line":2,"station_name":"Juanda","transit":false,"distance":1149,"time":2,"station_id":"JUA","is_transit":false,"i_long":106.828284},{"time":4,"station_id":"GDD","i_lat":-6.186295,"line":2,"i_long":106.832183,"transit":false,"distance":2015,"station_name":"Gondangdia","is_transit":false},{"distance":1750,"i_long":106.840169,"is_transit":false,"i_lat":-6.198556,"station_id":"CKI","transit":false,"station_name":"Cikini","time":3,"line":2},{"time":4,"transit":true,"station_id":"MRI","i_lat":-6.209883,"distance":1590,"line":2,"station_name":"Manggarai","is_transit":true,"i_long":106.84912},{"i_lat":-6.212485,"station_name":"Matraman","is_transit":false,"time":2,"distance":1275,"i_long":106.858896,"station_id":"MTR","line":1,"transit":false},{"distance":1377,"line":1,"station_id":"JNG","i_long":106.86807400000001,"transit":true,"i_lat":-6.215091,"station_name":"Jatinegara","is_transit":true,"time":8},{"i_lat":-6.209188,"station_id":"POK","distance":1236,"line":11,"station_name":"Pondok Jati","transit":false,"time":2,"i_long":106.861737,"is_transit":false}],[{"line":2,"station_id":"JAY","time":0,"station_name":"Jayakarta","is_transit":false,"i_long":106.820901,"transit":false,"distance":0,"i_lat":-6.141205},{"is_transit":true,"i_long":106.812439,"transit":true,"time":4,"line":2,"station_id":"JAKK","distance":1264,"i_lat":-6.137569,"station_name":"Jakarta Kota"},{"station_name":"Kampung Bandan","time":3,"station_id":"KPB","distance":1364,"transit":true,"line":4,"i_long":106.826365,"i_lat":-6.132549,"is_transit":true},{"station_id":"AK","is_transit":false,"time":9,"station_name":"Angke","distance":4102,"transit":false,"i_lat":-6.144674,"i_long":106.79867,"line":1},{"i_long":106.800832,"is_transit":false,"distance":1230,"time":4,"transit":false,"station_id":"DU","i_lat":-6.155215,"station_name":"Duri","line":1},{"station_name":"Tanah Abang","is_transit":false,"station_id":"THB","transit":false,"i_long":106.811091,"distance":3632,"line":1,"i_lat":-6.185545,"time":8},{"station_name":"Karet","transit":false,"distance":2029,"is_transit":false,"i_long":106.816351,"station_id":"KAT","time":5,"line":1,"i_lat":-6.20132},{"i_long":106.819881,"transit":false,"is_transit":false,"time":1,"i_lat":-6.201433,"station_name":"Sudirman Baru","station_id":"SUDB","line":1,"distance":471},{"time":1,"i_long":106.822649,"distance":280,"transit":false,"station_id":"SUD","line":1,"i_lat":-6.202263,"station_name":"Sudirman","is_transit":false},{"distance":3186,"i_lat":-6.209883,"line":2,"station_name":"Manggarai","is_transit":false,"station_id":"MRI","time":4,"transit":false,"i_long":106.84912},{"i_long":106.858896,"time":2,"distance":1275,"i_lat":-6.212485,"is_transit":false,"line":1,"transit":false,"station_id":"MTR","station_name":"Matraman"},{"time":8,"i_lat":-6.215091,"transit":true,"is_transit":true,"line":1,"station_name":"Jatinegara","distance":1377,"i_long":106.86807400000001,"station_id":"JNG"},{"station_name":"Pondok Jati","i_lat":-6.209188,"time":2,"station_id":"POK","distance":1236,"is_transit":false,"i_long":106.861737,"transit":false,"line":11}],[{"is_transit":false,"distance":0,"station_id":"JAY","i_lat":-6.141205,"i_long":106.820901,"station_name":"Jayakarta","line":2,"transit":false,"time":0},{"i_lat":-6.149769,"is_transit":false,"line":2,"distance":1080,"i_long":106.82482,"transit":false,"time":2,"station_id":"MGB","station_name":"Manggabesar"},{"station_name":"Sawah Besar","transit":false,"is_transit":false,"distance":906,"station_id":"SW","time":2,"i_lat":-6.160725,"i_long":106.827103,"line":2},{"transit":false,"station_name":"Juanda","station_id":"JUA","i_lat":-6.166716,"i_long":106.828284,"is_transit":false,"line":2,"distance":1149,"time":2},{"station_name":"Gondangdia","transit":false,"time":4,"distance":2015,"station_id":"GDD","is_transit":false,"i_lat":-6.186295,"i_long":106.832183,"line":2},{"station_id":"CKI","distance":1750,"station_name":"Cikini","i_long":106.840169,"is_transit":false,"i_lat":-6.198556,"time":3,"transit":false,"line":2},{"station_name":"Manggarai","time":4,"is_transit":true,"transit":true,"station_id":"MRI","line":2,"distance":1590,"i_long":106.84912,"i_lat":-6.209883},{"line":1,"time":4,"distance":3186,"i_lat":-6.202263,"i_long":106.822649,"station_name":"Sudirman","is_transit":false,"transit":false,"station_id":"SUD"},{"transit":false,"is_transit":false,"i_long":106.819881,"i_lat":-6.201433,"distance":280,"station_id":"SUDB","line":1,"time":1,"station_name":"Sudirman Baru"},{"transit":false,"distance":471,"i_long":106.816351,"station_id":"KAT","station_name":"Karet","is_transit":false,"i_lat":-6.20132,"line":1,"time":1},{"i_long":106.811091,"station_name":"Tanah Abang","line":1,"i_lat":-6.185545,"transit":false,"time":5,"is_transit":false,"distance":2029,"station_id":"THB"},{"transit":false,"station_name":"Duri","distance":3632,"i_lat":-6.155215,"station_id":"DU","i_long":106.800832,"is_transit":false,"time":8,"line":1},{"i_long":106.79867,"station_name":"Angke","time":4,"i_lat":-6.144674,"is_transit":false,"line":1,"transit":false,"station_id":"AK","distance":1230},{"time":9,"transit":true,"is_transit":true,"distance":4102,"line":4,"station_name":"Kampung Bandan","i_lat":-6.132549,"station_id":"KPB","i_long":106.826365},{"i_long":106.836569,"station_id":"RJW","i_lat":-6.14505,"line":11,"distance":1444,"transit":false,"time":3,"station_name":"Rajawali","is_transit":false},{"i_long":106.839204,"station_name":"Kemayoran","station_id":"KMO","distance":1901,"line":11,"transit":false,"is_transit":false,"time":5,"i_lat":-6.161728},{"line":11,"station_id":"PSE","i_lat":-6.174784,"distance":1436,"time":4,"station_name":"Pasar Senen","transit":false,"is_transit":false,"i_long":106.84368},{"is_transit":false,"i_lat":-6.185975,"line":11,"station_name":"Gang Sentiong","distance":1567,"station_id":"GST","transit":false,"time":8,"i_long":106.850107},{"station_name":"Kramat","time":1,"transit":false,"i_lat":-6.193792,"i_long":106.855437,"distance":973,"station_id":"KMT","line":11,"is_transit":false},{"is_transit":false,"transit":false,"station_id":"POK","i_long":106.861737,"line":11,"distance":1829,"time":2,"station_name":"Pondok Jati","i_lat":-6.209188}]]}