{"data":[[{"is_transit":false,"distance":0,"transit":false,"i_lat":-6.141205,"line":2,"station_name":"Jayakarta","time":0,"i_long":106.820901,"station_id":"JAY"},{"i_lat":-6.137569,"time":4,"i_long":106.812439,"transit":true,"is_transit":true,"line":2,"station_id":"JAKK","distance":1264,"station_name":"Jakarta Kota"},{"time":3,"station_id":"KPB","distance":1364,"is_transit":true,"transit":true,"station_name":"Kampung Bandan","i_lat":-6.132549,"i_long":106.826365,"line":4},{"distance":4102,"i_long":106.79867,"station_name":"Angke","station_id":"AK","i_lat":-6.144674,"is_transit":false,"time":9,"transit":false,"line":1},{"time":4,"distance":1230,"transit":true,"station_id":"DU","is_transit":true,"i_lat":-6.155215,"i_long":106.800832,"line":1,"station_name":"Duri"},{"station_id":"GGL","transit":false,"is_transit":false,"station_name":"Grogol","i_lat":-6.162021,"distance":1700,"time":3,"i_long":106.788277,"line":5},{"station_id":"PSG","distance":2036,"transit":false,"time":2,"is_transit":false,"i_long":106.771379,"station_name":"Pesing","i_lat":-6.161433,"line":5},{"time":2,"i_lat":-6.1587309999999995,"transit":false,"is_transit":false,"distance":1614,"station_name":"Taman Kota","station_id":"TKO","i_long":106.756522,"line":5},{"transit":false,"i_long":106.737035,"station_id":"BOI","station_name":"Bojongindah","line":5,"is_transit":false,"distance":2334,"time":2,"i_lat":-6.159876},{"is_transit":false,"distance":1152,"station_id":"RW","transit":false,"time":4,"i_lat":-6.162758,"station_name":"Rawa Buaya","i_long":106.723064,"line":5}],[{"i_lat":-6.141205,"line":2,"station_id":"JAY","i_long":106.820901,"transit":false,"is_transit":false,"time":0,"station_name":"Jayakarta","distance":0},{"i_long":106.82482,"line":2,"time":2,"station_name":"Manggabesar","is_transit":false,"i_lat":-6.149769,"station_id":"MGB","distance":1080,"transit":false},{"i_lat":-6.160725,"station_name":"Sawah Besar","transit":false,"distance":906,"is_transit":false,"i_long":106.827103,"line":2,"time":2,"station_id":"SW"},{"time":2,"is_transit":false,"station_name":"Juanda","i_lat":-6.166716,"distance":1149,"transit":false,"line":2,"i_long":106.828284,"station_id":"JUA"},{"station_name":"Gondangdia","i_long":106.832183,"is_transit":false,"station_id":"GDD","i_lat":-6.186295,"transit":false,"line":2,"time":4,"distance":2015},{"distance":1750,"station_id":"CKI","i_long":106.840169,"transit":false,"time":3,"station_name":"Cikini","is_transit":false,"line":2,"i_lat":-6.198556},{"i_long":106.84912,"distance":1590,"station_name":"Manggarai","station_id":"MRI","line":2,"i_lat":-6.209883,"transit":true,"time":4,"is_transit":true},{"time":4,"station_name":"Sudirman","i_lat":-6.202263,"i_long":106.822649,"transit":false,"station_id":"SUD","distance":3186,"is_transit":false,"line":1},{"line":1,"station_name":"Sudirman Baru","i_long":106.819881,"is_transit":false,"transit":false,"time":1,"distance":280,"station_id":"SUDB","i_lat":-6.201433},{"station_name":"Karet","transit":false,"station_id":"KAT","i_long":106.816351,"is_transit":false,"time":1,"line":1,"distance":471,"i_lat":-6.20132},{"i_lat":-6.185545,"transit":false,"i_long":106.811091,"is_transit":false,"line":1,"distance":2029,"station_name":"Tanah Abang","time":5,"station_id":"THB"},{"transit":true,"i_lat":-6.155215,"i_long":106.800832,"station_name":"Duri","time":8,"station_id":"DU","distance":3632,"line":1,"is_transit":true},{"station_id":"GGL","is_transit":false,"line":5,"distance":1700,"i_lat":-6.162021,"i_long":106.788277,"station_name":"Grogol","transit":false,"time":3},{"i_long":106.771379,"is_transit":false,"station_name":"Pesing","line":5,"time":2,"transit":false,"distance":2036,"i_lat":-6.161433,"station_id":"PSG"},{"i_long":106.756522,"line":5,"is_transit":false,"time":2,"station_name":"Taman Kota","i_lat":-6.1587309999999995,"distance":1614,"station_id":"TKO","transit":false},{"line":5,"i_lat":-6.159876,"distance":2334,"station_name":"Bojongindah","time":2,"transit":false,"is_transit":false,"station_id":"BOI","i_long":106.737035},{"i_lat":-6.162758,"time":4,"is_transit":false,"transit":false,"station_name":"Rawa Buaya","line":5,"i_long":106.723064,"station_id":"RW","distance":1152}],[{"station_id":"JAY","distance":0,"i_long":106.820901,"time":0,"i_lat":-6.141205,"station_name":"Jayakarta","line":2,"transit":false,"is_transit":false},{"is_transit":true,"distance":1264,"line":2,"station_name":"Jakarta Kota","time":4,"transit":true,"i_lat":-6.137569,"i_long":106.812439,"station_id":"JAKK"},{"i_long":106.826365,"line":4,"distance":1364,"is_transit":true,"time":3,"transit":true,"i_lat":-6.132549,"station_id":"KPB","station_name":"Kampung Bandan"},{"line":11,"i_lat":-6.14505,"station_name":"Rajawali","is_transit":false,"time":3,"station_id":"RJW","transit":false,"distance":1444,"i_long":106.836569},{"i_long":106.839204,"time":5,"station_name":"Kemayoran","is_transit":false,"station_id":"KMO","line":11,"distance":1901,"i_lat":-6.161728,"transit":false},{"i_lat":-6.174784,"line":11,"station_id":"PSE","distance":1436,"i_long":106.84368,"transit":false,"time":4,"station_name":"Pasar Senen","is_transit":false},{"i_lat":-6.185975,"line":11,"transit":false,"station_name":"Gang Sentiong","time":8,"station_id":"GST","i_long":106.850107,"is_transit":false,"distance":1567},{"station_id":"KMT","is_transit":false,"station_name":"Kramat","distance":973,"i_long":106.855437,"line":11,"i_lat":-6.193792,"transit":false,"time":1},{"transit":false,"is_transit":false,"station_name":"Pondok Jati","i_lat":-6.209188,"distance":1829,"line":11,"time":2,"station_id":"POK","i_long":106.861737},{"time":9,"transit":true,"distance":1236,"i_long":106.86807400000001,"station_name":"Jatinegara","station_id":"JNG","i_lat":-6.215091,"is_transit":true,"line":1},{"i_long":106.858896,"distance":1377,"i_lat":-6.212485,"is_transit":false,"line":1,"time":2,"transit":false,"station_name":"Matraman","station_id":"MTR"},{"station_id":"MRI","time":2,"is_transit":false,"i_lat":-6.209883,"distance":1275,"station_name":"Manggarai","transit":false,"i_long":106.84912,"line":2},{"station_name":"Sudirman","distance":3186,"line":1,"time":4,"transit":false,"is_transit":false,"i_long":106.822649,"station_id":"SUD","i_lat":-6.202263},{"i_long":106.819881,"is_transit":false,"time":1,"i_lat":-6.201433,"station_id":"SUDB","distance":280,"line":1,"station_name":"Sudirman Baru","transit":false},{"line":1,"i_lat":-6.20132,"distance":471,"is_transit":false,"i_long":106.816351,"station_name":"Karet","station_id":"KAT","time":1,"transit":false},{"station_id":"THB","i_lat":-6.185545,"line":1,"i_long":106.811091,"transit":false,"distance":2029,"time":5,"is_transit":false,"station_name":"Tanah Abang"},{"station_id":"DU","line":1,"is_transit":true,"transit":true,"distance":3632,"time":8,"i_lat":-6.155215,"i_long":106.800832,"station_name":"Duri"},{"station_id":"GGL","is_transit":false,"distance":1700,"line":5,"station_name":"Grogol","time":3,"transit":false,"i_lat":-6.162021,"i_long":106.788277},{"i_long":106.771379,"i_lat":-6.161433,"transit":false,"time":2,"station_id":"PSG","distance":2036,"station_name":"Pesing","line":5,"is_transit":false},{"station_id":"TKO","station_name":"Taman Kota","transit":false,"i_long":106.756522,"time":2,"distance":1614,"is_transit":false,"line":5,"i_lat":-6.1587309999999995},{"transit":false,"time":2,"i_long":106.737035,"line":5,"station_id":"BOI","distance":2334,"station_name":"Bojongindah","is_transit":false,"i_lat":-6.159876},{"is_transit":false,"station_id":"RW","station_name":"Rawa Buaya","time":4,"transit":false,"i_long":106.723064,"line":5,"distance":1152,"i_lat":-6.162758}],[{"transit":false,"i_long":106.820901,"line":2,"distance":0,"station_id":"JAY","station_name":"Jayakarta","is_transit":false,"i_lat":-6.141205,"time":0},{"i_long":106.82482,"station_name":"Manggabesar","line":2,"is_transit":false,"distance":1080,"station_id":"MGB","transit":false,"time":2,"i_lat":-6.149769},{"time":2,"transit":false,"distance":906,"station_id":"SW","i_lat":-6.160725,"station_name":"Sawah Besar","i_long":106.827103,"line":2,"is_transit":false},{"line":2,"station_name":"Juanda","station_id":"JUA","distance":1149,"i_long":106.828284,"i_lat":-6.166716,"transit":false,"is_transit":false,"time":2},{"station_name":"Gondangdia","station_id":"GDD","i_long":106.832183,"is_transit":false,"line":2,"transit":false,"distance":2015,"time":4,"i_lat":-6.186295},{"i_long":106.840169,"distance":1750,"station_name":"Cikini","line":2,"is_transit":false,"i_lat":-6.198556,"transit":false,"time":3,"station_id":"CKI"},{"i_long":106.84912,"time":4,"i_lat":-6.209883,"is_transit":true,"line":2,"station_name":"Manggarai","distance":1590,"transit":true,"station_id":"MRI"},{"time":2,"station_name":"Matraman","transit":false,"i_lat":-6.212485,"line":1,"is_transit":false,"i_long":106.858896,"station_id":"MTR","distance":1275},{"line":1,"time":8,"station_name":"Jatinegara","transit":true,"i_long":106.86807400000001,"is_transit":true,"station_id":"JNG","distance":1377,"i_lat":-6.215091},{"i_long":106.861737,"station_id":"POK","distance":1236,"time":2,"i_lat":-6.209188,"line":11,"station_name":"Pondok Jati","is_transit":false,"transit":false},{"i_long":106.855437,"station_id":"KMT","is_transit":false,"i_lat":-6.193792,"distance":1829,"transit":false,"station_name":"Kramat","line":11,"time":2},{"i_lat":-6.185975,"distance":973,"station_name":"Gang Sentiong","line":11,"time":1,"station_id":"GST","transit":false,"is_transit":false,"i_long":106.850107},{"i_long":106.84368,"time":8,"station_id":"PSE","line":11,"is_transit":false,"i_lat":-6.174784,"transit":false,"distance":1567,"station_name":"Pasar Senen"},{"distance":1436,"time":4,"station_name":"Kemayoran","is_transit":false,"i_long":106.839204,"station_id":"KMO","transit":false,"line":11,"i_lat":-6.161728},{"is_transit":false,"station_name":"Rajawali","station_id":"RJW","i_lat":-6.14505,"i_long":106.836569,"line":11,"distance":1901,"transit":false,"time":5},{"station_name":"Kampung Bandan","distance":1444,"line":4,"i_long":106.826365,"transit":true,"time":3,"is_transit":true,"station_id":"KPB","i_lat":-6.132549},{"i_lat":-6.144674,"time":9,"station_name":"Angke","line":1,"distance":4102,"is_transit":false,"i_long":106.79867,"station_id":"AK","transit":false},{"is_transit":true,"time":4,"station_name":"Duri","station_id":"DU","i_lat":-6.155215,"i_long":106.800832,"distance":1230,"line":1,"transit":true},{"station_name":"Grogol","line":5,"i_lat":-6.162021,"time":3,"station_id":"GGL","is_transit":false,"distance":1700,"transit":false,"i_long":106.788277},{"i_lat":-6.161433,"line":5,"distance":2036,"i_long":106.771379,"station_name":"Pesing","time":2,"station_id":"PSG","transit":false,"is_transit":false},{"station_name":"Taman Kota","time":2,"distance":1614,"station_id":"TKO","is_transit":false,"transit":false,"i_lat":-6.1587309999999995,"i_long":106.756522,"line":5},{"time":2,"station_id":"BOI","is_transit":false,"i_lat":-6.159876,"i_long":106.737035,"line":5,"transit":false,"distance":2334,"station_name":"Bojongindah"},{"line":5,"time":4,"distance":1152,"transit":false,"is_transit":false,"i_lat":-6.162758,"i_long":106.723064,"station_name":"Rawa Buaya","station_id":"RW"}]]}