{"data":[[{"station_id":"JAY","station_name":"Jayakarta","distance":0,"is_transit":false,"time":0,"line":7,"i_long":106.820901,"transit":false,"i_lat":-6.141205},{"station_id":"JAKK","station_name":"Jakarta Kota","time":4,"i_lat":-6.137569,"i_long":106.812439,"line":0,"transit":true,"distance":1264,"is_transit":true},{"distance":1364,"station_name":"Kampung Bandan","i_long":106.826365,"is_transit":true,"transit":false,"i_lat":-6.132549,"time":3,"station_id":"KPB","line":0},{"station_name":"Angke","is_transit":false,"time":9,"i_long":106.79867,"line":0,"i_lat":-6.144674,"station_id":"AK","transit":false,"distance":4102},{"transit":true,"i_long":106.800832,"station_name":"Duri","time":4,"i_lat":-6.155215,"station_id":"DU","is_transit":true,"distance":1230,"line":1},{"i_lat":-6.185545,"station_name":"Tanah Abang","station_id":"THB","is_transit":true,"time":8,"distance":3632,"i_long":106.811091,"transit":true,"line":1},{"i_long":106.79689,"i_lat":-6.207404,"station_id":"PLM","station_name":"Palmerah","line":6,"time":6,"is_transit":false,"distance":3191,"transit":false},{"i_long":106.780334,"distance":3737,"i_lat":-6.237242,"line":6,"is_transit":false,"transit":false,"station_id":"KBY","station_name":"Kebayoran","time":7},{"line":6,"i_lat":-6.276362,"i_long":106.74273,"is_transit":false,"station_id":"PDJ","time":8,"distance":6218,"station_name":"Pondokranji","transit":false},{"transit":false,"station_name":"Jurangmangu","is_transit":false,"i_long":106.728916,"station_id":"JMU","distance":2179,"i_lat":-6.288927,"line":6,"time":3},{"i_lat":-6.296963,"time":4,"transit":false,"line":6,"station_id":"SDM","station_name":"Sudimara","is_transit":false,"distance":1994,"i_long":106.712277},{"i_long":106.675475,"station_name":"Rawa Buntu","i_lat":-6.314823,"line":6,"is_transit":false,"time":6,"distance":4566,"transit":false,"station_id":"RU"},{"distance":2413,"i_lat":-6.319871,"is_transit":false,"transit":false,"i_long":106.66566,"time":4,"line":6,"station_id":"SRP","station_name":"Serpong"},{"line":0,"distance":1784,"station_id":"CSK","transit":false,"is_transit":false,"time":4,"i_lat":-6.32484,"station_name":"Cisauk","i_long":106.640411},{"is_transit":false,"line":0,"time":4,"station_id":"CC","station_name":"Cicayur","distance":2519,"i_lat":-6.329547,"i_long":106.617853,"transit":false},{"line":6,"transit":false,"is_transit":false,"station_name":"Parung Panjang","distance":5968,"i_lat":-6.3441410000000005,"time":8,"station_id":"PRP","i_long":106.568863}],[{"station_name":"Jayakarta","i_lat":-6.141205,"transit":false,"line":7,"i_long":106.820901,"station_id":"JAY","is_transit":false,"distance":0,"time":0},{"line":2,"i_lat":-6.149769,"station_name":"Manggabesar","is_transit":false,"time":2,"distance":1080,"station_id":"MGB","transit":false,"i_long":106.82482},{"distance":906,"station_name":"Sawah Besar","line":2,"is_transit":false,"time":2,"i_lat":-6.160725,"i_long":106.827103,"transit":false,"station_id":"SW"},{"is_transit":false,"time":2,"i_lat":-6.166716,"transit":false,"station_id":"JUA","i_long":106.828284,"distance":1149,"station_name":"Juanda","line":2},{"time":4,"i_lat":-6.186295,"station_id":"GDD","i_long":106.832183,"station_name":"Gondangdia","line":2,"transit":false,"is_transit":false,"distance":2015},{"i_lat":-6.198556,"transit":false,"line":0,"station_name":"Cikini","i_long":106.840169,"is_transit":false,"station_id":"CKI","distance":1750,"time":3},{"time":4,"i_long":106.84912,"line":0,"station_id":"MRI","station_name":"Manggarai","is_transit":true,"transit":true,"distance":1590,"i_lat":-6.209883},{"distance":3186,"i_long":106.822649,"transit":false,"station_id":"SUD","i_lat":-6.202263,"station_name":"Sudirman","time":4,"line":1,"is_transit":false},{"transit":false,"i_lat":-6.201433,"line":1,"station_id":"SUDB","time":1,"station_name":"Sudirman Baru","is_transit":false,"distance":280,"i_long":106.819881},{"station_name":"Karet","transit":false,"line":1,"i_long":106.816351,"is_transit":false,"i_lat":-6.20132,"station_id":"KAT","time":1,"distance":471},{"time":5,"is_transit":true,"transit":true,"line":1,"i_lat":-6.185545,"station_name":"Tanah Abang","distance":2029,"station_id":"THB","i_long":106.811091},{"line":6,"distance":3191,"i_long":106.79689,"time":6,"station_id":"PLM","station_name":"Palmerah","is_transit":false,"i_lat":-6.207404,"transit":false},{"distance":3737,"station_id":"KBY","time":7,"transit":false,"i_long":106.780334,"line":6,"station_name":"Kebayoran","i_lat":-6.237242,"is_transit":false},{"station_name":"Pondokranji","i_lat":-6.276362,"i_long":106.74273,"station_id":"PDJ","distance":6218,"transit":false,"time":8,"line":6,"is_transit":false},{"i_lat":-6.288927,"distance":2179,"time":3,"transit":false,"line":6,"is_transit":false,"station_name":"Jurangmangu","station_id":"JMU","i_long":106.728916},{"distance":1994,"station_name":"Sudimara","i_lat":-6.296963,"i_long":106.712277,"line":6,"transit":false,"station_id":"SDM","time":4,"is_transit":false},{"i_long":106.675475,"station_id":"RU","is_transit":false,"transit":false,"distance":4566,"time":6,"i_lat":-6.314823,"line":6,"station_name":"Rawa Buntu"},{"distance":2413,"transit":false,"i_lat":-6.319871,"station_id":"SRP","is_transit":false,"time":4,"i_long":106.66566,"station_name":"Serpong","line":6},{"distance":1784,"i_lat":-6.32484,"station_name":"Cisauk","i_long":106.640411,"transit":false,"line":0,"station_id":"CSK","is_transit":false,"time":4},{"distance":2519,"transit":false,"station_name":"Cicayur","i_lat":-6.329547,"is_transit":false,"i_long":106.617853,"line":0,"station_id":"CC","time":4},{"station_name":"Parung Panjang","line":6,"distance":5968,"time":8,"i_long":106.568863,"station_id":"PRP","i_lat":-6.3441410000000005,"is_transit":false,"transit":false}],[{"station_name":"Jayakarta","transit":false,"distance":0,"time":0,"is_transit":false,"i_long":106.820901,"line":7,"station_id":"JAY","i_lat":-6.141205},{"is_transit":true,"station_name":"Jakarta Kota","time":4,"station_id":"JAKK","i_lat":-6.137569,"distance":1264,"i_long":106.812439,"transit":true,"line":0},{"time":3,"line":0,"transit":true,"is_transit":true,"station_name":"Kampung Bandan","station_id":"KPB","i_lat":-6.132549,"distance":1364,"i_long":106.826365},{"station_name":"Rajawali","time":3,"i_long":106.836569,"is_transit":false,"distance":1444,"transit":false,"line":11,"i_lat":-6.14505,"station_id":"RJW"},{"line":11,"i_lat":-6.161728,"is_transit":false,"transit":false,"i_long":106.839204,"station_id":"KMO","distance":1901,"station_name":"Kemayoran","time":5},{"time":4,"i_lat":-6.174784,"station_name":"Pasar Senen","i_long":106.84368,"is_transit":false,"line":11,"station_id":"PSE","distance":1436,"transit":false},{"station_id":"GST","line":11,"station_name":"Gang Sentiong","transit":false,"i_long":106.850107,"time":8,"i_lat":-6.185975,"is_transit":false,"distance":1567},{"line":11,"i_lat":-6.193792,"station_id":"KMT","distance":973,"station_name":"Kramat","is_transit":false,"transit":false,"i_long":106.855437,"time":1},{"distance":1829,"i_long":106.861737,"line":11,"time":2,"transit":false,"station_id":"POK","is_transit":false,"station_name":"Pondok Jati","i_lat":-6.209188},{"station_id":"JNG","i_long":106.86807400000001,"is_transit":true,"line":0,"time":9,"distance":1236,"transit":true,"station_name":"Jatinegara","i_lat":-6.215091},{"time":2,"station_id":"MTR","is_transit":false,"i_lat":-6.212485,"transit":false,"distance":1377,"station_name":"Matraman","i_long":106.858896,"line":1},{"i_long":106.84912,"station_id":"MRI","time":2,"transit":false,"station_name":"Manggarai","distance":1275,"is_transit":true,"line":0,"i_lat":-6.209883},{"line":1,"station_id":"SUD","transit":false,"time":4,"i_lat":-6.202263,"distance":3186,"i_long":106.822649,"station_name":"Sudirman","is_transit":false},{"i_long":106.819881,"distance":280,"i_lat":-6.201433,"time":1,"is_transit":false,"transit":false,"station_name":"Sudirman Baru","line":1,"station_id":"SUDB"},{"station_id":"KAT","distance":471,"time":1,"transit":false,"station_name":"Karet","i_lat":-6.20132,"i_long":106.816351,"is_transit":false,"line":1},{"distance":2029,"time":5,"station_name":"Tanah Abang","line":1,"is_transit":true,"station_id":"THB","i_lat":-6.185545,"transit":true,"i_long":106.811091},{"station_name":"Palmerah","is_transit":false,"transit":false,"i_lat":-6.207404,"station_id":"PLM","distance":3191,"i_long":106.79689,"time":6,"line":6},{"station_name":"Kebayoran","is_transit":false,"time":7,"line":6,"transit":false,"station_id":"KBY","distance":3737,"i_long":106.780334,"i_lat":-6.237242},{"distance":6218,"transit":false,"station_name":"Pondokranji","time":8,"is_transit":false,"i_lat":-6.276362,"i_long":106.74273,"line":6,"station_id":"PDJ"},{"station_id":"JMU","time":3,"station_name":"Jurangmangu","distance":2179,"transit":false,"is_transit":false,"i_lat":-6.288927,"i_long":106.728916,"line":6},{"i_lat":-6.296963,"station_name":"Sudimara","line":6,"transit":false,"station_id":"SDM","time":4,"is_transit":false,"distance":1994,"i_long":106.712277},{"i_long":106.675475,"station_id":"RU","time":6,"station_name":"Rawa Buntu","distance":4566,"is_transit":false,"transit":false,"i_lat":-6.314823,"line":6},{"distance":2413,"i_lat":-6.319871,"is_transit":false,"station_id":"SRP","i_long":106.66566,"time":4,"line":6,"transit":false,"station_name":"Serpong"},{"time":4,"i_long":106.640411,"line":0,"is_transit":false,"distance":1784,"transit":false,"i_lat":-6.32484,"station_id":"CSK","station_name":"Cisauk"},{"station_name":"Cicayur","time":4,"transit":false,"is_transit":false,"i_lat":-6.329547,"station_id":"CC","line":0,"distance":2519,"i_long":106.617853},{"i_lat":-6.3441410000000005,"station_name":"Parung Panjang","transit":false,"i_long":106.568863,"distance":5968,"is_transit":false,"time":8,"line":6,"station_id":"PRP"}],[{"time":0,"distance":0,"i_long":106.820901,"i_lat":-6.141205,"is_transit":false,"station_name":"Jayakarta","station_id":"JAY","transit":false,"line":7},{"i_lat":-6.149769,"distance":1080,"i_long":106.82482,"line":2,"is_transit":false,"time":2,"transit":false,"station_name":"Manggabesar","station_id":"MGB"},{"distance":906,"i_long":106.827103,"station_name":"Sawah Besar","station_id":"SW","line":2,"time":2,"i_lat":-6.160725,"is_transit":false,"transit":false},{"i_long":106.828284,"distance":1149,"i_lat":-6.166716,"line":2,"station_id":"JUA","station_name":"Juanda","time":2,"is_transit":false,"transit":false},{"transit":false,"time":4,"distance":2015,"line":2,"is_transit":false,"i_long":106.832183,"station_id":"GDD","station_name":"Gondangdia","i_lat":-6.186295},{"is_transit":false,"station_id":"CKI","transit":false,"station_name":"Cikini","time":3,"i_long":106.840169,"line":0,"i_lat":-6.198556,"distance":1750},{"distance":1590,"station_id":"MRI","transit":true,"i_lat":-6.209883,"i_long":106.84912,"is_transit":true,"time":4,"line":0,"station_name":"Manggarai"},{"i_long":106.858896,"station_name":"Matraman","i_lat":-6.212485,"line":1,"is_transit":false,"transit":false,"time":2,"station_id":"MTR","distance":1275},{"station_name":"Jatinegara","station_id":"JNG","transit":true,"distance":1377,"is_transit":true,"i_long":106.86807400000001,"time":8,"i_lat":-6.215091,"line":0},{"distance":1236,"station_name":"Pondok Jati","transit":false,"line":11,"i_long":106.861737,"time":2,"station_id":"POK","is_transit":false,"i_lat":-6.209188},{"time":2,"i_long":106.855437,"station_name":"Kramat","distance":1829,"station_id":"KMT","is_transit":false,"transit":false,"i_lat":-6.193792,"line":11},{"i_long":106.850107,"line":11,"transit":false,"station_id":"GST","time":1,"i_lat":-6.185975,"is_transit":false,"distance":973,"station_name":"Gang Sentiong"},{"i_lat":-6.174784,"station_name":"Pasar Senen","station_id":"PSE","time":8,"distance":1567,"transit":false,"line":11,"is_transit":false,"i_long":106.84368},{"i_lat":-6.161728,"is_transit":false,"transit":false,"time":4,"i_long":106.839204,"station_id":"KMO","station_name":"Kemayoran","distance":1436,"line":11},{"is_transit":false,"distance":1901,"line":11,"time":5,"transit":false,"station_name":"Rajawali","i_long":106.836569,"i_lat":-6.14505,"station_id":"RJW"},{"i_long":106.826365,"transit":true,"line":0,"station_id":"KPB","is_transit":true,"distance":1444,"station_name":"Kampung Bandan","time":3,"i_lat":-6.132549},{"line":0,"time":9,"distance":4102,"is_transit":false,"transit":false,"i_long":106.79867,"station_name":"Angke","i_lat":-6.144674,"station_id":"AK"},{"station_id":"DU","i_lat":-6.155215,"time":4,"transit":true,"is_transit":true,"i_long":106.800832,"distance":1230,"line":1,"station_name":"Duri"},{"station_name":"Tanah Abang","time":8,"station_id":"THB","is_transit":true,"i_long":106.811091,"i_lat":-6.185545,"transit":true,"line":1,"distance":3632},{"time":6,"transit":false,"distance":3191,"i_long":106.79689,"line":6,"is_transit":false,"station_name":"Palmerah","i_lat":-6.207404,"station_id":"PLM"},{"line":6,"i_lat":-6.237242,"station_id":"KBY","time":7,"distance":3737,"station_name":"Kebayoran","transit":false,"i_long":106.780334,"is_transit":false},{"distance":6218,"i_long":106.74273,"line":6,"i_lat":-6.276362,"time":8,"transit":false,"station_id":"PDJ","station_name":"Pondokranji","is_transit":false},{"is_transit":false,"i_lat":-6.288927,"line":6,"station_name":"Jurangmangu","station_id":"JMU","i_long":106.728916,"time":3,"distance":2179,"transit":false},{"i_long":106.712277,"is_transit":false,"distance":1994,"line":6,"station_name":"Sudimara","time":4,"station_id":"SDM","transit":false,"i_lat":-6.296963},{"is_transit":false,"time":6,"station_name":"Rawa Buntu","distance":4566,"station_id":"RU","transit":false,"i_long":106.675475,"line":6,"i_lat":-6.314823},{"i_lat":-6.319871,"station_name":"Serpong","i_long":106.66566,"is_transit":false,"line":6,"station_id":"SRP","distance":2413,"time":4,"transit":false},{"time":4,"i_lat":-6.32484,"line":0,"is_transit":false,"transit":false,"i_long":106.640411,"station_id":"CSK","station_name":"Cisauk","distance":1784},{"station_id":"CC","line":0,"time":4,"i_lat":-6.329547,"transit":false,"station_name":"Cicayur","i_long":106.617853,"distance":2519,"is_transit":false},{"time":8,"station_id":"PRP","i_lat":-6.3441410000000005,"i_long":106.568863,"distance":5968,"is_transit":false,"transit":false,"station_name":"Parung Panjang","line":6}]]}