{"data":[[{"transit":false,"is_transit":false,"station_id":"JAY","distance":0,"line":2,"time":0,"station_name":"Jayakarta","i_lat":-6.141205,"i_long":106.820901},{"time":4,"i_long":106.812439,"is_transit":true,"i_lat":-6.137569,"station_name":"Jakarta Kota","station_id":"JAKK","line":2,"distance":1264,"transit":true},{"station_id":"KPB","i_lat":-6.132549,"station_name":"Kampung Bandan","time":3,"line":4,"transit":true,"i_long":106.826365,"is_transit":true,"distance":1364},{"i_long":106.79867,"i_lat":-6.144674,"is_transit":false,"station_name":"Angke","station_id":"AK","distance":4102,"transit":false,"time":9,"line":1},{"station_name":"Duri","time":4,"station_id":"DU","transit":false,"i_long":106.800832,"line":1,"is_transit":false,"distance":1230,"i_lat":-6.155215},{"transit":true,"station_name":"Tanah Abang","i_lat":-6.185545,"station_id":"THB","time":8,"i_long":106.811091,"is_transit":true,"distance":3632,"line":1},{"time":6,"station_id":"PLM","is_transit":false,"transit":false,"station_name":"Palmerah","i_lat":-6.207404,"i_long":106.79689,"distance":3191,"line":6},{"i_long":106.780334,"station_id":"KBY","transit":false,"station_name":"Kebayoran","distance":3737,"time":7,"i_lat":-6.237242,"is_transit":false,"line":6},{"is_transit":false,"time":8,"transit":false,"station_id":"PDJ","line":6,"station_name":"Pondokranji","i_long":106.74273,"distance":6218,"i_lat":-6.276362},{"transit":false,"i_long":106.728916,"i_lat":-6.288927,"station_id":"JMU","time":3,"station_name":"Jurangmangu","is_transit":false,"distance":2179,"line":6},{"station_name":"Sudimara","time":4,"transit":false,"distance":1994,"line":6,"is_transit":false,"i_lat":-6.296963,"station_id":"SDM","i_long":106.712277},{"i_long":106.675475,"station_name":"Rawa Buntu","distance":4566,"transit":false,"i_lat":-6.314823,"is_transit":false,"time":6,"station_id":"RU","line":6}],[{"station_name":"Jayakarta","line":2,"is_transit":false,"time":0,"i_lat":-6.141205,"i_long":106.820901,"transit":false,"station_id":"JAY","distance":0},{"line":2,"station_id":"MGB","station_name":"Manggabesar","is_transit":false,"distance":1080,"i_long":106.82482,"time":2,"transit":false,"i_lat":-6.149769},{"station_id":"SW","distance":906,"transit":false,"i_lat":-6.160725,"line":2,"time":2,"station_name":"Sawah Besar","is_transit":false,"i_long":106.827103},{"distance":1149,"i_lat":-6.166716,"station_name":"Juanda","time":2,"i_long":106.828284,"transit":false,"is_transit":false,"line":2,"station_id":"JUA"},{"station_name":"Gondangdia","is_transit":false,"time":4,"distance":2015,"line":2,"i_lat":-6.186295,"transit":false,"i_long":106.832183,"station_id":"GDD"},{"is_transit":false,"i_lat":-6.198556,"transit":false,"station_name":"Cikini","i_long":106.840169,"line":2,"station_id":"CKI","distance":1750,"time":3},{"i_lat":-6.209883,"distance":1590,"line":2,"station_name":"Manggarai","time":4,"is_transit":true,"i_long":106.84912,"transit":true,"station_id":"MRI"},{"station_id":"SUD","i_long":106.822649,"distance":3186,"time":4,"station_name":"Sudirman","is_transit":false,"i_lat":-6.202263,"line":1,"transit":false},{"transit":false,"station_name":"Sudirman Baru","is_transit":false,"distance":280,"i_long":106.819881,"station_id":"SUDB","i_lat":-6.201433,"line":1,"time":1},{"transit":false,"distance":471,"time":1,"station_id":"KAT","is_transit":false,"i_long":106.816351,"line":1,"station_name":"Karet","i_lat":-6.20132},{"i_lat":-6.185545,"distance":2029,"i_long":106.811091,"line":1,"time":5,"station_name":"Tanah Abang","is_transit":true,"station_id":"THB","transit":true},{"is_transit":false,"i_lat":-6.207404,"distance":3191,"station_id":"PLM","station_name":"Palmerah","transit":false,"time":6,"i_long":106.79689,"line":6},{"station_id":"KBY","time":7,"distance":3737,"line":6,"transit":false,"station_name":"Kebayoran","i_lat":-6.237242,"is_transit":false,"i_long":106.780334},{"is_transit":false,"distance":6218,"transit":false,"station_name":"Pondokranji","station_id":"PDJ","time":8,"i_lat":-6.276362,"i_long":106.74273,"line":6},{"time":3,"distance":2179,"station_id":"JMU","station_name":"Jurangmangu","transit":false,"i_long":106.728916,"line":6,"i_lat":-6.288927,"is_transit":false},{"transit":false,"i_lat":-6.296963,"distance":1994,"time":4,"i_long":106.712277,"station_name":"Sudimara","line":6,"is_transit":false,"station_id":"SDM"},{"time":6,"station_id":"RU","station_name":"Rawa Buntu","is_transit":false,"i_lat":-6.314823,"transit":false,"i_long":106.675475,"line":6,"distance":4566}],[{"distance":0,"transit":false,"i_lat":-6.141205,"station_name":"Jayakarta","is_transit":false,"time":0,"i_long":106.820901,"station_id":"JAY","line":2},{"transit":true,"distance":1264,"i_lat":-6.137569,"station_id":"JAKK","station_name":"Jakarta Kota","i_long":106.812439,"is_transit":true,"time":4,"line":2},{"distance":1364,"i_lat":-6.132549,"line":4,"station_name":"Kampung Bandan","time":3,"transit":true,"i_long":106.826365,"station_id":"KPB","is_transit":true},{"line":11,"transit":false,"station_id":"RJW","distance":1444,"station_name":"Rajawali","time":3,"i_lat":-6.14505,"i_long":106.836569,"is_transit":false},{"is_transit":false,"distance":1901,"station_name":"Kemayoran","i_lat":-6.161728,"transit":false,"i_long":106.839204,"time":5,"line":11,"station_id":"KMO"},{"is_transit":false,"station_name":"Pasar Senen","line":11,"transit":false,"station_id":"PSE","time":4,"i_lat":-6.174784,"i_long":106.84368,"distance":1436},{"i_lat":-6.185975,"line":11,"station_name":"Gang Sentiong","transit":false,"distance":1567,"time":8,"i_long":106.850107,"station_id":"GST","is_transit":false},{"distance":973,"is_transit":false,"time":1,"transit":false,"station_name":"Kramat","i_long":106.855437,"line":11,"i_lat":-6.193792,"station_id":"KMT"},{"is_transit":false,"i_lat":-6.209188,"i_long":106.861737,"line":11,"station_id":"POK","time":2,"station_name":"Pondok Jati","transit":false,"distance":1829},{"time":9,"station_id":"JNG","is_transit":true,"i_lat":-6.215091,"transit":true,"line":1,"station_name":"Jatinegara","distance":1236,"i_long":106.86807400000001},{"line":1,"i_long":106.858896,"distance":1377,"i_lat":-6.212485,"transit":false,"station_name":"Matraman","is_transit":false,"station_id":"MTR","time":2},{"distance":1275,"i_lat":-6.209883,"line":2,"is_transit":false,"station_name":"Manggarai","time":2,"i_long":106.84912,"transit":false,"station_id":"MRI"},{"distance":3186,"station_id":"SUD","is_transit":false,"i_long":106.822649,"station_name":"Sudirman","i_lat":-6.202263,"time":4,"transit":false,"line":1},{"station_id":"SUDB","time":1,"distance":280,"line":1,"i_lat":-6.201433,"is_transit":false,"station_name":"Sudirman Baru","i_long":106.819881,"transit":false},{"transit":false,"time":1,"distance":471,"i_long":106.816351,"station_name":"Karet","is_transit":false,"i_lat":-6.20132,"line":1,"station_id":"KAT"},{"is_transit":true,"time":5,"station_name":"Tanah Abang","distance":2029,"transit":true,"station_id":"THB","i_lat":-6.185545,"i_long":106.811091,"line":1},{"station_id":"PLM","station_name":"Palmerah","distance":3191,"time":6,"is_transit":false,"i_lat":-6.207404,"transit":false,"i_long":106.79689,"line":6},{"station_id":"KBY","is_transit":false,"time":7,"i_long":106.780334,"distance":3737,"transit":false,"station_name":"Kebayoran","i_lat":-6.237242,"line":6},{"i_long":106.74273,"transit":false,"station_name":"Pondokranji","i_lat":-6.276362,"station_id":"PDJ","time":8,"is_transit":false,"distance":6218,"line":6},{"station_id":"JMU","line":6,"is_transit":false,"i_long":106.728916,"time":3,"station_name":"Jurangmangu","i_lat":-6.288927,"transit":false,"distance":2179},{"distance":1994,"i_lat":-6.296963,"station_id":"SDM","is_transit":false,"station_name":"Sudimara","i_long":106.712277,"time":4,"line":6,"transit":false},{"line":6,"transit":false,"distance":4566,"i_lat":-6.314823,"is_transit":false,"time":6,"i_long":106.675475,"station_id":"RU","station_name":"Rawa Buntu"}],[{"station_id":"JAY","i_lat":-6.141205,"station_name":"Jayakarta","time":0,"is_transit":false,"line":2,"distance":0,"i_long":106.820901,"transit":false},{"transit":false,"time":2,"line":2,"i_lat":-6.149769,"is_transit":false,"i_long":106.82482,"station_name":"Manggabesar","distance":1080,"station_id":"MGB"},{"line":2,"station_id":"SW","time":2,"i_long":106.827103,"transit":false,"i_lat":-6.160725,"station_name":"Sawah Besar","distance":906,"is_transit":false},{"station_name":"Juanda","station_id":"JUA","distance":1149,"time":2,"i_long":106.828284,"is_transit":false,"transit":false,"i_lat":-6.166716,"line":2},{"is_transit":false,"distance":2015,"line":2,"station_name":"Gondangdia","i_long":106.832183,"i_lat":-6.186295,"time":4,"transit":false,"station_id":"GDD"},{"distance":1750,"i_lat":-6.198556,"line":2,"time":3,"transit":false,"station_id":"CKI","station_name":"Cikini","is_transit":false,"i_long":106.840169},{"transit":true,"is_transit":true,"distance":1590,"i_lat":-6.209883,"i_long":106.84912,"station_name":"Manggarai","time":4,"station_id":"MRI","line":2},{"distance":1275,"line":1,"transit":false,"time":2,"i_long":106.858896,"is_transit":false,"i_lat":-6.212485,"station_id":"MTR","station_name":"Matraman"},{"distance":1377,"line":1,"i_lat":-6.215091,"time":8,"is_transit":true,"station_id":"JNG","station_name":"Jatinegara","i_long":106.86807400000001,"transit":true},{"transit":false,"is_transit":false,"station_id":"POK","station_name":"Pondok Jati","distance":1236,"i_long":106.861737,"line":11,"i_lat":-6.209188,"time":2},{"line":11,"station_name":"Kramat","transit":false,"distance":1829,"time":2,"i_long":106.855437,"is_transit":false,"station_id":"KMT","i_lat":-6.193792},{"transit":false,"i_long":106.850107,"distance":973,"station_id":"GST","time":1,"i_lat":-6.185975,"line":11,"station_name":"Gang Sentiong","is_transit":false},{"transit":false,"distance":1567,"station_name":"Pasar Senen","i_long":106.84368,"line":11,"station_id":"PSE","is_transit":false,"time":8,"i_lat":-6.174784},{"station_name":"Kemayoran","transit":false,"station_id":"KMO","line":11,"time":4,"i_lat":-6.161728,"is_transit":false,"distance":1436,"i_long":106.839204},{"station_name":"Rajawali","i_lat":-6.14505,"station_id":"RJW","i_long":106.836569,"time":5,"is_transit":false,"line":11,"distance":1901,"transit":false},{"is_transit":true,"station_name":"Kampung Bandan","distance":1444,"i_long":106.826365,"time":3,"i_lat":-6.132549,"transit":true,"line":4,"station_id":"KPB"},{"station_id":"AK","time":9,"distance":4102,"i_long":106.79867,"transit":false,"is_transit":false,"line":1,"i_lat":-6.144674,"station_name":"Angke"},{"station_id":"DU","i_lat":-6.155215,"i_long":106.800832,"line":1,"time":4,"station_name":"Duri","is_transit":false,"distance":1230,"transit":false},{"is_transit":true,"i_lat":-6.185545,"station_id":"THB","station_name":"Tanah Abang","transit":true,"time":8,"i_long":106.811091,"distance":3632,"line":1},{"time":6,"distance":3191,"i_lat":-6.207404,"transit":false,"i_long":106.79689,"line":6,"is_transit":false,"station_name":"Palmerah","station_id":"PLM"},{"line":6,"station_id":"KBY","time":7,"i_long":106.780334,"distance":3737,"i_lat":-6.237242,"transit":false,"station_name":"Kebayoran","is_transit":false},{"transit":false,"i_lat":-6.276362,"i_long":106.74273,"is_transit":false,"distance":6218,"station_name":"Pondokranji","station_id":"PDJ","line":6,"time":8},{"line":6,"station_id":"JMU","time":3,"station_name":"Jurangmangu","distance":2179,"transit":false,"i_lat":-6.288927,"i_long":106.728916,"is_transit":false},{"line":6,"is_transit":false,"i_long":106.712277,"i_lat":-6.296963,"transit":false,"time":4,"station_name":"Sudimara","distance":1994,"station_id":"SDM"},{"station_id":"RU","time":6,"distance":4566,"is_transit":false,"i_lat":-6.314823,"transit":false,"line":6,"i_long":106.675475,"station_name":"Rawa Buntu"}]]}