{"data":[[{"station_name":"Jayakarta","distance":0,"i_lat":-6.141205,"transit":false,"station_id":"JAY","i_long":106.820901,"line":2,"is_transit":false,"time":0},{"station_name":"Jakarta Kota","transit":true,"station_id":"JAKK","time":4,"i_long":106.812439,"distance":1264,"line":2,"is_transit":true,"i_lat":-6.137569},{"i_lat":-6.132549,"is_transit":true,"time":3,"station_name":"Kampung Bandan","transit":true,"line":4,"station_id":"KPB","i_long":106.826365,"distance":1364},{"i_lat":-6.14505,"i_long":106.836569,"transit":false,"is_transit":false,"line":11,"station_id":"RJW","station_name":"Rajawali","time":3,"distance":1444}],[{"transit":false,"i_long":106.820901,"line":2,"distance":0,"station_id":"JAY","station_name":"Jayakarta","is_transit":false,"time":0,"i_lat":-6.141205},{"is_transit":false,"station_name":"Manggabesar","line":2,"i_long":106.82482,"time":2,"i_lat":-6.149769,"distance":1080,"station_id":"MGB","transit":false},{"line":2,"station_name":"Sawah Besar","transit":false,"i_lat":-6.160725,"station_id":"SW","distance":906,"i_long":106.827103,"is_transit":false,"time":2},{"is_transit":false,"distance":1149,"time":2,"transit":false,"line":2,"station_name":"Juanda","station_id":"JUA","i_long":106.828284,"i_lat":-6.166716},{"is_transit":false,"transit":false,"i_lat":-6.186295,"distance":2015,"i_long":106.832183,"station_name":"Gondangdia","time":4,"station_id":"GDD","line":2},{"is_transit":false,"line":2,"distance":1750,"i_long":106.840169,"station_name":"Cikini","time":3,"transit":false,"station_id":"CKI","i_lat":-6.198556},{"station_id":"MRI","i_lat":-6.209883,"station_name":"Manggarai","line":2,"is_transit":true,"time":4,"i_long":106.84912,"transit":true,"distance":1590},{"i_long":106.858896,"line":1,"is_transit":false,"station_name":"Matraman","distance":1275,"station_id":"MTR","time":2,"transit":false,"i_lat":-6.212485},{"line":1,"is_transit":true,"distance":1377,"station_name":"Jatinegara","i_lat":-6.215091,"station_id":"JNG","transit":true,"i_long":106.86807400000001,"time":8},{"station_id":"POK","i_long":106.861737,"i_lat":-6.209188,"is_transit":false,"station_name":"Pondok Jati","transit":false,"time":2,"line":11,"distance":1236},{"station_name":"Kramat","i_lat":-6.193792,"distance":1829,"time":2,"transit":false,"station_id":"KMT","i_long":106.855437,"is_transit":false,"line":11},{"i_long":106.850107,"distance":973,"is_transit":false,"station_id":"GST","transit":false,"time":1,"station_name":"Gang Sentiong","line":11,"i_lat":-6.185975},{"distance":1567,"time":8,"station_id":"PSE","transit":false,"line":11,"is_transit":false,"station_name":"Pasar Senen","i_lat":-6.174784,"i_long":106.84368},{"is_transit":false,"time":4,"i_lat":-6.161728,"line":11,"distance":1436,"i_long":106.839204,"station_name":"Kemayoran","transit":false,"station_id":"KMO"},{"i_lat":-6.14505,"line":11,"distance":1901,"is_transit":false,"station_id":"RJW","transit":false,"i_long":106.836569,"time":5,"station_name":"Rajawali"}],[{"transit":false,"distance":0,"i_lat":-6.141205,"line":2,"station_name":"Jayakarta","time":0,"station_id":"JAY","i_long":106.820901,"is_transit":false},{"line":2,"transit":false,"distance":1080,"station_name":"Manggabesar","is_transit":false,"station_id":"MGB","i_lat":-6.149769,"time":2,"i_long":106.82482},{"transit":false,"distance":906,"station_name":"Sawah Besar","i_lat":-6.160725,"line":2,"time":2,"station_id":"SW","i_long":106.827103,"is_transit":false},{"distance":1149,"is_transit":false,"time":2,"i_long":106.828284,"station_name":"Juanda","station_id":"JUA","transit":false,"line":2,"i_lat":-6.166716},{"time":4,"i_long":106.832183,"transit":false,"distance":2015,"station_id":"GDD","i_lat":-6.186295,"line":2,"station_name":"Gondangdia","is_transit":false},{"is_transit":false,"time":3,"i_lat":-6.198556,"station_id":"CKI","station_name":"Cikini","line":2,"transit":false,"i_long":106.840169,"distance":1750},{"distance":1590,"time":4,"line":2,"i_lat":-6.209883,"i_long":106.84912,"is_transit":true,"station_name":"Manggarai","station_id":"MRI","transit":true},{"is_transit":false,"i_lat":-6.202263,"transit":false,"distance":3186,"i_long":106.822649,"station_id":"SUD","station_name":"Sudirman","line":1,"time":4},{"i_long":106.819881,"transit":false,"line":1,"time":1,"station_id":"SUDB","i_lat":-6.201433,"distance":280,"is_transit":false,"station_name":"Sudirman Baru"},{"is_transit":false,"station_name":"Karet","i_lat":-6.20132,"transit":false,"line":1,"distance":471,"time":1,"station_id":"KAT","i_long":106.816351},{"station_name":"Tanah Abang","line":1,"transit":false,"is_transit":false,"i_lat":-6.185545,"distance":2029,"time":5,"station_id":"THB","i_long":106.811091},{"transit":false,"i_long":106.800832,"station_name":"Duri","station_id":"DU","line":1,"is_transit":false,"distance":3632,"i_lat":-6.155215,"time":8},{"is_transit":false,"transit":false,"i_long":106.79867,"i_lat":-6.144674,"time":4,"distance":1230,"station_name":"Angke","station_id":"AK","line":1},{"distance":4102,"station_id":"KPB","time":9,"station_name":"Kampung Bandan","is_transit":true,"transit":true,"i_lat":-6.132549,"i_long":106.826365,"line":4},{"station_name":"Rajawali","i_lat":-6.14505,"is_transit":false,"i_long":106.836569,"station_id":"RJW","time":3,"distance":1444,"transit":false,"line":11}],[{"line":2,"station_id":"JAY","i_lat":-6.141205,"station_name":"Jayakarta","time":0,"transit":false,"i_long":106.820901,"distance":0,"is_transit":false},{"transit":true,"is_transit":true,"i_long":106.812439,"station_name":"Jakarta Kota","line":2,"time":4,"distance":1264,"i_lat":-6.137569,"station_id":"JAKK"},{"transit":true,"station_name":"Kampung Bandan","station_id":"KPB","time":3,"i_long":106.826365,"is_transit":true,"distance":1364,"i_lat":-6.132549,"line":4},{"station_name":"Angke","i_lat":-6.144674,"distance":4102,"line":1,"time":9,"is_transit":false,"transit":false,"i_long":106.79867,"station_id":"AK"},{"i_long":106.800832,"is_transit":false,"station_name":"Duri","i_lat":-6.155215,"line":1,"distance":1230,"time":4,"transit":false,"station_id":"DU"},{"station_name":"Tanah Abang","station_id":"THB","time":8,"i_long":106.811091,"line":1,"distance":3632,"transit":false,"is_transit":false,"i_lat":-6.185545},{"i_lat":-6.20132,"is_transit":false,"station_id":"KAT","distance":2029,"i_long":106.816351,"line":1,"station_name":"Karet","time":5,"transit":false},{"distance":471,"i_lat":-6.201433,"station_id":"SUDB","is_transit":false,"line":1,"time":1,"transit":false,"station_name":"Sudirman Baru","i_long":106.819881},{"is_transit":false,"time":1,"line":1,"i_long":106.822649,"transit":false,"distance":280,"i_lat":-6.202263,"station_name":"Sudirman","station_id":"SUD"},{"distance":3186,"is_transit":false,"i_lat":-6.209883,"transit":false,"i_long":106.84912,"line":2,"time":4,"station_id":"MRI","station_name":"Manggarai"},{"i_lat":-6.212485,"distance":1275,"is_transit":false,"time":2,"station_id":"MTR","i_long":106.858896,"station_name":"Matraman","line":1,"transit":false},{"time":8,"station_id":"JNG","line":1,"is_transit":true,"distance":1377,"station_name":"Jatinegara","i_lat":-6.215091,"i_long":106.86807400000001,"transit":true},{"station_name":"Pondok Jati","time":2,"i_long":106.861737,"is_transit":false,"station_id":"POK","i_lat":-6.209188,"distance":1236,"transit":false,"line":11},{"i_lat":-6.193792,"station_name":"Kramat","line":11,"is_transit":false,"station_id":"KMT","i_long":106.855437,"distance":1829,"time":2,"transit":false},{"transit":false,"station_id":"GST","i_long":106.850107,"line":11,"time":1,"distance":973,"is_transit":false,"i_lat":-6.185975,"station_name":"Gang Sentiong"},{"line":11,"is_transit":false,"time":8,"distance":1567,"station_id":"PSE","station_name":"Pasar Senen","transit":false,"i_lat":-6.174784,"i_long":106.84368},{"station_name":"Kemayoran","line":11,"distance":1436,"i_long":106.839204,"transit":false,"is_transit":false,"station_id":"KMO","i_lat":-6.161728,"time":4},{"time":5,"i_lat":-6.14505,"line":11,"station_id":"RJW","distance":1901,"station_name":"Rajawali","i_long":106.836569,"transit":false,"is_transit":false}]]}