{"data":[[{"line":2,"distance":0,"is_transit":false,"station_name":"Jayakarta","station_id":"JAY","transit":false,"i_lat":-6.141205,"i_long":106.820901,"time":0},{"line":2,"station_name":"Jakarta Kota","station_id":"JAKK","i_lat":-6.137569,"i_long":106.812439,"transit":true,"is_transit":true,"time":4,"distance":1264},{"station_id":"KPB","distance":1364,"station_name":"Kampung Bandan","i_lat":-6.132549,"i_long":106.826365,"line":4,"is_transit":true,"transit":true,"time":3},{"transit":false,"time":9,"distance":4102,"is_transit":false,"i_lat":-6.144674,"station_name":"Angke","i_long":106.79867,"line":1,"station_id":"AK"},{"is_transit":false,"distance":1230,"station_name":"Duri","time":4,"transit":false,"i_lat":-6.155215,"i_long":106.800832,"station_id":"DU","line":1},{"i_long":106.811091,"transit":false,"station_name":"Tanah Abang","is_transit":false,"distance":3632,"time":8,"i_lat":-6.185545,"station_id":"THB","line":1},{"time":5,"i_long":106.816351,"line":1,"transit":false,"i_lat":-6.20132,"distance":2029,"station_name":"Karet","station_id":"KAT","is_transit":false},{"is_transit":false,"time":1,"i_lat":-6.201433,"i_long":106.819881,"line":1,"station_id":"SUDB","distance":471,"station_name":"Sudirman Baru","transit":false}],[{"i_long":106.820901,"i_lat":-6.141205,"station_name":"Jayakarta","line":2,"time":0,"is_transit":false,"distance":0,"station_id":"JAY","transit":false},{"time":2,"station_name":"Manggabesar","station_id":"MGB","transit":false,"is_transit":false,"distance":1080,"line":2,"i_long":106.82482,"i_lat":-6.149769},{"transit":false,"i_long":106.827103,"station_name":"Sawah Besar","station_id":"SW","line":2,"time":2,"i_lat":-6.160725,"is_transit":false,"distance":906},{"is_transit":false,"transit":false,"station_id":"JUA","time":2,"i_lat":-6.166716,"distance":1149,"line":2,"i_long":106.828284,"station_name":"Juanda"},{"is_transit":false,"station_name":"Gondangdia","distance":2015,"transit":false,"line":2,"i_lat":-6.186295,"time":4,"station_id":"GDD","i_long":106.832183},{"station_id":"CKI","is_transit":false,"station_name":"Cikini","distance":1750,"time":3,"i_lat":-6.198556,"line":2,"i_long":106.840169,"transit":false},{"time":4,"station_name":"Manggarai","i_lat":-6.209883,"transit":true,"line":2,"i_long":106.84912,"distance":1590,"is_transit":true,"station_id":"MRI"},{"time":4,"is_transit":false,"transit":false,"i_lat":-6.202263,"i_long":106.822649,"line":1,"distance":3186,"station_id":"SUD","station_name":"Sudirman"},{"station_name":"Sudirman Baru","is_transit":false,"station_id":"SUDB","time":1,"distance":280,"transit":false,"i_lat":-6.201433,"i_long":106.819881,"line":1}],[{"transit":false,"is_transit":false,"station_name":"Jayakarta","distance":0,"i_lat":-6.141205,"line":2,"time":0,"station_id":"JAY","i_long":106.820901},{"i_long":106.812439,"distance":1264,"is_transit":true,"time":4,"station_id":"JAKK","station_name":"Jakarta Kota","line":2,"transit":true,"i_lat":-6.137569},{"transit":true,"station_id":"KPB","line":4,"i_lat":-6.132549,"is_transit":true,"time":3,"distance":1364,"station_name":"Kampung Bandan","i_long":106.826365},{"line":11,"is_transit":false,"i_long":106.836569,"distance":1444,"station_name":"Rajawali","transit":false,"station_id":"RJW","time":3,"i_lat":-6.14505},{"transit":false,"i_long":106.839204,"is_transit":false,"distance":1901,"line":11,"i_lat":-6.161728,"station_name":"Kemayoran","time":5,"station_id":"KMO"},{"i_lat":-6.174784,"station_id":"PSE","time":4,"distance":1436,"is_transit":false,"station_name":"Pasar Senen","transit":false,"line":11,"i_long":106.84368},{"station_id":"GST","line":11,"i_long":106.850107,"time":8,"is_transit":false,"i_lat":-6.185975,"distance":1567,"station_name":"Gang Sentiong","transit":false},{"time":1,"line":11,"transit":false,"is_transit":false,"station_id":"KMT","i_lat":-6.193792,"i_long":106.855437,"distance":973,"station_name":"Kramat"},{"i_lat":-6.209188,"station_id":"POK","station_name":"Pondok Jati","transit":false,"i_long":106.861737,"distance":1829,"is_transit":false,"line":11,"time":2},{"i_long":106.86807400000001,"station_id":"JNG","i_lat":-6.215091,"transit":true,"station_name":"Jatinegara","time":9,"distance":1236,"is_transit":true,"line":1},{"is_transit":false,"i_lat":-6.212485,"station_name":"Matraman","i_long":106.858896,"distance":1377,"line":1,"station_id":"MTR","time":2,"transit":false},{"time":2,"station_id":"MRI","station_name":"Manggarai","i_lat":-6.209883,"transit":false,"is_transit":false,"i_long":106.84912,"line":2,"distance":1275},{"time":4,"distance":3186,"transit":false,"line":1,"i_long":106.822649,"station_id":"SUD","station_name":"Sudirman","i_lat":-6.202263,"is_transit":false},{"i_lat":-6.201433,"time":1,"station_name":"Sudirman Baru","i_long":106.819881,"line":1,"is_transit":false,"distance":280,"transit":false,"station_id":"SUDB"}],[{"time":0,"line":2,"i_long":106.820901,"station_name":"Jayakarta","i_lat":-6.141205,"distance":0,"station_id":"JAY","is_transit":false,"transit":false},{"distance":1080,"station_name":"Manggabesar","station_id":"MGB","is_transit":false,"time":2,"line":2,"i_lat":-6.149769,"i_long":106.82482,"transit":false},{"i_lat":-6.160725,"line":2,"distance":906,"station_id":"SW","station_name":"Sawah Besar","is_transit":false,"time":2,"i_long":106.827103,"transit":false},{"time":2,"station_name":"Juanda","i_lat":-6.166716,"i_long":106.828284,"transit":false,"station_id":"JUA","distance":1149,"line":2,"is_transit":false},{"station_id":"GDD","station_name":"Gondangdia","time":4,"is_transit":false,"i_long":106.832183,"transit":false,"line":2,"i_lat":-6.186295,"distance":2015},{"is_transit":false,"i_lat":-6.198556,"distance":1750,"station_name":"Cikini","time":3,"station_id":"CKI","transit":false,"i_long":106.840169,"line":2},{"station_id":"MRI","time":4,"station_name":"Manggarai","i_long":106.84912,"line":2,"transit":true,"distance":1590,"is_transit":true,"i_lat":-6.209883},{"time":2,"i_lat":-6.212485,"is_transit":false,"i_long":106.858896,"distance":1275,"station_id":"MTR","station_name":"Matraman","transit":false,"line":1},{"distance":1377,"i_long":106.86807400000001,"station_id":"JNG","time":8,"is_transit":true,"station_name":"Jatinegara","transit":true,"line":1,"i_lat":-6.215091},{"line":11,"time":2,"distance":1236,"i_long":106.861737,"station_id":"POK","station_name":"Pondok Jati","transit":false,"i_lat":-6.209188,"is_transit":false},{"transit":false,"station_id":"KMT","i_lat":-6.193792,"time":2,"distance":1829,"i_long":106.855437,"station_name":"Kramat","is_transit":false,"line":11},{"distance":973,"line":11,"is_transit":false,"time":1,"station_id":"GST","transit":false,"station_name":"Gang Sentiong","i_lat":-6.185975,"i_long":106.850107},{"is_transit":false,"distance":1567,"station_id":"PSE","line":11,"transit":false,"time":8,"i_lat":-6.174784,"station_name":"Pasar Senen","i_long":106.84368},{"transit":false,"distance":1436,"station_id":"KMO","time":4,"line":11,"is_transit":false,"i_long":106.839204,"station_name":"Kemayoran","i_lat":-6.161728},{"i_lat":-6.14505,"distance":1901,"time":5,"i_long":106.836569,"line":11,"station_name":"Rajawali","station_id":"RJW","transit":false,"is_transit":false},{"i_long":106.826365,"station_name":"Kampung Bandan","distance":1444,"time":3,"transit":true,"station_id":"KPB","is_transit":true,"i_lat":-6.132549,"line":4},{"i_long":106.79867,"i_lat":-6.144674,"station_id":"AK","is_transit":false,"station_name":"Angke","distance":4102,"time":9,"line":1,"transit":false},{"i_lat":-6.155215,"distance":1230,"time":4,"i_long":106.800832,"line":1,"transit":false,"station_name":"Duri","is_transit":false,"station_id":"DU"},{"distance":3632,"transit":false,"station_id":"THB","i_lat":-6.185545,"station_name":"Tanah Abang","i_long":106.811091,"is_transit":false,"line":1,"time":8},{"distance":2029,"transit":false,"station_name":"Karet","i_long":106.816351,"station_id":"KAT","i_lat":-6.20132,"line":1,"time":5,"is_transit":false},{"station_id":"SUDB","i_lat":-6.201433,"transit":false,"station_name":"Sudirman Baru","i_long":106.819881,"is_transit":false,"line":1,"distance":471,"time":1}]]}