{"data":[[{"station_name":"Jayakarta","is_transit":false,"transit":false,"time":0,"station_id":"JAY","distance":0,"i_lat":-6.141205,"i_long":106.820901,"line":2},{"i_long":106.812439,"station_name":"Jakarta Kota","time":4,"station_id":"JAKK","distance":1264,"i_lat":-6.137569,"line":2,"is_transit":true,"transit":true},{"transit":true,"i_long":106.826365,"station_name":"Kampung Bandan","distance":1364,"station_id":"KPB","i_lat":-6.132549,"time":3,"line":4,"is_transit":true},{"i_long":106.79867,"time":9,"is_transit":false,"line":1,"station_id":"AK","i_lat":-6.144674,"distance":4102,"station_name":"Angke","transit":false},{"i_lat":-6.155215,"distance":1230,"station_id":"DU","transit":false,"is_transit":false,"station_name":"Duri","i_long":106.800832,"time":4,"line":1}],[{"is_transit":false,"transit":false,"time":0,"i_long":106.820901,"distance":0,"station_id":"JAY","i_lat":-6.141205,"station_name":"Jayakarta","line":2},{"station_id":"MGB","transit":false,"is_transit":false,"time":2,"distance":1080,"i_lat":-6.149769,"line":2,"station_name":"Manggabesar","i_long":106.82482},{"i_lat":-6.160725,"is_transit":false,"station_id":"SW","transit":false,"station_name":"Sawah Besar","i_long":106.827103,"line":2,"time":2,"distance":906},{"line":2,"i_long":106.828284,"station_id":"JUA","time":2,"transit":false,"i_lat":-6.166716,"station_name":"Juanda","is_transit":false,"distance":1149},{"station_name":"Gondangdia","distance":2015,"transit":false,"is_transit":false,"line":2,"i_long":106.832183,"i_lat":-6.186295,"station_id":"GDD","time":4},{"transit":false,"station_id":"CKI","is_transit":false,"distance":1750,"i_lat":-6.198556,"i_long":106.840169,"station_name":"Cikini","line":2,"time":3},{"transit":true,"is_transit":true,"i_long":106.84912,"station_id":"MRI","distance":1590,"station_name":"Manggarai","i_lat":-6.209883,"time":4,"line":2},{"is_transit":false,"distance":3186,"line":1,"i_lat":-6.202263,"time":4,"i_long":106.822649,"station_id":"SUD","transit":false,"station_name":"Sudirman"},{"time":1,"i_lat":-6.201433,"station_name":"Sudirman Baru","i_long":106.819881,"transit":false,"line":1,"distance":280,"station_id":"SUDB","is_transit":false},{"transit":false,"station_name":"Karet","station_id":"KAT","i_lat":-6.20132,"line":1,"time":1,"is_transit":false,"distance":471,"i_long":106.816351},{"station_name":"Tanah Abang","i_long":106.811091,"transit":false,"line":1,"time":5,"station_id":"THB","is_transit":false,"i_lat":-6.185545,"distance":2029},{"station_id":"DU","is_transit":false,"i_long":106.800832,"station_name":"Duri","distance":3632,"time":8,"i_lat":-6.155215,"line":1,"transit":false}],[{"line":2,"station_name":"Jayakarta","transit":false,"station_id":"JAY","is_transit":false,"time":0,"distance":0,"i_lat":-6.141205,"i_long":106.820901},{"station_id":"JAKK","station_name":"Jakarta Kota","distance":1264,"i_long":106.812439,"transit":true,"line":2,"i_lat":-6.137569,"is_transit":true,"time":4},{"distance":1364,"station_name":"Kampung Bandan","transit":true,"station_id":"KPB","i_lat":-6.132549,"line":4,"time":3,"is_transit":true,"i_long":106.826365},{"time":3,"i_lat":-6.14505,"distance":1444,"is_transit":false,"transit":false,"station_id":"RJW","i_long":106.836569,"station_name":"Rajawali","line":11},{"station_id":"KMO","line":11,"transit":false,"station_name":"Kemayoran","distance":1901,"i_long":106.839204,"i_lat":-6.161728,"is_transit":false,"time":5},{"distance":1436,"i_long":106.84368,"i_lat":-6.174784,"station_name":"Pasar Senen","is_transit":false,"transit":false,"station_id":"PSE","time":4,"line":11},{"station_name":"Gang Sentiong","station_id":"GST","is_transit":false,"i_lat":-6.185975,"distance":1567,"i_long":106.850107,"line":11,"time":8,"transit":false},{"line":11,"is_transit":false,"time":1,"station_name":"Kramat","distance":973,"i_lat":-6.193792,"transit":false,"i_long":106.855437,"station_id":"KMT"},{"distance":1829,"line":11,"is_transit":false,"time":2,"transit":false,"i_lat":-6.209188,"i_long":106.861737,"station_name":"Pondok Jati","station_id":"POK"},{"i_long":106.86807400000001,"line":1,"is_transit":true,"station_id":"JNG","station_name":"Jatinegara","transit":true,"distance":1236,"time":9,"i_lat":-6.215091},{"station_name":"Matraman","transit":false,"i_long":106.858896,"station_id":"MTR","distance":1377,"time":2,"is_transit":false,"i_lat":-6.212485,"line":1},{"i_lat":-6.209883,"is_transit":false,"transit":false,"line":2,"station_id":"MRI","i_long":106.84912,"distance":1275,"station_name":"Manggarai","time":2},{"line":1,"is_transit":false,"time":4,"i_long":106.822649,"transit":false,"i_lat":-6.202263,"station_name":"Sudirman","distance":3186,"station_id":"SUD"},{"distance":280,"line":1,"transit":false,"is_transit":false,"time":1,"station_name":"Sudirman Baru","station_id":"SUDB","i_lat":-6.201433,"i_long":106.819881},{"station_id":"KAT","transit":false,"time":1,"i_long":106.816351,"line":1,"i_lat":-6.20132,"is_transit":false,"distance":471,"station_name":"Karet"},{"station_id":"THB","is_transit":false,"distance":2029,"time":5,"transit":false,"i_lat":-6.185545,"i_long":106.811091,"line":1,"station_name":"Tanah Abang"},{"is_transit":false,"station_id":"DU","station_name":"Duri","transit":false,"distance":3632,"i_lat":-6.155215,"time":8,"i_long":106.800832,"line":1}],[{"is_transit":false,"transit":false,"i_lat":-6.141205,"i_long":106.820901,"station_id":"JAY","station_name":"Jayakarta","time":0,"distance":0,"line":2},{"transit":false,"distance":1080,"station_name":"Manggabesar","time":2,"i_lat":-6.149769,"is_transit":false,"line":2,"i_long":106.82482,"station_id":"MGB"},{"transit":false,"time":2,"station_id":"SW","distance":906,"station_name":"Sawah Besar","is_transit":false,"i_long":106.827103,"i_lat":-6.160725,"line":2},{"distance":1149,"station_name":"Juanda","time":2,"i_long":106.828284,"station_id":"JUA","line":2,"is_transit":false,"transit":false,"i_lat":-6.166716},{"line":2,"is_transit":false,"station_name":"Gondangdia","distance":2015,"transit":false,"station_id":"GDD","time":4,"i_lat":-6.186295,"i_long":106.832183},{"distance":1750,"is_transit":false,"station_name":"Cikini","transit":false,"station_id":"CKI","time":3,"i_long":106.840169,"i_lat":-6.198556,"line":2},{"i_lat":-6.209883,"line":2,"transit":true,"i_long":106.84912,"station_id":"MRI","time":4,"is_transit":true,"distance":1590,"station_name":"Manggarai"},{"time":2,"is_transit":false,"i_long":106.858896,"distance":1275,"transit":false,"station_id":"MTR","i_lat":-6.212485,"line":1,"station_name":"Matraman"},{"station_name":"Jatinegara","is_transit":true,"line":1,"distance":1377,"i_lat":-6.215091,"i_long":106.86807400000001,"time":8,"transit":true,"station_id":"JNG"},{"transit":false,"line":11,"i_lat":-6.209188,"station_id":"POK","i_long":106.861737,"station_name":"Pondok Jati","time":2,"distance":1236,"is_transit":false},{"time":2,"i_long":106.855437,"line":11,"i_lat":-6.193792,"distance":1829,"station_name":"Kramat","transit":false,"is_transit":false,"station_id":"KMT"},{"time":1,"line":11,"transit":false,"station_name":"Gang Sentiong","station_id":"GST","is_transit":false,"i_long":106.850107,"distance":973,"i_lat":-6.185975},{"distance":1567,"time":8,"i_lat":-6.174784,"station_id":"PSE","transit":false,"station_name":"Pasar Senen","line":11,"is_transit":false,"i_long":106.84368},{"line":11,"distance":1436,"transit":false,"i_long":106.839204,"station_name":"Kemayoran","time":4,"is_transit":false,"station_id":"KMO","i_lat":-6.161728},{"distance":1901,"is_transit":false,"i_lat":-6.14505,"i_long":106.836569,"time":5,"station_id":"RJW","line":11,"transit":false,"station_name":"Rajawali"},{"time":3,"i_long":106.826365,"line":4,"transit":true,"station_name":"Kampung Bandan","i_lat":-6.132549,"station_id":"KPB","distance":1444,"is_transit":true},{"line":1,"i_long":106.79867,"is_transit":false,"distance":4102,"station_id":"AK","i_lat":-6.144674,"transit":false,"time":9,"station_name":"Angke"},{"station_id":"DU","transit":false,"is_transit":false,"distance":1230,"i_lat":-6.155215,"i_long":106.800832,"time":4,"station_name":"Duri","line":1}]]}