{"data":[[{"i_long":106.820901,"line":2,"transit":false,"i_lat":-6.141205,"station_id":"JAY","station_name":"Jayakarta","is_transit":false,"time":0,"distance":0},{"station_id":"JAKK","i_lat":-6.137569,"i_long":106.812439,"time":4,"line":2,"station_name":"Jakarta Kota","is_transit":true,"transit":true,"distance":1264},{"station_name":"Kampung Bandan","distance":1364,"station_id":"KPB","i_lat":-6.132549,"line":4,"is_transit":true,"transit":true,"time":3,"i_long":106.826365},{"station_id":"AK","i_lat":-6.144674,"station_name":"Angke","time":9,"transit":false,"i_long":106.79867,"line":1,"is_transit":false,"distance":4102},{"time":4,"line":1,"i_lat":-6.155215,"distance":1230,"station_id":"DU","i_long":106.800832,"transit":false,"station_name":"Duri","is_transit":false},{"transit":true,"station_id":"THB","i_long":106.811091,"distance":3632,"station_name":"Tanah Abang","i_lat":-6.185545,"time":8,"is_transit":true,"line":1},{"is_transit":false,"line":6,"station_name":"Palmerah","i_lat":-6.207404,"transit":false,"station_id":"PLM","time":6,"distance":3191,"i_long":106.79689},{"station_name":"Kebayoran","is_transit":false,"time":7,"distance":3737,"i_lat":-6.237242,"transit":false,"i_long":106.780334,"line":6,"station_id":"KBY"},{"i_long":106.74273,"time":8,"distance":6218,"line":6,"station_name":"Pondokranji","transit":false,"station_id":"PDJ","i_lat":-6.276362,"is_transit":false},{"is_transit":false,"distance":2179,"station_id":"JMU","i_lat":-6.288927,"station_name":"Jurangmangu","i_long":106.728916,"line":6,"transit":false,"time":3},{"transit":false,"line":6,"time":4,"station_id":"SDM","i_lat":-6.296963,"is_transit":false,"distance":1994,"i_long":106.712277,"station_name":"Sudimara"},{"line":6,"is_transit":false,"station_id":"RU","station_name":"Rawa Buntu","i_lat":-6.314823,"transit":false,"time":6,"distance":4566,"i_long":106.675475}],[{"station_id":"JAY","i_lat":-6.141205,"i_long":106.820901,"transit":false,"distance":0,"station_name":"Jayakarta","time":0,"is_transit":false,"line":2},{"transit":false,"is_transit":false,"distance":1080,"station_name":"Manggabesar","i_lat":-6.149769,"i_long":106.82482,"line":2,"time":2,"station_id":"MGB"},{"line":2,"distance":906,"transit":false,"station_id":"SW","station_name":"Sawah Besar","is_transit":false,"i_lat":-6.160725,"i_long":106.827103,"time":2},{"station_id":"JUA","station_name":"Juanda","i_lat":-6.166716,"line":2,"i_long":106.828284,"is_transit":false,"time":2,"distance":1149,"transit":false},{"station_name":"Gondangdia","i_long":106.832183,"time":4,"line":2,"is_transit":false,"station_id":"GDD","i_lat":-6.186295,"distance":2015,"transit":false},{"line":2,"i_lat":-6.198556,"i_long":106.840169,"station_id":"CKI","is_transit":false,"distance":1750,"station_name":"Cikini","transit":false,"time":3},{"is_transit":true,"i_lat":-6.209883,"time":4,"distance":1590,"i_long":106.84912,"station_name":"Manggarai","line":2,"station_id":"MRI","transit":true},{"distance":3186,"is_transit":false,"station_name":"Sudirman","i_lat":-6.202263,"transit":false,"i_long":106.822649,"time":4,"station_id":"SUD","line":1},{"i_lat":-6.201433,"distance":280,"i_long":106.819881,"station_id":"SUDB","time":1,"station_name":"Sudirman Baru","line":1,"transit":false,"is_transit":false},{"line":1,"is_transit":false,"station_name":"Karet","transit":false,"station_id":"KAT","i_lat":-6.20132,"distance":471,"time":1,"i_long":106.816351},{"distance":2029,"i_lat":-6.185545,"i_long":106.811091,"line":1,"time":5,"station_id":"THB","transit":true,"station_name":"Tanah Abang","is_transit":true},{"station_id":"PLM","station_name":"Palmerah","transit":false,"i_lat":-6.207404,"is_transit":false,"time":6,"distance":3191,"i_long":106.79689,"line":6},{"i_long":106.780334,"time":7,"is_transit":false,"station_id":"KBY","station_name":"Kebayoran","transit":false,"distance":3737,"i_lat":-6.237242,"line":6},{"i_lat":-6.276362,"transit":false,"is_transit":false,"station_id":"PDJ","distance":6218,"i_long":106.74273,"line":6,"station_name":"Pondokranji","time":8},{"line":6,"time":3,"transit":false,"i_lat":-6.288927,"i_long":106.728916,"station_id":"JMU","distance":2179,"station_name":"Jurangmangu","is_transit":false},{"line":6,"is_transit":false,"i_lat":-6.296963,"transit":false,"i_long":106.712277,"time":4,"station_id":"SDM","station_name":"Sudimara","distance":1994},{"station_id":"RU","transit":false,"i_lat":-6.314823,"station_name":"Rawa Buntu","time":6,"line":6,"i_long":106.675475,"is_transit":false,"distance":4566}],[{"transit":false,"i_lat":-6.141205,"i_long":106.820901,"is_transit":false,"line":2,"station_id":"JAY","station_name":"Jayakarta","time":0,"distance":0},{"i_lat":-6.137569,"distance":1264,"time":4,"transit":true,"station_id":"JAKK","i_long":106.812439,"line":2,"is_transit":true,"station_name":"Jakarta Kota"},{"distance":1364,"line":4,"station_name":"Kampung Bandan","i_long":106.826365,"station_id":"KPB","transit":true,"i_lat":-6.132549,"time":3,"is_transit":true},{"is_transit":false,"distance":1444,"time":3,"transit":false,"station_name":"Rajawali","station_id":"RJW","line":11,"i_lat":-6.14505,"i_long":106.836569},{"distance":1901,"station_id":"KMO","line":11,"station_name":"Kemayoran","is_transit":false,"time":5,"i_lat":-6.161728,"i_long":106.839204,"transit":false},{"line":11,"distance":1436,"time":4,"station_id":"PSE","i_lat":-6.174784,"i_long":106.84368,"station_name":"Pasar Senen","is_transit":false,"transit":false},{"is_transit":false,"station_name":"Gang Sentiong","i_long":106.850107,"distance":1567,"transit":false,"time":8,"station_id":"GST","i_lat":-6.185975,"line":11},{"distance":973,"transit":false,"station_id":"KMT","i_long":106.855437,"line":11,"station_name":"Kramat","time":1,"is_transit":false,"i_lat":-6.193792},{"transit":false,"station_id":"POK","station_name":"Pondok Jati","i_long":106.861737,"line":11,"is_transit":false,"distance":1829,"i_lat":-6.209188,"time":2},{"distance":1236,"time":9,"i_lat":-6.215091,"transit":true,"station_id":"JNG","is_transit":true,"station_name":"Jatinegara","i_long":106.86807400000001,"line":1},{"transit":false,"i_lat":-6.212485,"i_long":106.858896,"line":1,"station_id":"MTR","distance":1377,"is_transit":false,"station_name":"Matraman","time":2},{"station_id":"MRI","station_name":"Manggarai","i_lat":-6.209883,"line":2,"time":2,"distance":1275,"i_long":106.84912,"transit":false,"is_transit":false},{"transit":false,"time":4,"i_lat":-6.202263,"line":1,"distance":3186,"is_transit":false,"station_id":"SUD","i_long":106.822649,"station_name":"Sudirman"},{"line":1,"time":1,"station_name":"Sudirman Baru","transit":false,"station_id":"SUDB","is_transit":false,"distance":280,"i_long":106.819881,"i_lat":-6.201433},{"station_name":"Karet","transit":false,"time":1,"line":1,"distance":471,"station_id":"KAT","is_transit":false,"i_long":106.816351,"i_lat":-6.20132},{"i_lat":-6.185545,"station_name":"Tanah Abang","transit":true,"is_transit":true,"time":5,"station_id":"THB","distance":2029,"i_long":106.811091,"line":1},{"i_lat":-6.207404,"time":6,"line":6,"distance":3191,"station_name":"Palmerah","is_transit":false,"transit":false,"station_id":"PLM","i_long":106.79689},{"i_long":106.780334,"station_id":"KBY","is_transit":false,"station_name":"Kebayoran","transit":false,"line":6,"time":7,"distance":3737,"i_lat":-6.237242},{"station_id":"PDJ","i_lat":-6.276362,"station_name":"Pondokranji","transit":false,"is_transit":false,"i_long":106.74273,"distance":6218,"time":8,"line":6},{"distance":2179,"station_name":"Jurangmangu","is_transit":false,"transit":false,"i_lat":-6.288927,"line":6,"i_long":106.728916,"station_id":"JMU","time":3},{"station_name":"Sudimara","time":4,"i_long":106.712277,"distance":1994,"line":6,"is_transit":false,"transit":false,"station_id":"SDM","i_lat":-6.296963},{"station_id":"RU","time":6,"station_name":"Rawa Buntu","is_transit":false,"transit":false,"i_long":106.675475,"distance":4566,"line":6,"i_lat":-6.314823}],[{"distance":0,"is_transit":false,"i_lat":-6.141205,"transit":false,"station_name":"Jayakarta","time":0,"station_id":"JAY","line":2,"i_long":106.820901},{"transit":false,"i_lat":-6.149769,"is_transit":false,"station_id":"MGB","i_long":106.82482,"distance":1080,"line":2,"time":2,"station_name":"Manggabesar"},{"station_id":"SW","i_lat":-6.160725,"distance":906,"transit":false,"line":2,"i_long":106.827103,"time":2,"station_name":"Sawah Besar","is_transit":false},{"distance":1149,"i_lat":-6.166716,"i_long":106.828284,"time":2,"is_transit":false,"station_name":"Juanda","line":2,"transit":false,"station_id":"JUA"},{"is_transit":false,"i_lat":-6.186295,"i_long":106.832183,"transit":false,"line":2,"time":4,"distance":2015,"station_name":"Gondangdia","station_id":"GDD"},{"is_transit":false,"i_lat":-6.198556,"i_long":106.840169,"line":2,"station_id":"CKI","station_name":"Cikini","transit":false,"time":3,"distance":1750},{"line":2,"transit":true,"i_long":106.84912,"station_id":"MRI","is_transit":true,"i_lat":-6.209883,"distance":1590,"station_name":"Manggarai","time":4},{"transit":false,"station_name":"Matraman","time":2,"i_lat":-6.212485,"line":1,"station_id":"MTR","i_long":106.858896,"is_transit":false,"distance":1275},{"time":8,"distance":1377,"station_name":"Jatinegara","transit":true,"station_id":"JNG","i_long":106.86807400000001,"is_transit":true,"line":1,"i_lat":-6.215091},{"station_name":"Pondok Jati","is_transit":false,"line":11,"i_long":106.861737,"time":2,"i_lat":-6.209188,"transit":false,"station_id":"POK","distance":1236},{"transit":false,"i_long":106.855437,"station_id":"KMT","time":2,"station_name":"Kramat","is_transit":false,"i_lat":-6.193792,"distance":1829,"line":11},{"transit":false,"time":1,"line":11,"i_long":106.850107,"distance":973,"station_id":"GST","is_transit":false,"i_lat":-6.185975,"station_name":"Gang Sentiong"},{"time":8,"distance":1567,"transit":false,"i_long":106.84368,"line":11,"i_lat":-6.174784,"station_id":"PSE","is_transit":false,"station_name":"Pasar Senen"},{"transit":false,"distance":1436,"i_lat":-6.161728,"i_long":106.839204,"is_transit":false,"station_name":"Kemayoran","line":11,"time":4,"station_id":"KMO"},{"transit":false,"station_name":"Rajawali","is_transit":false,"i_long":106.836569,"time":5,"distance":1901,"i_lat":-6.14505,"line":11,"station_id":"RJW"},{"transit":true,"line":4,"is_transit":true,"distance":1444,"station_name":"Kampung Bandan","i_lat":-6.132549,"station_id":"KPB","i_long":106.826365,"time":3},{"time":9,"station_id":"AK","is_transit":false,"distance":4102,"i_long":106.79867,"transit":false,"i_lat":-6.144674,"line":1,"station_name":"Angke"},{"transit":false,"line":1,"station_name":"Duri","is_transit":false,"time":4,"station_id":"DU","distance":1230,"i_long":106.800832,"i_lat":-6.155215},{"station_id":"THB","station_name":"Tanah Abang","time":8,"distance":3632,"is_transit":true,"i_long":106.811091,"i_lat":-6.185545,"line":1,"transit":true},{"i_long":106.79689,"distance":3191,"station_id":"PLM","is_transit":false,"i_lat":-6.207404,"transit":false,"station_name":"Palmerah","time":6,"line":6},{"station_id":"KBY","i_long":106.780334,"transit":false,"time":7,"i_lat":-6.237242,"station_name":"Kebayoran","is_transit":false,"line":6,"distance":3737},{"i_lat":-6.276362,"distance":6218,"station_id":"PDJ","transit":false,"is_transit":false,"station_name":"Pondokranji","i_long":106.74273,"line":6,"time":8},{"station_name":"Jurangmangu","i_lat":-6.288927,"is_transit":false,"station_id":"JMU","transit":false,"line":6,"time":3,"i_long":106.728916,"distance":2179},{"is_transit":false,"station_id":"SDM","i_long":106.712277,"station_name":"Sudimara","time":4,"line":6,"distance":1994,"transit":false,"i_lat":-6.296963},{"station_name":"Rawa Buntu","time":6,"distance":4566,"station_id":"RU","is_transit":false,"i_long":106.675475,"line":6,"transit":false,"i_lat":-6.314823}]]}