{"data":[[{"i_long":106.820901,"line":2,"station_name":"Jayakarta","distance":0,"is_transit":false,"time":0,"transit":false,"station_id":"JAY","i_lat":-6.141205},{"station_id":"MGB","distance":1080,"time":2,"station_name":"Manggabesar","i_long":106.82482,"is_transit":false,"i_lat":-6.149769,"transit":false,"line":2},{"time":2,"distance":906,"station_name":"Sawah Besar","is_transit":false,"transit":false,"station_id":"SW","line":2,"i_long":106.827103,"i_lat":-6.160725},{"distance":1149,"time":2,"line":2,"i_long":106.828284,"is_transit":false,"station_id":"JUA","i_lat":-6.166716,"transit":false,"station_name":"Juanda"},{"is_transit":false,"time":4,"station_id":"GDD","i_long":106.832183,"line":2,"distance":2015,"i_lat":-6.186295,"station_name":"Gondangdia","transit":false},{"station_id":"CKI","line":2,"i_lat":-6.198556,"station_name":"Cikini","time":3,"is_transit":false,"distance":1750,"i_long":106.840169,"transit":false},{"station_name":"Manggarai","station_id":"MRI","i_long":106.84912,"is_transit":true,"line":2,"distance":1590,"time":4,"transit":true,"i_lat":-6.209883},{"distance":3186,"station_name":"Sudirman","station_id":"SUD","i_long":106.822649,"line":1,"i_lat":-6.202263,"transit":false,"is_transit":false,"time":4}],[{"transit":false,"station_name":"Jayakarta","is_transit":false,"station_id":"JAY","i_long":106.820901,"i_lat":-6.141205,"distance":0,"line":2,"time":0},{"is_transit":true,"station_id":"JAKK","transit":true,"i_lat":-6.137569,"i_long":106.812439,"station_name":"Jakarta Kota","distance":1264,"line":2,"time":4},{"station_name":"Kampung Bandan","is_transit":true,"i_lat":-6.132549,"i_long":106.826365,"station_id":"KPB","distance":1364,"line":4,"transit":true,"time":3},{"line":1,"transit":false,"station_id":"AK","time":9,"distance":4102,"i_long":106.79867,"is_transit":false,"i_lat":-6.144674,"station_name":"Angke"},{"transit":false,"i_lat":-6.155215,"i_long":106.800832,"distance":1230,"time":4,"station_id":"DU","station_name":"Duri","is_transit":false,"line":1},{"is_transit":false,"i_lat":-6.185545,"line":1,"time":8,"i_long":106.811091,"distance":3632,"station_name":"Tanah Abang","transit":false,"station_id":"THB"},{"station_name":"Karet","transit":false,"station_id":"KAT","time":5,"distance":2029,"is_transit":false,"i_lat":-6.20132,"i_long":106.816351,"line":1},{"is_transit":false,"transit":false,"distance":471,"time":1,"station_id":"SUDB","line":1,"i_lat":-6.201433,"station_name":"Sudirman Baru","i_long":106.819881},{"i_long":106.822649,"station_name":"Sudirman","transit":false,"distance":280,"station_id":"SUD","time":1,"line":1,"is_transit":false,"i_lat":-6.202263}],[{"transit":false,"station_id":"JAY","distance":0,"time":0,"line":2,"station_name":"Jayakarta","i_lat":-6.141205,"is_transit":false,"i_long":106.820901},{"time":4,"distance":1264,"i_long":106.812439,"is_transit":true,"transit":true,"station_name":"Jakarta Kota","station_id":"JAKK","i_lat":-6.137569,"line":2},{"is_transit":true,"time":3,"distance":1364,"station_name":"Kampung Bandan","i_long":106.826365,"station_id":"KPB","i_lat":-6.132549,"transit":true,"line":4},{"i_lat":-6.14505,"is_transit":false,"distance":1444,"time":3,"i_long":106.836569,"station_name":"Rajawali","transit":false,"station_id":"RJW","line":11},{"station_id":"KMO","i_long":106.839204,"is_transit":false,"i_lat":-6.161728,"line":11,"transit":false,"time":5,"station_name":"Kemayoran","distance":1901},{"station_name":"Pasar Senen","line":11,"time":4,"distance":1436,"is_transit":false,"transit":false,"i_lat":-6.174784,"i_long":106.84368,"station_id":"PSE"},{"station_name":"Gang Sentiong","i_lat":-6.185975,"distance":1567,"station_id":"GST","i_long":106.850107,"line":11,"transit":false,"is_transit":false,"time":8},{"is_transit":false,"line":11,"i_long":106.855437,"station_name":"Kramat","station_id":"KMT","time":1,"distance":973,"transit":false,"i_lat":-6.193792},{"station_id":"POK","i_lat":-6.209188,"line":11,"station_name":"Pondok Jati","i_long":106.861737,"transit":false,"time":2,"distance":1829,"is_transit":false},{"is_transit":true,"i_lat":-6.215091,"station_name":"Jatinegara","i_long":106.86807400000001,"distance":1236,"transit":true,"time":9,"line":1,"station_id":"JNG"},{"distance":1377,"transit":false,"station_id":"MTR","i_long":106.858896,"station_name":"Matraman","is_transit":false,"time":2,"i_lat":-6.212485,"line":1},{"i_long":106.84912,"line":2,"transit":false,"is_transit":false,"time":2,"distance":1275,"station_id":"MRI","i_lat":-6.209883,"station_name":"Manggarai"},{"transit":false,"station_id":"SUD","i_long":106.822649,"time":4,"distance":3186,"is_transit":false,"station_name":"Sudirman","i_lat":-6.202263,"line":1}],[{"distance":0,"i_lat":-6.141205,"is_transit":false,"line":2,"i_long":106.820901,"transit":false,"station_name":"Jayakarta","station_id":"JAY","time":0},{"station_name":"Manggabesar","i_lat":-6.149769,"i_long":106.82482,"station_id":"MGB","line":2,"is_transit":false,"distance":1080,"transit":false,"time":2},{"distance":906,"transit":false,"i_long":106.827103,"station_name":"Sawah Besar","is_transit":false,"time":2,"station_id":"SW","line":2,"i_lat":-6.160725},{"distance":1149,"i_long":106.828284,"is_transit":false,"station_id":"JUA","line":2,"station_name":"Juanda","time":2,"i_lat":-6.166716,"transit":false},{"time":4,"i_lat":-6.186295,"i_long":106.832183,"station_name":"Gondangdia","line":2,"station_id":"GDD","is_transit":false,"distance":2015,"transit":false},{"station_id":"CKI","station_name":"Cikini","time":3,"i_lat":-6.198556,"line":2,"i_long":106.840169,"is_transit":false,"distance":1750,"transit":false},{"i_lat":-6.209883,"line":2,"distance":1590,"station_name":"Manggarai","is_transit":true,"time":4,"transit":true,"i_long":106.84912,"station_id":"MRI"},{"i_lat":-6.212485,"station_id":"MTR","transit":false,"line":1,"station_name":"Matraman","is_transit":false,"time":2,"i_long":106.858896,"distance":1275},{"station_name":"Jatinegara","transit":true,"i_lat":-6.215091,"line":1,"i_long":106.86807400000001,"distance":1377,"time":8,"station_id":"JNG","is_transit":true},{"line":11,"transit":false,"distance":1236,"time":2,"i_long":106.861737,"station_id":"POK","i_lat":-6.209188,"station_name":"Pondok Jati","is_transit":false},{"is_transit":false,"time":2,"i_lat":-6.193792,"i_long":106.855437,"line":11,"transit":false,"distance":1829,"station_id":"KMT","station_name":"Kramat"},{"line":11,"is_transit":false,"i_long":106.850107,"station_name":"Gang Sentiong","station_id":"GST","time":1,"i_lat":-6.185975,"transit":false,"distance":973},{"distance":1567,"is_transit":false,"time":8,"line":11,"i_lat":-6.174784,"transit":false,"i_long":106.84368,"station_id":"PSE","station_name":"Pasar Senen"},{"i_long":106.839204,"line":11,"distance":1436,"i_lat":-6.161728,"time":4,"transit":false,"station_name":"Kemayoran","is_transit":false,"station_id":"KMO"},{"distance":1901,"line":11,"station_id":"RJW","i_lat":-6.14505,"station_name":"Rajawali","is_transit":false,"time":5,"i_long":106.836569,"transit":false},{"line":4,"is_transit":true,"station_id":"KPB","distance":1444,"i_lat":-6.132549,"time":3,"station_name":"Kampung Bandan","transit":true,"i_long":106.826365},{"station_name":"Angke","i_lat":-6.144674,"station_id":"AK","is_transit":false,"line":1,"i_long":106.79867,"distance":4102,"time":9,"transit":false},{"line":1,"transit":false,"station_name":"Duri","distance":1230,"time":4,"is_transit":false,"i_lat":-6.155215,"i_long":106.800832,"station_id":"DU"},{"time":8,"distance":3632,"station_id":"THB","line":1,"transit":false,"is_transit":false,"station_name":"Tanah Abang","i_lat":-6.185545,"i_long":106.811091},{"distance":2029,"is_transit":false,"transit":false,"station_name":"Karet","time":5,"i_long":106.816351,"line":1,"station_id":"KAT","i_lat":-6.20132},{"station_name":"Sudirman Baru","is_transit":false,"distance":471,"time":1,"station_id":"SUDB","i_long":106.819881,"transit":false,"line":1,"i_lat":-6.201433},{"transit":false,"distance":280,"i_lat":-6.202263,"time":1,"i_long":106.822649,"station_name":"Sudirman","is_transit":false,"station_id":"SUD","line":1}]]}