{"data":[[{"time":0,"station_name":"Jayakarta","i_long":106.820901,"is_transit":false,"station_id":"JAY","i_lat":-6.141205,"line":7,"transit":false,"distance":0},{"station_name":"Jakarta Kota","line":0,"is_transit":true,"transit":true,"time":4,"distance":1264,"i_long":106.812439,"station_id":"JAKK","i_lat":-6.137569},{"line":0,"station_name":"Kampung Bandan","transit":false,"distance":1364,"time":3,"station_id":"KPB","is_transit":true,"i_lat":-6.132549,"i_long":106.826365},{"i_lat":-6.144674,"i_long":106.79867,"is_transit":false,"line":0,"time":9,"transit":false,"distance":4102,"station_id":"AK","station_name":"Angke"},{"i_lat":-6.155215,"time":4,"transit":false,"station_id":"DU","line":1,"is_transit":true,"station_name":"Duri","i_long":106.800832,"distance":1230}],[{"distance":0,"i_lat":-6.141205,"i_long":106.820901,"line":7,"station_id":"JAY","transit":false,"is_transit":false,"time":0,"station_name":"Jayakarta"},{"i_long":106.82482,"time":2,"station_name":"Manggabesar","transit":false,"i_lat":-6.149769,"station_id":"MGB","distance":1080,"line":2,"is_transit":false},{"is_transit":false,"i_lat":-6.160725,"i_long":106.827103,"distance":906,"line":2,"transit":false,"time":2,"station_id":"SW","station_name":"Sawah Besar"},{"station_id":"JUA","distance":1149,"line":2,"i_long":106.828284,"transit":false,"is_transit":false,"time":2,"station_name":"Juanda","i_lat":-6.166716},{"station_name":"Gondangdia","station_id":"GDD","distance":2015,"transit":false,"is_transit":false,"i_long":106.832183,"i_lat":-6.186295,"line":2,"time":4},{"line":0,"distance":1750,"station_name":"Cikini","i_lat":-6.198556,"time":3,"i_long":106.840169,"transit":false,"station_id":"CKI","is_transit":false},{"i_long":106.84912,"line":0,"transit":true,"time":4,"is_transit":true,"station_id":"MRI","station_name":"Manggarai","i_lat":-6.209883,"distance":1590},{"time":4,"transit":false,"distance":3186,"is_transit":false,"line":1,"station_name":"Sudirman","station_id":"SUD","i_lat":-6.202263,"i_long":106.822649},{"is_transit":false,"station_id":"SUDB","distance":280,"i_lat":-6.201433,"line":1,"time":1,"station_name":"Sudirman Baru","transit":false,"i_long":106.819881},{"transit":false,"time":1,"i_long":106.816351,"station_id":"KAT","station_name":"Karet","line":1,"i_lat":-6.20132,"distance":471,"is_transit":false},{"i_lat":-6.185545,"distance":2029,"station_id":"THB","is_transit":true,"transit":false,"time":5,"i_long":106.811091,"station_name":"Tanah Abang","line":1},{"distance":3632,"line":1,"transit":false,"station_name":"Duri","time":8,"i_lat":-6.155215,"is_transit":true,"station_id":"DU","i_long":106.800832}],[{"distance":0,"station_name":"Jayakarta","line":7,"i_lat":-6.141205,"time":0,"is_transit":false,"transit":false,"i_long":106.820901,"station_id":"JAY"},{"i_lat":-6.137569,"distance":1264,"station_id":"JAKK","time":4,"station_name":"Jakarta Kota","is_transit":true,"transit":true,"i_long":106.812439,"line":0},{"transit":true,"station_id":"KPB","station_name":"Kampung Bandan","distance":1364,"i_long":106.826365,"i_lat":-6.132549,"line":0,"is_transit":true,"time":3},{"i_lat":-6.14505,"distance":1444,"station_name":"Rajawali","i_long":106.836569,"is_transit":false,"transit":false,"station_id":"RJW","time":3,"line":11},{"is_transit":false,"station_name":"Kemayoran","transit":false,"station_id":"KMO","distance":1901,"i_long":106.839204,"line":11,"time":5,"i_lat":-6.161728},{"distance":1436,"is_transit":false,"station_id":"PSE","i_lat":-6.174784,"station_name":"Pasar Senen","line":11,"time":4,"i_long":106.84368,"transit":false},{"i_long":106.850107,"line":11,"station_name":"Gang Sentiong","time":8,"distance":1567,"i_lat":-6.185975,"is_transit":false,"station_id":"GST","transit":false},{"is_transit":false,"time":1,"station_name":"Kramat","station_id":"KMT","i_lat":-6.193792,"i_long":106.855437,"transit":false,"line":11,"distance":973},{"i_long":106.861737,"is_transit":false,"time":2,"distance":1829,"transit":false,"station_id":"POK","station_name":"Pondok Jati","i_lat":-6.209188,"line":11},{"station_id":"JNG","is_transit":true,"transit":true,"i_lat":-6.215091,"i_long":106.86807400000001,"distance":1236,"time":9,"line":0,"station_name":"Jatinegara"},{"i_long":106.858896,"time":2,"station_name":"Matraman","transit":false,"i_lat":-6.212485,"is_transit":false,"station_id":"MTR","line":1,"distance":1377},{"station_id":"MRI","distance":1275,"i_lat":-6.209883,"i_long":106.84912,"line":0,"time":2,"station_name":"Manggarai","transit":false,"is_transit":true},{"line":1,"station_name":"Sudirman","i_lat":-6.202263,"transit":false,"i_long":106.822649,"distance":3186,"is_transit":false,"time":4,"station_id":"SUD"},{"i_lat":-6.201433,"i_long":106.819881,"line":1,"is_transit":false,"transit":false,"distance":280,"station_id":"SUDB","time":1,"station_name":"Sudirman Baru"},{"distance":471,"station_name":"Karet","station_id":"KAT","i_long":106.816351,"transit":false,"line":1,"i_lat":-6.20132,"time":1,"is_transit":false},{"i_long":106.811091,"transit":false,"station_id":"THB","distance":2029,"time":5,"station_name":"Tanah Abang","is_transit":true,"line":1,"i_lat":-6.185545},{"station_id":"DU","i_long":106.800832,"distance":3632,"is_transit":true,"time":8,"transit":false,"i_lat":-6.155215,"station_name":"Duri","line":1}],[{"distance":0,"station_name":"Jayakarta","time":0,"transit":false,"i_lat":-6.141205,"station_id":"JAY","i_long":106.820901,"line":7,"is_transit":false},{"i_lat":-6.149769,"line":2,"time":2,"is_transit":false,"station_name":"Manggabesar","transit":false,"station_id":"MGB","i_long":106.82482,"distance":1080},{"transit":false,"is_transit":false,"station_id":"SW","line":2,"time":2,"i_lat":-6.160725,"i_long":106.827103,"distance":906,"station_name":"Sawah Besar"},{"station_id":"JUA","station_name":"Juanda","i_lat":-6.166716,"is_transit":false,"i_long":106.828284,"line":2,"distance":1149,"transit":false,"time":2},{"line":2,"i_lat":-6.186295,"i_long":106.832183,"station_name":"Gondangdia","is_transit":false,"station_id":"GDD","time":4,"transit":false,"distance":2015},{"line":0,"i_lat":-6.198556,"time":3,"distance":1750,"station_name":"Cikini","station_id":"CKI","is_transit":false,"i_long":106.840169,"transit":false},{"is_transit":true,"line":0,"transit":true,"station_id":"MRI","time":4,"distance":1590,"i_lat":-6.209883,"station_name":"Manggarai","i_long":106.84912},{"time":2,"is_transit":false,"distance":1275,"line":1,"station_name":"Matraman","transit":false,"station_id":"MTR","i_long":106.858896,"i_lat":-6.212485},{"distance":1377,"station_name":"Jatinegara","time":8,"transit":true,"station_id":"JNG","i_long":106.86807400000001,"i_lat":-6.215091,"is_transit":true,"line":0},{"line":11,"transit":false,"is_transit":false,"station_id":"POK","station_name":"Pondok Jati","distance":1236,"time":2,"i_lat":-6.209188,"i_long":106.861737},{"i_lat":-6.193792,"station_name":"Kramat","line":11,"transit":false,"i_long":106.855437,"time":2,"is_transit":false,"station_id":"KMT","distance":1829},{"is_transit":false,"station_id":"GST","i_long":106.850107,"i_lat":-6.185975,"transit":false,"time":1,"line":11,"distance":973,"station_name":"Gang Sentiong"},{"i_lat":-6.174784,"station_name":"Pasar Senen","i_long":106.84368,"line":11,"station_id":"PSE","is_transit":false,"time":8,"distance":1567,"transit":false},{"i_lat":-6.161728,"i_long":106.839204,"line":11,"station_id":"KMO","distance":1436,"is_transit":false,"station_name":"Kemayoran","transit":false,"time":4},{"station_id":"RJW","distance":1901,"station_name":"Rajawali","time":5,"is_transit":false,"transit":false,"line":11,"i_long":106.836569,"i_lat":-6.14505},{"transit":true,"i_long":106.826365,"time":3,"station_id":"KPB","line":0,"station_name":"Kampung Bandan","distance":1444,"i_lat":-6.132549,"is_transit":true},{"time":9,"transit":false,"is_transit":false,"i_lat":-6.144674,"line":0,"i_long":106.79867,"distance":4102,"station_id":"AK","station_name":"Angke"},{"station_id":"DU","time":4,"distance":1230,"transit":false,"i_lat":-6.155215,"line":1,"is_transit":true,"station_name":"Duri","i_long":106.800832}]]}