{"data":[[{"time":0,"line":2,"distance":0,"station_id":"JAY","station_name":"Jayakarta","transit":false,"i_lat":-6.141205,"is_transit":false,"i_long":106.820901},{"station_id":"JAKK","line":2,"transit":true,"i_lat":-6.137569,"is_transit":true,"time":4,"distance":1264,"i_long":106.812439,"station_name":"Jakarta Kota"},{"line":4,"is_transit":true,"i_long":106.826365,"transit":true,"time":3,"station_id":"KPB","i_lat":-6.132549,"distance":1364,"station_name":"Kampung Bandan"},{"i_lat":-6.14505,"station_name":"Rajawali","time":3,"distance":1444,"i_long":106.836569,"is_transit":false,"line":11,"transit":false,"station_id":"RJW"},{"distance":1901,"i_lat":-6.161728,"is_transit":false,"i_long":106.839204,"station_name":"Kemayoran","line":11,"station_id":"KMO","transit":false,"time":5},{"i_lat":-6.174784,"i_long":106.84368,"line":11,"is_transit":false,"station_name":"Pasar Senen","transit":false,"distance":1436,"station_id":"PSE","time":4}],[{"transit":false,"station_id":"JAY","i_lat":-6.141205,"is_transit":false,"station_name":"Jayakarta","distance":0,"time":0,"i_long":106.820901,"line":2},{"i_long":106.82482,"transit":false,"time":2,"is_transit":false,"distance":1080,"line":2,"i_lat":-6.149769,"station_name":"Manggabesar","station_id":"MGB"},{"time":2,"distance":906,"i_long":106.827103,"line":2,"station_name":"Sawah Besar","is_transit":false,"station_id":"SW","transit":false,"i_lat":-6.160725},{"i_lat":-6.166716,"station_id":"JUA","line":2,"i_long":106.828284,"transit":false,"station_name":"Juanda","is_transit":false,"distance":1149,"time":2},{"line":2,"time":4,"transit":false,"i_long":106.832183,"station_id":"GDD","station_name":"Gondangdia","distance":2015,"i_lat":-6.186295,"is_transit":false},{"transit":false,"station_id":"CKI","i_lat":-6.198556,"i_long":106.840169,"station_name":"Cikini","time":3,"distance":1750,"is_transit":false,"line":2},{"time":4,"is_transit":true,"transit":true,"station_id":"MRI","i_lat":-6.209883,"i_long":106.84912,"line":2,"station_name":"Manggarai","distance":1590},{"station_name":"Matraman","distance":1275,"is_transit":false,"i_lat":-6.212485,"station_id":"MTR","transit":false,"i_long":106.858896,"time":2,"line":1},{"station_id":"JNG","line":1,"time":8,"transit":true,"station_name":"Jatinegara","i_lat":-6.215091,"is_transit":true,"i_long":106.86807400000001,"distance":1377},{"i_long":106.861737,"line":11,"distance":1236,"is_transit":false,"station_name":"Pondok Jati","transit":false,"station_id":"POK","i_lat":-6.209188,"time":2},{"distance":1829,"transit":false,"station_id":"KMT","is_transit":false,"time":2,"i_lat":-6.193792,"i_long":106.855437,"line":11,"station_name":"Kramat"},{"transit":false,"i_long":106.850107,"is_transit":false,"distance":973,"i_lat":-6.185975,"station_name":"Gang Sentiong","line":11,"station_id":"GST","time":1},{"time":8,"line":11,"station_id":"PSE","distance":1567,"i_lat":-6.174784,"i_long":106.84368,"station_name":"Pasar Senen","is_transit":false,"transit":false}],[{"station_id":"JAY","station_name":"Jayakarta","time":0,"i_long":106.820901,"line":2,"is_transit":false,"distance":0,"transit":false,"i_lat":-6.141205},{"time":4,"station_name":"Jakarta Kota","i_lat":-6.137569,"transit":true,"i_long":106.812439,"station_id":"JAKK","line":2,"is_transit":true,"distance":1264},{"station_id":"KPB","transit":true,"time":3,"i_long":106.826365,"i_lat":-6.132549,"station_name":"Kampung Bandan","line":4,"distance":1364,"is_transit":true},{"i_lat":-6.144674,"distance":4102,"transit":false,"i_long":106.79867,"time":9,"line":1,"station_id":"AK","station_name":"Angke","is_transit":false},{"i_lat":-6.155215,"station_name":"Duri","transit":false,"line":1,"time":4,"station_id":"DU","is_transit":false,"distance":1230,"i_long":106.800832},{"transit":false,"line":1,"is_transit":false,"i_lat":-6.185545,"time":8,"distance":3632,"i_long":106.811091,"station_id":"THB","station_name":"Tanah Abang"},{"transit":false,"i_lat":-6.20132,"time":5,"station_id":"KAT","i_long":106.816351,"station_name":"Karet","is_transit":false,"distance":2029,"line":1},{"i_long":106.819881,"time":1,"line":1,"transit":false,"station_name":"Sudirman Baru","station_id":"SUDB","is_transit":false,"i_lat":-6.201433,"distance":471},{"line":1,"station_name":"Sudirman","is_transit":false,"time":1,"station_id":"SUD","transit":false,"distance":280,"i_lat":-6.202263,"i_long":106.822649},{"station_name":"Manggarai","transit":false,"time":4,"distance":3186,"station_id":"MRI","i_lat":-6.209883,"is_transit":false,"i_long":106.84912,"line":2},{"distance":1275,"station_id":"MTR","transit":false,"i_lat":-6.212485,"station_name":"Matraman","is_transit":false,"line":1,"time":2,"i_long":106.858896},{"is_transit":true,"station_name":"Jatinegara","time":8,"transit":true,"line":1,"distance":1377,"station_id":"JNG","i_lat":-6.215091,"i_long":106.86807400000001},{"station_name":"Pondok Jati","line":11,"distance":1236,"is_transit":false,"time":2,"station_id":"POK","transit":false,"i_lat":-6.209188,"i_long":106.861737},{"i_lat":-6.193792,"station_name":"Kramat","is_transit":false,"i_long":106.855437,"distance":1829,"station_id":"KMT","line":11,"time":2,"transit":false},{"time":1,"station_name":"Gang Sentiong","i_long":106.850107,"station_id":"GST","transit":false,"distance":973,"is_transit":false,"i_lat":-6.185975,"line":11},{"transit":false,"i_long":106.84368,"station_name":"Pasar Senen","time":8,"station_id":"PSE","line":11,"is_transit":false,"distance":1567,"i_lat":-6.174784}],[{"station_name":"Jayakarta","i_lat":-6.141205,"station_id":"JAY","time":0,"distance":0,"line":2,"i_long":106.820901,"transit":false,"is_transit":false},{"transit":false,"station_id":"MGB","i_long":106.82482,"distance":1080,"is_transit":false,"station_name":"Manggabesar","line":2,"i_lat":-6.149769,"time":2},{"station_name":"Sawah Besar","is_transit":false,"time":2,"station_id":"SW","distance":906,"transit":false,"i_lat":-6.160725,"i_long":106.827103,"line":2},{"station_id":"JUA","station_name":"Juanda","line":2,"time":2,"i_lat":-6.166716,"i_long":106.828284,"is_transit":false,"transit":false,"distance":1149},{"is_transit":false,"time":4,"i_lat":-6.186295,"line":2,"transit":false,"station_id":"GDD","station_name":"Gondangdia","distance":2015,"i_long":106.832183},{"i_long":106.840169,"line":2,"transit":false,"station_id":"CKI","i_lat":-6.198556,"station_name":"Cikini","distance":1750,"is_transit":false,"time":3},{"i_long":106.84912,"transit":true,"station_id":"MRI","line":2,"i_lat":-6.209883,"time":4,"is_transit":true,"station_name":"Manggarai","distance":1590},{"time":4,"distance":3186,"station_id":"SUD","is_transit":false,"i_long":106.822649,"line":1,"i_lat":-6.202263,"station_name":"Sudirman","transit":false},{"station_id":"SUDB","station_name":"Sudirman Baru","time":1,"i_long":106.819881,"transit":false,"line":1,"i_lat":-6.201433,"distance":280,"is_transit":false},{"i_lat":-6.20132,"station_name":"Karet","is_transit":false,"distance":471,"i_long":106.816351,"time":1,"transit":false,"station_id":"KAT","line":1},{"time":5,"station_id":"THB","transit":false,"distance":2029,"i_lat":-6.185545,"is_transit":false,"station_name":"Tanah Abang","i_long":106.811091,"line":1},{"transit":false,"i_long":106.800832,"station_id":"DU","line":1,"time":8,"station_name":"Duri","is_transit":false,"distance":3632,"i_lat":-6.155215},{"transit":false,"time":4,"distance":1230,"i_lat":-6.144674,"is_transit":false,"i_long":106.79867,"station_id":"AK","line":1,"station_name":"Angke"},{"transit":true,"is_transit":true,"distance":4102,"station_id":"KPB","i_lat":-6.132549,"i_long":106.826365,"line":4,"time":9,"station_name":"Kampung Bandan"},{"distance":1444,"transit":false,"station_id":"RJW","is_transit":false,"time":3,"i_long":106.836569,"line":11,"station_name":"Rajawali","i_lat":-6.14505},{"i_lat":-6.161728,"i_long":106.839204,"station_name":"Kemayoran","transit":false,"time":5,"line":11,"distance":1901,"is_transit":false,"station_id":"KMO"},{"i_long":106.84368,"station_name":"Pasar Senen","distance":1436,"line":11,"i_lat":-6.174784,"station_id":"PSE","time":4,"transit":false,"is_transit":false}]]}