{"data":[[{"is_transit":false,"i_long":106.820901,"line":2,"transit":false,"time":0,"station_name":"Jayakarta","i_lat":-6.141205,"distance":0,"station_id":"JAY"},{"distance":1264,"station_name":"Jakarta Kota","i_lat":-6.137569,"is_transit":true,"time":4,"line":2,"transit":true,"i_long":106.812439,"station_id":"JAKK"},{"i_lat":-6.132549,"distance":1364,"transit":true,"i_long":106.826365,"line":4,"time":3,"station_name":"Kampung Bandan","station_id":"KPB","is_transit":true},{"transit":false,"line":1,"is_transit":false,"i_lat":-6.144674,"i_long":106.79867,"station_name":"Angke","distance":4102,"station_id":"AK","time":9},{"i_lat":-6.155215,"line":1,"i_long":106.800832,"distance":1230,"station_name":"Duri","time":4,"is_transit":false,"transit":false,"station_id":"DU"},{"i_long":106.811091,"distance":3632,"station_id":"THB","station_name":"Tanah Abang","i_lat":-6.185545,"is_transit":true,"line":1,"time":8,"transit":true},{"line":6,"i_lat":-6.207404,"transit":false,"station_name":"Palmerah","is_transit":false,"i_long":106.79689,"distance":3191,"time":6,"station_id":"PLM"},{"station_id":"KBY","i_long":106.780334,"is_transit":false,"transit":false,"i_lat":-6.237242,"line":6,"time":7,"distance":3737,"station_name":"Kebayoran"},{"time":8,"transit":false,"i_long":106.74273,"station_name":"Pondokranji","i_lat":-6.276362,"distance":6218,"station_id":"PDJ","line":6,"is_transit":false},{"station_id":"JMU","i_lat":-6.288927,"distance":2179,"is_transit":false,"time":3,"line":6,"transit":false,"i_long":106.728916,"station_name":"Jurangmangu"},{"transit":false,"line":6,"station_name":"Sudimara","is_transit":false,"time":4,"station_id":"SDM","i_long":106.712277,"distance":1994,"i_lat":-6.296963},{"time":6,"i_lat":-6.314823,"line":6,"distance":4566,"is_transit":false,"i_long":106.675475,"station_name":"Rawa Buntu","station_id":"RU","transit":false}],[{"time":0,"distance":0,"station_id":"JAY","i_long":106.820901,"is_transit":false,"line":2,"i_lat":-6.141205,"station_name":"Jayakarta","transit":false},{"i_long":106.82482,"time":2,"station_name":"Manggabesar","is_transit":false,"distance":1080,"transit":false,"station_id":"MGB","i_lat":-6.149769,"line":2},{"station_id":"SW","i_lat":-6.160725,"time":2,"station_name":"Sawah Besar","is_transit":false,"i_long":106.827103,"distance":906,"transit":false,"line":2},{"distance":1149,"station_id":"JUA","transit":false,"i_long":106.828284,"line":2,"is_transit":false,"i_lat":-6.166716,"time":2,"station_name":"Juanda"},{"distance":2015,"transit":false,"is_transit":false,"i_long":106.832183,"station_name":"Gondangdia","line":2,"time":4,"station_id":"GDD","i_lat":-6.186295},{"station_name":"Cikini","station_id":"CKI","distance":1750,"i_long":106.840169,"is_transit":false,"transit":false,"line":2,"i_lat":-6.198556,"time":3},{"time":4,"is_transit":true,"distance":1590,"station_id":"MRI","transit":true,"station_name":"Manggarai","i_lat":-6.209883,"i_long":106.84912,"line":2},{"i_lat":-6.202263,"station_id":"SUD","is_transit":false,"time":4,"distance":3186,"line":1,"i_long":106.822649,"transit":false,"station_name":"Sudirman"},{"i_long":106.819881,"time":1,"station_name":"Sudirman Baru","i_lat":-6.201433,"is_transit":false,"station_id":"SUDB","transit":false,"line":1,"distance":280},{"i_long":106.816351,"is_transit":false,"i_lat":-6.20132,"station_id":"KAT","time":1,"distance":471,"line":1,"transit":false,"station_name":"Karet"},{"i_lat":-6.185545,"line":1,"i_long":106.811091,"distance":2029,"station_id":"THB","station_name":"Tanah Abang","time":5,"is_transit":true,"transit":true},{"is_transit":false,"distance":3191,"line":6,"i_lat":-6.207404,"transit":false,"i_long":106.79689,"station_id":"PLM","time":6,"station_name":"Palmerah"},{"station_id":"KBY","is_transit":false,"i_lat":-6.237242,"i_long":106.780334,"station_name":"Kebayoran","line":6,"time":7,"distance":3737,"transit":false},{"time":8,"is_transit":false,"transit":false,"i_lat":-6.276362,"station_id":"PDJ","station_name":"Pondokranji","distance":6218,"i_long":106.74273,"line":6},{"station_name":"Jurangmangu","i_long":106.728916,"distance":2179,"transit":false,"i_lat":-6.288927,"line":6,"station_id":"JMU","time":3,"is_transit":false},{"station_id":"SDM","is_transit":false,"station_name":"Sudimara","i_long":106.712277,"transit":false,"i_lat":-6.296963,"time":4,"distance":1994,"line":6},{"is_transit":false,"time":6,"i_lat":-6.314823,"station_id":"RU","line":6,"transit":false,"i_long":106.675475,"station_name":"Rawa Buntu","distance":4566}],[{"i_lat":-6.141205,"i_long":106.820901,"time":0,"is_transit":false,"station_name":"Jayakarta","station_id":"JAY","line":2,"transit":false,"distance":0},{"distance":1264,"is_transit":true,"station_id":"JAKK","i_lat":-6.137569,"transit":true,"station_name":"Jakarta Kota","i_long":106.812439,"line":2,"time":4},{"line":4,"is_transit":true,"distance":1364,"station_name":"Kampung Bandan","transit":true,"station_id":"KPB","time":3,"i_lat":-6.132549,"i_long":106.826365},{"transit":false,"i_long":106.836569,"line":11,"distance":1444,"station_name":"Rajawali","i_lat":-6.14505,"time":3,"is_transit":false,"station_id":"RJW"},{"station_name":"Kemayoran","i_lat":-6.161728,"transit":false,"is_transit":false,"distance":1901,"line":11,"station_id":"KMO","i_long":106.839204,"time":5},{"line":11,"i_long":106.84368,"distance":1436,"i_lat":-6.174784,"time":4,"station_name":"Pasar Senen","is_transit":false,"station_id":"PSE","transit":false},{"line":11,"transit":false,"i_lat":-6.185975,"is_transit":false,"i_long":106.850107,"time":8,"station_name":"Gang Sentiong","distance":1567,"station_id":"GST"},{"station_name":"Kramat","transit":false,"time":1,"is_transit":false,"station_id":"KMT","distance":973,"i_lat":-6.193792,"line":11,"i_long":106.855437},{"station_id":"POK","time":2,"i_lat":-6.209188,"line":11,"distance":1829,"is_transit":false,"i_long":106.861737,"station_name":"Pondok Jati","transit":false},{"station_name":"Jatinegara","time":9,"i_lat":-6.215091,"i_long":106.86807400000001,"is_transit":true,"transit":true,"distance":1236,"station_id":"JNG","line":1},{"station_id":"MTR","station_name":"Matraman","i_lat":-6.212485,"distance":1377,"is_transit":false,"transit":false,"i_long":106.858896,"time":2,"line":1},{"i_lat":-6.209883,"distance":1275,"transit":false,"i_long":106.84912,"line":2,"station_name":"Manggarai","is_transit":false,"time":2,"station_id":"MRI"},{"station_id":"SUD","is_transit":false,"i_long":106.822649,"time":4,"transit":false,"line":1,"distance":3186,"i_lat":-6.202263,"station_name":"Sudirman"},{"station_name":"Sudirman Baru","is_transit":false,"i_long":106.819881,"distance":280,"transit":false,"station_id":"SUDB","time":1,"i_lat":-6.201433,"line":1},{"distance":471,"time":1,"station_name":"Karet","transit":false,"i_lat":-6.20132,"station_id":"KAT","line":1,"is_transit":false,"i_long":106.816351},{"line":1,"transit":true,"is_transit":true,"distance":2029,"i_lat":-6.185545,"i_long":106.811091,"station_name":"Tanah Abang","time":5,"station_id":"THB"},{"i_lat":-6.207404,"time":6,"station_name":"Palmerah","i_long":106.79689,"line":6,"is_transit":false,"distance":3191,"station_id":"PLM","transit":false},{"station_name":"Kebayoran","time":7,"transit":false,"distance":3737,"is_transit":false,"i_lat":-6.237242,"i_long":106.780334,"station_id":"KBY","line":6},{"time":8,"station_id":"PDJ","transit":false,"is_transit":false,"i_lat":-6.276362,"distance":6218,"i_long":106.74273,"station_name":"Pondokranji","line":6},{"time":3,"station_id":"JMU","station_name":"Jurangmangu","transit":false,"line":6,"distance":2179,"i_long":106.728916,"i_lat":-6.288927,"is_transit":false},{"station_name":"Sudimara","time":4,"station_id":"SDM","i_lat":-6.296963,"distance":1994,"is_transit":false,"i_long":106.712277,"transit":false,"line":6},{"time":6,"transit":false,"distance":4566,"station_id":"RU","line":6,"is_transit":false,"i_lat":-6.314823,"i_long":106.675475,"station_name":"Rawa Buntu"}],[{"transit":false,"is_transit":false,"station_name":"Jayakarta","distance":0,"time":0,"station_id":"JAY","i_long":106.820901,"line":2,"i_lat":-6.141205},{"distance":1080,"i_long":106.82482,"station_id":"MGB","line":2,"is_transit":false,"time":2,"station_name":"Manggabesar","transit":false,"i_lat":-6.149769},{"is_transit":false,"i_long":106.827103,"line":2,"station_name":"Sawah Besar","i_lat":-6.160725,"distance":906,"time":2,"transit":false,"station_id":"SW"},{"i_lat":-6.166716,"line":2,"distance":1149,"station_name":"Juanda","i_long":106.828284,"transit":false,"time":2,"station_id":"JUA","is_transit":false},{"distance":2015,"i_long":106.832183,"line":2,"time":4,"is_transit":false,"station_id":"GDD","transit":false,"station_name":"Gondangdia","i_lat":-6.186295},{"station_name":"Cikini","station_id":"CKI","i_long":106.840169,"line":2,"distance":1750,"i_lat":-6.198556,"transit":false,"is_transit":false,"time":3},{"i_long":106.84912,"line":2,"i_lat":-6.209883,"station_id":"MRI","station_name":"Manggarai","time":4,"distance":1590,"transit":true,"is_transit":true},{"distance":1275,"time":2,"transit":false,"is_transit":false,"i_long":106.858896,"station_id":"MTR","line":1,"station_name":"Matraman","i_lat":-6.212485},{"transit":true,"time":8,"i_long":106.86807400000001,"station_id":"JNG","station_name":"Jatinegara","distance":1377,"line":1,"is_transit":true,"i_lat":-6.215091},{"transit":false,"i_lat":-6.209188,"distance":1236,"i_long":106.861737,"station_name":"Pondok Jati","is_transit":false,"station_id":"POK","time":2,"line":11},{"i_lat":-6.193792,"transit":false,"is_transit":false,"station_id":"KMT","distance":1829,"i_long":106.855437,"time":2,"station_name":"Kramat","line":11},{"distance":973,"is_transit":false,"station_id":"GST","line":11,"transit":false,"i_lat":-6.185975,"station_name":"Gang Sentiong","i_long":106.850107,"time":1},{"time":8,"transit":false,"station_id":"PSE","station_name":"Pasar Senen","distance":1567,"line":11,"is_transit":false,"i_lat":-6.174784,"i_long":106.84368},{"line":11,"time":4,"i_lat":-6.161728,"station_name":"Kemayoran","distance":1436,"transit":false,"is_transit":false,"station_id":"KMO","i_long":106.839204},{"i_long":106.836569,"station_id":"RJW","i_lat":-6.14505,"time":5,"line":11,"distance":1901,"transit":false,"station_name":"Rajawali","is_transit":false},{"line":4,"is_transit":true,"transit":true,"time":3,"distance":1444,"station_name":"Kampung Bandan","i_long":106.826365,"station_id":"KPB","i_lat":-6.132549},{"station_id":"AK","time":9,"i_long":106.79867,"is_transit":false,"transit":false,"i_lat":-6.144674,"line":1,"distance":4102,"station_name":"Angke"},{"i_lat":-6.155215,"station_name":"Duri","time":4,"is_transit":false,"i_long":106.800832,"line":1,"transit":false,"station_id":"DU","distance":1230},{"time":8,"transit":true,"line":1,"is_transit":true,"distance":3632,"station_name":"Tanah Abang","i_lat":-6.185545,"station_id":"THB","i_long":106.811091},{"time":6,"i_long":106.79689,"line":6,"is_transit":false,"i_lat":-6.207404,"station_id":"PLM","transit":false,"station_name":"Palmerah","distance":3191},{"time":7,"station_name":"Kebayoran","distance":3737,"transit":false,"is_transit":false,"station_id":"KBY","i_lat":-6.237242,"i_long":106.780334,"line":6},{"i_long":106.74273,"line":6,"station_name":"Pondokranji","time":8,"distance":6218,"is_transit":false,"i_lat":-6.276362,"station_id":"PDJ","transit":false},{"station_name":"Jurangmangu","distance":2179,"is_transit":false,"station_id":"JMU","i_lat":-6.288927,"line":6,"i_long":106.728916,"time":3,"transit":false},{"i_long":106.712277,"i_lat":-6.296963,"station_id":"SDM","is_transit":false,"line":6,"time":4,"station_name":"Sudimara","distance":1994,"transit":false},{"i_lat":-6.314823,"station_name":"Rawa Buntu","station_id":"RU","distance":4566,"time":6,"is_transit":false,"i_long":106.675475,"transit":false,"line":6}]]}