{"data":[[{"station_name":"Jayakarta","distance":0,"line":7,"is_transit":false,"i_lat":-6.141205,"transit":false,"station_id":"JAY","time":0,"i_long":106.820901},{"i_lat":-6.149769,"i_long":106.82482,"is_transit":false,"station_name":"Manggabesar","distance":1080,"time":2,"transit":false,"line":2,"station_id":"MGB"},{"i_lat":-6.160725,"i_long":106.827103,"line":2,"time":2,"distance":906,"station_id":"SW","is_transit":false,"station_name":"Sawah Besar","transit":false},{"transit":false,"station_id":"JUA","is_transit":false,"distance":1149,"station_name":"Juanda","i_long":106.828284,"line":2,"i_lat":-6.166716,"time":2},{"transit":false,"station_id":"GDD","is_transit":false,"station_name":"Gondangdia","distance":2015,"time":4,"i_lat":-6.186295,"line":2,"i_long":106.832183},{"i_long":106.840169,"line":0,"i_lat":-6.198556,"time":3,"is_transit":false,"station_name":"Cikini","station_id":"CKI","distance":1750,"transit":false},{"is_transit":true,"station_id":"MRI","distance":1590,"i_lat":-6.209883,"i_long":106.84912,"line":0,"station_name":"Manggarai","transit":true,"time":4},{"station_id":"MTR","station_name":"Matraman","time":2,"i_long":106.858896,"is_transit":false,"distance":1275,"line":1,"i_lat":-6.212485,"transit":false},{"line":0,"station_id":"JNG","time":8,"transit":false,"distance":1377,"i_lat":-6.215091,"i_long":106.86807400000001,"station_name":"Jatinegara","is_transit":true},{"transit":false,"distance":3395,"station_id":"KLD","station_name":"Klender","is_transit":false,"i_long":106.899548,"line":1,"i_lat":-6.2135,"time":3},{"time":2,"station_name":"Buaran","transit":false,"i_long":106.922662,"line":0,"i_lat":-6.215568,"is_transit":false,"station_id":"BUA","distance":3100},{"i_long":106.939679,"distance":1305,"line":1,"transit":false,"station_name":"Klenderbaru","time":1,"station_id":"KLDB","is_transit":false,"i_lat":-6.217455},{"line":0,"distance":1385,"transit":false,"i_lat":-6.219053,"time":8,"i_long":106.951283,"station_id":"CUK","is_transit":false,"station_name":"Cakung"}],[{"is_transit":false,"transit":false,"i_lat":-6.141205,"station_id":"JAY","line":7,"time":0,"station_name":"Jayakarta","i_long":106.820901,"distance":0},{"station_id":"JAKK","is_transit":true,"station_name":"Jakarta Kota","i_lat":-6.137569,"transit":true,"i_long":106.812439,"line":0,"time":4,"distance":1264},{"time":3,"station_id":"KPB","distance":1364,"station_name":"Kampung Bandan","line":0,"i_long":106.826365,"transit":true,"is_transit":true,"i_lat":-6.132549},{"distance":1444,"station_id":"RJW","time":3,"i_long":106.836569,"line":11,"transit":false,"station_name":"Rajawali","is_transit":false,"i_lat":-6.14505},{"i_long":106.839204,"time":5,"station_name":"Kemayoran","transit":false,"is_transit":false,"station_id":"KMO","i_lat":-6.161728,"distance":1901,"line":11},{"station_id":"PSE","i_long":106.84368,"is_transit":false,"distance":1436,"time":4,"i_lat":-6.174784,"station_name":"Pasar Senen","transit":false,"line":11},{"is_transit":false,"transit":false,"station_id":"GST","station_name":"Gang Sentiong","i_long":106.850107,"i_lat":-6.185975,"time":8,"distance":1567,"line":11},{"line":11,"i_long":106.855437,"is_transit":false,"time":1,"station_name":"Kramat","i_lat":-6.193792,"distance":973,"station_id":"KMT","transit":false},{"station_id":"POK","i_lat":-6.209188,"transit":false,"time":2,"line":11,"distance":1829,"i_long":106.861737,"is_transit":false,"station_name":"Pondok Jati"},{"line":0,"transit":true,"distance":1236,"time":9,"i_long":106.86807400000001,"is_transit":true,"station_id":"JNG","station_name":"Jatinegara","i_lat":-6.215091},{"is_transit":false,"time":3,"distance":3395,"i_lat":-6.2135,"line":1,"i_long":106.899548,"station_name":"Klender","station_id":"KLD","transit":false},{"station_name":"Buaran","transit":false,"line":0,"time":2,"distance":3100,"i_long":106.922662,"i_lat":-6.215568,"is_transit":false,"station_id":"BUA"},{"i_lat":-6.217455,"distance":1305,"station_id":"KLDB","station_name":"Klenderbaru","line":1,"transit":false,"is_transit":false,"i_long":106.939679,"time":1},{"station_id":"CUK","i_long":106.951283,"distance":1385,"is_transit":false,"time":8,"line":0,"i_lat":-6.219053,"transit":false,"station_name":"Cakung"}],[{"station_id":"JAY","time":0,"distance":0,"station_name":"Jayakarta","transit":false,"is_transit":false,"i_lat":-6.141205,"i_long":106.820901,"line":7},{"transit":true,"i_long":106.812439,"station_id":"JAKK","distance":1264,"is_transit":true,"i_lat":-6.137569,"time":4,"line":0,"station_name":"Jakarta Kota"},{"station_id":"KPB","distance":1364,"is_transit":true,"station_name":"Kampung Bandan","time":3,"i_long":106.826365,"line":0,"i_lat":-6.132549,"transit":false},{"is_transit":false,"i_long":106.79867,"transit":false,"station_id":"AK","time":9,"distance":4102,"i_lat":-6.144674,"station_name":"Angke","line":0},{"i_lat":-6.155215,"line":1,"i_long":106.800832,"transit":true,"time":4,"distance":1230,"is_transit":true,"station_id":"DU","station_name":"Duri"},{"is_transit":true,"i_long":106.811091,"time":8,"station_name":"Tanah Abang","line":1,"station_id":"THB","distance":3632,"transit":false,"i_lat":-6.185545},{"is_transit":false,"transit":false,"line":1,"distance":2029,"i_lat":-6.20132,"time":5,"i_long":106.816351,"station_id":"KAT","station_name":"Karet"},{"transit":false,"line":1,"distance":471,"station_id":"SUDB","time":1,"i_lat":-6.201433,"i_long":106.819881,"is_transit":false,"station_name":"Sudirman Baru"},{"line":1,"transit":false,"i_lat":-6.202263,"time":1,"distance":280,"station_name":"Sudirman","station_id":"SUD","i_long":106.822649,"is_transit":false},{"transit":false,"station_id":"MRI","i_long":106.84912,"line":0,"time":4,"i_lat":-6.209883,"is_transit":true,"distance":3186,"station_name":"Manggarai"},{"station_name":"Matraman","i_long":106.858896,"line":1,"station_id":"MTR","is_transit":false,"time":2,"distance":1275,"i_lat":-6.212485,"transit":false},{"station_name":"Jatinegara","i_lat":-6.215091,"i_long":106.86807400000001,"line":0,"is_transit":true,"distance":1377,"time":8,"station_id":"JNG","transit":false},{"is_transit":false,"time":3,"station_name":"Klender","i_long":106.899548,"line":1,"i_lat":-6.2135,"transit":false,"distance":3395,"station_id":"KLD"},{"distance":3100,"station_name":"Buaran","time":2,"transit":false,"i_lat":-6.215568,"station_id":"BUA","i_long":106.922662,"line":0,"is_transit":false},{"i_lat":-6.217455,"line":1,"time":1,"is_transit":false,"station_name":"Klenderbaru","transit":false,"station_id":"KLDB","i_long":106.939679,"distance":1305},{"transit":false,"is_transit":false,"station_id":"CUK","line":0,"time":8,"i_lat":-6.219053,"i_long":106.951283,"distance":1385,"station_name":"Cakung"}],[{"station_id":"JAY","station_name":"Jayakarta","i_lat":-6.141205,"is_transit":false,"i_long":106.820901,"line":7,"distance":0,"transit":false,"time":0},{"line":2,"i_lat":-6.149769,"i_long":106.82482,"station_name":"Manggabesar","is_transit":false,"station_id":"MGB","time":2,"transit":false,"distance":1080},{"line":2,"i_lat":-6.160725,"time":2,"distance":906,"station_name":"Sawah Besar","station_id":"SW","is_transit":false,"i_long":106.827103,"transit":false},{"is_transit":false,"line":2,"transit":false,"station_id":"JUA","time":2,"distance":1149,"i_lat":-6.166716,"station_name":"Juanda","i_long":106.828284},{"time":4,"is_transit":false,"distance":2015,"line":2,"station_name":"Gondangdia","transit":false,"station_id":"GDD","i_long":106.832183,"i_lat":-6.186295},{"distance":1750,"station_name":"Cikini","time":3,"transit":false,"station_id":"CKI","i_long":106.840169,"i_lat":-6.198556,"is_transit":false,"line":0},{"line":0,"transit":true,"is_transit":true,"station_id":"MRI","station_name":"Manggarai","distance":1590,"time":4,"i_lat":-6.209883,"i_long":106.84912},{"i_lat":-6.202263,"station_name":"Sudirman","line":1,"transit":false,"i_long":106.822649,"time":4,"is_transit":false,"station_id":"SUD","distance":3186},{"is_transit":false,"station_id":"SUDB","i_long":106.819881,"i_lat":-6.201433,"transit":false,"time":1,"line":1,"distance":280,"station_name":"Sudirman Baru"},{"i_lat":-6.20132,"station_name":"Karet","i_long":106.816351,"line":1,"station_id":"KAT","is_transit":false,"time":1,"distance":471,"transit":false},{"i_lat":-6.185545,"i_long":106.811091,"line":1,"station_id":"THB","distance":2029,"is_transit":true,"station_name":"Tanah Abang","transit":false,"time":5},{"station_id":"DU","distance":3632,"station_name":"Duri","time":8,"is_transit":true,"transit":true,"line":1,"i_long":106.800832,"i_lat":-6.155215},{"transit":false,"i_long":106.79867,"time":4,"station_id":"AK","line":0,"station_name":"Angke","distance":1230,"i_lat":-6.144674,"is_transit":false},{"time":9,"transit":true,"is_transit":true,"i_lat":-6.132549,"line":0,"i_long":106.826365,"distance":4102,"station_id":"KPB","station_name":"Kampung Bandan"},{"transit":false,"station_id":"RJW","station_name":"Rajawali","is_transit":false,"i_lat":-6.14505,"i_long":106.836569,"line":11,"distance":1444,"time":3},{"is_transit":false,"station_name":"Kemayoran","line":11,"transit":false,"i_long":106.839204,"time":5,"i_lat":-6.161728,"station_id":"KMO","distance":1901},{"distance":1436,"line":11,"station_id":"PSE","time":4,"i_lat":-6.174784,"i_long":106.84368,"station_name":"Pasar Senen","is_transit":false,"transit":false},{"i_long":106.850107,"line":11,"transit":false,"distance":1567,"i_lat":-6.185975,"is_transit":false,"time":8,"station_id":"GST","station_name":"Gang Sentiong"},{"line":11,"station_id":"KMT","is_transit":false,"time":1,"i_lat":-6.193792,"distance":973,"transit":false,"station_name":"Kramat","i_long":106.855437},{"station_id":"POK","i_lat":-6.209188,"transit":false,"i_long":106.861737,"is_transit":false,"line":11,"distance":1829,"time":2,"station_name":"Pondok Jati"},{"station_name":"Jatinegara","i_lat":-6.215091,"is_transit":true,"time":9,"line":0,"distance":1236,"transit":true,"i_long":106.86807400000001,"station_id":"JNG"},{"station_name":"Klender","is_transit":false,"station_id":"KLD","time":3,"transit":false,"i_long":106.899548,"i_lat":-6.2135,"distance":3395,"line":1},{"distance":3100,"time":2,"station_id":"BUA","is_transit":false,"i_long":106.922662,"station_name":"Buaran","line":0,"transit":false,"i_lat":-6.215568},{"is_transit":false,"transit":false,"time":1,"distance":1305,"station_name":"Klenderbaru","station_id":"KLDB","i_long":106.939679,"i_lat":-6.217455,"line":1},{"transit":false,"i_long":106.951283,"distance":1385,"is_transit":false,"time":8,"station_name":"Cakung","station_id":"CUK","i_lat":-6.219053,"line":0}]]}