{"data":[[{"transit":false,"i_lat":-6.141205,"i_long":106.820901,"distance":0,"station_id":"JAY","station_name":"Jayakarta","line":2,"is_transit":false,"time":0},{"line":2,"i_long":106.82482,"i_lat":-6.149769,"station_name":"Manggabesar","is_transit":false,"time":2,"distance":1080,"station_id":"MGB","transit":false},{"time":2,"is_transit":false,"i_lat":-6.160725,"station_name":"Sawah Besar","distance":906,"station_id":"SW","line":2,"i_long":106.827103,"transit":false},{"station_id":"JUA","is_transit":false,"i_long":106.828284,"distance":1149,"i_lat":-6.166716,"time":2,"station_name":"Juanda","transit":false,"line":2},{"station_name":"Gondangdia","line":2,"i_lat":-6.186295,"time":4,"distance":2015,"station_id":"GDD","i_long":106.832183,"is_transit":false,"transit":false},{"line":2,"distance":1750,"station_id":"CKI","station_name":"Cikini","i_lat":-6.198556,"is_transit":false,"time":3,"transit":false,"i_long":106.840169},{"i_lat":-6.209883,"is_transit":false,"i_long":106.84912,"time":4,"transit":false,"station_name":"Manggarai","distance":1590,"station_id":"MRI","line":2}],[{"is_transit":false,"time":0,"transit":false,"i_lat":-6.141205,"line":2,"i_long":106.820901,"station_name":"Jayakarta","distance":0,"station_id":"JAY"},{"station_name":"Jakarta Kota","i_long":106.812439,"line":2,"is_transit":true,"i_lat":-6.137569,"station_id":"JAKK","transit":true,"distance":1264,"time":4},{"distance":1364,"station_id":"KPB","station_name":"Kampung Bandan","line":4,"is_transit":true,"transit":true,"i_lat":-6.132549,"time":3,"i_long":106.826365},{"is_transit":false,"line":1,"time":9,"i_long":106.79867,"distance":4102,"transit":false,"i_lat":-6.144674,"station_id":"AK","station_name":"Angke"},{"i_lat":-6.155215,"i_long":106.800832,"line":1,"station_name":"Duri","distance":1230,"is_transit":false,"time":4,"transit":false,"station_id":"DU"},{"distance":3632,"transit":false,"i_lat":-6.185545,"line":1,"is_transit":false,"time":8,"i_long":106.811091,"station_name":"Tanah Abang","station_id":"THB"},{"line":1,"time":5,"station_name":"Karet","distance":2029,"station_id":"KAT","i_long":106.816351,"is_transit":false,"transit":false,"i_lat":-6.20132},{"station_id":"SUDB","station_name":"Sudirman Baru","transit":false,"time":1,"i_lat":-6.201433,"is_transit":false,"line":1,"distance":471,"i_long":106.819881},{"i_long":106.822649,"i_lat":-6.202263,"station_id":"SUD","station_name":"Sudirman","time":1,"is_transit":false,"transit":false,"line":1,"distance":280},{"i_lat":-6.209883,"line":2,"time":4,"is_transit":false,"distance":3186,"i_long":106.84912,"transit":false,"station_id":"MRI","station_name":"Manggarai"}],[{"time":0,"is_transit":false,"transit":false,"i_lat":-6.141205,"station_id":"JAY","distance":0,"station_name":"Jayakarta","i_long":106.820901,"line":2},{"distance":1264,"is_transit":true,"i_long":106.812439,"line":2,"i_lat":-6.137569,"station_id":"JAKK","station_name":"Jakarta Kota","transit":true,"time":4},{"i_lat":-6.132549,"distance":1364,"i_long":106.826365,"is_transit":true,"transit":true,"time":3,"line":4,"station_name":"Kampung Bandan","station_id":"KPB"},{"station_name":"Rajawali","i_lat":-6.14505,"i_long":106.836569,"distance":1444,"line":11,"transit":false,"time":3,"station_id":"RJW","is_transit":false},{"line":11,"station_name":"Kemayoran","i_lat":-6.161728,"is_transit":false,"time":5,"transit":false,"station_id":"KMO","i_long":106.839204,"distance":1901},{"station_id":"PSE","distance":1436,"transit":false,"i_lat":-6.174784,"is_transit":false,"line":11,"i_long":106.84368,"time":4,"station_name":"Pasar Senen"},{"transit":false,"station_name":"Gang Sentiong","i_long":106.850107,"time":8,"line":11,"station_id":"GST","is_transit":false,"i_lat":-6.185975,"distance":1567},{"station_name":"Kramat","i_long":106.855437,"time":1,"station_id":"KMT","transit":false,"line":11,"distance":973,"i_lat":-6.193792,"is_transit":false},{"i_lat":-6.209188,"station_id":"POK","station_name":"Pondok Jati","i_long":106.861737,"line":11,"distance":1829,"is_transit":false,"transit":false,"time":2},{"station_name":"Jatinegara","line":1,"time":9,"station_id":"JNG","i_long":106.86807400000001,"distance":1236,"is_transit":true,"transit":true,"i_lat":-6.215091},{"time":2,"i_long":106.858896,"distance":1377,"station_name":"Matraman","is_transit":false,"transit":false,"i_lat":-6.212485,"station_id":"MTR","line":1},{"line":2,"is_transit":false,"transit":false,"distance":1275,"i_long":106.84912,"time":2,"i_lat":-6.209883,"station_name":"Manggarai","station_id":"MRI"}]]}