{"data":[[{"i_long":106.820901,"line":7,"i_lat":-6.141205,"station_name":"Jayakarta","time":0,"distance":0,"transit":false,"station_id":"JAY","is_transit":false},{"is_transit":true,"i_long":106.812439,"transit":true,"station_id":"JAKK","station_name":"Jakarta Kota","i_lat":-6.137569,"line":0,"time":4,"distance":1264},{"line":0,"i_long":106.826365,"station_id":"KPB","transit":true,"distance":1364,"time":3,"i_lat":-6.132549,"is_transit":true,"station_name":"Kampung Bandan"},{"station_id":"RJW","time":3,"is_transit":false,"i_lat":-6.14505,"i_long":106.836569,"line":11,"transit":false,"distance":1444,"station_name":"Rajawali"}],[{"is_transit":false,"time":0,"distance":0,"station_name":"Jayakarta","transit":false,"line":7,"station_id":"JAY","i_lat":-6.141205,"i_long":106.820901},{"i_lat":-6.149769,"station_id":"MGB","station_name":"Manggabesar","distance":1080,"transit":false,"i_long":106.82482,"line":2,"time":2,"is_transit":false},{"time":2,"transit":false,"i_lat":-6.160725,"line":2,"is_transit":false,"station_id":"SW","i_long":106.827103,"distance":906,"station_name":"Sawah Besar"},{"i_lat":-6.166716,"station_id":"JUA","is_transit":false,"line":2,"station_name":"Juanda","time":2,"transit":false,"i_long":106.828284,"distance":1149},{"transit":false,"line":2,"is_transit":false,"i_lat":-6.186295,"i_long":106.832183,"distance":2015,"station_id":"GDD","time":4,"station_name":"Gondangdia"},{"i_long":106.840169,"i_lat":-6.198556,"time":3,"line":0,"station_id":"CKI","station_name":"Cikini","is_transit":false,"transit":false,"distance":1750},{"line":0,"distance":1590,"transit":true,"i_lat":-6.209883,"is_transit":true,"time":4,"station_name":"Manggarai","station_id":"MRI","i_long":106.84912},{"transit":false,"station_name":"Sudirman","time":4,"i_long":106.822649,"is_transit":false,"i_lat":-6.202263,"line":1,"station_id":"SUD","distance":3186},{"is_transit":false,"station_name":"Sudirman Baru","i_lat":-6.201433,"line":1,"i_long":106.819881,"distance":280,"station_id":"SUDB","time":1,"transit":false},{"i_long":106.816351,"i_lat":-6.20132,"line":1,"station_name":"Karet","is_transit":false,"station_id":"KAT","time":1,"distance":471,"transit":false},{"i_lat":-6.185545,"line":1,"station_id":"THB","transit":false,"is_transit":true,"i_long":106.811091,"time":5,"distance":2029,"station_name":"Tanah Abang"},{"station_name":"Duri","i_lat":-6.155215,"distance":3632,"line":1,"time":8,"transit":true,"is_transit":true,"i_long":106.800832,"station_id":"DU"},{"is_transit":false,"i_long":106.79867,"station_name":"Angke","line":0,"distance":1230,"time":4,"station_id":"AK","transit":false,"i_lat":-6.144674},{"is_transit":true,"station_name":"Kampung Bandan","time":9,"distance":4102,"i_long":106.826365,"line":0,"station_id":"KPB","transit":true,"i_lat":-6.132549},{"transit":false,"is_transit":false,"time":3,"station_id":"RJW","i_long":106.836569,"line":11,"station_name":"Rajawali","distance":1444,"i_lat":-6.14505}],[{"i_long":106.820901,"time":0,"is_transit":false,"transit":false,"i_lat":-6.141205,"station_name":"Jayakarta","station_id":"JAY","line":7,"distance":0},{"time":2,"distance":1080,"line":2,"station_id":"MGB","transit":false,"is_transit":false,"i_long":106.82482,"station_name":"Manggabesar","i_lat":-6.149769},{"station_name":"Sawah Besar","transit":false,"station_id":"SW","i_long":106.827103,"time":2,"i_lat":-6.160725,"line":2,"is_transit":false,"distance":906},{"time":2,"is_transit":false,"distance":1149,"transit":false,"station_id":"JUA","line":2,"station_name":"Juanda","i_long":106.828284,"i_lat":-6.166716},{"line":2,"i_lat":-6.186295,"station_name":"Gondangdia","station_id":"GDD","time":4,"is_transit":false,"i_long":106.832183,"distance":2015,"transit":false},{"line":0,"i_lat":-6.198556,"station_name":"Cikini","station_id":"CKI","is_transit":false,"transit":false,"i_long":106.840169,"distance":1750,"time":3},{"station_name":"Manggarai","time":4,"transit":true,"station_id":"MRI","is_transit":true,"line":0,"i_lat":-6.209883,"i_long":106.84912,"distance":1590},{"station_id":"MTR","line":1,"station_name":"Matraman","is_transit":false,"distance":1275,"transit":false,"i_lat":-6.212485,"time":2,"i_long":106.858896},{"station_name":"Jatinegara","is_transit":true,"time":8,"transit":true,"station_id":"JNG","i_long":106.86807400000001,"line":0,"i_lat":-6.215091,"distance":1377},{"station_id":"POK","station_name":"Pondok Jati","time":2,"distance":1236,"i_lat":-6.209188,"line":11,"is_transit":false,"transit":false,"i_long":106.861737},{"transit":false,"i_lat":-6.193792,"time":2,"station_id":"KMT","station_name":"Kramat","is_transit":false,"distance":1829,"i_long":106.855437,"line":11},{"transit":false,"station_name":"Gang Sentiong","i_long":106.850107,"station_id":"GST","is_transit":false,"i_lat":-6.185975,"time":1,"distance":973,"line":11},{"line":11,"time":8,"station_id":"PSE","distance":1567,"i_long":106.84368,"is_transit":false,"i_lat":-6.174784,"transit":false,"station_name":"Pasar Senen"},{"time":4,"is_transit":false,"transit":false,"i_lat":-6.161728,"line":11,"distance":1436,"i_long":106.839204,"station_name":"Kemayoran","station_id":"KMO"},{"distance":1901,"transit":false,"station_id":"RJW","i_long":106.836569,"i_lat":-6.14505,"station_name":"Rajawali","time":5,"is_transit":false,"line":11}],[{"station_name":"Jayakarta","station_id":"JAY","is_transit":false,"line":7,"distance":0,"transit":false,"i_lat":-6.141205,"i_long":106.820901,"time":0},{"station_name":"Jakarta Kota","station_id":"JAKK","time":4,"distance":1264,"transit":true,"line":0,"is_transit":true,"i_long":106.812439,"i_lat":-6.137569},{"transit":false,"station_name":"Kampung Bandan","station_id":"KPB","distance":1364,"i_long":106.826365,"is_transit":true,"time":3,"i_lat":-6.132549,"line":0},{"distance":4102,"transit":false,"is_transit":false,"i_long":106.79867,"station_name":"Angke","time":9,"line":0,"i_lat":-6.144674,"station_id":"AK"},{"time":4,"line":1,"transit":true,"is_transit":true,"i_lat":-6.155215,"station_id":"DU","station_name":"Duri","i_long":106.800832,"distance":1230},{"station_id":"THB","is_transit":true,"distance":3632,"time":8,"station_name":"Tanah Abang","i_lat":-6.185545,"line":1,"transit":false,"i_long":106.811091},{"i_lat":-6.20132,"station_id":"KAT","station_name":"Karet","transit":false,"line":1,"is_transit":false,"time":5,"distance":2029,"i_long":106.816351},{"station_name":"Sudirman Baru","time":1,"transit":false,"i_lat":-6.201433,"is_transit":false,"distance":471,"line":1,"station_id":"SUDB","i_long":106.819881},{"i_lat":-6.202263,"is_transit":false,"station_id":"SUD","time":1,"distance":280,"line":1,"transit":false,"station_name":"Sudirman","i_long":106.822649},{"station_id":"MRI","line":0,"transit":false,"is_transit":true,"i_long":106.84912,"distance":3186,"station_name":"Manggarai","i_lat":-6.209883,"time":4},{"time":2,"distance":1275,"i_lat":-6.212485,"i_long":106.858896,"station_name":"Matraman","station_id":"MTR","is_transit":false,"transit":false,"line":1},{"i_long":106.86807400000001,"station_id":"JNG","station_name":"Jatinegara","is_transit":true,"time":8,"distance":1377,"line":0,"transit":true,"i_lat":-6.215091},{"time":2,"line":11,"distance":1236,"transit":false,"station_id":"POK","station_name":"Pondok Jati","i_long":106.861737,"is_transit":false,"i_lat":-6.209188},{"time":2,"i_long":106.855437,"transit":false,"line":11,"station_id":"KMT","station_name":"Kramat","distance":1829,"is_transit":false,"i_lat":-6.193792},{"i_long":106.850107,"station_id":"GST","time":1,"distance":973,"is_transit":false,"transit":false,"station_name":"Gang Sentiong","i_lat":-6.185975,"line":11},{"line":11,"distance":1567,"time":8,"i_lat":-6.174784,"transit":false,"station_name":"Pasar Senen","i_long":106.84368,"station_id":"PSE","is_transit":false},{"station_name":"Kemayoran","station_id":"KMO","distance":1436,"transit":false,"i_long":106.839204,"time":4,"i_lat":-6.161728,"is_transit":false,"line":11},{"line":11,"distance":1901,"station_name":"Rajawali","transit":false,"i_lat":-6.14505,"is_transit":false,"i_long":106.836569,"station_id":"RJW","time":5}]]}