{"data":[[{"station_name":"Jayakarta","is_transit":false,"distance":0,"i_lat":-6.141205,"station_id":"JAY","i_long":106.820901,"line":2,"time":0,"transit":false},{"time":4,"i_long":106.812439,"line":2,"station_id":"JAKK","station_name":"Jakarta Kota","distance":1264,"i_lat":-6.137569,"is_transit":true,"transit":true},{"i_lat":-6.132549,"is_transit":true,"transit":true,"station_name":"Kampung Bandan","i_long":106.826365,"time":3,"station_id":"KPB","distance":1364,"line":4},{"station_name":"Ancol","i_long":106.84464,"is_transit":false,"i_lat":-6.128023,"time":4,"transit":false,"line":4,"distance":2185,"station_id":"AC"},{"time":9,"station_name":"Tanjung Priuk","transit":false,"station_id":"TPK","i_lat":-6.1109480000000005,"is_transit":false,"line":4,"distance":4566,"i_long":106.880089}],[{"station_id":"JAY","is_transit":false,"distance":0,"transit":false,"i_lat":-6.141205,"station_name":"Jayakarta","time":0,"i_long":106.820901,"line":2},{"transit":false,"i_lat":-6.149769,"time":2,"i_long":106.82482,"is_transit":false,"distance":1080,"station_name":"Manggabesar","station_id":"MGB","line":2},{"station_name":"Sawah Besar","time":2,"is_transit":false,"transit":false,"distance":906,"i_lat":-6.160725,"station_id":"SW","i_long":106.827103,"line":2},{"is_transit":false,"station_id":"JUA","line":2,"distance":1149,"station_name":"Juanda","transit":false,"i_long":106.828284,"i_lat":-6.166716,"time":2},{"i_long":106.832183,"time":4,"is_transit":false,"line":2,"transit":false,"i_lat":-6.186295,"station_name":"Gondangdia","distance":2015,"station_id":"GDD"},{"distance":1750,"is_transit":false,"time":3,"i_lat":-6.198556,"station_id":"CKI","station_name":"Cikini","transit":false,"line":2,"i_long":106.840169},{"is_transit":true,"station_name":"Manggarai","i_lat":-6.209883,"i_long":106.84912,"distance":1590,"time":4,"station_id":"MRI","line":2,"transit":true},{"i_long":106.822649,"is_transit":false,"i_lat":-6.202263,"distance":3186,"time":4,"station_id":"SUD","station_name":"Sudirman","transit":false,"line":1},{"transit":false,"i_lat":-6.201433,"i_long":106.819881,"is_transit":false,"station_name":"Sudirman Baru","station_id":"SUDB","time":1,"distance":280,"line":1},{"i_long":106.816351,"distance":471,"station_id":"KAT","i_lat":-6.20132,"transit":false,"line":1,"time":1,"is_transit":false,"station_name":"Karet"},{"i_lat":-6.185545,"transit":false,"time":5,"i_long":106.811091,"line":1,"station_id":"THB","station_name":"Tanah Abang","is_transit":false,"distance":2029},{"is_transit":false,"station_name":"Duri","transit":false,"distance":3632,"time":8,"i_lat":-6.155215,"station_id":"DU","i_long":106.800832,"line":1},{"distance":1230,"is_transit":false,"transit":false,"i_lat":-6.144674,"station_id":"AK","i_long":106.79867,"time":4,"line":1,"station_name":"Angke"},{"time":9,"transit":true,"station_id":"KPB","distance":4102,"is_transit":true,"station_name":"Kampung Bandan","i_lat":-6.132549,"i_long":106.826365,"line":4},{"station_id":"AC","transit":false,"i_long":106.84464,"distance":2185,"is_transit":false,"line":4,"i_lat":-6.128023,"station_name":"Ancol","time":4},{"distance":4566,"station_id":"TPK","is_transit":false,"transit":false,"station_name":"Tanjung Priuk","time":9,"i_long":106.880089,"i_lat":-6.1109480000000005,"line":4}],[{"is_transit":false,"transit":false,"station_name":"Jayakarta","distance":0,"station_id":"JAY","time":0,"i_lat":-6.141205,"line":2,"i_long":106.820901},{"i_lat":-6.149769,"transit":false,"line":2,"i_long":106.82482,"distance":1080,"station_id":"MGB","time":2,"is_transit":false,"station_name":"Manggabesar"},{"time":2,"i_lat":-6.160725,"station_name":"Sawah Besar","station_id":"SW","transit":false,"is_transit":false,"distance":906,"i_long":106.827103,"line":2},{"is_transit":false,"i_lat":-6.166716,"distance":1149,"time":2,"line":2,"station_id":"JUA","transit":false,"i_long":106.828284,"station_name":"Juanda"},{"station_id":"GDD","transit":false,"i_lat":-6.186295,"line":2,"is_transit":false,"distance":2015,"station_name":"Gondangdia","i_long":106.832183,"time":4},{"station_id":"CKI","is_transit":false,"distance":1750,"station_name":"Cikini","transit":false,"i_long":106.840169,"time":3,"i_lat":-6.198556,"line":2},{"station_id":"MRI","distance":1590,"i_lat":-6.209883,"i_long":106.84912,"is_transit":true,"station_name":"Manggarai","transit":true,"time":4,"line":2},{"i_long":106.858896,"distance":1275,"i_lat":-6.212485,"is_transit":false,"station_id":"MTR","time":2,"station_name":"Matraman","line":1,"transit":false},{"is_transit":true,"distance":1377,"station_id":"JNG","station_name":"Jatinegara","transit":true,"i_lat":-6.215091,"i_long":106.86807400000001,"line":1,"time":8},{"transit":false,"i_long":106.861737,"line":11,"i_lat":-6.209188,"station_name":"Pondok Jati","distance":1236,"station_id":"POK","time":2,"is_transit":false},{"i_lat":-6.193792,"time":2,"i_long":106.855437,"distance":1829,"station_name":"Kramat","is_transit":false,"transit":false,"line":11,"station_id":"KMT"},{"distance":973,"station_name":"Gang Sentiong","is_transit":false,"i_long":106.850107,"station_id":"GST","time":1,"i_lat":-6.185975,"line":11,"transit":false},{"time":8,"is_transit":false,"distance":1567,"i_lat":-6.174784,"station_name":"Pasar Senen","i_long":106.84368,"transit":false,"line":11,"station_id":"PSE"},{"time":4,"i_long":106.839204,"station_id":"KMO","i_lat":-6.161728,"line":11,"station_name":"Kemayoran","is_transit":false,"transit":false,"distance":1436},{"time":5,"i_long":106.836569,"line":11,"station_name":"Rajawali","station_id":"RJW","distance":1901,"i_lat":-6.14505,"is_transit":false,"transit":false},{"i_lat":-6.132549,"transit":true,"station_name":"Kampung Bandan","station_id":"KPB","i_long":106.826365,"line":4,"distance":1444,"time":3,"is_transit":true},{"transit":false,"station_id":"AC","i_lat":-6.128023,"line":4,"time":4,"station_name":"Ancol","is_transit":false,"i_long":106.84464,"distance":2185},{"i_lat":-6.1109480000000005,"station_id":"TPK","station_name":"Tanjung Priuk","time":9,"i_long":106.880089,"transit":false,"line":4,"distance":4566,"is_transit":false}]]}