{"data":[[{"i_lat":-6.141205,"i_long":106.820901,"line":7,"distance":0,"station_id":"JAY","is_transit":false,"station_name":"Jayakarta","transit":false,"time":0},{"distance":1264,"station_id":"JAKK","i_long":106.812439,"station_name":"Jakarta Kota","line":0,"time":4,"i_lat":-6.137569,"transit":true,"is_transit":true},{"line":0,"is_transit":true,"i_lat":-6.132549,"time":3,"i_long":106.826365,"station_name":"Kampung Bandan","transit":false,"distance":1364,"station_id":"KPB"},{"time":9,"transit":false,"line":0,"is_transit":false,"distance":4102,"i_lat":-6.144674,"i_long":106.79867,"station_name":"Angke","station_id":"AK"},{"time":4,"station_name":"Duri","transit":true,"station_id":"DU","line":1,"i_long":106.800832,"is_transit":true,"i_lat":-6.155215,"distance":1230},{"station_id":"THB","station_name":"Tanah Abang","time":8,"distance":3632,"i_long":106.811091,"is_transit":true,"transit":true,"i_lat":-6.185545,"line":1},{"station_name":"Palmerah","i_long":106.79689,"distance":3191,"i_lat":-6.207404,"transit":false,"line":6,"station_id":"PLM","time":6,"is_transit":false},{"i_long":106.780334,"station_id":"KBY","line":6,"is_transit":false,"transit":false,"time":7,"distance":3737,"station_name":"Kebayoran","i_lat":-6.237242},{"distance":6218,"line":6,"is_transit":false,"station_id":"PDJ","transit":false,"station_name":"Pondokranji","i_long":106.74273,"i_lat":-6.276362,"time":8}],[{"i_lat":-6.141205,"distance":0,"line":7,"is_transit":false,"i_long":106.820901,"station_name":"Jayakarta","station_id":"JAY","time":0,"transit":false},{"i_long":106.82482,"line":2,"station_name":"Manggabesar","is_transit":false,"transit":false,"i_lat":-6.149769,"distance":1080,"station_id":"MGB","time":2},{"line":2,"is_transit":false,"distance":906,"i_lat":-6.160725,"station_id":"SW","time":2,"i_long":106.827103,"station_name":"Sawah Besar","transit":false},{"transit":false,"is_transit":false,"station_id":"JUA","station_name":"Juanda","i_lat":-6.166716,"i_long":106.828284,"line":2,"time":2,"distance":1149},{"is_transit":false,"station_name":"Gondangdia","time":4,"i_long":106.832183,"transit":false,"distance":2015,"i_lat":-6.186295,"station_id":"GDD","line":2},{"is_transit":false,"station_id":"CKI","time":3,"distance":1750,"i_long":106.840169,"transit":false,"station_name":"Cikini","line":0,"i_lat":-6.198556},{"station_id":"MRI","is_transit":true,"station_name":"Manggarai","time":4,"transit":true,"i_long":106.84912,"line":0,"distance":1590,"i_lat":-6.209883},{"time":4,"line":1,"station_name":"Sudirman","is_transit":false,"transit":false,"i_lat":-6.202263,"station_id":"SUD","distance":3186,"i_long":106.822649},{"is_transit":false,"line":1,"i_long":106.819881,"transit":false,"time":1,"station_name":"Sudirman Baru","i_lat":-6.201433,"distance":280,"station_id":"SUDB"},{"station_name":"Karet","distance":471,"time":1,"i_long":106.816351,"line":1,"transit":false,"i_lat":-6.20132,"station_id":"KAT","is_transit":false},{"station_name":"Tanah Abang","i_lat":-6.185545,"line":1,"transit":true,"is_transit":true,"station_id":"THB","time":5,"i_long":106.811091,"distance":2029},{"transit":false,"time":6,"is_transit":false,"i_lat":-6.207404,"line":6,"i_long":106.79689,"station_id":"PLM","station_name":"Palmerah","distance":3191},{"time":7,"station_id":"KBY","i_long":106.780334,"line":6,"transit":false,"station_name":"Kebayoran","distance":3737,"is_transit":false,"i_lat":-6.237242},{"time":8,"i_lat":-6.276362,"is_transit":false,"distance":6218,"i_long":106.74273,"transit":false,"line":6,"station_id":"PDJ","station_name":"Pondokranji"}],[{"distance":0,"transit":false,"station_name":"Jayakarta","line":7,"i_long":106.820901,"is_transit":false,"time":0,"i_lat":-6.141205,"station_id":"JAY"},{"distance":1264,"i_lat":-6.137569,"line":0,"is_transit":true,"station_id":"JAKK","station_name":"Jakarta Kota","time":4,"transit":true,"i_long":106.812439},{"transit":true,"is_transit":true,"time":3,"station_name":"Kampung Bandan","i_long":106.826365,"line":0,"i_lat":-6.132549,"distance":1364,"station_id":"KPB"},{"line":11,"transit":false,"distance":1444,"station_id":"RJW","time":3,"is_transit":false,"i_long":106.836569,"station_name":"Rajawali","i_lat":-6.14505},{"station_name":"Kemayoran","line":11,"station_id":"KMO","i_long":106.839204,"distance":1901,"transit":false,"i_lat":-6.161728,"is_transit":false,"time":5},{"line":11,"transit":false,"time":4,"distance":1436,"station_id":"PSE","i_lat":-6.174784,"is_transit":false,"station_name":"Pasar Senen","i_long":106.84368},{"station_id":"GST","station_name":"Gang Sentiong","time":8,"line":11,"transit":false,"distance":1567,"i_lat":-6.185975,"i_long":106.850107,"is_transit":false},{"is_transit":false,"station_name":"Kramat","transit":false,"station_id":"KMT","time":1,"i_lat":-6.193792,"distance":973,"i_long":106.855437,"line":11},{"line":11,"i_long":106.861737,"i_lat":-6.209188,"is_transit":false,"transit":false,"distance":1829,"station_id":"POK","station_name":"Pondok Jati","time":2},{"i_lat":-6.215091,"distance":1236,"station_id":"JNG","station_name":"Jatinegara","time":9,"i_long":106.86807400000001,"line":0,"transit":true,"is_transit":true},{"station_name":"Matraman","distance":1377,"is_transit":false,"transit":false,"i_long":106.858896,"station_id":"MTR","time":2,"i_lat":-6.212485,"line":1},{"line":0,"station_id":"MRI","transit":false,"time":2,"i_lat":-6.209883,"i_long":106.84912,"is_transit":true,"distance":1275,"station_name":"Manggarai"},{"is_transit":false,"station_name":"Sudirman","transit":false,"time":4,"i_lat":-6.202263,"station_id":"SUD","i_long":106.822649,"distance":3186,"line":1},{"i_long":106.819881,"distance":280,"station_id":"SUDB","station_name":"Sudirman Baru","time":1,"i_lat":-6.201433,"line":1,"is_transit":false,"transit":false},{"line":1,"i_lat":-6.20132,"i_long":106.816351,"time":1,"station_id":"KAT","distance":471,"is_transit":false,"station_name":"Karet","transit":false},{"is_transit":true,"time":5,"distance":2029,"i_long":106.811091,"transit":true,"line":1,"station_id":"THB","i_lat":-6.185545,"station_name":"Tanah Abang"},{"time":6,"i_long":106.79689,"station_name":"Palmerah","transit":false,"is_transit":false,"station_id":"PLM","line":6,"i_lat":-6.207404,"distance":3191},{"station_id":"KBY","i_long":106.780334,"time":7,"i_lat":-6.237242,"line":6,"is_transit":false,"transit":false,"station_name":"Kebayoran","distance":3737},{"transit":false,"i_lat":-6.276362,"station_name":"Pondokranji","is_transit":false,"time":8,"i_long":106.74273,"line":6,"station_id":"PDJ","distance":6218}],[{"distance":0,"station_name":"Jayakarta","is_transit":false,"time":0,"transit":false,"i_lat":-6.141205,"line":7,"i_long":106.820901,"station_id":"JAY"},{"is_transit":false,"i_lat":-6.149769,"distance":1080,"station_id":"MGB","station_name":"Manggabesar","time":2,"transit":false,"i_long":106.82482,"line":2},{"is_transit":false,"i_long":106.827103,"line":2,"station_id":"SW","time":2,"transit":false,"distance":906,"i_lat":-6.160725,"station_name":"Sawah Besar"},{"is_transit":false,"i_lat":-6.166716,"line":2,"time":2,"transit":false,"station_id":"JUA","i_long":106.828284,"distance":1149,"station_name":"Juanda"},{"station_id":"GDD","transit":false,"time":4,"i_lat":-6.186295,"station_name":"Gondangdia","i_long":106.832183,"is_transit":false,"distance":2015,"line":2},{"time":3,"is_transit":false,"station_id":"CKI","station_name":"Cikini","i_lat":-6.198556,"transit":false,"i_long":106.840169,"distance":1750,"line":0},{"time":4,"i_long":106.84912,"station_name":"Manggarai","is_transit":true,"line":0,"distance":1590,"station_id":"MRI","transit":true,"i_lat":-6.209883},{"line":1,"station_id":"MTR","i_lat":-6.212485,"time":2,"is_transit":false,"i_long":106.858896,"transit":false,"station_name":"Matraman","distance":1275},{"station_name":"Jatinegara","time":8,"i_lat":-6.215091,"i_long":106.86807400000001,"is_transit":true,"transit":true,"distance":1377,"station_id":"JNG","line":0},{"station_name":"Pondok Jati","is_transit":false,"distance":1236,"time":2,"i_long":106.861737,"station_id":"POK","i_lat":-6.209188,"line":11,"transit":false},{"time":2,"station_id":"KMT","i_lat":-6.193792,"is_transit":false,"line":11,"station_name":"Kramat","transit":false,"distance":1829,"i_long":106.855437},{"distance":973,"i_lat":-6.185975,"is_transit":false,"station_id":"GST","transit":false,"time":1,"i_long":106.850107,"line":11,"station_name":"Gang Sentiong"},{"transit":false,"i_lat":-6.174784,"distance":1567,"i_long":106.84368,"time":8,"is_transit":false,"station_id":"PSE","line":11,"station_name":"Pasar Senen"},{"time":4,"distance":1436,"transit":false,"station_name":"Kemayoran","i_lat":-6.161728,"line":11,"i_long":106.839204,"is_transit":false,"station_id":"KMO"},{"i_long":106.836569,"is_transit":false,"station_id":"RJW","time":5,"i_lat":-6.14505,"line":11,"station_name":"Rajawali","distance":1901,"transit":false},{"time":3,"station_name":"Kampung Bandan","is_transit":true,"station_id":"KPB","distance":1444,"transit":true,"line":0,"i_long":106.826365,"i_lat":-6.132549},{"station_name":"Angke","distance":4102,"station_id":"AK","line":0,"i_lat":-6.144674,"is_transit":false,"i_long":106.79867,"transit":false,"time":9},{"line":1,"i_long":106.800832,"time":4,"station_name":"Duri","station_id":"DU","is_transit":true,"distance":1230,"transit":true,"i_lat":-6.155215},{"transit":true,"is_transit":true,"i_lat":-6.185545,"time":8,"distance":3632,"station_name":"Tanah Abang","station_id":"THB","line":1,"i_long":106.811091},{"time":6,"transit":false,"line":6,"station_name":"Palmerah","i_long":106.79689,"station_id":"PLM","is_transit":false,"i_lat":-6.207404,"distance":3191},{"distance":3737,"is_transit":false,"line":6,"station_id":"KBY","time":7,"i_lat":-6.237242,"station_name":"Kebayoran","transit":false,"i_long":106.780334},{"station_name":"Pondokranji","is_transit":false,"i_long":106.74273,"time":8,"station_id":"PDJ","distance":6218,"i_lat":-6.276362,"transit":false,"line":6}]]}