{"data":[[{"station_name":"Jayakarta","i_long":106.820901,"time":0,"transit":false,"station_id":"JAY","is_transit":false,"distance":0,"i_lat":-6.141205,"line":2},{"is_transit":true,"distance":1264,"line":2,"transit":true,"i_lat":-6.137569,"station_name":"Jakarta Kota","station_id":"JAKK","time":4,"i_long":106.812439},{"time":3,"transit":true,"station_name":"Kampung Bandan","distance":1364,"station_id":"KPB","line":4,"i_lat":-6.132549,"is_transit":true,"i_long":106.826365},{"distance":4102,"station_id":"AK","line":1,"transit":false,"i_lat":-6.144674,"is_transit":false,"time":9,"station_name":"Angke","i_long":106.79867},{"line":1,"is_transit":false,"station_id":"DU","i_lat":-6.155215,"distance":1230,"station_name":"Duri","time":4,"transit":false,"i_long":106.800832},{"i_lat":-6.185545,"is_transit":true,"transit":true,"station_id":"THB","distance":3632,"i_long":106.811091,"line":1,"time":8,"station_name":"Tanah Abang"},{"transit":false,"station_id":"PLM","time":6,"i_lat":-6.207404,"i_long":106.79689,"distance":3191,"is_transit":false,"line":6,"station_name":"Palmerah"},{"i_lat":-6.237242,"distance":3737,"line":6,"is_transit":false,"station_id":"KBY","time":7,"transit":false,"i_long":106.780334,"station_name":"Kebayoran"},{"station_name":"Pondokranji","i_long":106.74273,"transit":false,"i_lat":-6.276362,"line":6,"distance":6218,"is_transit":false,"time":8,"station_id":"PDJ"},{"is_transit":false,"transit":false,"distance":2179,"station_name":"Jurangmangu","i_lat":-6.288927,"i_long":106.728916,"station_id":"JMU","line":6,"time":3},{"is_transit":false,"i_long":106.712277,"i_lat":-6.296963,"station_id":"SDM","distance":1994,"station_name":"Sudimara","time":4,"transit":false,"line":6},{"station_name":"Rawa Buntu","time":6,"i_lat":-6.314823,"line":6,"i_long":106.675475,"is_transit":false,"distance":4566,"station_id":"RU","transit":false},{"distance":2413,"is_transit":false,"station_id":"SRP","transit":false,"time":4,"station_name":"Serpong","i_lat":-6.319871,"i_long":106.66566,"line":6},{"time":4,"is_transit":false,"i_long":106.640411,"transit":false,"i_lat":-6.32484,"distance":1784,"station_id":"CSK","station_name":"Cisauk","line":3},{"station_name":"Cicayur","transit":false,"i_lat":-6.329547,"is_transit":false,"station_id":"CC","line":3,"distance":2519,"time":4,"i_long":106.617853},{"distance":5968,"line":6,"i_lat":-6.3441410000000005,"station_id":"PRP","station_name":"Parung Panjang","transit":false,"time":8,"is_transit":false,"i_long":106.568863},{"station_id":"CJT","is_transit":false,"distance":7025,"station_name":"Cilejit","transit":false,"line":3,"i_lat":-6.354349,"i_long":106.508482,"time":9},{"i_long":106.491338,"transit":false,"i_lat":-6.338021,"time":6,"station_name":"Daru","distance":2675,"station_id":"DAR","is_transit":false,"line":0},{"station_name":"Tenjo","i_long":106.460812,"line":6,"i_lat":-6.327251,"transit":false,"is_transit":false,"station_id":"TEJ","distance":3902,"time":5},{"i_long":106.425991,"time":5,"is_transit":false,"station_id":"TGS","i_lat":-6.328533,"line":6,"distance":2974,"transit":false,"station_name":"Tigaraksa"},{"transit":false,"station_name":"Cikoya","is_transit":false,"distance":2651,"station_id":"CKY","i_lat":-6.33561,"time":3,"line":3,"i_long":106.411216}],[{"i_long":106.820901,"time":0,"transit":false,"i_lat":-6.141205,"station_name":"Jayakarta","is_transit":false,"distance":0,"station_id":"JAY","line":2},{"station_name":"Manggabesar","transit":false,"station_id":"MGB","time":2,"is_transit":false,"distance":1080,"line":2,"i_long":106.82482,"i_lat":-6.149769},{"station_id":"SW","time":2,"transit":false,"distance":906,"i_lat":-6.160725,"is_transit":false,"line":2,"i_long":106.827103,"station_name":"Sawah Besar"},{"station_name":"Juanda","distance":1149,"i_long":106.828284,"line":2,"i_lat":-6.166716,"time":2,"station_id":"JUA","is_transit":false,"transit":false},{"station_name":"Gondangdia","time":4,"station_id":"GDD","transit":false,"i_long":106.832183,"line":2,"i_lat":-6.186295,"distance":2015,"is_transit":false},{"line":2,"i_lat":-6.198556,"transit":false,"station_id":"CKI","time":3,"distance":1750,"i_long":106.840169,"station_name":"Cikini","is_transit":false},{"is_transit":true,"time":4,"station_id":"MRI","line":2,"i_lat":-6.209883,"i_long":106.84912,"transit":true,"distance":1590,"station_name":"Manggarai"},{"transit":false,"is_transit":false,"line":1,"i_long":106.822649,"station_id":"SUD","distance":3186,"i_lat":-6.202263,"time":4,"station_name":"Sudirman"},{"station_name":"Sudirman Baru","line":1,"is_transit":false,"time":1,"transit":false,"station_id":"SUDB","i_lat":-6.201433,"i_long":106.819881,"distance":280},{"distance":471,"time":1,"transit":false,"station_name":"Karet","i_long":106.816351,"i_lat":-6.20132,"station_id":"KAT","line":1,"is_transit":false},{"distance":2029,"is_transit":true,"i_lat":-6.185545,"i_long":106.811091,"transit":true,"station_name":"Tanah Abang","line":1,"time":5,"station_id":"THB"},{"is_transit":false,"i_lat":-6.207404,"station_name":"Palmerah","station_id":"PLM","transit":false,"i_long":106.79689,"line":6,"distance":3191,"time":6},{"time":7,"i_long":106.780334,"is_transit":false,"i_lat":-6.237242,"distance":3737,"station_id":"KBY","transit":false,"station_name":"Kebayoran","line":6},{"distance":6218,"transit":false,"line":6,"is_transit":false,"i_lat":-6.276362,"station_name":"Pondokranji","station_id":"PDJ","time":8,"i_long":106.74273},{"distance":2179,"i_lat":-6.288927,"transit":false,"i_long":106.728916,"is_transit":false,"station_name":"Jurangmangu","station_id":"JMU","line":6,"time":3},{"time":4,"transit":false,"is_transit":false,"station_name":"Sudimara","i_long":106.712277,"line":6,"distance":1994,"station_id":"SDM","i_lat":-6.296963},{"line":6,"is_transit":false,"i_long":106.675475,"i_lat":-6.314823,"transit":false,"station_id":"RU","time":6,"distance":4566,"station_name":"Rawa Buntu"},{"station_id":"SRP","i_long":106.66566,"station_name":"Serpong","distance":2413,"line":6,"is_transit":false,"i_lat":-6.319871,"transit":false,"time":4},{"station_id":"CSK","transit":false,"line":3,"station_name":"Cisauk","time":4,"i_long":106.640411,"is_transit":false,"distance":1784,"i_lat":-6.32484},{"station_name":"Cicayur","is_transit":false,"time":4,"distance":2519,"i_lat":-6.329547,"i_long":106.617853,"line":3,"station_id":"CC","transit":false},{"transit":false,"station_name":"Parung Panjang","station_id":"PRP","i_long":106.568863,"line":6,"i_lat":-6.3441410000000005,"distance":5968,"is_transit":false,"time":8},{"station_name":"Cilejit","i_lat":-6.354349,"distance":7025,"line":3,"time":9,"i_long":106.508482,"transit":false,"is_transit":false,"station_id":"CJT"},{"time":6,"is_transit":false,"transit":false,"distance":2675,"station_name":"Daru","i_lat":-6.338021,"line":0,"station_id":"DAR","i_long":106.491338},{"station_name":"Tenjo","transit":false,"distance":3902,"time":5,"line":6,"station_id":"TEJ","i_lat":-6.327251,"is_transit":false,"i_long":106.460812},{"transit":false,"station_name":"Tigaraksa","i_long":106.425991,"i_lat":-6.328533,"line":6,"station_id":"TGS","distance":2974,"time":5,"is_transit":false},{"is_transit":false,"line":3,"i_long":106.411216,"time":3,"transit":false,"station_name":"Cikoya","distance":2651,"i_lat":-6.33561,"station_id":"CKY"}],[{"transit":false,"i_lat":-6.141205,"station_id":"JAY","i_long":106.820901,"distance":0,"is_transit":false,"time":0,"station_name":"Jayakarta","line":2},{"i_lat":-6.137569,"transit":true,"is_transit":true,"i_long":106.812439,"station_id":"JAKK","line":2,"distance":1264,"station_name":"Jakarta Kota","time":4},{"i_long":106.826365,"i_lat":-6.132549,"line":4,"station_id":"KPB","is_transit":true,"distance":1364,"time":3,"station_name":"Kampung Bandan","transit":true},{"station_name":"Rajawali","station_id":"RJW","transit":false,"line":11,"i_lat":-6.14505,"i_long":106.836569,"distance":1444,"is_transit":false,"time":3},{"is_transit":false,"i_long":106.839204,"line":11,"time":5,"transit":false,"station_id":"KMO","distance":1901,"station_name":"Kemayoran","i_lat":-6.161728},{"station_id":"PSE","time":4,"line":11,"station_name":"Pasar Senen","is_transit":false,"transit":false,"i_lat":-6.174784,"i_long":106.84368,"distance":1436},{"transit":false,"station_name":"Gang Sentiong","is_transit":false,"distance":1567,"line":11,"time":8,"station_id":"GST","i_long":106.850107,"i_lat":-6.185975},{"station_id":"KMT","time":1,"distance":973,"i_long":106.855437,"is_transit":false,"transit":false,"line":11,"station_name":"Kramat","i_lat":-6.193792},{"is_transit":false,"line":11,"i_lat":-6.209188,"i_long":106.861737,"time":2,"transit":false,"distance":1829,"station_name":"Pondok Jati","station_id":"POK"},{"is_transit":true,"line":1,"transit":true,"station_name":"Jatinegara","i_lat":-6.215091,"distance":1236,"station_id":"JNG","time":9,"i_long":106.86807400000001},{"distance":1377,"i_long":106.858896,"i_lat":-6.212485,"time":2,"is_transit":false,"transit":false,"station_id":"MTR","station_name":"Matraman","line":1},{"is_transit":false,"time":2,"station_name":"Manggarai","i_lat":-6.209883,"i_long":106.84912,"distance":1275,"line":2,"transit":false,"station_id":"MRI"},{"time":4,"distance":3186,"line":1,"i_lat":-6.202263,"transit":false,"station_name":"Sudirman","is_transit":false,"station_id":"SUD","i_long":106.822649},{"distance":280,"time":1,"i_long":106.819881,"transit":false,"station_id":"SUDB","i_lat":-6.201433,"station_name":"Sudirman Baru","is_transit":false,"line":1},{"station_name":"Karet","i_lat":-6.20132,"line":1,"distance":471,"i_long":106.816351,"station_id":"KAT","transit":false,"is_transit":false,"time":1},{"line":1,"i_long":106.811091,"is_transit":true,"station_id":"THB","transit":true,"distance":2029,"time":5,"station_name":"Tanah Abang","i_lat":-6.185545},{"station_name":"Palmerah","i_lat":-6.207404,"transit":false,"time":6,"i_long":106.79689,"station_id":"PLM","line":6,"is_transit":false,"distance":3191},{"is_transit":false,"station_id":"KBY","transit":false,"time":7,"distance":3737,"station_name":"Kebayoran","line":6,"i_long":106.780334,"i_lat":-6.237242},{"distance":6218,"is_transit":false,"i_lat":-6.276362,"station_name":"Pondokranji","i_long":106.74273,"line":6,"transit":false,"time":8,"station_id":"PDJ"},{"i_long":106.728916,"station_id":"JMU","is_transit":false,"line":6,"i_lat":-6.288927,"distance":2179,"time":3,"transit":false,"station_name":"Jurangmangu"},{"station_name":"Sudimara","i_long":106.712277,"time":4,"i_lat":-6.296963,"is_transit":false,"transit":false,"distance":1994,"line":6,"station_id":"SDM"},{"station_name":"Rawa Buntu","is_transit":false,"station_id":"RU","i_lat":-6.314823,"line":6,"transit":false,"time":6,"distance":4566,"i_long":106.675475},{"i_long":106.66566,"line":6,"transit":false,"is_transit":false,"i_lat":-6.319871,"station_id":"SRP","time":4,"distance":2413,"station_name":"Serpong"},{"station_id":"CSK","transit":false,"distance":1784,"station_name":"Cisauk","time":4,"i_lat":-6.32484,"i_long":106.640411,"line":3,"is_transit":false},{"i_lat":-6.329547,"station_id":"CC","transit":false,"is_transit":false,"i_long":106.617853,"line":3,"time":4,"station_name":"Cicayur","distance":2519},{"is_transit":false,"station_id":"PRP","transit":false,"distance":5968,"i_lat":-6.3441410000000005,"time":8,"station_name":"Parung Panjang","i_long":106.568863,"line":6},{"i_lat":-6.354349,"i_long":106.508482,"station_id":"CJT","line":3,"transit":false,"is_transit":false,"time":9,"station_name":"Cilejit","distance":7025},{"station_id":"DAR","transit":false,"distance":2675,"line":0,"i_long":106.491338,"i_lat":-6.338021,"station_name":"Daru","is_transit":false,"time":6},{"i_lat":-6.327251,"i_long":106.460812,"transit":false,"line":6,"station_id":"TEJ","time":5,"station_name":"Tenjo","is_transit":false,"distance":3902},{"station_name":"Tigaraksa","is_transit":false,"distance":2974,"i_lat":-6.328533,"transit":false,"i_long":106.425991,"line":6,"time":5,"station_id":"TGS"},{"station_id":"CKY","station_name":"Cikoya","distance":2651,"is_transit":false,"line":3,"time":3,"i_lat":-6.33561,"i_long":106.411216,"transit":false}],[{"station_id":"JAY","transit":false,"line":2,"station_name":"Jayakarta","i_lat":-6.141205,"distance":0,"is_transit":false,"i_long":106.820901,"time":0},{"i_long":106.82482,"transit":false,"station_name":"Manggabesar","is_transit":false,"distance":1080,"station_id":"MGB","line":2,"time":2,"i_lat":-6.149769},{"station_id":"SW","line":2,"i_long":106.827103,"i_lat":-6.160725,"station_name":"Sawah Besar","time":2,"is_transit":false,"transit":false,"distance":906},{"distance":1149,"station_name":"Juanda","i_lat":-6.166716,"is_transit":false,"i_long":106.828284,"transit":false,"line":2,"time":2,"station_id":"JUA"},{"i_long":106.832183,"distance":2015,"is_transit":false,"i_lat":-6.186295,"line":2,"station_name":"Gondangdia","time":4,"station_id":"GDD","transit":false},{"station_id":"CKI","time":3,"distance":1750,"line":2,"i_lat":-6.198556,"transit":false,"station_name":"Cikini","is_transit":false,"i_long":106.840169},{"time":4,"i_lat":-6.209883,"transit":true,"line":2,"i_long":106.84912,"is_transit":true,"station_id":"MRI","distance":1590,"station_name":"Manggarai"},{"station_name":"Matraman","transit":false,"i_long":106.858896,"is_transit":false,"time":2,"line":1,"distance":1275,"i_lat":-6.212485,"station_id":"MTR"},{"station_id":"JNG","distance":1377,"i_lat":-6.215091,"time":8,"transit":true,"is_transit":true,"station_name":"Jatinegara","i_long":106.86807400000001,"line":1},{"time":2,"line":11,"distance":1236,"station_name":"Pondok Jati","i_lat":-6.209188,"i_long":106.861737,"is_transit":false,"station_id":"POK","transit":false},{"station_id":"KMT","time":2,"i_long":106.855437,"transit":false,"distance":1829,"line":11,"station_name":"Kramat","i_lat":-6.193792,"is_transit":false},{"i_lat":-6.185975,"station_name":"Gang Sentiong","i_long":106.850107,"is_transit":false,"transit":false,"station_id":"GST","distance":973,"time":1,"line":11},{"i_lat":-6.174784,"distance":1567,"is_transit":false,"transit":false,"time":8,"line":11,"station_id":"PSE","i_long":106.84368,"station_name":"Pasar Senen"},{"time":4,"i_long":106.839204,"line":11,"transit":false,"station_id":"KMO","is_transit":false,"station_name":"Kemayoran","i_lat":-6.161728,"distance":1436},{"is_transit":false,"time":5,"i_long":106.836569,"station_id":"RJW","i_lat":-6.14505,"distance":1901,"transit":false,"station_name":"Rajawali","line":11},{"is_transit":true,"distance":1444,"i_lat":-6.132549,"line":4,"i_long":106.826365,"transit":true,"station_id":"KPB","station_name":"Kampung Bandan","time":3},{"transit":false,"time":9,"distance":4102,"station_name":"Angke","i_lat":-6.144674,"i_long":106.79867,"station_id":"AK","line":1,"is_transit":false},{"i_long":106.800832,"line":1,"time":4,"station_name":"Duri","station_id":"DU","transit":false,"i_lat":-6.155215,"is_transit":false,"distance":1230},{"is_transit":true,"time":8,"distance":3632,"i_long":106.811091,"line":1,"i_lat":-6.185545,"transit":true,"station_id":"THB","station_name":"Tanah Abang"},{"is_transit":false,"station_id":"PLM","distance":3191,"transit":false,"station_name":"Palmerah","i_long":106.79689,"line":6,"i_lat":-6.207404,"time":6},{"i_long":106.780334,"i_lat":-6.237242,"station_name":"Kebayoran","is_transit":false,"station_id":"KBY","transit":false,"line":6,"distance":3737,"time":7},{"distance":6218,"is_transit":false,"station_name":"Pondokranji","i_lat":-6.276362,"transit":false,"station_id":"PDJ","line":6,"i_long":106.74273,"time":8},{"i_lat":-6.288927,"distance":2179,"transit":false,"line":6,"time":3,"i_long":106.728916,"station_name":"Jurangmangu","is_transit":false,"station_id":"JMU"},{"transit":false,"station_name":"Sudimara","line":6,"time":4,"station_id":"SDM","is_transit":false,"distance":1994,"i_long":106.712277,"i_lat":-6.296963},{"is_transit":false,"time":6,"i_lat":-6.314823,"line":6,"transit":false,"distance":4566,"station_name":"Rawa Buntu","i_long":106.675475,"station_id":"RU"},{"i_lat":-6.319871,"station_name":"Serpong","i_long":106.66566,"is_transit":false,"line":6,"station_id":"SRP","transit":false,"distance":2413,"time":4},{"line":3,"is_transit":false,"distance":1784,"station_id":"CSK","i_lat":-6.32484,"i_long":106.640411,"transit":false,"time":4,"station_name":"Cisauk"},{"is_transit":false,"station_name":"Cicayur","line":3,"station_id":"CC","time":4,"i_lat":-6.329547,"transit":false,"distance":2519,"i_long":106.617853},{"line":6,"is_transit":false,"i_lat":-6.3441410000000005,"i_long":106.568863,"distance":5968,"station_name":"Parung Panjang","time":8,"station_id":"PRP","transit":false},{"line":3,"transit":false,"i_long":106.508482,"i_lat":-6.354349,"distance":7025,"station_id":"CJT","station_name":"Cilejit","is_transit":false,"time":9},{"line":0,"time":6,"station_id":"DAR","transit":false,"distance":2675,"i_long":106.491338,"station_name":"Daru","i_lat":-6.338021,"is_transit":false},{"is_transit":false,"transit":false,"time":5,"station_name":"Tenjo","i_long":106.460812,"line":6,"i_lat":-6.327251,"station_id":"TEJ","distance":3902},{"time":5,"station_name":"Tigaraksa","is_transit":false,"station_id":"TGS","i_long":106.425991,"line":6,"i_lat":-6.328533,"distance":2974,"transit":false},{"is_transit":false,"station_id":"CKY","station_name":"Cikoya","distance":2651,"i_lat":-6.33561,"line":3,"i_long":106.411216,"transit":false,"time":3}]]}