{"data":[[{"is_transit":false,"station_id":"JAY","station_name":"Jayakarta","distance":0,"line":2,"transit":false,"i_lat":-6.141205,"time":0,"i_long":106.820901},{"station_name":"Jakarta Kota","is_transit":true,"time":4,"line":2,"i_lat":-6.137569,"distance":1264,"station_id":"JAKK","i_long":106.812439,"transit":true},{"time":3,"station_name":"Kampung Bandan","line":4,"is_transit":true,"distance":1364,"transit":true,"station_id":"KPB","i_lat":-6.132549,"i_long":106.826365},{"station_id":"AK","time":9,"station_name":"Angke","line":1,"i_long":106.79867,"i_lat":-6.144674,"distance":4102,"transit":false,"is_transit":false},{"station_id":"DU","transit":false,"is_transit":false,"line":1,"time":4,"i_long":106.800832,"i_lat":-6.155215,"station_name":"Duri","distance":1230},{"i_long":106.811091,"distance":3632,"i_lat":-6.185545,"line":1,"is_transit":true,"station_id":"THB","transit":true,"station_name":"Tanah Abang","time":8},{"time":6,"i_long":106.79689,"is_transit":false,"station_name":"Palmerah","line":6,"transit":false,"station_id":"PLM","i_lat":-6.207404,"distance":3191},{"line":6,"station_name":"Kebayoran","transit":false,"station_id":"KBY","time":7,"is_transit":false,"i_long":106.780334,"i_lat":-6.237242,"distance":3737},{"station_id":"PDJ","line":6,"i_lat":-6.276362,"i_long":106.74273,"transit":false,"time":8,"is_transit":false,"station_name":"Pondokranji","distance":6218},{"time":3,"station_id":"JMU","distance":2179,"i_long":106.728916,"transit":false,"is_transit":false,"line":6,"i_lat":-6.288927,"station_name":"Jurangmangu"},{"station_id":"SDM","i_long":106.712277,"distance":1994,"i_lat":-6.296963,"is_transit":false,"time":4,"line":6,"station_name":"Sudimara","transit":false},{"station_id":"RU","time":6,"transit":false,"station_name":"Rawa Buntu","i_lat":-6.314823,"i_long":106.675475,"distance":4566,"line":6,"is_transit":false},{"time":4,"line":6,"transit":false,"is_transit":false,"station_id":"SRP","distance":2413,"station_name":"Serpong","i_long":106.66566,"i_lat":-6.319871},{"time":4,"station_name":"Cisauk","is_transit":false,"line":3,"i_long":106.640411,"transit":false,"station_id":"CSK","i_lat":-6.32484,"distance":1784},{"time":4,"distance":2519,"i_lat":-6.329547,"station_name":"Cicayur","station_id":"CC","transit":false,"is_transit":false,"i_long":106.617853,"line":3},{"station_name":"Parung Panjang","i_long":106.568863,"line":6,"station_id":"PRP","transit":false,"time":8,"is_transit":false,"i_lat":-6.3441410000000005,"distance":5968}],[{"distance":0,"is_transit":false,"station_name":"Jayakarta","line":2,"time":0,"i_long":106.820901,"station_id":"JAY","i_lat":-6.141205,"transit":false},{"is_transit":false,"i_long":106.82482,"distance":1080,"line":2,"station_id":"MGB","transit":false,"i_lat":-6.149769,"time":2,"station_name":"Manggabesar"},{"distance":906,"transit":false,"is_transit":false,"station_id":"SW","i_lat":-6.160725,"i_long":106.827103,"station_name":"Sawah Besar","line":2,"time":2},{"distance":1149,"transit":false,"is_transit":false,"i_long":106.828284,"time":2,"station_name":"Juanda","i_lat":-6.166716,"station_id":"JUA","line":2},{"transit":false,"station_id":"GDD","station_name":"Gondangdia","time":4,"i_lat":-6.186295,"i_long":106.832183,"distance":2015,"is_transit":false,"line":2},{"time":3,"station_name":"Cikini","distance":1750,"i_lat":-6.198556,"i_long":106.840169,"transit":false,"is_transit":false,"station_id":"CKI","line":2},{"is_transit":true,"i_lat":-6.209883,"time":4,"line":2,"station_id":"MRI","distance":1590,"station_name":"Manggarai","transit":true,"i_long":106.84912},{"line":1,"station_name":"Sudirman","distance":3186,"transit":false,"station_id":"SUD","time":4,"is_transit":false,"i_long":106.822649,"i_lat":-6.202263},{"i_long":106.819881,"transit":false,"time":1,"is_transit":false,"distance":280,"station_id":"SUDB","line":1,"station_name":"Sudirman Baru","i_lat":-6.201433},{"i_lat":-6.20132,"time":1,"station_id":"KAT","is_transit":false,"i_long":106.816351,"line":1,"distance":471,"transit":false,"station_name":"Karet"},{"distance":2029,"is_transit":true,"transit":true,"i_lat":-6.185545,"i_long":106.811091,"time":5,"station_name":"Tanah Abang","station_id":"THB","line":1},{"station_name":"Palmerah","time":6,"is_transit":false,"distance":3191,"transit":false,"station_id":"PLM","i_lat":-6.207404,"i_long":106.79689,"line":6},{"station_id":"KBY","line":6,"distance":3737,"time":7,"i_long":106.780334,"transit":false,"station_name":"Kebayoran","i_lat":-6.237242,"is_transit":false},{"i_lat":-6.276362,"is_transit":false,"time":8,"distance":6218,"station_id":"PDJ","transit":false,"i_long":106.74273,"station_name":"Pondokranji","line":6},{"time":3,"distance":2179,"station_id":"JMU","station_name":"Jurangmangu","transit":false,"is_transit":false,"line":6,"i_lat":-6.288927,"i_long":106.728916},{"is_transit":false,"station_name":"Sudimara","line":6,"i_lat":-6.296963,"station_id":"SDM","time":4,"distance":1994,"transit":false,"i_long":106.712277},{"station_id":"RU","station_name":"Rawa Buntu","i_lat":-6.314823,"transit":false,"i_long":106.675475,"distance":4566,"line":6,"time":6,"is_transit":false},{"time":4,"is_transit":false,"line":6,"station_name":"Serpong","i_long":106.66566,"transit":false,"station_id":"SRP","distance":2413,"i_lat":-6.319871},{"i_long":106.640411,"transit":false,"distance":1784,"is_transit":false,"station_id":"CSK","time":4,"line":3,"i_lat":-6.32484,"station_name":"Cisauk"},{"i_lat":-6.329547,"station_name":"Cicayur","station_id":"CC","i_long":106.617853,"is_transit":false,"distance":2519,"time":4,"transit":false,"line":3},{"station_id":"PRP","time":8,"distance":5968,"transit":false,"station_name":"Parung Panjang","is_transit":false,"line":6,"i_long":106.568863,"i_lat":-6.3441410000000005}],[{"is_transit":false,"distance":0,"i_long":106.820901,"i_lat":-6.141205,"line":2,"station_id":"JAY","station_name":"Jayakarta","transit":false,"time":0},{"distance":1264,"is_transit":true,"i_lat":-6.137569,"transit":true,"i_long":106.812439,"line":2,"station_name":"Jakarta Kota","station_id":"JAKK","time":4},{"line":4,"station_name":"Kampung Bandan","transit":true,"distance":1364,"is_transit":true,"station_id":"KPB","i_lat":-6.132549,"time":3,"i_long":106.826365},{"time":3,"station_id":"RJW","transit":false,"i_lat":-6.14505,"line":11,"distance":1444,"is_transit":false,"station_name":"Rajawali","i_long":106.836569},{"i_long":106.839204,"i_lat":-6.161728,"station_id":"KMO","distance":1901,"line":11,"time":5,"station_name":"Kemayoran","is_transit":false,"transit":false},{"i_lat":-6.174784,"line":11,"distance":1436,"is_transit":false,"station_id":"PSE","i_long":106.84368,"station_name":"Pasar Senen","time":4,"transit":false},{"time":8,"station_name":"Gang Sentiong","station_id":"GST","is_transit":false,"i_long":106.850107,"transit":false,"i_lat":-6.185975,"line":11,"distance":1567},{"transit":false,"i_lat":-6.193792,"station_name":"Kramat","i_long":106.855437,"is_transit":false,"station_id":"KMT","line":11,"time":1,"distance":973},{"i_long":106.861737,"line":11,"is_transit":false,"time":2,"distance":1829,"transit":false,"station_id":"POK","station_name":"Pondok Jati","i_lat":-6.209188},{"time":9,"i_lat":-6.215091,"i_long":106.86807400000001,"station_id":"JNG","station_name":"Jatinegara","is_transit":true,"line":1,"distance":1236,"transit":true},{"is_transit":false,"transit":false,"distance":1377,"station_id":"MTR","i_long":106.858896,"line":1,"station_name":"Matraman","time":2,"i_lat":-6.212485},{"is_transit":false,"i_long":106.84912,"station_id":"MRI","transit":false,"i_lat":-6.209883,"time":2,"distance":1275,"station_name":"Manggarai","line":2},{"distance":3186,"transit":false,"station_name":"Sudirman","station_id":"SUD","i_lat":-6.202263,"time":4,"i_long":106.822649,"is_transit":false,"line":1},{"station_id":"SUDB","time":1,"transit":false,"station_name":"Sudirman Baru","distance":280,"i_lat":-6.201433,"is_transit":false,"i_long":106.819881,"line":1},{"is_transit":false,"i_long":106.816351,"transit":false,"distance":471,"station_name":"Karet","i_lat":-6.20132,"station_id":"KAT","line":1,"time":1},{"station_id":"THB","i_long":106.811091,"line":1,"i_lat":-6.185545,"station_name":"Tanah Abang","distance":2029,"is_transit":true,"transit":true,"time":5},{"i_lat":-6.207404,"station_id":"PLM","time":6,"station_name":"Palmerah","is_transit":false,"line":6,"i_long":106.79689,"transit":false,"distance":3191},{"station_id":"KBY","time":7,"distance":3737,"transit":false,"i_lat":-6.237242,"is_transit":false,"line":6,"station_name":"Kebayoran","i_long":106.780334},{"time":8,"station_name":"Pondokranji","is_transit":false,"i_long":106.74273,"line":6,"station_id":"PDJ","distance":6218,"transit":false,"i_lat":-6.276362},{"is_transit":false,"i_long":106.728916,"line":6,"i_lat":-6.288927,"station_id":"JMU","distance":2179,"transit":false,"time":3,"station_name":"Jurangmangu"},{"station_id":"SDM","is_transit":false,"station_name":"Sudimara","i_lat":-6.296963,"i_long":106.712277,"line":6,"time":4,"distance":1994,"transit":false},{"time":6,"station_id":"RU","station_name":"Rawa Buntu","is_transit":false,"line":6,"i_lat":-6.314823,"i_long":106.675475,"transit":false,"distance":4566},{"distance":2413,"station_id":"SRP","line":6,"time":4,"transit":false,"station_name":"Serpong","is_transit":false,"i_lat":-6.319871,"i_long":106.66566},{"station_id":"CSK","i_lat":-6.32484,"line":3,"transit":false,"time":4,"is_transit":false,"i_long":106.640411,"distance":1784,"station_name":"Cisauk"},{"i_long":106.617853,"time":4,"is_transit":false,"i_lat":-6.329547,"line":3,"distance":2519,"station_name":"Cicayur","station_id":"CC","transit":false},{"time":8,"is_transit":false,"distance":5968,"station_name":"Parung Panjang","station_id":"PRP","i_lat":-6.3441410000000005,"line":6,"i_long":106.568863,"transit":false}],[{"station_name":"Jayakarta","i_lat":-6.141205,"is_transit":false,"time":0,"i_long":106.820901,"distance":0,"line":2,"station_id":"JAY","transit":false},{"line":2,"i_long":106.82482,"time":2,"distance":1080,"station_name":"Manggabesar","is_transit":false,"transit":false,"station_id":"MGB","i_lat":-6.149769},{"station_id":"SW","time":2,"is_transit":false,"i_long":106.827103,"station_name":"Sawah Besar","distance":906,"transit":false,"i_lat":-6.160725,"line":2},{"line":2,"i_long":106.828284,"station_name":"Juanda","distance":1149,"is_transit":false,"i_lat":-6.166716,"station_id":"JUA","transit":false,"time":2},{"distance":2015,"station_name":"Gondangdia","station_id":"GDD","i_lat":-6.186295,"line":2,"is_transit":false,"i_long":106.832183,"transit":false,"time":4},{"is_transit":false,"station_id":"CKI","i_lat":-6.198556,"time":3,"transit":false,"line":2,"distance":1750,"i_long":106.840169,"station_name":"Cikini"},{"transit":true,"station_id":"MRI","i_lat":-6.209883,"station_name":"Manggarai","line":2,"time":4,"is_transit":true,"i_long":106.84912,"distance":1590},{"time":2,"distance":1275,"station_name":"Matraman","station_id":"MTR","i_lat":-6.212485,"line":1,"transit":false,"is_transit":false,"i_long":106.858896},{"station_name":"Jatinegara","i_lat":-6.215091,"i_long":106.86807400000001,"line":1,"distance":1377,"transit":true,"station_id":"JNG","time":8,"is_transit":true},{"distance":1236,"station_name":"Pondok Jati","i_lat":-6.209188,"transit":false,"i_long":106.861737,"time":2,"is_transit":false,"line":11,"station_id":"POK"},{"station_name":"Kramat","i_long":106.855437,"transit":false,"line":11,"time":2,"distance":1829,"station_id":"KMT","is_transit":false,"i_lat":-6.193792},{"time":1,"is_transit":false,"transit":false,"distance":973,"i_lat":-6.185975,"i_long":106.850107,"station_name":"Gang Sentiong","line":11,"station_id":"GST"},{"distance":1567,"transit":false,"station_name":"Pasar Senen","time":8,"i_lat":-6.174784,"i_long":106.84368,"is_transit":false,"line":11,"station_id":"PSE"},{"is_transit":false,"station_id":"KMO","i_long":106.839204,"time":4,"transit":false,"station_name":"Kemayoran","distance":1436,"line":11,"i_lat":-6.161728},{"is_transit":false,"i_lat":-6.14505,"station_name":"Rajawali","i_long":106.836569,"transit":false,"time":5,"distance":1901,"line":11,"station_id":"RJW"},{"is_transit":true,"distance":1444,"transit":true,"station_id":"KPB","time":3,"station_name":"Kampung Bandan","i_lat":-6.132549,"i_long":106.826365,"line":4},{"station_name":"Angke","i_long":106.79867,"time":9,"line":1,"transit":false,"is_transit":false,"i_lat":-6.144674,"station_id":"AK","distance":4102},{"station_name":"Duri","transit":false,"line":1,"time":4,"distance":1230,"i_long":106.800832,"is_transit":false,"station_id":"DU","i_lat":-6.155215},{"distance":3632,"is_transit":true,"i_long":106.811091,"line":1,"station_name":"Tanah Abang","transit":true,"i_lat":-6.185545,"station_id":"THB","time":8},{"is_transit":false,"station_id":"PLM","i_lat":-6.207404,"transit":false,"time":6,"distance":3191,"i_long":106.79689,"line":6,"station_name":"Palmerah"},{"line":6,"distance":3737,"i_lat":-6.237242,"station_id":"KBY","time":7,"i_long":106.780334,"transit":false,"station_name":"Kebayoran","is_transit":false},{"time":8,"station_name":"Pondokranji","is_transit":false,"line":6,"i_long":106.74273,"i_lat":-6.276362,"distance":6218,"station_id":"PDJ","transit":false},{"transit":false,"station_name":"Jurangmangu","distance":2179,"is_transit":false,"time":3,"station_id":"JMU","i_long":106.728916,"i_lat":-6.288927,"line":6},{"station_name":"Sudimara","is_transit":false,"time":4,"distance":1994,"station_id":"SDM","i_lat":-6.296963,"i_long":106.712277,"transit":false,"line":6},{"station_id":"RU","station_name":"Rawa Buntu","i_long":106.675475,"line":6,"distance":4566,"time":6,"is_transit":false,"i_lat":-6.314823,"transit":false},{"station_id":"SRP","distance":2413,"transit":false,"station_name":"Serpong","i_long":106.66566,"line":6,"i_lat":-6.319871,"time":4,"is_transit":false},{"station_name":"Cisauk","time":4,"line":3,"is_transit":false,"i_lat":-6.32484,"distance":1784,"i_long":106.640411,"station_id":"CSK","transit":false},{"distance":2519,"station_id":"CC","line":3,"station_name":"Cicayur","is_transit":false,"i_long":106.617853,"i_lat":-6.329547,"transit":false,"time":4},{"distance":5968,"transit":false,"i_lat":-6.3441410000000005,"line":6,"station_name":"Parung Panjang","is_transit":false,"i_long":106.568863,"station_id":"PRP","time":8}]]}