{"data":[[{"time":0,"is_transit":false,"transit":false,"i_long":106.820901,"i_lat":-6.141205,"distance":0,"line":2,"station_name":"Jayakarta","station_id":"JAY"},{"station_id":"JAKK","distance":1264,"i_lat":-6.137569,"i_long":106.812439,"time":4,"is_transit":true,"transit":true,"line":2,"station_name":"Jakarta Kota"},{"time":3,"station_id":"KPB","transit":true,"line":4,"is_transit":true,"station_name":"Kampung Bandan","distance":1364,"i_lat":-6.132549,"i_long":106.826365},{"is_transit":false,"station_id":"AK","time":9,"transit":false,"station_name":"Angke","i_lat":-6.144674,"i_long":106.79867,"distance":4102,"line":1},{"is_transit":false,"i_long":106.800832,"time":4,"station_id":"DU","i_lat":-6.155215,"transit":false,"station_name":"Duri","line":1,"distance":1230},{"is_transit":true,"i_lat":-6.185545,"station_name":"Tanah Abang","station_id":"THB","i_long":106.811091,"time":8,"distance":3632,"line":1,"transit":true},{"station_name":"Palmerah","time":6,"i_long":106.79689,"line":6,"is_transit":false,"i_lat":-6.207404,"distance":3191,"station_id":"PLM","transit":false},{"distance":3737,"is_transit":false,"transit":false,"line":6,"station_id":"KBY","i_long":106.780334,"i_lat":-6.237242,"station_name":"Kebayoran","time":7},{"station_name":"Pondokranji","line":6,"i_long":106.74273,"i_lat":-6.276362,"station_id":"PDJ","distance":6218,"transit":false,"time":8,"is_transit":false},{"distance":2179,"i_lat":-6.288927,"line":6,"station_name":"Jurangmangu","is_transit":false,"time":3,"station_id":"JMU","transit":false,"i_long":106.728916},{"station_name":"Sudimara","distance":1994,"line":6,"time":4,"is_transit":false,"station_id":"SDM","transit":false,"i_lat":-6.296963,"i_long":106.712277},{"line":6,"i_lat":-6.314823,"is_transit":false,"distance":4566,"transit":false,"station_name":"Rawa Buntu","i_long":106.675475,"station_id":"RU","time":6},{"i_lat":-6.319871,"line":6,"distance":2413,"i_long":106.66566,"transit":false,"is_transit":false,"station_id":"SRP","station_name":"Serpong","time":4},{"is_transit":false,"i_lat":-6.32484,"time":4,"i_long":106.640411,"distance":1784,"station_name":"Cisauk","transit":false,"line":3,"station_id":"CSK"},{"time":4,"distance":2519,"station_id":"CC","line":3,"is_transit":false,"i_long":106.617853,"i_lat":-6.329547,"transit":false,"station_name":"Cicayur"},{"line":6,"station_id":"PRP","is_transit":false,"i_long":106.568863,"transit":false,"i_lat":-6.3441410000000005,"time":8,"station_name":"Parung Panjang","distance":5968},{"line":3,"time":9,"station_name":"Cilejit","distance":7025,"is_transit":false,"station_id":"CJT","i_lat":-6.354349,"i_long":106.508482,"transit":false},{"line":0,"is_transit":false,"i_long":106.491338,"station_id":"DAR","distance":2675,"time":6,"station_name":"Daru","i_lat":-6.338021,"transit":false},{"transit":false,"i_long":106.460812,"time":5,"distance":3902,"station_name":"Tenjo","is_transit":false,"i_lat":-6.327251,"line":6,"station_id":"TEJ"},{"i_lat":-6.328533,"station_id":"TGS","transit":false,"time":5,"i_long":106.425991,"station_name":"Tigaraksa","is_transit":false,"line":6,"distance":2974},{"i_lat":-6.33561,"transit":false,"station_name":"Cikoya","station_id":"CKY","i_long":106.411216,"line":3,"distance":2651,"time":3,"is_transit":false}],[{"station_id":"JAY","distance":0,"i_lat":-6.141205,"transit":false,"i_long":106.820901,"is_transit":false,"time":0,"station_name":"Jayakarta","line":2},{"is_transit":false,"line":2,"station_name":"Manggabesar","distance":1080,"transit":false,"time":2,"station_id":"MGB","i_lat":-6.149769,"i_long":106.82482},{"i_lat":-6.160725,"distance":906,"i_long":106.827103,"time":2,"line":2,"station_id":"SW","is_transit":false,"station_name":"Sawah Besar","transit":false},{"station_name":"Juanda","i_long":106.828284,"transit":false,"i_lat":-6.166716,"line":2,"station_id":"JUA","time":2,"is_transit":false,"distance":1149},{"station_id":"GDD","time":4,"i_lat":-6.186295,"i_long":106.832183,"transit":false,"line":2,"is_transit":false,"station_name":"Gondangdia","distance":2015},{"time":3,"station_name":"Cikini","distance":1750,"station_id":"CKI","i_lat":-6.198556,"line":2,"i_long":106.840169,"transit":false,"is_transit":false},{"time":4,"station_id":"MRI","is_transit":true,"i_lat":-6.209883,"transit":true,"i_long":106.84912,"line":2,"station_name":"Manggarai","distance":1590},{"line":1,"time":4,"distance":3186,"i_long":106.822649,"i_lat":-6.202263,"is_transit":false,"station_id":"SUD","station_name":"Sudirman","transit":false},{"transit":false,"i_long":106.819881,"distance":280,"is_transit":false,"i_lat":-6.201433,"time":1,"line":1,"station_name":"Sudirman Baru","station_id":"SUDB"},{"station_id":"KAT","time":1,"i_lat":-6.20132,"line":1,"transit":false,"i_long":106.816351,"distance":471,"station_name":"Karet","is_transit":false},{"transit":true,"line":1,"time":5,"distance":2029,"station_id":"THB","station_name":"Tanah Abang","is_transit":true,"i_long":106.811091,"i_lat":-6.185545},{"time":6,"transit":false,"i_lat":-6.207404,"line":6,"station_id":"PLM","is_transit":false,"distance":3191,"station_name":"Palmerah","i_long":106.79689},{"line":6,"is_transit":false,"time":7,"station_id":"KBY","distance":3737,"station_name":"Kebayoran","i_lat":-6.237242,"transit":false,"i_long":106.780334},{"i_lat":-6.276362,"i_long":106.74273,"station_id":"PDJ","station_name":"Pondokranji","line":6,"transit":false,"is_transit":false,"distance":6218,"time":8},{"i_long":106.728916,"line":6,"station_name":"Jurangmangu","i_lat":-6.288927,"time":3,"distance":2179,"is_transit":false,"station_id":"JMU","transit":false},{"line":6,"transit":false,"distance":1994,"i_long":106.712277,"station_id":"SDM","time":4,"is_transit":false,"station_name":"Sudimara","i_lat":-6.296963},{"time":6,"station_name":"Rawa Buntu","i_lat":-6.314823,"i_long":106.675475,"distance":4566,"line":6,"is_transit":false,"station_id":"RU","transit":false},{"transit":false,"distance":2413,"i_lat":-6.319871,"line":6,"station_id":"SRP","i_long":106.66566,"is_transit":false,"station_name":"Serpong","time":4},{"line":3,"distance":1784,"i_lat":-6.32484,"i_long":106.640411,"time":4,"station_id":"CSK","is_transit":false,"station_name":"Cisauk","transit":false},{"station_name":"Cicayur","is_transit":false,"time":4,"distance":2519,"i_long":106.617853,"station_id":"CC","transit":false,"line":3,"i_lat":-6.329547},{"station_name":"Parung Panjang","i_long":106.568863,"time":8,"is_transit":false,"distance":5968,"station_id":"PRP","line":6,"i_lat":-6.3441410000000005,"transit":false},{"is_transit":false,"station_id":"CJT","distance":7025,"transit":false,"station_name":"Cilejit","i_lat":-6.354349,"time":9,"i_long":106.508482,"line":3},{"station_name":"Daru","distance":2675,"line":0,"is_transit":false,"time":6,"i_long":106.491338,"i_lat":-6.338021,"station_id":"DAR","transit":false},{"station_id":"TEJ","is_transit":false,"line":6,"time":5,"station_name":"Tenjo","transit":false,"i_lat":-6.327251,"i_long":106.460812,"distance":3902},{"station_id":"TGS","i_long":106.425991,"distance":2974,"line":6,"is_transit":false,"transit":false,"station_name":"Tigaraksa","i_lat":-6.328533,"time":5},{"distance":2651,"station_name":"Cikoya","i_long":106.411216,"line":3,"i_lat":-6.33561,"transit":false,"time":3,"is_transit":false,"station_id":"CKY"}],[{"is_transit":false,"time":0,"i_long":106.820901,"station_id":"JAY","transit":false,"station_name":"Jayakarta","i_lat":-6.141205,"line":2,"distance":0},{"i_long":106.812439,"station_name":"Jakarta Kota","station_id":"JAKK","i_lat":-6.137569,"distance":1264,"is_transit":true,"transit":true,"time":4,"line":2},{"i_long":106.826365,"time":3,"i_lat":-6.132549,"station_id":"KPB","station_name":"Kampung Bandan","line":4,"is_transit":true,"distance":1364,"transit":true},{"line":11,"is_transit":false,"distance":1444,"station_name":"Rajawali","transit":false,"i_long":106.836569,"time":3,"i_lat":-6.14505,"station_id":"RJW"},{"station_id":"KMO","i_lat":-6.161728,"i_long":106.839204,"transit":false,"station_name":"Kemayoran","time":5,"is_transit":false,"distance":1901,"line":11},{"is_transit":false,"line":11,"station_id":"PSE","i_lat":-6.174784,"time":4,"distance":1436,"station_name":"Pasar Senen","i_long":106.84368,"transit":false},{"time":8,"is_transit":false,"i_lat":-6.185975,"i_long":106.850107,"distance":1567,"station_name":"Gang Sentiong","transit":false,"station_id":"GST","line":11},{"i_long":106.855437,"distance":973,"i_lat":-6.193792,"time":1,"station_name":"Kramat","is_transit":false,"transit":false,"line":11,"station_id":"KMT"},{"is_transit":false,"distance":1829,"transit":false,"time":2,"i_long":106.861737,"line":11,"i_lat":-6.209188,"station_name":"Pondok Jati","station_id":"POK"},{"i_long":106.86807400000001,"time":9,"line":1,"is_transit":true,"station_name":"Jatinegara","i_lat":-6.215091,"transit":true,"distance":1236,"station_id":"JNG"},{"station_id":"MTR","line":1,"distance":1377,"transit":false,"station_name":"Matraman","time":2,"is_transit":false,"i_long":106.858896,"i_lat":-6.212485},{"transit":false,"i_lat":-6.209883,"is_transit":false,"line":2,"station_name":"Manggarai","time":2,"station_id":"MRI","i_long":106.84912,"distance":1275},{"transit":false,"distance":3186,"is_transit":false,"i_long":106.822649,"time":4,"station_id":"SUD","line":1,"i_lat":-6.202263,"station_name":"Sudirman"},{"transit":false,"i_long":106.819881,"station_id":"SUDB","line":1,"station_name":"Sudirman Baru","time":1,"i_lat":-6.201433,"is_transit":false,"distance":280},{"station_name":"Karet","i_lat":-6.20132,"line":1,"is_transit":false,"time":1,"distance":471,"transit":false,"i_long":106.816351,"station_id":"KAT"},{"distance":2029,"station_id":"THB","station_name":"Tanah Abang","is_transit":true,"time":5,"transit":true,"i_lat":-6.185545,"i_long":106.811091,"line":1},{"time":6,"i_lat":-6.207404,"distance":3191,"i_long":106.79689,"is_transit":false,"line":6,"station_id":"PLM","transit":false,"station_name":"Palmerah"},{"line":6,"is_transit":false,"time":7,"station_id":"KBY","station_name":"Kebayoran","transit":false,"i_long":106.780334,"i_lat":-6.237242,"distance":3737},{"is_transit":false,"i_lat":-6.276362,"i_long":106.74273,"transit":false,"distance":6218,"station_id":"PDJ","time":8,"station_name":"Pondokranji","line":6},{"time":3,"is_transit":false,"station_name":"Jurangmangu","line":6,"station_id":"JMU","distance":2179,"transit":false,"i_lat":-6.288927,"i_long":106.728916},{"i_lat":-6.296963,"time":4,"line":6,"station_name":"Sudimara","transit":false,"i_long":106.712277,"is_transit":false,"distance":1994,"station_id":"SDM"},{"station_name":"Rawa Buntu","transit":false,"station_id":"RU","i_long":106.675475,"line":6,"distance":4566,"is_transit":false,"time":6,"i_lat":-6.314823},{"distance":2413,"i_lat":-6.319871,"i_long":106.66566,"time":4,"is_transit":false,"line":6,"station_id":"SRP","station_name":"Serpong","transit":false},{"station_id":"CSK","is_transit":false,"station_name":"Cisauk","i_long":106.640411,"time":4,"distance":1784,"transit":false,"i_lat":-6.32484,"line":3},{"time":4,"distance":2519,"is_transit":false,"transit":false,"station_name":"Cicayur","line":3,"i_lat":-6.329547,"i_long":106.617853,"station_id":"CC"},{"is_transit":false,"transit":false,"time":8,"distance":5968,"station_id":"PRP","station_name":"Parung Panjang","i_long":106.568863,"i_lat":-6.3441410000000005,"line":6},{"transit":false,"line":3,"station_name":"Cilejit","i_lat":-6.354349,"distance":7025,"is_transit":false,"i_long":106.508482,"time":9,"station_id":"CJT"},{"transit":false,"i_lat":-6.338021,"distance":2675,"i_long":106.491338,"line":0,"is_transit":false,"station_id":"DAR","time":6,"station_name":"Daru"},{"transit":false,"i_long":106.460812,"station_name":"Tenjo","time":5,"distance":3902,"is_transit":false,"i_lat":-6.327251,"line":6,"station_id":"TEJ"},{"distance":2974,"i_lat":-6.328533,"station_id":"TGS","transit":false,"i_long":106.425991,"time":5,"station_name":"Tigaraksa","line":6,"is_transit":false},{"transit":false,"is_transit":false,"station_name":"Cikoya","i_lat":-6.33561,"station_id":"CKY","time":3,"line":3,"distance":2651,"i_long":106.411216}],[{"transit":false,"distance":0,"is_transit":false,"i_lat":-6.141205,"time":0,"station_id":"JAY","i_long":106.820901,"station_name":"Jayakarta","line":2},{"line":2,"transit":false,"station_name":"Manggabesar","time":2,"is_transit":false,"station_id":"MGB","distance":1080,"i_long":106.82482,"i_lat":-6.149769},{"is_transit":false,"station_id":"SW","distance":906,"line":2,"transit":false,"station_name":"Sawah Besar","i_long":106.827103,"i_lat":-6.160725,"time":2},{"i_long":106.828284,"transit":false,"is_transit":false,"station_name":"Juanda","i_lat":-6.166716,"line":2,"time":2,"station_id":"JUA","distance":1149},{"transit":false,"time":4,"i_long":106.832183,"line":2,"station_id":"GDD","distance":2015,"is_transit":false,"station_name":"Gondangdia","i_lat":-6.186295},{"time":3,"is_transit":false,"transit":false,"i_lat":-6.198556,"line":2,"distance":1750,"i_long":106.840169,"station_name":"Cikini","station_id":"CKI"},{"distance":1590,"transit":true,"i_lat":-6.209883,"time":4,"i_long":106.84912,"line":2,"is_transit":true,"station_id":"MRI","station_name":"Manggarai"},{"time":2,"is_transit":false,"transit":false,"station_id":"MTR","i_long":106.858896,"distance":1275,"station_name":"Matraman","i_lat":-6.212485,"line":1},{"transit":true,"line":1,"time":8,"station_name":"Jatinegara","i_long":106.86807400000001,"station_id":"JNG","is_transit":true,"distance":1377,"i_lat":-6.215091},{"station_name":"Pondok Jati","station_id":"POK","time":2,"transit":false,"line":11,"i_long":106.861737,"i_lat":-6.209188,"is_transit":false,"distance":1236},{"is_transit":false,"line":11,"transit":false,"station_name":"Kramat","i_lat":-6.193792,"i_long":106.855437,"station_id":"KMT","time":2,"distance":1829},{"transit":false,"is_transit":false,"time":1,"i_lat":-6.185975,"i_long":106.850107,"station_name":"Gang Sentiong","line":11,"station_id":"GST","distance":973},{"station_name":"Pasar Senen","time":8,"i_lat":-6.174784,"distance":1567,"i_long":106.84368,"is_transit":false,"line":11,"station_id":"PSE","transit":false},{"distance":1436,"i_lat":-6.161728,"i_long":106.839204,"line":11,"time":4,"station_id":"KMO","station_name":"Kemayoran","transit":false,"is_transit":false},{"station_id":"RJW","is_transit":false,"i_long":106.836569,"distance":1901,"station_name":"Rajawali","transit":false,"i_lat":-6.14505,"line":11,"time":5},{"transit":true,"station_name":"Kampung Bandan","distance":1444,"is_transit":true,"station_id":"KPB","i_lat":-6.132549,"line":4,"i_long":106.826365,"time":3},{"i_long":106.79867,"time":9,"station_name":"Angke","line":1,"i_lat":-6.144674,"station_id":"AK","is_transit":false,"distance":4102,"transit":false},{"station_id":"DU","line":1,"time":4,"i_long":106.800832,"transit":false,"i_lat":-6.155215,"distance":1230,"station_name":"Duri","is_transit":false},{"line":1,"time":8,"distance":3632,"station_id":"THB","station_name":"Tanah Abang","i_lat":-6.185545,"i_long":106.811091,"transit":true,"is_transit":true},{"is_transit":false,"station_id":"PLM","i_long":106.79689,"distance":3191,"i_lat":-6.207404,"time":6,"transit":false,"station_name":"Palmerah","line":6},{"i_lat":-6.237242,"time":7,"transit":false,"i_long":106.780334,"station_name":"Kebayoran","station_id":"KBY","distance":3737,"line":6,"is_transit":false},{"line":6,"transit":false,"distance":6218,"is_transit":false,"station_id":"PDJ","i_lat":-6.276362,"time":8,"station_name":"Pondokranji","i_long":106.74273},{"time":3,"distance":2179,"transit":false,"station_id":"JMU","is_transit":false,"i_long":106.728916,"station_name":"Jurangmangu","i_lat":-6.288927,"line":6},{"i_long":106.712277,"distance":1994,"station_name":"Sudimara","transit":false,"time":4,"is_transit":false,"station_id":"SDM","i_lat":-6.296963,"line":6},{"is_transit":false,"distance":4566,"time":6,"station_id":"RU","station_name":"Rawa Buntu","line":6,"i_long":106.675475,"i_lat":-6.314823,"transit":false},{"is_transit":false,"distance":2413,"station_id":"SRP","i_lat":-6.319871,"line":6,"transit":false,"station_name":"Serpong","i_long":106.66566,"time":4},{"line":3,"is_transit":false,"station_name":"Cisauk","i_long":106.640411,"time":4,"distance":1784,"station_id":"CSK","transit":false,"i_lat":-6.32484},{"line":3,"transit":false,"is_transit":false,"station_id":"CC","station_name":"Cicayur","time":4,"i_lat":-6.329547,"distance":2519,"i_long":106.617853},{"i_long":106.568863,"distance":5968,"station_id":"PRP","time":8,"transit":false,"station_name":"Parung Panjang","line":6,"is_transit":false,"i_lat":-6.3441410000000005},{"station_name":"Cilejit","station_id":"CJT","i_long":106.508482,"distance":7025,"is_transit":false,"transit":false,"i_lat":-6.354349,"line":3,"time":9},{"time":6,"station_name":"Daru","line":0,"distance":2675,"is_transit":false,"i_lat":-6.338021,"i_long":106.491338,"station_id":"DAR","transit":false},{"transit":false,"station_id":"TEJ","is_transit":false,"station_name":"Tenjo","i_long":106.460812,"i_lat":-6.327251,"time":5,"line":6,"distance":3902},{"transit":false,"station_name":"Tigaraksa","station_id":"TGS","i_long":106.425991,"i_lat":-6.328533,"is_transit":false,"distance":2974,"time":5,"line":6},{"line":3,"distance":2651,"transit":false,"is_transit":false,"station_name":"Cikoya","i_lat":-6.33561,"station_id":"CKY","i_long":106.411216,"time":3}]]}