{"data":[[{"station_name":"Jayakarta","i_lat":-6.141205,"is_transit":false,"transit":false,"station_id":"JAY","distance":0,"time":0,"i_long":106.820901,"line":2},{"distance":1264,"is_transit":true,"station_id":"JAKK","line":2,"station_name":"Jakarta Kota","i_lat":-6.137569,"i_long":106.812439,"time":4,"transit":true},{"i_long":106.826365,"i_lat":-6.132549,"time":3,"is_transit":true,"transit":true,"station_name":"Kampung Bandan","line":4,"station_id":"KPB","distance":1364},{"distance":1444,"station_id":"RJW","is_transit":false,"transit":false,"line":11,"time":3,"i_lat":-6.14505,"station_name":"Rajawali","i_long":106.836569},{"distance":1901,"is_transit":false,"i_long":106.839204,"transit":false,"station_id":"KMO","i_lat":-6.161728,"time":5,"line":11,"station_name":"Kemayoran"},{"transit":false,"station_id":"PSE","distance":1436,"is_transit":false,"i_long":106.84368,"time":4,"i_lat":-6.174784,"line":11,"station_name":"Pasar Senen"},{"distance":1567,"line":11,"i_lat":-6.185975,"station_name":"Gang Sentiong","i_long":106.850107,"is_transit":false,"transit":false,"time":8,"station_id":"GST"},{"transit":false,"distance":973,"is_transit":false,"time":1,"station_name":"Kramat","i_long":106.855437,"line":11,"i_lat":-6.193792,"station_id":"KMT"},{"distance":1829,"station_id":"POK","station_name":"Pondok Jati","i_long":106.861737,"is_transit":false,"time":2,"line":11,"transit":false,"i_lat":-6.209188}],[{"time":0,"is_transit":false,"line":2,"transit":false,"station_name":"Jayakarta","i_long":106.820901,"i_lat":-6.141205,"station_id":"JAY","distance":0},{"station_name":"Manggabesar","station_id":"MGB","is_transit":false,"transit":false,"line":2,"time":2,"i_lat":-6.149769,"distance":1080,"i_long":106.82482},{"i_long":106.827103,"station_name":"Sawah Besar","transit":false,"i_lat":-6.160725,"line":2,"station_id":"SW","time":2,"is_transit":false,"distance":906},{"station_id":"JUA","station_name":"Juanda","is_transit":false,"distance":1149,"transit":false,"line":2,"i_lat":-6.166716,"i_long":106.828284,"time":2},{"i_long":106.832183,"time":4,"distance":2015,"station_id":"GDD","is_transit":false,"transit":false,"i_lat":-6.186295,"line":2,"station_name":"Gondangdia"},{"station_name":"Cikini","line":2,"is_transit":false,"time":3,"station_id":"CKI","distance":1750,"transit":false,"i_long":106.840169,"i_lat":-6.198556},{"station_id":"MRI","line":2,"is_transit":true,"transit":true,"station_name":"Manggarai","i_lat":-6.209883,"time":4,"distance":1590,"i_long":106.84912},{"line":1,"i_long":106.858896,"time":2,"station_name":"Matraman","i_lat":-6.212485,"transit":false,"distance":1275,"is_transit":false,"station_id":"MTR"},{"is_transit":true,"station_name":"Jatinegara","time":8,"i_long":106.86807400000001,"station_id":"JNG","line":1,"distance":1377,"transit":true,"i_lat":-6.215091},{"line":11,"station_id":"POK","is_transit":false,"i_long":106.861737,"distance":1236,"station_name":"Pondok Jati","i_lat":-6.209188,"time":2,"transit":false}],[{"station_name":"Jayakarta","is_transit":false,"i_long":106.820901,"line":2,"i_lat":-6.141205,"station_id":"JAY","transit":false,"time":0,"distance":0},{"station_id":"JAKK","station_name":"Jakarta Kota","time":4,"i_long":106.812439,"distance":1264,"is_transit":true,"line":2,"transit":true,"i_lat":-6.137569},{"station_name":"Kampung Bandan","station_id":"KPB","i_long":106.826365,"transit":true,"time":3,"is_transit":true,"distance":1364,"i_lat":-6.132549,"line":4},{"time":9,"is_transit":false,"distance":4102,"transit":false,"station_id":"AK","i_long":106.79867,"station_name":"Angke","i_lat":-6.144674,"line":1},{"i_lat":-6.155215,"transit":false,"distance":1230,"time":4,"i_long":106.800832,"station_name":"Duri","line":1,"is_transit":false,"station_id":"DU"},{"station_id":"THB","is_transit":false,"transit":false,"i_long":106.811091,"i_lat":-6.185545,"station_name":"Tanah Abang","line":1,"time":8,"distance":3632},{"distance":2029,"is_transit":false,"i_long":106.816351,"transit":false,"line":1,"i_lat":-6.20132,"station_id":"KAT","station_name":"Karet","time":5},{"is_transit":false,"station_id":"SUDB","station_name":"Sudirman Baru","i_lat":-6.201433,"line":1,"time":1,"distance":471,"transit":false,"i_long":106.819881},{"station_name":"Sudirman","transit":false,"line":1,"is_transit":false,"i_lat":-6.202263,"station_id":"SUD","time":1,"i_long":106.822649,"distance":280},{"transit":false,"distance":3186,"is_transit":false,"i_long":106.84912,"i_lat":-6.209883,"time":4,"line":2,"station_id":"MRI","station_name":"Manggarai"},{"station_name":"Matraman","transit":false,"i_lat":-6.212485,"distance":1275,"station_id":"MTR","line":1,"i_long":106.858896,"time":2,"is_transit":false},{"distance":1377,"station_name":"Jatinegara","line":1,"is_transit":true,"i_lat":-6.215091,"time":8,"station_id":"JNG","transit":true,"i_long":106.86807400000001},{"station_id":"POK","station_name":"Pondok Jati","i_long":106.861737,"transit":false,"i_lat":-6.209188,"line":11,"is_transit":false,"time":2,"distance":1236}],[{"i_long":106.820901,"station_name":"Jayakarta","time":0,"transit":false,"station_id":"JAY","distance":0,"i_lat":-6.141205,"line":2,"is_transit":false},{"line":2,"distance":1080,"is_transit":false,"i_long":106.82482,"station_id":"MGB","station_name":"Manggabesar","i_lat":-6.149769,"time":2,"transit":false},{"i_lat":-6.160725,"distance":906,"line":2,"time":2,"transit":false,"station_name":"Sawah Besar","station_id":"SW","is_transit":false,"i_long":106.827103},{"i_lat":-6.166716,"line":2,"time":2,"station_id":"JUA","distance":1149,"is_transit":false,"transit":false,"station_name":"Juanda","i_long":106.828284},{"line":2,"station_id":"GDD","i_lat":-6.186295,"is_transit":false,"transit":false,"time":4,"i_long":106.832183,"station_name":"Gondangdia","distance":2015},{"station_id":"CKI","station_name":"Cikini","distance":1750,"is_transit":false,"i_long":106.840169,"line":2,"time":3,"transit":false,"i_lat":-6.198556},{"transit":true,"line":2,"distance":1590,"station_id":"MRI","station_name":"Manggarai","time":4,"is_transit":true,"i_long":106.84912,"i_lat":-6.209883},{"i_lat":-6.202263,"is_transit":false,"time":4,"station_id":"SUD","distance":3186,"transit":false,"line":1,"i_long":106.822649,"station_name":"Sudirman"},{"transit":false,"distance":280,"time":1,"line":1,"is_transit":false,"station_name":"Sudirman Baru","i_lat":-6.201433,"station_id":"SUDB","i_long":106.819881},{"station_id":"KAT","i_long":106.816351,"is_transit":false,"transit":false,"station_name":"Karet","time":1,"distance":471,"i_lat":-6.20132,"line":1},{"i_lat":-6.185545,"i_long":106.811091,"time":5,"is_transit":false,"station_name":"Tanah Abang","station_id":"THB","line":1,"transit":false,"distance":2029},{"distance":3632,"is_transit":false,"station_id":"DU","i_lat":-6.155215,"transit":false,"station_name":"Duri","i_long":106.800832,"line":1,"time":8},{"line":1,"is_transit":false,"distance":1230,"station_id":"AK","station_name":"Angke","transit":false,"time":4,"i_lat":-6.144674,"i_long":106.79867},{"transit":true,"i_long":106.826365,"line":4,"distance":4102,"station_name":"Kampung Bandan","i_lat":-6.132549,"time":9,"station_id":"KPB","is_transit":true},{"station_name":"Rajawali","i_lat":-6.14505,"transit":false,"is_transit":false,"distance":1444,"line":11,"station_id":"RJW","i_long":106.836569,"time":3},{"line":11,"i_long":106.839204,"distance":1901,"i_lat":-6.161728,"time":5,"station_name":"Kemayoran","is_transit":false,"station_id":"KMO","transit":false},{"line":11,"transit":false,"i_lat":-6.174784,"is_transit":false,"i_long":106.84368,"time":4,"distance":1436,"station_id":"PSE","station_name":"Pasar Senen"},{"time":8,"station_id":"GST","transit":false,"is_transit":false,"i_long":106.850107,"line":11,"i_lat":-6.185975,"station_name":"Gang Sentiong","distance":1567},{"line":11,"station_name":"Kramat","station_id":"KMT","time":1,"is_transit":false,"i_lat":-6.193792,"distance":973,"i_long":106.855437,"transit":false},{"is_transit":false,"station_name":"Pondok Jati","distance":1829,"time":2,"i_long":106.861737,"line":11,"i_lat":-6.209188,"transit":false,"station_id":"POK"}]]}