{"data":[[{"i_lat":-6.141205,"station_id":"JAY","station_name":"Jayakarta","distance":0,"time":0,"transit":false,"i_long":106.820901,"line":2,"is_transit":false},{"i_lat":-6.137569,"line":2,"station_id":"JAKK","time":4,"distance":1264,"transit":true,"i_long":106.812439,"station_name":"Jakarta Kota","is_transit":true},{"is_transit":true,"time":3,"line":4,"station_name":"Kampung Bandan","station_id":"KPB","transit":true,"i_lat":-6.132549,"distance":1364,"i_long":106.826365},{"distance":4102,"station_id":"AK","i_lat":-6.144674,"line":1,"station_name":"Angke","transit":false,"time":9,"is_transit":false,"i_long":106.79867},{"i_lat":-6.155215,"is_transit":false,"station_name":"Duri","distance":1230,"station_id":"DU","time":4,"transit":false,"line":1,"i_long":106.800832},{"station_name":"Tanah Abang","time":8,"station_id":"THB","i_long":106.811091,"is_transit":true,"i_lat":-6.185545,"transit":true,"distance":3632,"line":1},{"transit":false,"i_lat":-6.207404,"i_long":106.79689,"distance":3191,"station_id":"PLM","time":6,"line":6,"station_name":"Palmerah","is_transit":false},{"is_transit":false,"line":6,"distance":3737,"time":7,"station_id":"KBY","i_lat":-6.237242,"i_long":106.780334,"transit":false,"station_name":"Kebayoran"},{"transit":false,"station_name":"Pondokranji","station_id":"PDJ","i_long":106.74273,"i_lat":-6.276362,"line":6,"is_transit":false,"distance":6218,"time":8},{"distance":2179,"station_id":"JMU","line":6,"i_long":106.728916,"transit":false,"is_transit":false,"i_lat":-6.288927,"station_name":"Jurangmangu","time":3},{"i_lat":-6.296963,"i_long":106.712277,"station_name":"Sudimara","is_transit":false,"station_id":"SDM","line":6,"transit":false,"time":4,"distance":1994},{"i_long":106.675475,"i_lat":-6.314823,"line":6,"distance":4566,"time":6,"transit":false,"is_transit":false,"station_id":"RU","station_name":"Rawa Buntu"},{"line":6,"station_id":"SRP","time":4,"is_transit":false,"station_name":"Serpong","transit":false,"i_lat":-6.319871,"distance":2413,"i_long":106.66566},{"distance":1784,"is_transit":false,"i_lat":-6.32484,"time":4,"i_long":106.640411,"line":3,"transit":false,"station_id":"CSK","station_name":"Cisauk"},{"distance":2519,"is_transit":false,"time":4,"station_name":"Cicayur","transit":false,"station_id":"CC","line":3,"i_long":106.617853,"i_lat":-6.329547},{"station_id":"PRP","i_lat":-6.3441410000000005,"station_name":"Parung Panjang","i_long":106.568863,"transit":false,"distance":5968,"line":6,"is_transit":false,"time":8},{"i_lat":-6.354349,"distance":7025,"is_transit":false,"line":3,"time":9,"i_long":106.508482,"station_id":"CJT","transit":false,"station_name":"Cilejit"},{"transit":false,"is_transit":false,"distance":2675,"station_name":"Daru","i_lat":-6.338021,"i_long":106.491338,"station_id":"DAR","time":6,"line":0},{"transit":false,"station_name":"Tenjo","i_long":106.460812,"station_id":"TEJ","time":5,"line":6,"i_lat":-6.327251,"distance":3902,"is_transit":false},{"distance":2974,"i_lat":-6.328533,"line":6,"is_transit":false,"time":5,"station_id":"TGS","i_long":106.425991,"transit":false,"station_name":"Tigaraksa"},{"i_lat":-6.33561,"is_transit":false,"station_name":"Cikoya","time":3,"transit":false,"i_long":106.411216,"station_id":"CKY","distance":2651,"line":3},{"i_lat":-6.332307,"transit":false,"time":4,"distance":1853,"station_name":"Maja","line":6,"is_transit":false,"station_id":"MJ","i_long":106.394373},{"is_transit":false,"line":3,"time":10,"station_id":"CTR","distance":7293,"transit":false,"i_long":106.332092,"i_lat":-6.334892,"station_name":"Citeras"},{"i_long":106.250396,"line":3,"transit":false,"distance":9847,"time":13,"is_transit":false,"station_id":"RK","station_name":"Rangkasbitung","i_lat":-6.352675}],[{"transit":false,"distance":0,"station_name":"Jayakarta","i_long":106.820901,"i_lat":-6.141205,"station_id":"JAY","is_transit":false,"time":0,"line":2},{"i_lat":-6.149769,"is_transit":false,"distance":1080,"time":2,"i_long":106.82482,"transit":false,"line":2,"station_id":"MGB","station_name":"Manggabesar"},{"i_long":106.827103,"is_transit":false,"line":2,"station_id":"SW","distance":906,"i_lat":-6.160725,"transit":false,"station_name":"Sawah Besar","time":2},{"station_name":"Juanda","transit":false,"line":2,"station_id":"JUA","is_transit":false,"i_long":106.828284,"time":2,"i_lat":-6.166716,"distance":1149},{"station_name":"Gondangdia","time":4,"i_lat":-6.186295,"distance":2015,"transit":false,"is_transit":false,"station_id":"GDD","i_long":106.832183,"line":2},{"line":2,"station_id":"CKI","distance":1750,"i_lat":-6.198556,"is_transit":false,"i_long":106.840169,"station_name":"Cikini","transit":false,"time":3},{"transit":true,"distance":1590,"station_name":"Manggarai","line":2,"time":4,"is_transit":true,"i_lat":-6.209883,"i_long":106.84912,"station_id":"MRI"},{"station_id":"SUD","transit":false,"i_long":106.822649,"line":1,"station_name":"Sudirman","distance":3186,"time":4,"i_lat":-6.202263,"is_transit":false},{"station_id":"SUDB","is_transit":false,"station_name":"Sudirman Baru","i_lat":-6.201433,"distance":280,"i_long":106.819881,"transit":false,"line":1,"time":1},{"i_lat":-6.20132,"i_long":106.816351,"station_id":"KAT","line":1,"is_transit":false,"transit":false,"distance":471,"station_name":"Karet","time":1},{"station_name":"Tanah Abang","time":5,"i_lat":-6.185545,"is_transit":true,"line":1,"transit":true,"station_id":"THB","distance":2029,"i_long":106.811091},{"station_name":"Palmerah","station_id":"PLM","time":6,"i_lat":-6.207404,"is_transit":false,"transit":false,"distance":3191,"i_long":106.79689,"line":6},{"station_id":"KBY","time":7,"i_long":106.780334,"line":6,"distance":3737,"transit":false,"i_lat":-6.237242,"station_name":"Kebayoran","is_transit":false},{"i_lat":-6.276362,"distance":6218,"station_name":"Pondokranji","line":6,"i_long":106.74273,"is_transit":false,"transit":false,"station_id":"PDJ","time":8},{"line":6,"station_name":"Jurangmangu","station_id":"JMU","transit":false,"is_transit":false,"i_long":106.728916,"distance":2179,"time":3,"i_lat":-6.288927},{"distance":1994,"i_lat":-6.296963,"time":4,"station_name":"Sudimara","transit":false,"station_id":"SDM","line":6,"is_transit":false,"i_long":106.712277},{"line":6,"station_name":"Rawa Buntu","transit":false,"distance":4566,"time":6,"station_id":"RU","is_transit":false,"i_long":106.675475,"i_lat":-6.314823},{"is_transit":false,"transit":false,"time":4,"i_lat":-6.319871,"station_name":"Serpong","line":6,"station_id":"SRP","distance":2413,"i_long":106.66566},{"station_name":"Cisauk","transit":false,"time":4,"station_id":"CSK","line":3,"distance":1784,"i_long":106.640411,"i_lat":-6.32484,"is_transit":false},{"station_name":"Cicayur","i_long":106.617853,"line":3,"transit":false,"time":4,"is_transit":false,"i_lat":-6.329547,"distance":2519,"station_id":"CC"},{"is_transit":false,"i_long":106.568863,"station_name":"Parung Panjang","distance":5968,"i_lat":-6.3441410000000005,"time":8,"line":6,"station_id":"PRP","transit":false},{"is_transit":false,"time":9,"i_long":106.508482,"station_id":"CJT","distance":7025,"station_name":"Cilejit","transit":false,"i_lat":-6.354349,"line":3},{"i_long":106.491338,"line":0,"i_lat":-6.338021,"is_transit":false,"station_id":"DAR","time":6,"station_name":"Daru","distance":2675,"transit":false},{"transit":false,"station_name":"Tenjo","i_lat":-6.327251,"is_transit":false,"station_id":"TEJ","i_long":106.460812,"distance":3902,"time":5,"line":6},{"station_name":"Tigaraksa","i_lat":-6.328533,"transit":false,"line":6,"i_long":106.425991,"time":5,"distance":2974,"station_id":"TGS","is_transit":false},{"station_id":"CKY","line":3,"distance":2651,"transit":false,"station_name":"Cikoya","is_transit":false,"time":3,"i_lat":-6.33561,"i_long":106.411216},{"station_id":"MJ","is_transit":false,"distance":1853,"i_lat":-6.332307,"time":4,"station_name":"Maja","transit":false,"i_long":106.394373,"line":6},{"i_long":106.332092,"line":3,"is_transit":false,"station_name":"Citeras","station_id":"CTR","transit":false,"distance":7293,"time":10,"i_lat":-6.334892},{"distance":9847,"transit":false,"i_long":106.250396,"station_name":"Rangkasbitung","time":13,"i_lat":-6.352675,"station_id":"RK","line":3,"is_transit":false}],[{"station_id":"JAY","i_lat":-6.141205,"distance":0,"station_name":"Jayakarta","line":2,"transit":false,"is_transit":false,"time":0,"i_long":106.820901},{"station_id":"JAKK","line":2,"is_transit":true,"distance":1264,"transit":true,"time":4,"station_name":"Jakarta Kota","i_lat":-6.137569,"i_long":106.812439},{"time":3,"station_name":"Kampung Bandan","line":4,"transit":true,"is_transit":true,"station_id":"KPB","i_lat":-6.132549,"i_long":106.826365,"distance":1364},{"line":11,"distance":1444,"station_name":"Rajawali","i_long":106.836569,"time":3,"is_transit":false,"i_lat":-6.14505,"station_id":"RJW","transit":false},{"station_id":"KMO","is_transit":false,"time":5,"distance":1901,"transit":false,"i_lat":-6.161728,"i_long":106.839204,"station_name":"Kemayoran","line":11},{"i_lat":-6.174784,"transit":false,"i_long":106.84368,"line":11,"station_id":"PSE","station_name":"Pasar Senen","is_transit":false,"time":4,"distance":1436},{"transit":false,"station_id":"GST","time":8,"is_transit":false,"station_name":"Gang Sentiong","line":11,"i_lat":-6.185975,"distance":1567,"i_long":106.850107},{"line":11,"station_id":"KMT","time":1,"i_long":106.855437,"i_lat":-6.193792,"is_transit":false,"station_name":"Kramat","distance":973,"transit":false},{"i_long":106.861737,"is_transit":false,"distance":1829,"i_lat":-6.209188,"transit":false,"line":11,"station_id":"POK","time":2,"station_name":"Pondok Jati"},{"distance":1236,"i_long":106.86807400000001,"i_lat":-6.215091,"time":9,"is_transit":true,"station_id":"JNG","transit":true,"station_name":"Jatinegara","line":1},{"time":2,"is_transit":false,"station_name":"Matraman","station_id":"MTR","distance":1377,"transit":false,"i_long":106.858896,"line":1,"i_lat":-6.212485},{"is_transit":false,"distance":1275,"station_name":"Manggarai","transit":false,"station_id":"MRI","i_lat":-6.209883,"i_long":106.84912,"time":2,"line":2},{"is_transit":false,"line":1,"time":4,"i_lat":-6.202263,"station_name":"Sudirman","i_long":106.822649,"distance":3186,"transit":false,"station_id":"SUD"},{"i_lat":-6.201433,"station_id":"SUDB","line":1,"time":1,"distance":280,"station_name":"Sudirman Baru","is_transit":false,"i_long":106.819881,"transit":false},{"is_transit":false,"i_long":106.816351,"station_id":"KAT","transit":false,"distance":471,"station_name":"Karet","time":1,"i_lat":-6.20132,"line":1},{"distance":2029,"line":1,"station_id":"THB","station_name":"Tanah Abang","time":5,"i_long":106.811091,"transit":true,"i_lat":-6.185545,"is_transit":true},{"i_lat":-6.207404,"station_name":"Palmerah","distance":3191,"line":6,"i_long":106.79689,"is_transit":false,"time":6,"transit":false,"station_id":"PLM"},{"station_name":"Kebayoran","line":6,"transit":false,"is_transit":false,"i_long":106.780334,"time":7,"station_id":"KBY","i_lat":-6.237242,"distance":3737},{"time":8,"distance":6218,"i_lat":-6.276362,"i_long":106.74273,"line":6,"is_transit":false,"station_name":"Pondokranji","transit":false,"station_id":"PDJ"},{"station_id":"JMU","time":3,"i_long":106.728916,"station_name":"Jurangmangu","distance":2179,"i_lat":-6.288927,"line":6,"transit":false,"is_transit":false},{"station_name":"Sudimara","distance":1994,"is_transit":false,"time":4,"line":6,"station_id":"SDM","i_long":106.712277,"i_lat":-6.296963,"transit":false},{"line":6,"time":6,"station_id":"RU","transit":false,"is_transit":false,"i_long":106.675475,"i_lat":-6.314823,"station_name":"Rawa Buntu","distance":4566},{"i_lat":-6.319871,"station_id":"SRP","station_name":"Serpong","distance":2413,"time":4,"transit":false,"i_long":106.66566,"is_transit":false,"line":6},{"i_long":106.640411,"line":3,"i_lat":-6.32484,"transit":false,"station_name":"Cisauk","distance":1784,"is_transit":false,"station_id":"CSK","time":4},{"is_transit":false,"station_id":"CC","station_name":"Cicayur","line":3,"time":4,"i_lat":-6.329547,"transit":false,"i_long":106.617853,"distance":2519},{"station_name":"Parung Panjang","i_lat":-6.3441410000000005,"station_id":"PRP","line":6,"time":8,"is_transit":false,"transit":false,"i_long":106.568863,"distance":5968},{"transit":false,"station_name":"Cilejit","distance":7025,"is_transit":false,"i_lat":-6.354349,"station_id":"CJT","i_long":106.508482,"time":9,"line":3},{"station_id":"DAR","i_lat":-6.338021,"i_long":106.491338,"transit":false,"is_transit":false,"distance":2675,"line":0,"station_name":"Daru","time":6},{"i_lat":-6.327251,"station_id":"TEJ","line":6,"transit":false,"distance":3902,"time":5,"station_name":"Tenjo","i_long":106.460812,"is_transit":false},{"station_id":"TGS","i_lat":-6.328533,"transit":false,"i_long":106.425991,"is_transit":false,"line":6,"time":5,"distance":2974,"station_name":"Tigaraksa"},{"station_name":"Cikoya","distance":2651,"time":3,"station_id":"CKY","i_long":106.411216,"i_lat":-6.33561,"is_transit":false,"line":3,"transit":false},{"station_name":"Maja","line":6,"i_long":106.394373,"station_id":"MJ","distance":1853,"time":4,"transit":false,"is_transit":false,"i_lat":-6.332307},{"line":3,"station_name":"Citeras","distance":7293,"is_transit":false,"time":10,"transit":false,"i_long":106.332092,"i_lat":-6.334892,"station_id":"CTR"},{"line":3,"is_transit":false,"distance":9847,"i_long":106.250396,"transit":false,"station_name":"Rangkasbitung","time":13,"station_id":"RK","i_lat":-6.352675}],[{"transit":false,"is_transit":false,"station_id":"JAY","i_lat":-6.141205,"i_long":106.820901,"station_name":"Jayakarta","time":0,"line":2,"distance":0},{"time":2,"i_long":106.82482,"line":2,"station_name":"Manggabesar","i_lat":-6.149769,"station_id":"MGB","is_transit":false,"distance":1080,"transit":false},{"i_lat":-6.160725,"station_id":"SW","time":2,"line":2,"distance":906,"is_transit":false,"station_name":"Sawah Besar","transit":false,"i_long":106.827103},{"distance":1149,"station_id":"JUA","i_long":106.828284,"station_name":"Juanda","transit":false,"i_lat":-6.166716,"line":2,"is_transit":false,"time":2},{"station_id":"GDD","i_long":106.832183,"station_name":"Gondangdia","is_transit":false,"time":4,"transit":false,"i_lat":-6.186295,"distance":2015,"line":2},{"i_lat":-6.198556,"i_long":106.840169,"line":2,"is_transit":false,"distance":1750,"transit":false,"station_name":"Cikini","time":3,"station_id":"CKI"},{"distance":1590,"i_lat":-6.209883,"line":2,"i_long":106.84912,"is_transit":true,"station_id":"MRI","time":4,"station_name":"Manggarai","transit":true},{"i_lat":-6.212485,"is_transit":false,"station_id":"MTR","i_long":106.858896,"time":2,"station_name":"Matraman","transit":false,"distance":1275,"line":1},{"is_transit":true,"i_long":106.86807400000001,"line":1,"distance":1377,"time":8,"i_lat":-6.215091,"station_name":"Jatinegara","station_id":"JNG","transit":true},{"station_id":"POK","distance":1236,"i_lat":-6.209188,"i_long":106.861737,"time":2,"is_transit":false,"station_name":"Pondok Jati","transit":false,"line":11},{"line":11,"i_long":106.855437,"transit":false,"is_transit":false,"time":2,"station_id":"KMT","distance":1829,"station_name":"Kramat","i_lat":-6.193792},{"i_lat":-6.185975,"time":1,"transit":false,"i_long":106.850107,"is_transit":false,"station_name":"Gang Sentiong","line":11,"distance":973,"station_id":"GST"},{"time":8,"is_transit":false,"station_name":"Pasar Senen","transit":false,"i_lat":-6.174784,"i_long":106.84368,"station_id":"PSE","line":11,"distance":1567},{"time":4,"station_id":"KMO","i_lat":-6.161728,"i_long":106.839204,"line":11,"is_transit":false,"station_name":"Kemayoran","transit":false,"distance":1436},{"station_id":"RJW","i_lat":-6.14505,"distance":1901,"station_name":"Rajawali","line":11,"transit":false,"is_transit":false,"time":5,"i_long":106.836569},{"transit":true,"station_id":"KPB","time":3,"line":4,"station_name":"Kampung Bandan","is_transit":true,"distance":1444,"i_lat":-6.132549,"i_long":106.826365},{"station_name":"Angke","time":9,"line":1,"i_lat":-6.144674,"i_long":106.79867,"transit":false,"is_transit":false,"distance":4102,"station_id":"AK"},{"time":4,"line":1,"i_long":106.800832,"i_lat":-6.155215,"station_id":"DU","station_name":"Duri","distance":1230,"transit":false,"is_transit":false},{"station_name":"Tanah Abang","i_lat":-6.185545,"time":8,"line":1,"station_id":"THB","transit":true,"is_transit":true,"distance":3632,"i_long":106.811091},{"i_long":106.79689,"line":6,"transit":false,"station_name":"Palmerah","time":6,"station_id":"PLM","is_transit":false,"distance":3191,"i_lat":-6.207404},{"line":6,"station_name":"Kebayoran","time":7,"i_lat":-6.237242,"distance":3737,"i_long":106.780334,"transit":false,"is_transit":false,"station_id":"KBY"},{"i_lat":-6.276362,"is_transit":false,"station_name":"Pondokranji","i_long":106.74273,"line":6,"time":8,"station_id":"PDJ","transit":false,"distance":6218},{"time":3,"i_long":106.728916,"i_lat":-6.288927,"line":6,"distance":2179,"station_id":"JMU","station_name":"Jurangmangu","is_transit":false,"transit":false},{"station_name":"Sudimara","time":4,"i_lat":-6.296963,"transit":false,"distance":1994,"line":6,"is_transit":false,"station_id":"SDM","i_long":106.712277},{"transit":false,"distance":4566,"i_lat":-6.314823,"time":6,"is_transit":false,"station_id":"RU","station_name":"Rawa Buntu","i_long":106.675475,"line":6},{"line":6,"transit":false,"time":4,"i_long":106.66566,"distance":2413,"station_id":"SRP","is_transit":false,"station_name":"Serpong","i_lat":-6.319871},{"is_transit":false,"transit":false,"time":4,"i_long":106.640411,"line":3,"station_id":"CSK","i_lat":-6.32484,"distance":1784,"station_name":"Cisauk"},{"is_transit":false,"line":3,"distance":2519,"time":4,"station_id":"CC","i_long":106.617853,"station_name":"Cicayur","i_lat":-6.329547,"transit":false},{"station_id":"PRP","time":8,"is_transit":false,"station_name":"Parung Panjang","i_long":106.568863,"transit":false,"distance":5968,"line":6,"i_lat":-6.3441410000000005},{"station_id":"CJT","station_name":"Cilejit","time":9,"i_lat":-6.354349,"line":3,"i_long":106.508482,"distance":7025,"is_transit":false,"transit":false},{"i_long":106.491338,"line":0,"is_transit":false,"distance":2675,"station_id":"DAR","transit":false,"station_name":"Daru","i_lat":-6.338021,"time":6},{"i_lat":-6.327251,"time":5,"is_transit":false,"i_long":106.460812,"transit":false,"station_id":"TEJ","distance":3902,"station_name":"Tenjo","line":6},{"i_long":106.425991,"is_transit":false,"line":6,"distance":2974,"station_name":"Tigaraksa","time":5,"station_id":"TGS","transit":false,"i_lat":-6.328533},{"transit":false,"is_transit":false,"i_long":106.411216,"line":3,"station_id":"CKY","station_name":"Cikoya","time":3,"distance":2651,"i_lat":-6.33561},{"time":4,"distance":1853,"station_name":"Maja","i_long":106.394373,"transit":false,"i_lat":-6.332307,"line":6,"is_transit":false,"station_id":"MJ"},{"station_name":"Citeras","transit":false,"i_lat":-6.334892,"distance":7293,"time":10,"line":3,"i_long":106.332092,"is_transit":false,"station_id":"CTR"},{"time":13,"station_name":"Rangkasbitung","transit":false,"i_lat":-6.352675,"distance":9847,"is_transit":false,"i_long":106.250396,"station_id":"RK","line":3}]]}