{"data":[[{"is_transit":false,"time":0,"distance":0,"transit":false,"i_lat":-6.141205,"line":7,"station_id":"JAY","station_name":"Jayakarta","i_long":106.820901},{"i_long":106.812439,"station_name":"Jakarta Kota","distance":1264,"is_transit":true,"station_id":"JAKK","transit":true,"i_lat":-6.137569,"line":0,"time":4},{"is_transit":true,"station_id":"KPB","line":0,"distance":1364,"time":3,"i_lat":-6.132549,"station_name":"Kampung Bandan","transit":false,"i_long":106.826365},{"time":9,"station_id":"AK","distance":4102,"line":0,"i_lat":-6.144674,"is_transit":false,"station_name":"Angke","transit":false,"i_long":106.79867},{"station_id":"DU","i_lat":-6.155215,"station_name":"Duri","time":4,"transit":true,"line":1,"i_long":106.800832,"is_transit":true,"distance":1230},{"station_name":"Tanah Abang","time":8,"i_lat":-6.185545,"line":1,"station_id":"THB","transit":true,"is_transit":true,"i_long":106.811091,"distance":3632},{"distance":3191,"transit":false,"line":6,"time":6,"i_lat":-6.207404,"station_id":"PLM","i_long":106.79689,"is_transit":false,"station_name":"Palmerah"},{"is_transit":false,"i_lat":-6.237242,"station_name":"Kebayoran","line":6,"transit":false,"station_id":"KBY","i_long":106.780334,"distance":3737,"time":7},{"time":8,"i_lat":-6.276362,"station_id":"PDJ","i_long":106.74273,"is_transit":false,"station_name":"Pondokranji","distance":6218,"transit":false,"line":6},{"station_name":"Jurangmangu","distance":2179,"i_lat":-6.288927,"i_long":106.728916,"station_id":"JMU","line":6,"is_transit":false,"transit":false,"time":3},{"i_lat":-6.296963,"station_id":"SDM","time":4,"distance":1994,"transit":false,"line":6,"i_long":106.712277,"station_name":"Sudimara","is_transit":false},{"distance":4566,"transit":false,"time":6,"station_name":"Rawa Buntu","is_transit":false,"station_id":"RU","i_lat":-6.314823,"i_long":106.675475,"line":6},{"transit":false,"distance":2413,"is_transit":false,"i_lat":-6.319871,"station_name":"Serpong","station_id":"SRP","time":4,"line":6,"i_long":106.66566},{"station_name":"Cisauk","i_long":106.640411,"station_id":"CSK","is_transit":false,"time":4,"transit":false,"line":0,"i_lat":-6.32484,"distance":1784},{"distance":2519,"i_lat":-6.329547,"transit":false,"time":4,"station_name":"Cicayur","is_transit":false,"i_long":106.617853,"station_id":"CC","line":0},{"station_name":"Parung Panjang","line":6,"station_id":"PRP","is_transit":false,"time":8,"distance":5968,"transit":false,"i_lat":-6.3441410000000005,"i_long":106.568863},{"line":0,"time":9,"transit":false,"i_lat":-6.354349,"station_name":"Cilejit","i_long":106.508482,"is_transit":false,"station_id":"CJT","distance":7025},{"station_id":"DAR","i_lat":-6.338021,"time":6,"station_name":"Daru","line":0,"is_transit":false,"transit":false,"distance":2675,"i_long":106.491338},{"distance":3902,"is_transit":false,"station_name":"Tenjo","i_lat":-6.327251,"line":6,"i_long":106.460812,"station_id":"TEJ","transit":false,"time":5},{"line":6,"time":5,"transit":false,"i_long":106.425991,"station_name":"Tigaraksa","distance":2974,"is_transit":false,"station_id":"TGS","i_lat":-6.328533},{"time":3,"is_transit":false,"i_long":106.411216,"station_name":"Cikoya","distance":2651,"station_id":"CKY","transit":false,"i_lat":-6.33561,"line":0},{"time":4,"transit":false,"i_long":106.394373,"distance":1853,"station_id":"MJ","station_name":"Maja","line":6,"is_transit":false,"i_lat":-6.332307},{"distance":7293,"station_id":"CTR","is_transit":false,"i_lat":-6.334892,"time":10,"station_name":"Citeras","i_long":106.332092,"transit":false,"line":0},{"station_name":"Rangkasbitung","station_id":"RK","time":13,"i_long":106.250396,"line":0,"transit":false,"i_lat":-6.352675,"is_transit":true,"distance":9847}],[{"distance":0,"i_lat":-6.141205,"station_name":"Jayakarta","i_long":106.820901,"line":7,"is_transit":false,"time":0,"station_id":"JAY","transit":false},{"i_long":106.82482,"i_lat":-6.149769,"transit":false,"station_name":"Manggabesar","line":2,"station_id":"MGB","is_transit":false,"distance":1080,"time":2},{"distance":906,"station_name":"Sawah Besar","is_transit":false,"line":2,"i_lat":-6.160725,"i_long":106.827103,"station_id":"SW","time":2,"transit":false},{"station_name":"Juanda","i_lat":-6.166716,"distance":1149,"station_id":"JUA","transit":false,"is_transit":false,"i_long":106.828284,"time":2,"line":2},{"i_long":106.832183,"time":4,"station_id":"GDD","is_transit":false,"i_lat":-6.186295,"line":2,"distance":2015,"station_name":"Gondangdia","transit":false},{"station_name":"Cikini","i_lat":-6.198556,"line":0,"time":3,"station_id":"CKI","transit":false,"distance":1750,"i_long":106.840169,"is_transit":false},{"time":4,"is_transit":true,"distance":1590,"i_long":106.84912,"transit":true,"i_lat":-6.209883,"station_name":"Manggarai","station_id":"MRI","line":0},{"i_long":106.822649,"distance":3186,"line":1,"is_transit":false,"time":4,"station_name":"Sudirman","station_id":"SUD","transit":false,"i_lat":-6.202263},{"i_long":106.819881,"line":1,"distance":280,"is_transit":false,"station_name":"Sudirman Baru","station_id":"SUDB","i_lat":-6.201433,"time":1,"transit":false},{"station_id":"KAT","i_long":106.816351,"time":1,"line":1,"station_name":"Karet","is_transit":false,"i_lat":-6.20132,"distance":471,"transit":false},{"i_long":106.811091,"line":1,"distance":2029,"station_name":"Tanah Abang","station_id":"THB","time":5,"is_transit":true,"i_lat":-6.185545,"transit":true},{"i_long":106.79689,"line":6,"transit":false,"time":6,"distance":3191,"is_transit":false,"station_id":"PLM","station_name":"Palmerah","i_lat":-6.207404},{"i_long":106.780334,"is_transit":false,"time":7,"transit":false,"line":6,"distance":3737,"station_id":"KBY","station_name":"Kebayoran","i_lat":-6.237242},{"station_id":"PDJ","line":6,"transit":false,"i_long":106.74273,"distance":6218,"i_lat":-6.276362,"is_transit":false,"time":8,"station_name":"Pondokranji"},{"is_transit":false,"i_long":106.728916,"station_name":"Jurangmangu","distance":2179,"station_id":"JMU","transit":false,"i_lat":-6.288927,"line":6,"time":3},{"is_transit":false,"station_name":"Sudimara","distance":1994,"transit":false,"i_lat":-6.296963,"time":4,"line":6,"station_id":"SDM","i_long":106.712277},{"line":6,"distance":4566,"transit":false,"i_long":106.675475,"i_lat":-6.314823,"station_id":"RU","time":6,"is_transit":false,"station_name":"Rawa Buntu"},{"station_id":"SRP","time":4,"is_transit":false,"transit":false,"i_lat":-6.319871,"i_long":106.66566,"station_name":"Serpong","distance":2413,"line":6},{"line":0,"station_id":"CSK","i_lat":-6.32484,"time":4,"distance":1784,"is_transit":false,"transit":false,"station_name":"Cisauk","i_long":106.640411},{"time":4,"station_name":"Cicayur","i_long":106.617853,"is_transit":false,"transit":false,"i_lat":-6.329547,"distance":2519,"station_id":"CC","line":0},{"time":8,"station_name":"Parung Panjang","distance":5968,"line":6,"is_transit":false,"station_id":"PRP","i_lat":-6.3441410000000005,"transit":false,"i_long":106.568863},{"i_lat":-6.354349,"station_name":"Cilejit","line":0,"station_id":"CJT","distance":7025,"i_long":106.508482,"is_transit":false,"time":9,"transit":false},{"station_name":"Daru","i_long":106.491338,"line":0,"time":6,"station_id":"DAR","distance":2675,"i_lat":-6.338021,"is_transit":false,"transit":false},{"time":5,"i_lat":-6.327251,"is_transit":false,"distance":3902,"station_id":"TEJ","station_name":"Tenjo","i_long":106.460812,"line":6,"transit":false},{"line":6,"station_id":"TGS","transit":false,"station_name":"Tigaraksa","time":5,"i_long":106.425991,"is_transit":false,"distance":2974,"i_lat":-6.328533},{"is_transit":false,"transit":false,"distance":2651,"line":0,"i_long":106.411216,"i_lat":-6.33561,"station_name":"Cikoya","time":3,"station_id":"CKY"},{"station_id":"MJ","distance":1853,"transit":false,"i_long":106.394373,"station_name":"Maja","is_transit":false,"time":4,"i_lat":-6.332307,"line":6},{"is_transit":false,"time":10,"transit":false,"station_id":"CTR","distance":7293,"i_lat":-6.334892,"i_long":106.332092,"station_name":"Citeras","line":0},{"line":0,"is_transit":true,"distance":9847,"i_lat":-6.352675,"station_name":"Rangkasbitung","i_long":106.250396,"station_id":"RK","time":13,"transit":false}],[{"distance":0,"line":7,"transit":false,"is_transit":false,"time":0,"station_name":"Jayakarta","station_id":"JAY","i_lat":-6.141205,"i_long":106.820901},{"is_transit":true,"station_name":"Jakarta Kota","distance":1264,"i_lat":-6.137569,"i_long":106.812439,"time":4,"transit":true,"station_id":"JAKK","line":0},{"i_lat":-6.132549,"i_long":106.826365,"distance":1364,"station_name":"Kampung Bandan","is_transit":true,"station_id":"KPB","transit":true,"time":3,"line":0},{"station_id":"RJW","i_long":106.836569,"line":11,"is_transit":false,"i_lat":-6.14505,"station_name":"Rajawali","distance":1444,"time":3,"transit":false},{"line":11,"i_long":106.839204,"station_name":"Kemayoran","time":5,"i_lat":-6.161728,"distance":1901,"station_id":"KMO","is_transit":false,"transit":false},{"distance":1436,"station_id":"PSE","transit":false,"i_long":106.84368,"station_name":"Pasar Senen","is_transit":false,"time":4,"i_lat":-6.174784,"line":11},{"transit":false,"station_id":"GST","station_name":"Gang Sentiong","distance":1567,"i_long":106.850107,"i_lat":-6.185975,"line":11,"is_transit":false,"time":8},{"station_name":"Kramat","transit":false,"i_lat":-6.193792,"i_long":106.855437,"is_transit":false,"line":11,"time":1,"distance":973,"station_id":"KMT"},{"time":2,"i_lat":-6.209188,"line":11,"distance":1829,"station_name":"Pondok Jati","transit":false,"station_id":"POK","is_transit":false,"i_long":106.861737},{"i_long":106.86807400000001,"is_transit":true,"transit":true,"station_name":"Jatinegara","station_id":"JNG","time":9,"i_lat":-6.215091,"line":0,"distance":1236},{"i_lat":-6.212485,"transit":false,"is_transit":false,"station_name":"Matraman","time":2,"distance":1377,"line":1,"i_long":106.858896,"station_id":"MTR"},{"station_name":"Manggarai","station_id":"MRI","transit":false,"is_transit":true,"distance":1275,"i_long":106.84912,"time":2,"i_lat":-6.209883,"line":0},{"i_long":106.822649,"station_name":"Sudirman","time":4,"station_id":"SUD","transit":false,"distance":3186,"i_lat":-6.202263,"line":1,"is_transit":false},{"distance":280,"i_lat":-6.201433,"station_name":"Sudirman Baru","line":1,"time":1,"i_long":106.819881,"station_id":"SUDB","transit":false,"is_transit":false},{"distance":471,"i_lat":-6.20132,"station_id":"KAT","line":1,"transit":false,"time":1,"station_name":"Karet","is_transit":false,"i_long":106.816351},{"i_lat":-6.185545,"station_id":"THB","station_name":"Tanah Abang","time":5,"is_transit":true,"distance":2029,"i_long":106.811091,"line":1,"transit":true},{"station_id":"PLM","distance":3191,"is_transit":false,"transit":false,"station_name":"Palmerah","i_long":106.79689,"time":6,"line":6,"i_lat":-6.207404},{"distance":3737,"i_lat":-6.237242,"is_transit":false,"line":6,"station_name":"Kebayoran","i_long":106.780334,"time":7,"transit":false,"station_id":"KBY"},{"is_transit":false,"distance":6218,"i_long":106.74273,"line":6,"station_name":"Pondokranji","station_id":"PDJ","transit":false,"time":8,"i_lat":-6.276362},{"transit":false,"i_long":106.728916,"station_name":"Jurangmangu","i_lat":-6.288927,"time":3,"is_transit":false,"line":6,"station_id":"JMU","distance":2179},{"time":4,"station_id":"SDM","i_long":106.712277,"transit":false,"station_name":"Sudimara","i_lat":-6.296963,"distance":1994,"is_transit":false,"line":6},{"is_transit":false,"station_id":"RU","time":6,"transit":false,"i_lat":-6.314823,"distance":4566,"i_long":106.675475,"line":6,"station_name":"Rawa Buntu"},{"transit":false,"station_id":"SRP","line":6,"station_name":"Serpong","i_lat":-6.319871,"i_long":106.66566,"distance":2413,"is_transit":false,"time":4},{"station_name":"Cisauk","i_lat":-6.32484,"distance":1784,"station_id":"CSK","transit":false,"time":4,"i_long":106.640411,"is_transit":false,"line":0},{"distance":2519,"is_transit":false,"time":4,"i_long":106.617853,"station_id":"CC","transit":false,"i_lat":-6.329547,"station_name":"Cicayur","line":0},{"station_name":"Parung Panjang","is_transit":false,"i_lat":-6.3441410000000005,"i_long":106.568863,"line":6,"time":8,"station_id":"PRP","distance":5968,"transit":false},{"i_lat":-6.354349,"station_name":"Cilejit","is_transit":false,"time":9,"distance":7025,"station_id":"CJT","transit":false,"i_long":106.508482,"line":0},{"distance":2675,"line":0,"station_name":"Daru","time":6,"i_lat":-6.338021,"station_id":"DAR","i_long":106.491338,"is_transit":false,"transit":false},{"is_transit":false,"station_id":"TEJ","i_long":106.460812,"station_name":"Tenjo","time":5,"transit":false,"distance":3902,"i_lat":-6.327251,"line":6},{"station_id":"TGS","station_name":"Tigaraksa","is_transit":false,"i_lat":-6.328533,"line":6,"time":5,"distance":2974,"i_long":106.425991,"transit":false},{"i_lat":-6.33561,"distance":2651,"i_long":106.411216,"station_id":"CKY","line":0,"is_transit":false,"time":3,"station_name":"Cikoya","transit":false},{"time":4,"line":6,"station_id":"MJ","station_name":"Maja","i_lat":-6.332307,"distance":1853,"is_transit":false,"transit":false,"i_long":106.394373},{"line":0,"i_lat":-6.334892,"time":10,"station_name":"Citeras","distance":7293,"i_long":106.332092,"station_id":"CTR","transit":false,"is_transit":false},{"station_id":"RK","time":13,"transit":false,"i_lat":-6.352675,"line":0,"i_long":106.250396,"station_name":"Rangkasbitung","distance":9847,"is_transit":true}],[{"distance":0,"is_transit":false,"transit":false,"station_name":"Jayakarta","station_id":"JAY","i_lat":-6.141205,"line":7,"time":0,"i_long":106.820901},{"station_name":"Manggabesar","station_id":"MGB","is_transit":false,"distance":1080,"line":2,"i_long":106.82482,"i_lat":-6.149769,"time":2,"transit":false},{"i_lat":-6.160725,"is_transit":false,"line":2,"distance":906,"station_name":"Sawah Besar","time":2,"transit":false,"i_long":106.827103,"station_id":"SW"},{"station_id":"JUA","is_transit":false,"distance":1149,"transit":false,"i_long":106.828284,"station_name":"Juanda","i_lat":-6.166716,"line":2,"time":2},{"time":4,"transit":false,"is_transit":false,"distance":2015,"i_long":106.832183,"station_name":"Gondangdia","line":2,"i_lat":-6.186295,"station_id":"GDD"},{"distance":1750,"i_lat":-6.198556,"is_transit":false,"station_id":"CKI","line":0,"station_name":"Cikini","time":3,"transit":false,"i_long":106.840169},{"is_transit":true,"distance":1590,"line":0,"time":4,"station_id":"MRI","transit":true,"i_long":106.84912,"station_name":"Manggarai","i_lat":-6.209883},{"i_lat":-6.212485,"time":2,"i_long":106.858896,"station_id":"MTR","distance":1275,"transit":false,"line":1,"station_name":"Matraman","is_transit":false},{"i_long":106.86807400000001,"station_name":"Jatinegara","line":0,"is_transit":true,"i_lat":-6.215091,"station_id":"JNG","distance":1377,"transit":true,"time":8},{"transit":false,"distance":1236,"time":2,"station_id":"POK","is_transit":false,"station_name":"Pondok Jati","i_lat":-6.209188,"i_long":106.861737,"line":11},{"station_id":"KMT","line":11,"i_lat":-6.193792,"is_transit":false,"station_name":"Kramat","time":2,"transit":false,"distance":1829,"i_long":106.855437},{"transit":false,"i_long":106.850107,"distance":973,"station_id":"GST","station_name":"Gang Sentiong","time":1,"is_transit":false,"i_lat":-6.185975,"line":11},{"distance":1567,"station_id":"PSE","transit":false,"time":8,"i_long":106.84368,"station_name":"Pasar Senen","line":11,"is_transit":false,"i_lat":-6.174784},{"transit":false,"is_transit":false,"i_long":106.839204,"time":4,"station_id":"KMO","distance":1436,"i_lat":-6.161728,"station_name":"Kemayoran","line":11},{"station_name":"Rajawali","station_id":"RJW","time":5,"i_lat":-6.14505,"distance":1901,"is_transit":false,"transit":false,"line":11,"i_long":106.836569},{"line":0,"is_transit":true,"i_long":106.826365,"i_lat":-6.132549,"station_id":"KPB","time":3,"station_name":"Kampung Bandan","distance":1444,"transit":true},{"distance":4102,"line":0,"time":9,"i_lat":-6.144674,"station_id":"AK","station_name":"Angke","transit":false,"is_transit":false,"i_long":106.79867},{"transit":true,"time":4,"i_long":106.800832,"distance":1230,"station_id":"DU","station_name":"Duri","is_transit":true,"line":1,"i_lat":-6.155215},{"i_long":106.811091,"distance":3632,"transit":true,"is_transit":true,"station_id":"THB","station_name":"Tanah Abang","i_lat":-6.185545,"line":1,"time":8},{"time":6,"i_long":106.79689,"station_name":"Palmerah","is_transit":false,"distance":3191,"transit":false,"i_lat":-6.207404,"station_id":"PLM","line":6},{"i_lat":-6.237242,"distance":3737,"i_long":106.780334,"is_transit":false,"station_name":"Kebayoran","time":7,"line":6,"station_id":"KBY","transit":false},{"i_lat":-6.276362,"i_long":106.74273,"station_name":"Pondokranji","is_transit":false,"time":8,"distance":6218,"transit":false,"station_id":"PDJ","line":6},{"i_lat":-6.288927,"line":6,"is_transit":false,"station_id":"JMU","distance":2179,"i_long":106.728916,"station_name":"Jurangmangu","time":3,"transit":false},{"line":6,"time":4,"transit":false,"is_transit":false,"station_id":"SDM","i_lat":-6.296963,"i_long":106.712277,"station_name":"Sudimara","distance":1994},{"line":6,"station_name":"Rawa Buntu","is_transit":false,"distance":4566,"station_id":"RU","i_lat":-6.314823,"time":6,"i_long":106.675475,"transit":false},{"distance":2413,"station_name":"Serpong","transit":false,"is_transit":false,"i_lat":-6.319871,"station_id":"SRP","i_long":106.66566,"line":6,"time":4},{"is_transit":false,"station_id":"CSK","distance":1784,"transit":false,"time":4,"station_name":"Cisauk","i_lat":-6.32484,"i_long":106.640411,"line":0},{"i_long":106.617853,"line":0,"distance":2519,"time":4,"station_id":"CC","is_transit":false,"transit":false,"i_lat":-6.329547,"station_name":"Cicayur"},{"time":8,"i_lat":-6.3441410000000005,"distance":5968,"transit":false,"is_transit":false,"line":6,"station_id":"PRP","i_long":106.568863,"station_name":"Parung Panjang"},{"station_id":"CJT","is_transit":false,"i_long":106.508482,"line":0,"station_name":"Cilejit","time":9,"distance":7025,"transit":false,"i_lat":-6.354349},{"distance":2675,"line":0,"i_lat":-6.338021,"is_transit":false,"time":6,"station_id":"DAR","station_name":"Daru","i_long":106.491338,"transit":false},{"line":6,"station_name":"Tenjo","i_lat":-6.327251,"time":5,"transit":false,"is_transit":false,"distance":3902,"i_long":106.460812,"station_id":"TEJ"},{"time":5,"i_long":106.425991,"line":6,"distance":2974,"i_lat":-6.328533,"station_name":"Tigaraksa","transit":false,"station_id":"TGS","is_transit":false},{"time":3,"line":0,"station_id":"CKY","is_transit":false,"transit":false,"distance":2651,"station_name":"Cikoya","i_lat":-6.33561,"i_long":106.411216},{"station_id":"MJ","station_name":"Maja","distance":1853,"i_lat":-6.332307,"line":6,"i_long":106.394373,"time":4,"is_transit":false,"transit":false},{"transit":false,"station_name":"Citeras","station_id":"CTR","line":0,"is_transit":false,"time":10,"i_lat":-6.334892,"i_long":106.332092,"distance":7293},{"transit":false,"i_long":106.250396,"is_transit":true,"i_lat":-6.352675,"station_name":"Rangkasbitung","line":0,"station_id":"RK","distance":9847,"time":13}]]}