{"data":[[{"line":2,"station_name":"Jayakarta","transit":false,"station_id":"JAY","time":0,"i_lat":-6.141205,"distance":0,"is_transit":false,"i_long":106.820901},{"i_lat":-6.149769,"station_name":"Manggabesar","time":2,"line":2,"station_id":"MGB","transit":false,"i_long":106.82482,"distance":1080,"is_transit":false},{"station_id":"SW","i_lat":-6.160725,"transit":false,"station_name":"Sawah Besar","i_long":106.827103,"line":2,"distance":906,"is_transit":false,"time":2},{"transit":false,"time":2,"i_lat":-6.166716,"i_long":106.828284,"line":2,"distance":1149,"station_name":"Juanda","station_id":"JUA","is_transit":false},{"distance":2015,"station_id":"GDD","station_name":"Gondangdia","is_transit":false,"i_lat":-6.186295,"transit":false,"time":4,"line":2,"i_long":106.832183},{"i_lat":-6.198556,"is_transit":false,"i_long":106.840169,"transit":false,"time":3,"line":2,"station_id":"CKI","station_name":"Cikini","distance":1750},{"line":2,"distance":1590,"transit":false,"time":4,"station_name":"Manggarai","i_long":106.84912,"is_transit":false,"station_id":"MRI","i_lat":-6.209883},{"i_lat":-6.226659,"distance":2610,"transit":false,"is_transit":false,"time":4,"station_id":"TEB","station_name":"Tebet","line":2,"i_long":106.857948},{"station_name":"Cawang","is_transit":false,"i_lat":-6.242512,"station_id":"CW","time":2,"line":2,"i_long":106.856607,"distance":1230,"transit":false},{"is_transit":false,"station_id":"DRN","i_lat":-6.255332,"line":2,"i_long":106.85449,"station_name":"Duren Kalibata","time":3,"transit":false,"distance":1546},{"i_lat":-6.263214,"transit":false,"line":2,"time":2,"i_long":106.851577,"distance":824,"station_id":"PSMB","station_name":"Pasar Minggu Baru","is_transit":false},{"distance":2380,"i_long":106.843999,"station_name":"Pasar Minggu","time":2,"line":2,"station_id":"PSM","is_transit":false,"transit":false,"i_lat":-6.2842400000000005},{"is_transit":false,"i_long":106.838896,"distance":2820,"station_id":"TNT","station_name":"Tanjung Barat","line":2,"i_lat":-6.3080680000000005,"transit":false,"time":4},{"station_id":"LNA","i_lat":-6.330363,"station_name":"Lenteng Agung","line":2,"time":3,"distance":2671,"transit":false,"is_transit":false,"i_long":106.832616},{"line":2,"station_name":"Univ. Pancasila","transit":false,"is_transit":false,"distance":1029,"station_id":"UP","time":2,"i_lat":-6.339291,"i_long":106.834175},{"transit":false,"distance":2264,"station_id":"UI","is_transit":false,"time":3,"i_lat":-6.360749,"i_long":106.831474,"station_name":"Univ. Indonesia","line":2},{"i_long":106.831114,"station_name":"Pondok Cina","time":2,"transit":false,"line":2,"distance":1109,"station_id":"POC","is_transit":false,"i_lat":-6.369073},{"is_transit":false,"i_long":106.819451,"i_lat":-6.391065,"transit":false,"distance":2727,"time":4,"station_id":"DPB","line":2,"station_name":"Depokbaru"},{"is_transit":false,"station_id":"DP","transit":false,"time":3,"distance":1584,"line":2,"i_lat":-6.405256,"station_name":"Depok","i_long":106.816926},{"is_transit":true,"station_id":"CTA","transit":true,"distance":5084,"station_name":"Citayam","time":6,"i_lat":-6.448811,"line":2,"i_long":106.800298},{"distance":0,"station_id":"PDRG","time":0,"station_name":"Pondok Rajeg","is_transit":false,"line":21,"i_long":106.824374,"transit":false,"i_lat":-6.460735},{"line":21,"i_long":106.851978,"station_id":"CBN","transit":false,"i_lat":-6.46424,"is_transit":false,"distance":0,"station_name":"Cibinong","time":0},{"i_long":106.905196,"transit":false,"line":21,"is_transit":false,"station_id":"NMO","i_lat":-6.466285,"distance":6527,"station_name":"Nambo","time":10}],[{"station_id":"JAY","station_name":"Jayakarta","i_long":106.820901,"is_transit":false,"i_lat":-6.141205,"transit":false,"time":0,"line":2,"distance":0},{"time":4,"line":2,"i_long":106.812439,"transit":true,"station_id":"JAKK","is_transit":true,"distance":1264,"i_lat":-6.137569,"station_name":"Jakarta Kota"},{"distance":1364,"line":4,"time":3,"station_id":"KPB","i_long":106.826365,"i_lat":-6.132549,"station_name":"Kampung Bandan","transit":true,"is_transit":true},{"time":9,"line":1,"i_long":106.79867,"distance":4102,"transit":false,"i_lat":-6.144674,"station_id":"AK","station_name":"Angke","is_transit":false},{"station_name":"Duri","line":1,"station_id":"DU","time":4,"i_lat":-6.155215,"distance":1230,"i_long":106.800832,"is_transit":false,"transit":false},{"i_long":106.811091,"line":1,"station_name":"Tanah Abang","distance":3632,"i_lat":-6.185545,"is_transit":false,"transit":false,"station_id":"THB","time":8},{"station_id":"KAT","line":1,"transit":false,"station_name":"Karet","is_transit":false,"i_lat":-6.20132,"i_long":106.816351,"time":5,"distance":2029},{"distance":471,"i_long":106.819881,"line":1,"transit":false,"station_name":"Sudirman Baru","is_transit":false,"i_lat":-6.201433,"station_id":"SUDB","time":1},{"station_id":"SUD","distance":280,"is_transit":false,"station_name":"Sudirman","time":1,"line":1,"i_lat":-6.202263,"i_long":106.822649,"transit":false},{"transit":true,"station_id":"MRI","is_transit":true,"i_long":106.84912,"line":2,"distance":3186,"station_name":"Manggarai","time":4,"i_lat":-6.209883},{"is_transit":false,"i_long":106.857948,"transit":false,"line":2,"i_lat":-6.226659,"station_id":"TEB","station_name":"Tebet","time":4,"distance":2610},{"i_long":106.856607,"distance":1230,"station_name":"Cawang","i_lat":-6.242512,"station_id":"CW","time":2,"line":2,"transit":false,"is_transit":false},{"line":2,"transit":false,"time":3,"i_lat":-6.255332,"is_transit":false,"station_id":"DRN","station_name":"Duren Kalibata","i_long":106.85449,"distance":1546},{"transit":false,"time":2,"i_lat":-6.263214,"station_id":"PSMB","distance":824,"station_name":"Pasar Minggu Baru","is_transit":false,"i_long":106.851577,"line":2},{"i_lat":-6.2842400000000005,"line":2,"time":2,"is_transit":false,"distance":2380,"i_long":106.843999,"station_name":"Pasar Minggu","transit":false,"station_id":"PSM"},{"time":4,"i_lat":-6.3080680000000005,"station_id":"TNT","distance":2820,"is_transit":false,"line":2,"i_long":106.838896,"station_name":"Tanjung Barat","transit":false},{"line":2,"i_long":106.832616,"is_transit":false,"time":3,"distance":2671,"station_id":"LNA","i_lat":-6.330363,"station_name":"Lenteng Agung","transit":false},{"distance":1029,"station_id":"UP","line":2,"transit":false,"time":2,"i_long":106.834175,"station_name":"Univ. Pancasila","is_transit":false,"i_lat":-6.339291},{"is_transit":false,"transit":false,"line":2,"i_long":106.831474,"time":3,"i_lat":-6.360749,"station_id":"UI","station_name":"Univ. Indonesia","distance":2264},{"distance":1109,"time":2,"transit":false,"station_name":"Pondok Cina","station_id":"POC","i_lat":-6.369073,"i_long":106.831114,"is_transit":false,"line":2},{"station_name":"Depokbaru","station_id":"DPB","time":4,"distance":2727,"is_transit":false,"i_lat":-6.391065,"i_long":106.819451,"transit":false,"line":2},{"is_transit":false,"i_lat":-6.405256,"i_long":106.816926,"line":2,"transit":false,"time":3,"station_name":"Depok","distance":1584,"station_id":"DP"},{"line":2,"transit":true,"i_long":106.800298,"time":6,"distance":5084,"station_id":"CTA","station_name":"Citayam","is_transit":true,"i_lat":-6.448811},{"line":21,"distance":0,"is_transit":false,"i_long":106.824374,"transit":false,"station_id":"PDRG","i_lat":-6.460735,"station_name":"Pondok Rajeg","time":0},{"is_transit":false,"i_long":106.851978,"station_id":"CBN","station_name":"Cibinong","line":21,"time":0,"distance":0,"transit":false,"i_lat":-6.46424},{"station_name":"Nambo","line":21,"station_id":"NMO","distance":6527,"is_transit":false,"i_lat":-6.466285,"time":10,"i_long":106.905196,"transit":false}],[{"is_transit":false,"line":2,"distance":0,"transit":false,"station_id":"JAY","i_long":106.820901,"i_lat":-6.141205,"station_name":"Jayakarta","time":0},{"i_long":106.812439,"station_id":"JAKK","transit":true,"is_transit":true,"station_name":"Jakarta Kota","time":4,"i_lat":-6.137569,"line":2,"distance":1264},{"i_long":106.826365,"time":3,"line":4,"distance":1364,"is_transit":true,"station_id":"KPB","i_lat":-6.132549,"station_name":"Kampung Bandan","transit":true},{"i_lat":-6.14505,"line":11,"station_id":"RJW","time":3,"is_transit":false,"transit":false,"distance":1444,"station_name":"Rajawali","i_long":106.836569},{"transit":false,"station_name":"Kemayoran","i_lat":-6.161728,"line":11,"i_long":106.839204,"time":5,"station_id":"KMO","distance":1901,"is_transit":false},{"station_id":"PSE","distance":1436,"time":4,"i_long":106.84368,"transit":false,"line":11,"is_transit":false,"station_name":"Pasar Senen","i_lat":-6.174784},{"station_id":"GST","distance":1567,"transit":false,"station_name":"Gang Sentiong","i_lat":-6.185975,"is_transit":false,"i_long":106.850107,"line":11,"time":8},{"is_transit":false,"line":11,"i_long":106.855437,"station_name":"Kramat","i_lat":-6.193792,"distance":973,"time":1,"station_id":"KMT","transit":false},{"distance":1829,"i_lat":-6.209188,"time":2,"is_transit":false,"line":11,"i_long":106.861737,"station_id":"POK","station_name":"Pondok Jati","transit":false},{"station_name":"Jatinegara","transit":true,"distance":1236,"time":9,"i_lat":-6.215091,"is_transit":true,"i_long":106.86807400000001,"station_id":"JNG","line":1},{"line":1,"i_lat":-6.212485,"is_transit":false,"distance":1377,"station_id":"MTR","i_long":106.858896,"time":2,"station_name":"Matraman","transit":false},{"time":2,"station_id":"MRI","transit":true,"i_lat":-6.209883,"i_long":106.84912,"distance":1275,"line":2,"is_transit":true,"station_name":"Manggarai"},{"i_long":106.857948,"station_name":"Tebet","line":2,"transit":false,"is_transit":false,"distance":2610,"i_lat":-6.226659,"time":4,"station_id":"TEB"},{"line":2,"distance":1230,"transit":false,"station_name":"Cawang","i_lat":-6.242512,"is_transit":false,"time":2,"i_long":106.856607,"station_id":"CW"},{"is_transit":false,"time":3,"station_name":"Duren Kalibata","i_lat":-6.255332,"station_id":"DRN","line":2,"transit":false,"distance":1546,"i_long":106.85449},{"is_transit":false,"i_lat":-6.263214,"station_name":"Pasar Minggu Baru","i_long":106.851577,"transit":false,"time":2,"line":2,"distance":824,"station_id":"PSMB"},{"is_transit":false,"time":2,"i_lat":-6.2842400000000005,"station_id":"PSM","transit":false,"line":2,"station_name":"Pasar Minggu","distance":2380,"i_long":106.843999},{"i_lat":-6.3080680000000005,"transit":false,"time":4,"station_id":"TNT","distance":2820,"i_long":106.838896,"station_name":"Tanjung Barat","is_transit":false,"line":2},{"is_transit":false,"transit":false,"station_name":"Lenteng Agung","i_long":106.832616,"line":2,"station_id":"LNA","distance":2671,"time":3,"i_lat":-6.330363},{"time":2,"i_lat":-6.339291,"line":2,"station_name":"Univ. Pancasila","distance":1029,"station_id":"UP","transit":false,"i_long":106.834175,"is_transit":false},{"i_long":106.831474,"distance":2264,"station_id":"UI","transit":false,"is_transit":false,"time":3,"station_name":"Univ. Indonesia","i_lat":-6.360749,"line":2},{"transit":false,"is_transit":false,"i_lat":-6.369073,"distance":1109,"station_id":"POC","station_name":"Pondok Cina","i_long":106.831114,"line":2,"time":2},{"station_id":"DPB","line":2,"is_transit":false,"transit":false,"station_name":"Depokbaru","time":4,"i_long":106.819451,"distance":2727,"i_lat":-6.391065},{"transit":false,"station_name":"Depok","station_id":"DP","distance":1584,"time":3,"i_lat":-6.405256,"i_long":106.816926,"line":2,"is_transit":false},{"station_id":"CTA","line":2,"i_long":106.800298,"is_transit":true,"station_name":"Citayam","transit":true,"distance":5084,"i_lat":-6.448811,"time":6},{"i_long":106.824374,"transit":false,"distance":0,"station_id":"PDRG","time":0,"is_transit":false,"station_name":"Pondok Rajeg","line":21,"i_lat":-6.460735},{"i_lat":-6.46424,"time":0,"station_id":"CBN","i_long":106.851978,"transit":false,"line":21,"is_transit":false,"station_name":"Cibinong","distance":0},{"distance":6527,"station_name":"Nambo","is_transit":false,"i_long":106.905196,"i_lat":-6.466285,"line":21,"time":10,"transit":false,"station_id":"NMO"}]]}