{"data":[[{"time":0,"station_id":"JAY","station_name":"Jayakarta","i_long":106.820901,"transit":false,"i_lat":-6.141205,"distance":0,"is_transit":false,"line":7},{"i_lat":-6.137569,"station_id":"JAKK","i_long":106.812439,"line":0,"distance":1264,"is_transit":true,"station_name":"Jakarta Kota","time":4,"transit":true},{"time":3,"station_id":"KPB","transit":false,"i_long":106.826365,"i_lat":-6.132549,"line":0,"distance":1364,"station_name":"Kampung Bandan","is_transit":true},{"i_long":106.79867,"station_name":"Angke","transit":false,"line":0,"station_id":"AK","distance":4102,"i_lat":-6.144674,"time":9,"is_transit":false},{"line":1,"transit":true,"station_name":"Duri","is_transit":true,"time":4,"i_lat":-6.155215,"station_id":"DU","distance":1230,"i_long":106.800832},{"is_transit":true,"time":8,"i_lat":-6.185545,"i_long":106.811091,"transit":true,"line":1,"station_id":"THB","distance":3632,"station_name":"Tanah Abang"},{"line":6,"transit":false,"i_long":106.79689,"station_id":"PLM","distance":3191,"is_transit":false,"i_lat":-6.207404,"time":6,"station_name":"Palmerah"},{"distance":3737,"transit":false,"is_transit":false,"station_id":"KBY","i_lat":-6.237242,"i_long":106.780334,"line":6,"station_name":"Kebayoran","time":7},{"station_id":"PDJ","is_transit":false,"time":8,"distance":6218,"i_lat":-6.276362,"i_long":106.74273,"line":6,"station_name":"Pondokranji","transit":false},{"transit":false,"is_transit":false,"distance":2179,"i_lat":-6.288927,"i_long":106.728916,"time":3,"station_id":"JMU","line":6,"station_name":"Jurangmangu"},{"i_lat":-6.296963,"i_long":106.712277,"transit":false,"station_id":"SDM","distance":1994,"station_name":"Sudimara","line":6,"is_transit":false,"time":4},{"transit":false,"i_long":106.675475,"distance":4566,"is_transit":false,"station_id":"RU","line":6,"station_name":"Rawa Buntu","time":6,"i_lat":-6.314823}],[{"station_name":"Jayakarta","line":7,"transit":false,"is_transit":false,"i_long":106.820901,"station_id":"JAY","time":0,"distance":0,"i_lat":-6.141205},{"i_long":106.82482,"distance":1080,"station_id":"MGB","is_transit":false,"time":2,"transit":false,"i_lat":-6.149769,"station_name":"Manggabesar","line":2},{"transit":false,"is_transit":false,"station_name":"Sawah Besar","distance":906,"i_lat":-6.160725,"time":2,"i_long":106.827103,"line":2,"station_id":"SW"},{"transit":false,"i_long":106.828284,"station_name":"Juanda","i_lat":-6.166716,"line":2,"station_id":"JUA","time":2,"is_transit":false,"distance":1149},{"is_transit":false,"distance":2015,"i_lat":-6.186295,"i_long":106.832183,"station_name":"Gondangdia","line":2,"transit":false,"time":4,"station_id":"GDD"},{"line":0,"i_lat":-6.198556,"distance":1750,"transit":false,"station_name":"Cikini","is_transit":false,"station_id":"CKI","time":3,"i_long":106.840169},{"station_id":"MRI","i_lat":-6.209883,"time":4,"distance":1590,"station_name":"Manggarai","transit":true,"i_long":106.84912,"line":0,"is_transit":true},{"distance":3186,"time":4,"i_lat":-6.202263,"line":1,"is_transit":false,"i_long":106.822649,"station_name":"Sudirman","station_id":"SUD","transit":false},{"time":1,"transit":false,"line":1,"distance":280,"station_id":"SUDB","i_long":106.819881,"station_name":"Sudirman Baru","i_lat":-6.201433,"is_transit":false},{"transit":false,"is_transit":false,"i_long":106.816351,"station_name":"Karet","distance":471,"line":1,"station_id":"KAT","time":1,"i_lat":-6.20132},{"station_name":"Tanah Abang","time":5,"transit":true,"i_long":106.811091,"line":1,"is_transit":true,"station_id":"THB","distance":2029,"i_lat":-6.185545},{"distance":3191,"i_long":106.79689,"station_id":"PLM","time":6,"station_name":"Palmerah","i_lat":-6.207404,"transit":false,"line":6,"is_transit":false},{"line":6,"time":7,"station_id":"KBY","station_name":"Kebayoran","i_lat":-6.237242,"transit":false,"i_long":106.780334,"distance":3737,"is_transit":false},{"station_name":"Pondokranji","line":6,"transit":false,"is_transit":false,"time":8,"i_lat":-6.276362,"i_long":106.74273,"station_id":"PDJ","distance":6218},{"distance":2179,"station_name":"Jurangmangu","i_lat":-6.288927,"i_long":106.728916,"line":6,"station_id":"JMU","is_transit":false,"time":3,"transit":false},{"i_long":106.712277,"i_lat":-6.296963,"station_name":"Sudimara","distance":1994,"line":6,"station_id":"SDM","is_transit":false,"time":4,"transit":false},{"time":6,"i_long":106.675475,"i_lat":-6.314823,"is_transit":false,"station_name":"Rawa Buntu","transit":false,"line":6,"distance":4566,"station_id":"RU"}],[{"transit":false,"line":7,"is_transit":false,"i_lat":-6.141205,"i_long":106.820901,"distance":0,"station_id":"JAY","station_name":"Jayakarta","time":0},{"transit":true,"time":4,"station_id":"JAKK","i_lat":-6.137569,"i_long":106.812439,"is_transit":true,"station_name":"Jakarta Kota","distance":1264,"line":0},{"time":3,"i_lat":-6.132549,"line":0,"transit":true,"i_long":106.826365,"station_name":"Kampung Bandan","station_id":"KPB","is_transit":true,"distance":1364},{"i_long":106.836569,"station_id":"RJW","time":3,"line":11,"i_lat":-6.14505,"station_name":"Rajawali","is_transit":false,"distance":1444,"transit":false},{"station_id":"KMO","is_transit":false,"distance":1901,"transit":false,"line":11,"i_long":106.839204,"station_name":"Kemayoran","time":5,"i_lat":-6.161728},{"is_transit":false,"station_name":"Pasar Senen","distance":1436,"transit":false,"i_lat":-6.174784,"station_id":"PSE","time":4,"i_long":106.84368,"line":11},{"time":8,"is_transit":false,"transit":false,"station_name":"Gang Sentiong","i_lat":-6.185975,"station_id":"GST","line":11,"distance":1567,"i_long":106.850107},{"transit":false,"station_name":"Kramat","time":1,"line":11,"i_long":106.855437,"station_id":"KMT","i_lat":-6.193792,"distance":973,"is_transit":false},{"transit":false,"station_name":"Pondok Jati","line":11,"distance":1829,"i_lat":-6.209188,"station_id":"POK","is_transit":false,"i_long":106.861737,"time":2},{"is_transit":true,"station_name":"Jatinegara","i_long":106.86807400000001,"distance":1236,"i_lat":-6.215091,"time":9,"line":0,"transit":true,"station_id":"JNG"},{"time":2,"is_transit":false,"i_lat":-6.212485,"i_long":106.858896,"line":1,"station_name":"Matraman","transit":false,"distance":1377,"station_id":"MTR"},{"time":2,"line":0,"station_id":"MRI","transit":false,"station_name":"Manggarai","is_transit":true,"i_long":106.84912,"distance":1275,"i_lat":-6.209883},{"transit":false,"distance":3186,"i_lat":-6.202263,"is_transit":false,"i_long":106.822649,"station_id":"SUD","time":4,"line":1,"station_name":"Sudirman"},{"station_id":"SUDB","transit":false,"i_long":106.819881,"i_lat":-6.201433,"time":1,"station_name":"Sudirman Baru","line":1,"is_transit":false,"distance":280},{"station_name":"Karet","is_transit":false,"time":1,"i_long":106.816351,"line":1,"i_lat":-6.20132,"distance":471,"transit":false,"station_id":"KAT"},{"is_transit":true,"i_lat":-6.185545,"line":1,"transit":true,"distance":2029,"station_id":"THB","station_name":"Tanah Abang","time":5,"i_long":106.811091},{"i_lat":-6.207404,"is_transit":false,"station_name":"Palmerah","distance":3191,"time":6,"transit":false,"station_id":"PLM","i_long":106.79689,"line":6},{"is_transit":false,"distance":3737,"transit":false,"i_long":106.780334,"time":7,"line":6,"station_id":"KBY","station_name":"Kebayoran","i_lat":-6.237242},{"line":6,"distance":6218,"i_long":106.74273,"time":8,"transit":false,"i_lat":-6.276362,"station_id":"PDJ","station_name":"Pondokranji","is_transit":false},{"i_lat":-6.288927,"is_transit":false,"line":6,"time":3,"transit":false,"i_long":106.728916,"station_id":"JMU","station_name":"Jurangmangu","distance":2179},{"i_lat":-6.296963,"time":4,"station_id":"SDM","distance":1994,"line":6,"station_name":"Sudimara","is_transit":false,"i_long":106.712277,"transit":false},{"is_transit":false,"transit":false,"time":6,"station_id":"RU","distance":4566,"i_lat":-6.314823,"line":6,"i_long":106.675475,"station_name":"Rawa Buntu"}],[{"station_id":"JAY","line":7,"station_name":"Jayakarta","distance":0,"transit":false,"i_long":106.820901,"time":0,"is_transit":false,"i_lat":-6.141205},{"i_long":106.82482,"is_transit":false,"time":2,"line":2,"distance":1080,"station_id":"MGB","station_name":"Manggabesar","transit":false,"i_lat":-6.149769},{"distance":906,"is_transit":false,"line":2,"station_id":"SW","time":2,"transit":false,"station_name":"Sawah Besar","i_lat":-6.160725,"i_long":106.827103},{"i_lat":-6.166716,"station_id":"JUA","is_transit":false,"time":2,"i_long":106.828284,"distance":1149,"line":2,"transit":false,"station_name":"Juanda"},{"time":4,"is_transit":false,"distance":2015,"i_lat":-6.186295,"station_id":"GDD","line":2,"transit":false,"i_long":106.832183,"station_name":"Gondangdia"},{"transit":false,"station_name":"Cikini","station_id":"CKI","is_transit":false,"distance":1750,"i_lat":-6.198556,"i_long":106.840169,"line":0,"time":3},{"station_id":"MRI","distance":1590,"transit":true,"is_transit":true,"station_name":"Manggarai","line":0,"time":4,"i_lat":-6.209883,"i_long":106.84912},{"station_id":"MTR","i_long":106.858896,"distance":1275,"time":2,"transit":false,"station_name":"Matraman","line":1,"is_transit":false,"i_lat":-6.212485},{"is_transit":true,"time":8,"station_id":"JNG","transit":true,"i_lat":-6.215091,"i_long":106.86807400000001,"line":0,"station_name":"Jatinegara","distance":1377},{"is_transit":false,"distance":1236,"line":11,"i_lat":-6.209188,"station_name":"Pondok Jati","time":2,"i_long":106.861737,"station_id":"POK","transit":false},{"station_name":"Kramat","transit":false,"is_transit":false,"i_long":106.855437,"station_id":"KMT","i_lat":-6.193792,"distance":1829,"line":11,"time":2},{"i_lat":-6.185975,"distance":973,"station_name":"Gang Sentiong","i_long":106.850107,"line":11,"time":1,"is_transit":false,"station_id":"GST","transit":false},{"time":8,"station_id":"PSE","transit":false,"i_long":106.84368,"is_transit":false,"line":11,"distance":1567,"i_lat":-6.174784,"station_name":"Pasar Senen"},{"is_transit":false,"line":11,"transit":false,"station_name":"Kemayoran","time":4,"distance":1436,"i_lat":-6.161728,"i_long":106.839204,"station_id":"KMO"},{"distance":1901,"i_lat":-6.14505,"station_id":"RJW","i_long":106.836569,"time":5,"station_name":"Rajawali","line":11,"transit":false,"is_transit":false},{"station_name":"Kampung Bandan","i_lat":-6.132549,"is_transit":true,"line":0,"time":3,"distance":1444,"transit":true,"i_long":106.826365,"station_id":"KPB"},{"i_long":106.79867,"is_transit":false,"distance":4102,"line":0,"station_id":"AK","transit":false,"time":9,"i_lat":-6.144674,"station_name":"Angke"},{"line":1,"distance":1230,"i_long":106.800832,"is_transit":true,"station_id":"DU","transit":true,"time":4,"i_lat":-6.155215,"station_name":"Duri"},{"time":8,"station_name":"Tanah Abang","is_transit":true,"i_long":106.811091,"line":1,"i_lat":-6.185545,"distance":3632,"station_id":"THB","transit":true},{"is_transit":false,"time":6,"station_name":"Palmerah","transit":false,"station_id":"PLM","line":6,"distance":3191,"i_long":106.79689,"i_lat":-6.207404},{"station_id":"KBY","station_name":"Kebayoran","is_transit":false,"i_long":106.780334,"time":7,"i_lat":-6.237242,"distance":3737,"line":6,"transit":false},{"transit":false,"i_lat":-6.276362,"i_long":106.74273,"station_name":"Pondokranji","line":6,"station_id":"PDJ","is_transit":false,"time":8,"distance":6218},{"distance":2179,"i_lat":-6.288927,"time":3,"station_id":"JMU","is_transit":false,"transit":false,"i_long":106.728916,"line":6,"station_name":"Jurangmangu"},{"station_id":"SDM","station_name":"Sudimara","distance":1994,"time":4,"i_lat":-6.296963,"is_transit":false,"transit":false,"i_long":106.712277,"line":6},{"line":6,"time":6,"station_id":"RU","station_name":"Rawa Buntu","is_transit":false,"distance":4566,"i_lat":-6.314823,"i_long":106.675475,"transit":false}]]}