{"data":[[{"distance":0,"station_id":"JAY","is_transit":false,"i_lat":-6.141205,"time":0,"line":7,"transit":false,"i_long":106.820901,"station_name":"Jayakarta"},{"line":2,"station_id":"MGB","time":2,"station_name":"Manggabesar","transit":false,"i_long":106.82482,"distance":1080,"is_transit":false,"i_lat":-6.149769},{"station_name":"Sawah Besar","distance":906,"transit":false,"i_long":106.827103,"time":2,"line":2,"i_lat":-6.160725,"station_id":"SW","is_transit":false},{"transit":false,"i_long":106.828284,"station_id":"JUA","time":2,"distance":1149,"i_lat":-6.166716,"line":2,"is_transit":false,"station_name":"Juanda"},{"time":4,"is_transit":false,"transit":false,"station_id":"GDD","i_lat":-6.186295,"line":2,"distance":2015,"i_long":106.832183,"station_name":"Gondangdia"},{"transit":false,"time":3,"distance":1750,"i_lat":-6.198556,"station_name":"Cikini","i_long":106.840169,"line":0,"station_id":"CKI","is_transit":false},{"is_transit":true,"distance":1590,"line":0,"i_lat":-6.209883,"time":4,"station_name":"Manggarai","station_id":"MRI","transit":false,"i_long":106.84912}],[{"i_long":106.820901,"line":7,"station_id":"JAY","station_name":"Jayakarta","distance":0,"i_lat":-6.141205,"time":0,"transit":false,"is_transit":false},{"station_id":"JAKK","time":4,"station_name":"Jakarta Kota","i_long":106.812439,"distance":1264,"transit":true,"line":0,"is_transit":true,"i_lat":-6.137569},{"station_id":"KPB","is_transit":true,"distance":1364,"i_long":106.826365,"time":3,"line":0,"station_name":"Kampung Bandan","transit":false,"i_lat":-6.132549},{"station_name":"Angke","line":0,"time":9,"station_id":"AK","is_transit":false,"transit":false,"distance":4102,"i_long":106.79867,"i_lat":-6.144674},{"i_long":106.800832,"line":1,"station_id":"DU","station_name":"Duri","distance":1230,"transit":true,"time":4,"i_lat":-6.155215,"is_transit":true},{"station_name":"Tanah Abang","line":1,"is_transit":true,"distance":3632,"i_lat":-6.185545,"time":8,"transit":false,"i_long":106.811091,"station_id":"THB"},{"is_transit":false,"time":5,"transit":false,"station_name":"Karet","line":1,"distance":2029,"i_lat":-6.20132,"i_long":106.816351,"station_id":"KAT"},{"transit":false,"i_long":106.819881,"i_lat":-6.201433,"line":1,"station_id":"SUDB","is_transit":false,"time":1,"distance":471,"station_name":"Sudirman Baru"},{"line":1,"station_name":"Sudirman","distance":280,"station_id":"SUD","is_transit":false,"i_lat":-6.202263,"time":1,"i_long":106.822649,"transit":false},{"distance":3186,"i_lat":-6.209883,"i_long":106.84912,"line":0,"transit":false,"time":4,"station_name":"Manggarai","station_id":"MRI","is_transit":true}],[{"is_transit":false,"i_lat":-6.141205,"station_name":"Jayakarta","station_id":"JAY","distance":0,"i_long":106.820901,"line":7,"transit":false,"time":0},{"time":4,"station_name":"Jakarta Kota","is_transit":true,"station_id":"JAKK","line":0,"transit":true,"i_long":106.812439,"distance":1264,"i_lat":-6.137569},{"time":3,"i_lat":-6.132549,"i_long":106.826365,"transit":true,"station_name":"Kampung Bandan","distance":1364,"is_transit":true,"line":0,"station_id":"KPB"},{"station_name":"Rajawali","is_transit":false,"station_id":"RJW","i_long":106.836569,"i_lat":-6.14505,"transit":false,"time":3,"line":11,"distance":1444},{"station_id":"KMO","is_transit":false,"i_long":106.839204,"i_lat":-6.161728,"distance":1901,"transit":false,"time":5,"line":11,"station_name":"Kemayoran"},{"i_lat":-6.174784,"transit":false,"is_transit":false,"distance":1436,"i_long":106.84368,"line":11,"station_name":"Pasar Senen","time":4,"station_id":"PSE"},{"is_transit":false,"line":11,"i_lat":-6.185975,"time":8,"transit":false,"distance":1567,"station_id":"GST","station_name":"Gang Sentiong","i_long":106.850107},{"time":1,"i_long":106.855437,"line":11,"station_name":"Kramat","i_lat":-6.193792,"is_transit":false,"station_id":"KMT","distance":973,"transit":false},{"line":11,"transit":false,"station_id":"POK","station_name":"Pondok Jati","distance":1829,"i_long":106.861737,"time":2,"i_lat":-6.209188,"is_transit":false},{"transit":true,"i_long":106.86807400000001,"distance":1236,"station_id":"JNG","station_name":"Jatinegara","time":9,"i_lat":-6.215091,"line":0,"is_transit":true},{"station_name":"Matraman","is_transit":false,"distance":1377,"station_id":"MTR","transit":false,"i_lat":-6.212485,"time":2,"line":1,"i_long":106.858896},{"line":0,"station_name":"Manggarai","time":2,"i_lat":-6.209883,"i_long":106.84912,"station_id":"MRI","distance":1275,"transit":false,"is_transit":true}]]}