{"data":[[{"station_name":"Jayakarta","is_transit":false,"distance":0,"station_id":"JAY","i_lat":-6.141205,"transit":false,"line":2,"time":0,"i_long":106.820901},{"station_name":"Jakarta Kota","station_id":"JAKK","distance":1264,"is_transit":true,"line":2,"time":4,"i_lat":-6.137569,"transit":true,"i_long":106.812439},{"distance":1364,"is_transit":true,"transit":true,"line":4,"time":3,"station_id":"KPB","station_name":"Kampung Bandan","i_lat":-6.132549,"i_long":106.826365},{"line":1,"distance":4102,"time":9,"i_long":106.79867,"station_id":"AK","station_name":"Angke","is_transit":false,"transit":false,"i_lat":-6.144674},{"is_transit":false,"station_id":"DU","line":1,"time":4,"transit":false,"i_long":106.800832,"distance":1230,"i_lat":-6.155215,"station_name":"Duri"},{"distance":3632,"transit":true,"i_lat":-6.185545,"line":1,"time":8,"station_id":"THB","is_transit":true,"i_long":106.811091,"station_name":"Tanah Abang"},{"time":6,"is_transit":false,"i_lat":-6.207404,"i_long":106.79689,"line":6,"station_name":"Palmerah","distance":3191,"transit":false,"station_id":"PLM"}],[{"transit":false,"i_lat":-6.141205,"time":0,"distance":0,"station_id":"JAY","station_name":"Jayakarta","i_long":106.820901,"is_transit":false,"line":2},{"station_id":"MGB","distance":1080,"i_lat":-6.149769,"line":2,"station_name":"Manggabesar","time":2,"i_long":106.82482,"transit":false,"is_transit":false},{"station_name":"Sawah Besar","station_id":"SW","transit":false,"distance":906,"is_transit":false,"i_long":106.827103,"line":2,"time":2,"i_lat":-6.160725},{"time":2,"i_long":106.828284,"is_transit":false,"line":2,"distance":1149,"transit":false,"station_name":"Juanda","station_id":"JUA","i_lat":-6.166716},{"time":4,"station_id":"GDD","distance":2015,"station_name":"Gondangdia","is_transit":false,"transit":false,"i_lat":-6.186295,"i_long":106.832183,"line":2},{"i_long":106.840169,"transit":false,"distance":1750,"station_name":"Cikini","time":3,"station_id":"CKI","i_lat":-6.198556,"is_transit":false,"line":2},{"i_long":106.84912,"transit":true,"line":2,"station_id":"MRI","station_name":"Manggarai","distance":1590,"is_transit":true,"i_lat":-6.209883,"time":4},{"is_transit":false,"i_long":106.822649,"distance":3186,"line":1,"station_name":"Sudirman","transit":false,"station_id":"SUD","i_lat":-6.202263,"time":4},{"station_name":"Sudirman Baru","distance":280,"transit":false,"is_transit":false,"i_long":106.819881,"line":1,"time":1,"i_lat":-6.201433,"station_id":"SUDB"},{"line":1,"is_transit":false,"station_name":"Karet","transit":false,"station_id":"KAT","i_long":106.816351,"i_lat":-6.20132,"time":1,"distance":471},{"distance":2029,"station_name":"Tanah Abang","time":5,"line":1,"transit":true,"station_id":"THB","i_lat":-6.185545,"is_transit":true,"i_long":106.811091},{"time":6,"i_long":106.79689,"is_transit":false,"station_id":"PLM","i_lat":-6.207404,"line":6,"station_name":"Palmerah","transit":false,"distance":3191}],[{"line":2,"i_lat":-6.141205,"time":0,"distance":0,"station_name":"Jayakarta","is_transit":false,"transit":false,"station_id":"JAY","i_long":106.820901},{"distance":1264,"station_id":"JAKK","station_name":"Jakarta Kota","transit":true,"line":2,"i_long":106.812439,"i_lat":-6.137569,"is_transit":true,"time":4},{"distance":1364,"is_transit":true,"station_id":"KPB","transit":true,"i_lat":-6.132549,"line":4,"station_name":"Kampung Bandan","time":3,"i_long":106.826365},{"distance":1444,"i_long":106.836569,"is_transit":false,"transit":false,"station_name":"Rajawali","i_lat":-6.14505,"line":11,"time":3,"station_id":"RJW"},{"i_long":106.839204,"time":5,"station_id":"KMO","station_name":"Kemayoran","transit":false,"is_transit":false,"distance":1901,"i_lat":-6.161728,"line":11},{"is_transit":false,"line":11,"distance":1436,"station_name":"Pasar Senen","transit":false,"i_lat":-6.174784,"i_long":106.84368,"time":4,"station_id":"PSE"},{"distance":1567,"is_transit":false,"i_lat":-6.185975,"station_id":"GST","station_name":"Gang Sentiong","transit":false,"line":11,"time":8,"i_long":106.850107},{"line":11,"i_lat":-6.193792,"station_id":"KMT","time":1,"is_transit":false,"station_name":"Kramat","transit":false,"i_long":106.855437,"distance":973},{"distance":1829,"station_id":"POK","time":2,"i_long":106.861737,"station_name":"Pondok Jati","i_lat":-6.209188,"is_transit":false,"transit":false,"line":11},{"i_lat":-6.215091,"time":9,"station_id":"JNG","line":1,"distance":1236,"station_name":"Jatinegara","is_transit":true,"transit":true,"i_long":106.86807400000001},{"i_lat":-6.212485,"i_long":106.858896,"is_transit":false,"time":2,"station_name":"Matraman","station_id":"MTR","distance":1377,"line":1,"transit":false},{"transit":false,"station_id":"MRI","line":2,"i_long":106.84912,"time":2,"distance":1275,"station_name":"Manggarai","is_transit":false,"i_lat":-6.209883},{"line":1,"i_lat":-6.202263,"is_transit":false,"i_long":106.822649,"station_id":"SUD","distance":3186,"time":4,"transit":false,"station_name":"Sudirman"},{"station_id":"SUDB","time":1,"station_name":"Sudirman Baru","line":1,"transit":false,"distance":280,"is_transit":false,"i_lat":-6.201433,"i_long":106.819881},{"is_transit":false,"transit":false,"i_lat":-6.20132,"station_id":"KAT","i_long":106.816351,"station_name":"Karet","time":1,"line":1,"distance":471},{"time":5,"distance":2029,"station_id":"THB","transit":true,"station_name":"Tanah Abang","is_transit":true,"i_lat":-6.185545,"line":1,"i_long":106.811091},{"transit":false,"i_long":106.79689,"line":6,"time":6,"distance":3191,"station_name":"Palmerah","is_transit":false,"station_id":"PLM","i_lat":-6.207404}],[{"time":0,"is_transit":false,"transit":false,"station_name":"Jayakarta","station_id":"JAY","i_lat":-6.141205,"i_long":106.820901,"distance":0,"line":2},{"i_lat":-6.149769,"distance":1080,"line":2,"transit":false,"is_transit":false,"station_name":"Manggabesar","i_long":106.82482,"station_id":"MGB","time":2},{"transit":false,"time":2,"station_id":"SW","i_lat":-6.160725,"is_transit":false,"i_long":106.827103,"distance":906,"station_name":"Sawah Besar","line":2},{"station_id":"JUA","i_lat":-6.166716,"is_transit":false,"line":2,"i_long":106.828284,"station_name":"Juanda","transit":false,"time":2,"distance":1149},{"i_lat":-6.186295,"line":2,"distance":2015,"is_transit":false,"transit":false,"i_long":106.832183,"station_id":"GDD","time":4,"station_name":"Gondangdia"},{"transit":false,"station_name":"Cikini","i_long":106.840169,"line":2,"distance":1750,"i_lat":-6.198556,"is_transit":false,"station_id":"CKI","time":3},{"transit":true,"i_long":106.84912,"time":4,"line":2,"is_transit":true,"station_name":"Manggarai","distance":1590,"i_lat":-6.209883,"station_id":"MRI"},{"transit":false,"time":2,"station_id":"MTR","distance":1275,"i_lat":-6.212485,"station_name":"Matraman","line":1,"is_transit":false,"i_long":106.858896},{"i_long":106.86807400000001,"station_id":"JNG","time":8,"line":1,"i_lat":-6.215091,"distance":1377,"is_transit":true,"transit":true,"station_name":"Jatinegara"},{"distance":1236,"is_transit":false,"i_long":106.861737,"i_lat":-6.209188,"station_name":"Pondok Jati","time":2,"station_id":"POK","transit":false,"line":11},{"i_lat":-6.193792,"time":2,"station_id":"KMT","is_transit":false,"i_long":106.855437,"distance":1829,"station_name":"Kramat","line":11,"transit":false},{"station_name":"Gang Sentiong","transit":false,"distance":973,"i_lat":-6.185975,"i_long":106.850107,"is_transit":false,"line":11,"station_id":"GST","time":1},{"is_transit":false,"time":8,"i_lat":-6.174784,"i_long":106.84368,"station_name":"Pasar Senen","distance":1567,"station_id":"PSE","line":11,"transit":false},{"station_name":"Kemayoran","transit":false,"station_id":"KMO","is_transit":false,"i_long":106.839204,"i_lat":-6.161728,"time":4,"distance":1436,"line":11},{"i_long":106.836569,"station_name":"Rajawali","i_lat":-6.14505,"line":11,"time":5,"station_id":"RJW","transit":false,"is_transit":false,"distance":1901},{"station_name":"Kampung Bandan","distance":1444,"transit":true,"is_transit":true,"i_lat":-6.132549,"i_long":106.826365,"station_id":"KPB","time":3,"line":4},{"i_lat":-6.144674,"is_transit":false,"station_id":"AK","transit":false,"time":9,"station_name":"Angke","distance":4102,"line":1,"i_long":106.79867},{"station_name":"Duri","time":4,"transit":false,"i_long":106.800832,"station_id":"DU","distance":1230,"i_lat":-6.155215,"is_transit":false,"line":1},{"time":8,"i_long":106.811091,"is_transit":true,"line":1,"station_id":"THB","transit":true,"distance":3632,"i_lat":-6.185545,"station_name":"Tanah Abang"},{"line":6,"station_name":"Palmerah","transit":false,"is_transit":false,"station_id":"PLM","time":6,"i_lat":-6.207404,"distance":3191,"i_long":106.79689}]]}