{"data":[[{"station_id":"JAY","station_name":"Jayakarta","time":0,"transit":false,"i_long":106.820901,"line":2,"is_transit":false,"i_lat":-6.141205,"distance":0},{"station_name":"Jakarta Kota","station_id":"JAKK","i_long":106.812439,"is_transit":true,"line":2,"time":4,"i_lat":-6.137569,"distance":1264,"transit":true},{"transit":true,"station_name":"Kampung Bandan","distance":1364,"time":3,"line":4,"i_long":106.826365,"is_transit":true,"i_lat":-6.132549,"station_id":"KPB"},{"transit":false,"is_transit":false,"distance":2185,"station_name":"Ancol","i_long":106.84464,"station_id":"AC","line":4,"i_lat":-6.128023,"time":4},{"line":4,"i_long":106.880089,"distance":4566,"station_name":"Tanjung Priuk","is_transit":false,"station_id":"TPK","time":9,"i_lat":-6.1109480000000005,"transit":false}],[{"station_id":"JAY","station_name":"Jayakarta","time":0,"transit":false,"i_lat":-6.141205,"distance":0,"is_transit":false,"line":2,"i_long":106.820901},{"is_transit":false,"station_id":"MGB","time":2,"station_name":"Manggabesar","distance":1080,"line":2,"i_lat":-6.149769,"transit":false,"i_long":106.82482},{"is_transit":false,"distance":906,"transit":false,"line":2,"time":2,"i_lat":-6.160725,"station_id":"SW","station_name":"Sawah Besar","i_long":106.827103},{"station_id":"JUA","time":2,"station_name":"Juanda","transit":false,"line":2,"i_lat":-6.166716,"i_long":106.828284,"distance":1149,"is_transit":false},{"transit":false,"distance":2015,"station_id":"GDD","station_name":"Gondangdia","line":2,"time":4,"i_long":106.832183,"i_lat":-6.186295,"is_transit":false},{"transit":false,"station_id":"CKI","i_lat":-6.198556,"time":3,"station_name":"Cikini","i_long":106.840169,"line":2,"is_transit":false,"distance":1750},{"i_long":106.84912,"time":4,"distance":1590,"i_lat":-6.209883,"is_transit":true,"station_name":"Manggarai","transit":true,"line":2,"station_id":"MRI"},{"time":4,"station_name":"Sudirman","i_lat":-6.202263,"line":1,"station_id":"SUD","is_transit":false,"i_long":106.822649,"transit":false,"distance":3186},{"transit":false,"station_name":"Sudirman Baru","time":1,"distance":280,"i_lat":-6.201433,"line":1,"is_transit":false,"i_long":106.819881,"station_id":"SUDB"},{"station_id":"KAT","station_name":"Karet","i_lat":-6.20132,"i_long":106.816351,"time":1,"distance":471,"transit":false,"is_transit":false,"line":1},{"is_transit":false,"line":1,"station_id":"THB","transit":false,"i_long":106.811091,"station_name":"Tanah Abang","distance":2029,"i_lat":-6.185545,"time":5},{"station_id":"DU","distance":3632,"i_lat":-6.155215,"station_name":"Duri","time":8,"i_long":106.800832,"is_transit":false,"transit":false,"line":1},{"transit":false,"line":1,"i_long":106.79867,"station_name":"Angke","time":4,"station_id":"AK","is_transit":false,"distance":1230,"i_lat":-6.144674},{"time":9,"is_transit":true,"transit":true,"i_lat":-6.132549,"station_id":"KPB","station_name":"Kampung Bandan","line":4,"i_long":106.826365,"distance":4102},{"time":4,"is_transit":false,"line":4,"i_lat":-6.128023,"distance":2185,"station_name":"Ancol","i_long":106.84464,"station_id":"AC","transit":false},{"distance":4566,"is_transit":false,"i_lat":-6.1109480000000005,"time":9,"i_long":106.880089,"station_name":"Tanjung Priuk","transit":false,"line":4,"station_id":"TPK"}],[{"transit":false,"time":0,"is_transit":false,"station_name":"Jayakarta","distance":0,"i_lat":-6.141205,"i_long":106.820901,"line":2,"station_id":"JAY"},{"station_name":"Manggabesar","time":2,"station_id":"MGB","i_lat":-6.149769,"i_long":106.82482,"transit":false,"is_transit":false,"distance":1080,"line":2},{"is_transit":false,"station_name":"Sawah Besar","distance":906,"station_id":"SW","i_lat":-6.160725,"transit":false,"i_long":106.827103,"time":2,"line":2},{"is_transit":false,"station_id":"JUA","distance":1149,"line":2,"station_name":"Juanda","transit":false,"i_lat":-6.166716,"i_long":106.828284,"time":2},{"line":2,"is_transit":false,"time":4,"station_name":"Gondangdia","transit":false,"station_id":"GDD","i_long":106.832183,"distance":2015,"i_lat":-6.186295},{"i_long":106.840169,"distance":1750,"i_lat":-6.198556,"station_name":"Cikini","line":2,"station_id":"CKI","time":3,"is_transit":false,"transit":false},{"i_lat":-6.209883,"line":2,"is_transit":true,"station_id":"MRI","distance":1590,"station_name":"Manggarai","transit":true,"time":4,"i_long":106.84912},{"distance":1275,"station_id":"MTR","transit":false,"i_lat":-6.212485,"i_long":106.858896,"line":1,"station_name":"Matraman","time":2,"is_transit":false},{"i_lat":-6.215091,"time":8,"distance":1377,"is_transit":true,"station_name":"Jatinegara","transit":true,"station_id":"JNG","i_long":106.86807400000001,"line":1},{"station_name":"Pondok Jati","i_long":106.861737,"time":2,"distance":1236,"station_id":"POK","transit":false,"i_lat":-6.209188,"line":11,"is_transit":false},{"line":11,"station_id":"KMT","is_transit":false,"time":2,"i_long":106.855437,"station_name":"Kramat","transit":false,"distance":1829,"i_lat":-6.193792},{"time":1,"distance":973,"station_id":"GST","station_name":"Gang Sentiong","transit":false,"i_lat":-6.185975,"i_long":106.850107,"line":11,"is_transit":false},{"time":8,"line":11,"station_id":"PSE","distance":1567,"i_lat":-6.174784,"transit":false,"i_long":106.84368,"is_transit":false,"station_name":"Pasar Senen"},{"is_transit":false,"distance":1436,"station_id":"KMO","i_long":106.839204,"line":11,"time":4,"station_name":"Kemayoran","transit":false,"i_lat":-6.161728},{"transit":false,"station_id":"RJW","is_transit":false,"distance":1901,"time":5,"i_lat":-6.14505,"i_long":106.836569,"line":11,"station_name":"Rajawali"},{"transit":true,"line":4,"station_id":"KPB","i_lat":-6.132549,"time":3,"is_transit":true,"distance":1444,"station_name":"Kampung Bandan","i_long":106.826365},{"transit":false,"station_name":"Ancol","i_lat":-6.128023,"time":4,"i_long":106.84464,"line":4,"is_transit":false,"station_id":"AC","distance":2185},{"time":9,"station_name":"Tanjung Priuk","distance":4566,"i_lat":-6.1109480000000005,"transit":false,"i_long":106.880089,"line":4,"is_transit":false,"station_id":"TPK"}]]}