{"data":[[{"i_long":106.820901,"time":0,"distance":0,"station_name":"Jayakarta","station_id":"JAY","i_lat":-6.141205,"line":2,"transit":false,"is_transit":false},{"i_lat":-6.149769,"i_long":106.82482,"distance":1080,"line":2,"station_id":"MGB","station_name":"Manggabesar","transit":false,"is_transit":false,"time":2},{"time":2,"is_transit":false,"i_lat":-6.160725,"transit":false,"distance":906,"i_long":106.827103,"station_id":"SW","station_name":"Sawah Besar","line":2},{"time":2,"i_long":106.828284,"i_lat":-6.166716,"line":2,"distance":1149,"is_transit":false,"station_name":"Juanda","station_id":"JUA","transit":false},{"distance":2015,"is_transit":false,"i_long":106.832183,"i_lat":-6.186295,"time":4,"line":2,"station_name":"Gondangdia","station_id":"GDD","transit":false},{"is_transit":false,"distance":1750,"station_id":"CKI","transit":false,"station_name":"Cikini","time":3,"line":2,"i_lat":-6.198556,"i_long":106.840169},{"transit":false,"is_transit":false,"station_id":"MRI","i_lat":-6.209883,"distance":1590,"line":2,"time":4,"station_name":"Manggarai","i_long":106.84912},{"i_lat":-6.226659,"time":4,"line":2,"station_name":"Tebet","transit":false,"is_transit":false,"station_id":"TEB","i_long":106.857948,"distance":2610},{"station_id":"CW","station_name":"Cawang","line":2,"transit":false,"is_transit":false,"distance":1230,"time":2,"i_lat":-6.242512,"i_long":106.856607},{"is_transit":false,"i_long":106.85449,"station_name":"Duren Kalibata","station_id":"DRN","line":2,"transit":false,"time":3,"distance":1546,"i_lat":-6.255332},{"distance":824,"transit":false,"i_lat":-6.263214,"line":2,"station_name":"Pasar Minggu Baru","time":2,"i_long":106.851577,"is_transit":false,"station_id":"PSMB"},{"transit":false,"time":2,"is_transit":false,"distance":2380,"i_lat":-6.2842400000000005,"station_name":"Pasar Minggu","line":2,"i_long":106.843999,"station_id":"PSM"},{"i_lat":-6.3080680000000005,"line":2,"station_name":"Tanjung Barat","i_long":106.838896,"station_id":"TNT","transit":false,"time":4,"distance":2820,"is_transit":false},{"line":2,"distance":2671,"is_transit":false,"station_name":"Lenteng Agung","transit":false,"time":3,"station_id":"LNA","i_long":106.832616,"i_lat":-6.330363},{"distance":1029,"i_lat":-6.339291,"i_long":106.834175,"is_transit":false,"station_name":"Univ. Pancasila","time":2,"station_id":"UP","transit":false,"line":2},{"i_lat":-6.360749,"is_transit":false,"line":2,"time":3,"distance":2264,"station_id":"UI","i_long":106.831474,"transit":false,"station_name":"Univ. Indonesia"},{"line":2,"transit":false,"i_lat":-6.369073,"distance":1109,"station_id":"POC","time":2,"is_transit":false,"station_name":"Pondok Cina","i_long":106.831114},{"i_lat":-6.391065,"transit":false,"time":4,"station_id":"DPB","is_transit":false,"station_name":"Depokbaru","line":2,"distance":2727,"i_long":106.819451},{"transit":false,"is_transit":false,"line":2,"station_name":"Depok","time":3,"i_long":106.816926,"station_id":"DP","i_lat":-6.405256,"distance":1584},{"line":2,"i_long":106.800298,"time":6,"station_name":"Citayam","transit":true,"i_lat":-6.448811,"is_transit":true,"station_id":"CTA","distance":5084},{"station_id":"PDRG","transit":false,"i_long":106.824374,"time":0,"distance":0,"station_name":"Pondok Rajeg","line":21,"is_transit":false,"i_lat":-6.460735},{"distance":0,"is_transit":false,"transit":false,"i_lat":-6.46424,"i_long":106.851978,"station_id":"CBN","line":21,"station_name":"Cibinong","time":0},{"is_transit":false,"station_id":"NMO","transit":false,"i_lat":-6.466285,"line":21,"station_name":"Nambo","distance":6527,"time":10,"i_long":106.905196}],[{"i_lat":-6.141205,"line":2,"i_long":106.820901,"transit":false,"distance":0,"station_name":"Jayakarta","is_transit":false,"station_id":"JAY","time":0},{"station_name":"Jakarta Kota","is_transit":true,"i_long":106.812439,"i_lat":-6.137569,"station_id":"JAKK","line":2,"distance":1264,"time":4,"transit":true},{"i_lat":-6.132549,"distance":1364,"is_transit":true,"line":4,"i_long":106.826365,"station_id":"KPB","time":3,"transit":true,"station_name":"Kampung Bandan"},{"time":9,"station_id":"AK","line":1,"transit":false,"station_name":"Angke","distance":4102,"is_transit":false,"i_lat":-6.144674,"i_long":106.79867},{"transit":false,"i_lat":-6.155215,"i_long":106.800832,"distance":1230,"station_name":"Duri","is_transit":false,"station_id":"DU","line":1,"time":4},{"transit":false,"i_long":106.811091,"time":8,"station_name":"Tanah Abang","station_id":"THB","line":1,"is_transit":false,"i_lat":-6.185545,"distance":3632},{"station_name":"Karet","distance":2029,"transit":false,"station_id":"KAT","i_long":106.816351,"time":5,"i_lat":-6.20132,"line":1,"is_transit":false},{"line":1,"i_lat":-6.201433,"transit":false,"i_long":106.819881,"distance":471,"station_id":"SUDB","is_transit":false,"time":1,"station_name":"Sudirman Baru"},{"is_transit":false,"line":1,"station_name":"Sudirman","station_id":"SUD","i_long":106.822649,"distance":280,"time":1,"transit":false,"i_lat":-6.202263},{"station_name":"Manggarai","time":4,"i_lat":-6.209883,"is_transit":true,"station_id":"MRI","i_long":106.84912,"line":2,"transit":true,"distance":3186},{"station_name":"Tebet","distance":2610,"is_transit":false,"i_lat":-6.226659,"i_long":106.857948,"station_id":"TEB","line":2,"transit":false,"time":4},{"station_id":"CW","i_long":106.856607,"line":2,"time":2,"station_name":"Cawang","distance":1230,"i_lat":-6.242512,"transit":false,"is_transit":false},{"i_long":106.85449,"station_name":"Duren Kalibata","time":3,"transit":false,"is_transit":false,"i_lat":-6.255332,"distance":1546,"line":2,"station_id":"DRN"},{"distance":824,"time":2,"is_transit":false,"station_name":"Pasar Minggu Baru","line":2,"i_lat":-6.263214,"i_long":106.851577,"transit":false,"station_id":"PSMB"},{"distance":2380,"transit":false,"station_id":"PSM","i_lat":-6.2842400000000005,"line":2,"i_long":106.843999,"is_transit":false,"station_name":"Pasar Minggu","time":2},{"station_id":"TNT","i_long":106.838896,"station_name":"Tanjung Barat","i_lat":-6.3080680000000005,"distance":2820,"transit":false,"time":4,"is_transit":false,"line":2},{"i_lat":-6.330363,"transit":false,"station_name":"Lenteng Agung","station_id":"LNA","line":2,"i_long":106.832616,"distance":2671,"time":3,"is_transit":false},{"line":2,"transit":false,"i_long":106.834175,"i_lat":-6.339291,"time":2,"distance":1029,"is_transit":false,"station_id":"UP","station_name":"Univ. Pancasila"},{"station_id":"UI","i_long":106.831474,"station_name":"Univ. Indonesia","is_transit":false,"transit":false,"time":3,"i_lat":-6.360749,"line":2,"distance":2264},{"i_long":106.831114,"station_name":"Pondok Cina","distance":1109,"i_lat":-6.369073,"is_transit":false,"time":2,"line":2,"station_id":"POC","transit":false},{"time":4,"distance":2727,"i_long":106.819451,"transit":false,"station_id":"DPB","is_transit":false,"i_lat":-6.391065,"line":2,"station_name":"Depokbaru"},{"is_transit":false,"distance":1584,"time":3,"i_lat":-6.405256,"i_long":106.816926,"line":2,"station_id":"DP","station_name":"Depok","transit":false},{"distance":5084,"station_name":"Citayam","i_lat":-6.448811,"station_id":"CTA","transit":true,"line":2,"time":6,"is_transit":true,"i_long":106.800298},{"is_transit":false,"station_id":"PDRG","distance":0,"time":0,"station_name":"Pondok Rajeg","i_lat":-6.460735,"i_long":106.824374,"line":21,"transit":false},{"time":0,"i_long":106.851978,"distance":0,"line":21,"station_name":"Cibinong","transit":false,"is_transit":false,"station_id":"CBN","i_lat":-6.46424},{"station_name":"Nambo","i_lat":-6.466285,"i_long":106.905196,"distance":6527,"time":10,"line":21,"station_id":"NMO","is_transit":false,"transit":false}],[{"i_lat":-6.141205,"distance":0,"line":2,"station_id":"JAY","station_name":"Jayakarta","is_transit":false,"time":0,"i_long":106.820901,"transit":false},{"i_lat":-6.137569,"is_transit":true,"i_long":106.812439,"distance":1264,"time":4,"line":2,"transit":true,"station_id":"JAKK","station_name":"Jakarta Kota"},{"line":4,"i_lat":-6.132549,"station_id":"KPB","station_name":"Kampung Bandan","is_transit":true,"time":3,"i_long":106.826365,"transit":true,"distance":1364},{"i_lat":-6.14505,"station_id":"RJW","line":11,"is_transit":false,"station_name":"Rajawali","distance":1444,"i_long":106.836569,"transit":false,"time":3},{"time":5,"i_long":106.839204,"station_id":"KMO","station_name":"Kemayoran","line":11,"distance":1901,"transit":false,"i_lat":-6.161728,"is_transit":false},{"transit":false,"station_name":"Pasar Senen","time":4,"distance":1436,"is_transit":false,"i_lat":-6.174784,"i_long":106.84368,"line":11,"station_id":"PSE"},{"is_transit":false,"time":8,"line":11,"distance":1567,"station_id":"GST","i_lat":-6.185975,"station_name":"Gang Sentiong","i_long":106.850107,"transit":false},{"time":1,"i_lat":-6.193792,"is_transit":false,"transit":false,"distance":973,"i_long":106.855437,"station_name":"Kramat","station_id":"KMT","line":11},{"i_lat":-6.209188,"station_name":"Pondok Jati","time":2,"transit":false,"is_transit":false,"i_long":106.861737,"line":11,"station_id":"POK","distance":1829},{"i_long":106.86807400000001,"station_name":"Jatinegara","distance":1236,"time":9,"transit":true,"i_lat":-6.215091,"is_transit":true,"station_id":"JNG","line":1},{"i_long":106.858896,"transit":false,"distance":1377,"station_name":"Matraman","i_lat":-6.212485,"line":1,"is_transit":false,"station_id":"MTR","time":2},{"line":2,"time":2,"station_id":"MRI","transit":true,"i_lat":-6.209883,"station_name":"Manggarai","is_transit":true,"distance":1275,"i_long":106.84912},{"i_lat":-6.226659,"time":4,"line":2,"is_transit":false,"transit":false,"distance":2610,"station_id":"TEB","i_long":106.857948,"station_name":"Tebet"},{"i_lat":-6.242512,"line":2,"station_name":"Cawang","transit":false,"distance":1230,"is_transit":false,"time":2,"i_long":106.856607,"station_id":"CW"},{"station_id":"DRN","i_lat":-6.255332,"station_name":"Duren Kalibata","line":2,"i_long":106.85449,"distance":1546,"transit":false,"is_transit":false,"time":3},{"station_id":"PSMB","transit":false,"distance":824,"i_lat":-6.263214,"i_long":106.851577,"line":2,"is_transit":false,"station_name":"Pasar Minggu Baru","time":2},{"distance":2380,"time":2,"i_long":106.843999,"transit":false,"line":2,"i_lat":-6.2842400000000005,"station_id":"PSM","is_transit":false,"station_name":"Pasar Minggu"},{"station_id":"TNT","is_transit":false,"i_lat":-6.3080680000000005,"transit":false,"station_name":"Tanjung Barat","distance":2820,"time":4,"i_long":106.838896,"line":2},{"station_name":"Lenteng Agung","i_lat":-6.330363,"i_long":106.832616,"transit":false,"line":2,"time":3,"is_transit":false,"station_id":"LNA","distance":2671},{"is_transit":false,"station_name":"Univ. Pancasila","i_long":106.834175,"station_id":"UP","time":2,"i_lat":-6.339291,"distance":1029,"line":2,"transit":false},{"is_transit":false,"distance":2264,"i_lat":-6.360749,"transit":false,"station_id":"UI","station_name":"Univ. Indonesia","time":3,"i_long":106.831474,"line":2},{"time":2,"i_lat":-6.369073,"i_long":106.831114,"station_id":"POC","is_transit":false,"transit":false,"station_name":"Pondok Cina","distance":1109,"line":2},{"station_id":"DPB","distance":2727,"i_long":106.819451,"line":2,"is_transit":false,"station_name":"Depokbaru","time":4,"transit":false,"i_lat":-6.391065},{"i_long":106.816926,"distance":1584,"station_name":"Depok","is_transit":false,"time":3,"line":2,"transit":false,"i_lat":-6.405256,"station_id":"DP"},{"is_transit":true,"distance":5084,"station_id":"CTA","i_long":106.800298,"transit":true,"station_name":"Citayam","line":2,"i_lat":-6.448811,"time":6},{"distance":0,"i_lat":-6.460735,"time":0,"i_long":106.824374,"station_name":"Pondok Rajeg","transit":false,"line":21,"is_transit":false,"station_id":"PDRG"},{"transit":false,"time":0,"station_id":"CBN","i_lat":-6.46424,"station_name":"Cibinong","is_transit":false,"i_long":106.851978,"line":21,"distance":0},{"station_id":"NMO","i_lat":-6.466285,"distance":6527,"transit":false,"i_long":106.905196,"line":21,"station_name":"Nambo","time":10,"is_transit":false}]]}