{"data":[[{"station_name":"Jayakarta","station_id":"JAY","i_long":106.820901,"i_lat":-6.141205,"distance":0,"is_transit":false,"transit":false,"line":2,"time":0},{"distance":1264,"line":2,"station_id":"JAKK","i_lat":-6.137569,"is_transit":true,"time":4,"station_name":"Jakarta Kota","i_long":106.812439,"transit":true},{"station_name":"Kampung Bandan","time":3,"is_transit":true,"station_id":"KPB","line":4,"transit":true,"i_lat":-6.132549,"i_long":106.826365,"distance":1364},{"station_id":"RJW","transit":false,"time":3,"distance":1444,"line":11,"station_name":"Rajawali","i_long":106.836569,"i_lat":-6.14505,"is_transit":false},{"station_name":"Kemayoran","distance":1901,"transit":false,"station_id":"KMO","is_transit":false,"i_lat":-6.161728,"line":11,"time":5,"i_long":106.839204},{"i_lat":-6.174784,"i_long":106.84368,"line":11,"station_name":"Pasar Senen","is_transit":false,"transit":false,"time":4,"distance":1436,"station_id":"PSE"}],[{"i_long":106.820901,"i_lat":-6.141205,"station_name":"Jayakarta","station_id":"JAY","is_transit":false,"time":0,"transit":false,"distance":0,"line":2},{"i_long":106.82482,"transit":false,"i_lat":-6.149769,"station_id":"MGB","time":2,"distance":1080,"station_name":"Manggabesar","line":2,"is_transit":false},{"transit":false,"is_transit":false,"time":2,"i_lat":-6.160725,"station_id":"SW","station_name":"Sawah Besar","i_long":106.827103,"line":2,"distance":906},{"station_name":"Juanda","transit":false,"i_lat":-6.166716,"is_transit":false,"time":2,"i_long":106.828284,"line":2,"station_id":"JUA","distance":1149},{"station_id":"GDD","i_long":106.832183,"i_lat":-6.186295,"is_transit":false,"time":4,"distance":2015,"line":2,"transit":false,"station_name":"Gondangdia"},{"i_long":106.840169,"transit":false,"is_transit":false,"line":2,"station_id":"CKI","time":3,"distance":1750,"station_name":"Cikini","i_lat":-6.198556},{"i_long":106.84912,"station_name":"Manggarai","i_lat":-6.209883,"is_transit":true,"distance":1590,"transit":true,"time":4,"station_id":"MRI","line":2},{"station_id":"MTR","line":1,"i_long":106.858896,"time":2,"distance":1275,"is_transit":false,"station_name":"Matraman","transit":false,"i_lat":-6.212485},{"station_id":"JNG","is_transit":true,"distance":1377,"i_long":106.86807400000001,"line":1,"i_lat":-6.215091,"transit":true,"time":8,"station_name":"Jatinegara"},{"line":11,"distance":1236,"station_id":"POK","time":2,"i_lat":-6.209188,"i_long":106.861737,"is_transit":false,"transit":false,"station_name":"Pondok Jati"},{"distance":1829,"i_long":106.855437,"i_lat":-6.193792,"is_transit":false,"time":2,"station_name":"Kramat","station_id":"KMT","line":11,"transit":false},{"station_id":"GST","distance":973,"is_transit":false,"time":1,"i_lat":-6.185975,"line":11,"transit":false,"i_long":106.850107,"station_name":"Gang Sentiong"},{"station_id":"PSE","time":8,"i_lat":-6.174784,"transit":false,"station_name":"Pasar Senen","distance":1567,"line":11,"is_transit":false,"i_long":106.84368}],[{"is_transit":false,"distance":0,"station_name":"Jayakarta","station_id":"JAY","i_lat":-6.141205,"i_long":106.820901,"transit":false,"time":0,"line":2},{"transit":true,"station_id":"JAKK","time":4,"station_name":"Jakarta Kota","i_lat":-6.137569,"is_transit":true,"distance":1264,"i_long":106.812439,"line":2},{"transit":true,"is_transit":true,"time":3,"station_name":"Kampung Bandan","station_id":"KPB","i_lat":-6.132549,"i_long":106.826365,"line":4,"distance":1364},{"station_id":"AK","line":1,"time":9,"distance":4102,"transit":false,"i_lat":-6.144674,"station_name":"Angke","is_transit":false,"i_long":106.79867},{"distance":1230,"time":4,"transit":false,"i_lat":-6.155215,"is_transit":false,"i_long":106.800832,"line":1,"station_id":"DU","station_name":"Duri"},{"is_transit":false,"station_id":"THB","transit":false,"time":8,"i_lat":-6.185545,"distance":3632,"line":1,"station_name":"Tanah Abang","i_long":106.811091},{"station_name":"Karet","transit":false,"is_transit":false,"i_long":106.816351,"line":1,"i_lat":-6.20132,"time":5,"station_id":"KAT","distance":2029},{"station_name":"Sudirman Baru","transit":false,"line":1,"is_transit":false,"station_id":"SUDB","distance":471,"time":1,"i_lat":-6.201433,"i_long":106.819881},{"is_transit":false,"line":1,"distance":280,"station_name":"Sudirman","transit":false,"station_id":"SUD","time":1,"i_lat":-6.202263,"i_long":106.822649},{"time":4,"distance":3186,"station_id":"MRI","station_name":"Manggarai","i_lat":-6.209883,"i_long":106.84912,"line":2,"is_transit":false,"transit":false},{"is_transit":false,"transit":false,"time":2,"distance":1275,"i_lat":-6.212485,"i_long":106.858896,"station_id":"MTR","line":1,"station_name":"Matraman"},{"station_name":"Jatinegara","time":8,"transit":true,"line":1,"distance":1377,"station_id":"JNG","i_long":106.86807400000001,"i_lat":-6.215091,"is_transit":true},{"i_lat":-6.209188,"i_long":106.861737,"distance":1236,"line":11,"is_transit":false,"station_name":"Pondok Jati","transit":false,"time":2,"station_id":"POK"},{"is_transit":false,"distance":1829,"i_lat":-6.193792,"station_id":"KMT","line":11,"time":2,"station_name":"Kramat","i_long":106.855437,"transit":false},{"station_name":"Gang Sentiong","line":11,"is_transit":false,"time":1,"distance":973,"transit":false,"station_id":"GST","i_long":106.850107,"i_lat":-6.185975},{"distance":1567,"i_lat":-6.174784,"station_name":"Pasar Senen","is_transit":false,"transit":false,"station_id":"PSE","i_long":106.84368,"line":11,"time":8}],[{"distance":0,"transit":false,"i_lat":-6.141205,"is_transit":false,"time":0,"station_name":"Jayakarta","i_long":106.820901,"station_id":"JAY","line":2},{"transit":false,"distance":1080,"i_lat":-6.149769,"station_id":"MGB","station_name":"Manggabesar","i_long":106.82482,"is_transit":false,"time":2,"line":2},{"distance":906,"i_lat":-6.160725,"line":2,"time":2,"station_name":"Sawah Besar","transit":false,"i_long":106.827103,"station_id":"SW","is_transit":false},{"line":2,"transit":false,"station_id":"JUA","distance":1149,"time":2,"station_name":"Juanda","i_lat":-6.166716,"i_long":106.828284,"is_transit":false},{"is_transit":false,"distance":2015,"station_name":"Gondangdia","i_lat":-6.186295,"transit":false,"i_long":106.832183,"time":4,"line":2,"station_id":"GDD"},{"is_transit":false,"station_name":"Cikini","line":2,"transit":false,"time":3,"station_id":"CKI","i_lat":-6.198556,"i_long":106.840169,"distance":1750},{"i_lat":-6.209883,"line":2,"station_name":"Manggarai","transit":true,"distance":1590,"time":4,"i_long":106.84912,"station_id":"MRI","is_transit":true},{"distance":3186,"is_transit":false,"time":4,"station_name":"Sudirman","transit":false,"i_long":106.822649,"line":1,"i_lat":-6.202263,"station_id":"SUD"},{"is_transit":false,"i_lat":-6.201433,"i_long":106.819881,"line":1,"station_id":"SUDB","time":1,"station_name":"Sudirman Baru","transit":false,"distance":280},{"time":1,"station_id":"KAT","is_transit":false,"i_lat":-6.20132,"transit":false,"line":1,"distance":471,"station_name":"Karet","i_long":106.816351},{"line":1,"i_long":106.811091,"distance":2029,"i_lat":-6.185545,"transit":false,"is_transit":false,"station_name":"Tanah Abang","station_id":"THB","time":5},{"distance":3632,"i_lat":-6.155215,"line":1,"is_transit":false,"station_name":"Duri","time":8,"i_long":106.800832,"transit":false,"station_id":"DU"},{"distance":1230,"is_transit":false,"station_id":"AK","i_long":106.79867,"station_name":"Angke","i_lat":-6.144674,"time":4,"transit":false,"line":1},{"station_id":"KPB","time":9,"distance":4102,"line":4,"i_lat":-6.132549,"is_transit":true,"station_name":"Kampung Bandan","i_long":106.826365,"transit":true},{"distance":1444,"transit":false,"station_id":"RJW","i_long":106.836569,"is_transit":false,"station_name":"Rajawali","i_lat":-6.14505,"line":11,"time":3},{"is_transit":false,"time":5,"station_name":"Kemayoran","distance":1901,"transit":false,"station_id":"KMO","i_lat":-6.161728,"i_long":106.839204,"line":11},{"distance":1436,"station_name":"Pasar Senen","station_id":"PSE","time":4,"is_transit":false,"i_lat":-6.174784,"transit":false,"i_long":106.84368,"line":11}]]}