{"data":[[{"time":0,"station_id":"JAY","is_transit":false,"i_long":106.820901,"transit":false,"i_lat":-6.141205,"line":2,"distance":0,"station_name":"Jayakarta"},{"time":4,"i_lat":-6.137569,"station_name":"Jakarta Kota","is_transit":true,"transit":true,"station_id":"JAKK","distance":1264,"line":2,"i_long":106.812439},{"time":3,"station_id":"KPB","station_name":"Kampung Bandan","i_long":106.826365,"line":4,"is_transit":true,"transit":true,"distance":1364,"i_lat":-6.132549},{"station_id":"AK","line":1,"station_name":"Angke","time":9,"transit":false,"distance":4102,"is_transit":false,"i_long":106.79867,"i_lat":-6.144674},{"i_lat":-6.155215,"i_long":106.800832,"time":4,"station_name":"Duri","distance":1230,"is_transit":true,"line":1,"transit":true,"station_id":"DU"},{"is_transit":false,"transit":false,"i_lat":-6.162021,"station_id":"GGL","time":3,"distance":1700,"i_long":106.788277,"line":5,"station_name":"Grogol"},{"distance":2036,"station_name":"Pesing","is_transit":false,"i_long":106.771379,"station_id":"PSG","transit":false,"time":2,"i_lat":-6.161433,"line":5},{"time":2,"transit":false,"i_long":106.756522,"station_id":"TKO","distance":1614,"station_name":"Taman Kota","i_lat":-6.1587309999999995,"is_transit":false,"line":5},{"distance":2334,"transit":false,"time":2,"station_name":"Bojongindah","i_lat":-6.159876,"i_long":106.737035,"station_id":"BOI","is_transit":false,"line":5},{"station_name":"Rawa Buaya","is_transit":false,"transit":false,"station_id":"RW","i_lat":-6.162758,"i_long":106.723064,"distance":1152,"time":4,"line":5}],[{"time":0,"is_transit":false,"i_long":106.820901,"station_name":"Jayakarta","i_lat":-6.141205,"transit":false,"distance":0,"station_id":"JAY","line":2},{"transit":false,"i_lat":-6.149769,"i_long":106.82482,"station_id":"MGB","is_transit":false,"station_name":"Manggabesar","line":2,"time":2,"distance":1080},{"time":2,"transit":false,"station_id":"SW","line":2,"i_long":106.827103,"i_lat":-6.160725,"station_name":"Sawah Besar","distance":906,"is_transit":false},{"distance":1149,"time":2,"station_id":"JUA","is_transit":false,"transit":false,"i_lat":-6.166716,"i_long":106.828284,"line":2,"station_name":"Juanda"},{"i_long":106.832183,"station_name":"Gondangdia","distance":2015,"line":2,"transit":false,"time":4,"station_id":"GDD","i_lat":-6.186295,"is_transit":false},{"is_transit":false,"time":3,"i_lat":-6.198556,"i_long":106.840169,"station_name":"Cikini","distance":1750,"line":2,"transit":false,"station_id":"CKI"},{"i_long":106.84912,"time":4,"station_id":"MRI","station_name":"Manggarai","distance":1590,"line":2,"i_lat":-6.209883,"transit":true,"is_transit":true},{"line":1,"transit":false,"is_transit":false,"distance":3186,"i_lat":-6.202263,"station_id":"SUD","station_name":"Sudirman","time":4,"i_long":106.822649},{"line":1,"time":1,"station_id":"SUDB","distance":280,"i_long":106.819881,"is_transit":false,"transit":false,"station_name":"Sudirman Baru","i_lat":-6.201433},{"station_id":"KAT","is_transit":false,"line":1,"transit":false,"i_long":106.816351,"distance":471,"i_lat":-6.20132,"time":1,"station_name":"Karet"},{"time":5,"station_id":"THB","i_lat":-6.185545,"station_name":"Tanah Abang","transit":false,"i_long":106.811091,"line":1,"distance":2029,"is_transit":false},{"distance":3632,"is_transit":true,"line":1,"station_name":"Duri","time":8,"station_id":"DU","transit":true,"i_lat":-6.155215,"i_long":106.800832},{"i_long":106.788277,"station_id":"GGL","line":5,"station_name":"Grogol","transit":false,"distance":1700,"time":3,"is_transit":false,"i_lat":-6.162021},{"transit":false,"is_transit":false,"line":5,"station_name":"Pesing","time":2,"station_id":"PSG","i_lat":-6.161433,"i_long":106.771379,"distance":2036},{"is_transit":false,"transit":false,"distance":1614,"line":5,"i_long":106.756522,"time":2,"station_name":"Taman Kota","i_lat":-6.1587309999999995,"station_id":"TKO"},{"station_name":"Bojongindah","transit":false,"i_lat":-6.159876,"i_long":106.737035,"line":5,"time":2,"is_transit":false,"station_id":"BOI","distance":2334},{"distance":1152,"i_long":106.723064,"station_id":"RW","is_transit":false,"i_lat":-6.162758,"line":5,"station_name":"Rawa Buaya","time":4,"transit":false}],[{"transit":false,"i_long":106.820901,"time":0,"i_lat":-6.141205,"station_name":"Jayakarta","line":2,"station_id":"JAY","is_transit":false,"distance":0},{"line":2,"time":4,"station_id":"JAKK","transit":true,"is_transit":true,"distance":1264,"station_name":"Jakarta Kota","i_lat":-6.137569,"i_long":106.812439},{"line":4,"is_transit":true,"station_name":"Kampung Bandan","i_lat":-6.132549,"distance":1364,"station_id":"KPB","time":3,"i_long":106.826365,"transit":true},{"station_name":"Rajawali","i_long":106.836569,"time":3,"station_id":"RJW","distance":1444,"transit":false,"i_lat":-6.14505,"is_transit":false,"line":11},{"i_lat":-6.161728,"station_name":"Kemayoran","transit":false,"distance":1901,"station_id":"KMO","i_long":106.839204,"line":11,"is_transit":false,"time":5},{"distance":1436,"time":4,"station_name":"Pasar Senen","station_id":"PSE","is_transit":false,"i_lat":-6.174784,"i_long":106.84368,"line":11,"transit":false},{"distance":1567,"time":8,"transit":false,"station_id":"GST","i_long":106.850107,"is_transit":false,"station_name":"Gang Sentiong","line":11,"i_lat":-6.185975},{"transit":false,"i_long":106.855437,"line":11,"station_id":"KMT","time":1,"i_lat":-6.193792,"is_transit":false,"distance":973,"station_name":"Kramat"},{"time":2,"is_transit":false,"distance":1829,"i_long":106.861737,"line":11,"station_name":"Pondok Jati","station_id":"POK","transit":false,"i_lat":-6.209188},{"line":1,"i_lat":-6.215091,"i_long":106.86807400000001,"time":9,"distance":1236,"is_transit":true,"transit":true,"station_id":"JNG","station_name":"Jatinegara"},{"transit":false,"distance":1377,"station_id":"MTR","i_long":106.858896,"is_transit":false,"station_name":"Matraman","i_lat":-6.212485,"time":2,"line":1},{"i_lat":-6.209883,"distance":1275,"line":2,"station_id":"MRI","transit":false,"is_transit":false,"time":2,"station_name":"Manggarai","i_long":106.84912},{"distance":3186,"i_lat":-6.202263,"station_name":"Sudirman","station_id":"SUD","line":1,"time":4,"i_long":106.822649,"transit":false,"is_transit":false},{"i_long":106.819881,"transit":false,"i_lat":-6.201433,"station_id":"SUDB","line":1,"distance":280,"time":1,"is_transit":false,"station_name":"Sudirman Baru"},{"distance":471,"is_transit":false,"station_id":"KAT","station_name":"Karet","i_long":106.816351,"i_lat":-6.20132,"time":1,"line":1,"transit":false},{"i_long":106.811091,"i_lat":-6.185545,"station_name":"Tanah Abang","is_transit":false,"station_id":"THB","transit":false,"distance":2029,"time":5,"line":1},{"is_transit":true,"i_lat":-6.155215,"line":1,"station_id":"DU","transit":true,"station_name":"Duri","time":8,"distance":3632,"i_long":106.800832},{"is_transit":false,"station_name":"Grogol","distance":1700,"line":5,"time":3,"i_long":106.788277,"station_id":"GGL","transit":false,"i_lat":-6.162021},{"i_lat":-6.161433,"distance":2036,"transit":false,"i_long":106.771379,"time":2,"station_id":"PSG","line":5,"is_transit":false,"station_name":"Pesing"},{"line":5,"i_lat":-6.1587309999999995,"distance":1614,"is_transit":false,"station_name":"Taman Kota","time":2,"i_long":106.756522,"station_id":"TKO","transit":false},{"is_transit":false,"i_long":106.737035,"station_name":"Bojongindah","line":5,"station_id":"BOI","transit":false,"distance":2334,"i_lat":-6.159876,"time":2},{"time":4,"distance":1152,"line":5,"i_long":106.723064,"station_id":"RW","i_lat":-6.162758,"is_transit":false,"transit":false,"station_name":"Rawa Buaya"}],[{"is_transit":false,"time":0,"distance":0,"station_name":"Jayakarta","i_long":106.820901,"transit":false,"line":2,"i_lat":-6.141205,"station_id":"JAY"},{"line":2,"station_name":"Manggabesar","i_long":106.82482,"transit":false,"station_id":"MGB","i_lat":-6.149769,"is_transit":false,"time":2,"distance":1080},{"transit":false,"i_long":106.827103,"station_name":"Sawah Besar","line":2,"is_transit":false,"distance":906,"station_id":"SW","time":2,"i_lat":-6.160725},{"station_id":"JUA","time":2,"station_name":"Juanda","distance":1149,"is_transit":false,"i_lat":-6.166716,"line":2,"transit":false,"i_long":106.828284},{"is_transit":false,"i_lat":-6.186295,"station_id":"GDD","line":2,"distance":2015,"time":4,"transit":false,"station_name":"Gondangdia","i_long":106.832183},{"station_id":"CKI","transit":false,"time":3,"line":2,"i_long":106.840169,"i_lat":-6.198556,"station_name":"Cikini","distance":1750,"is_transit":false},{"time":4,"i_lat":-6.209883,"line":2,"transit":true,"i_long":106.84912,"is_transit":true,"distance":1590,"station_name":"Manggarai","station_id":"MRI"},{"i_long":106.858896,"distance":1275,"station_id":"MTR","line":1,"i_lat":-6.212485,"time":2,"station_name":"Matraman","transit":false,"is_transit":false},{"is_transit":true,"station_id":"JNG","line":1,"time":8,"transit":true,"distance":1377,"station_name":"Jatinegara","i_lat":-6.215091,"i_long":106.86807400000001},{"i_long":106.861737,"distance":1236,"line":11,"is_transit":false,"i_lat":-6.209188,"station_name":"Pondok Jati","station_id":"POK","time":2,"transit":false},{"distance":1829,"i_lat":-6.193792,"line":11,"time":2,"i_long":106.855437,"station_id":"KMT","station_name":"Kramat","transit":false,"is_transit":false},{"is_transit":false,"i_long":106.850107,"station_name":"Gang Sentiong","i_lat":-6.185975,"station_id":"GST","transit":false,"time":1,"distance":973,"line":11},{"time":8,"distance":1567,"station_name":"Pasar Senen","i_lat":-6.174784,"i_long":106.84368,"line":11,"transit":false,"station_id":"PSE","is_transit":false},{"time":4,"station_id":"KMO","transit":false,"station_name":"Kemayoran","line":11,"i_lat":-6.161728,"distance":1436,"i_long":106.839204,"is_transit":false},{"line":11,"transit":false,"station_id":"RJW","station_name":"Rajawali","time":5,"is_transit":false,"i_lat":-6.14505,"distance":1901,"i_long":106.836569},{"i_long":106.826365,"line":4,"station_id":"KPB","distance":1444,"time":3,"is_transit":true,"i_lat":-6.132549,"station_name":"Kampung Bandan","transit":true},{"time":9,"transit":false,"i_lat":-6.144674,"distance":4102,"line":1,"is_transit":false,"i_long":106.79867,"station_name":"Angke","station_id":"AK"},{"is_transit":true,"time":4,"station_name":"Duri","i_lat":-6.155215,"transit":true,"line":1,"station_id":"DU","distance":1230,"i_long":106.800832},{"time":3,"i_lat":-6.162021,"station_id":"GGL","line":5,"i_long":106.788277,"is_transit":false,"transit":false,"distance":1700,"station_name":"Grogol"},{"time":2,"is_transit":false,"station_name":"Pesing","i_long":106.771379,"station_id":"PSG","transit":false,"i_lat":-6.161433,"distance":2036,"line":5},{"is_transit":false,"station_id":"TKO","i_long":106.756522,"distance":1614,"i_lat":-6.1587309999999995,"transit":false,"time":2,"station_name":"Taman Kota","line":5},{"i_long":106.737035,"distance":2334,"is_transit":false,"line":5,"station_id":"BOI","time":2,"transit":false,"station_name":"Bojongindah","i_lat":-6.159876},{"line":5,"station_id":"RW","distance":1152,"is_transit":false,"transit":false,"time":4,"i_lat":-6.162758,"station_name":"Rawa Buaya","i_long":106.723064}]]}