{"data":[[{"line":2,"time":0,"i_lat":-6.141205,"transit":false,"station_name":"Jayakarta","is_transit":false,"distance":0,"i_long":106.820901,"station_id":"JAY"},{"station_id":"MGB","time":2,"station_name":"Manggabesar","is_transit":false,"distance":1080,"line":2,"i_lat":-6.149769,"i_long":106.82482,"transit":false},{"time":2,"is_transit":false,"i_long":106.827103,"station_name":"Sawah Besar","station_id":"SW","line":2,"distance":906,"transit":false,"i_lat":-6.160725},{"station_id":"JUA","line":2,"is_transit":false,"i_lat":-6.166716,"distance":1149,"station_name":"Juanda","time":2,"i_long":106.828284,"transit":false},{"station_id":"GDD","line":2,"transit":false,"station_name":"Gondangdia","i_lat":-6.186295,"time":4,"i_long":106.832183,"distance":2015,"is_transit":false},{"transit":false,"distance":1750,"station_id":"CKI","i_lat":-6.198556,"i_long":106.840169,"line":2,"time":3,"station_name":"Cikini","is_transit":false},{"transit":false,"i_long":106.84912,"time":4,"station_id":"MRI","is_transit":false,"i_lat":-6.209883,"line":2,"distance":1590,"station_name":"Manggarai"},{"distance":2610,"station_id":"TEB","line":2,"transit":false,"station_name":"Tebet","time":4,"is_transit":false,"i_lat":-6.226659,"i_long":106.857948},{"i_long":106.856607,"distance":1230,"transit":false,"station_name":"Cawang","station_id":"CW","line":2,"time":2,"i_lat":-6.242512,"is_transit":false},{"station_id":"DRN","transit":false,"station_name":"Duren Kalibata","line":2,"i_lat":-6.255332,"time":3,"distance":1546,"is_transit":false,"i_long":106.85449},{"station_name":"Pasar Minggu Baru","i_lat":-6.263214,"line":2,"i_long":106.851577,"is_transit":false,"station_id":"PSMB","time":2,"distance":824,"transit":false}],[{"station_id":"JAY","station_name":"Jayakarta","transit":false,"distance":0,"is_transit":false,"i_lat":-6.141205,"i_long":106.820901,"line":2,"time":0},{"i_lat":-6.137569,"distance":1264,"transit":true,"is_transit":true,"line":2,"i_long":106.812439,"time":4,"station_id":"JAKK","station_name":"Jakarta Kota"},{"station_name":"Kampung Bandan","transit":true,"i_lat":-6.132549,"distance":1364,"station_id":"KPB","is_transit":true,"line":4,"i_long":106.826365,"time":3},{"line":1,"transit":false,"station_id":"AK","is_transit":false,"i_long":106.79867,"station_name":"Angke","time":9,"i_lat":-6.144674,"distance":4102},{"i_lat":-6.155215,"line":1,"station_name":"Duri","transit":false,"station_id":"DU","time":4,"distance":1230,"i_long":106.800832,"is_transit":false},{"station_id":"THB","i_lat":-6.185545,"line":1,"time":8,"i_long":106.811091,"station_name":"Tanah Abang","distance":3632,"is_transit":false,"transit":false},{"station_name":"Karet","i_long":106.816351,"i_lat":-6.20132,"distance":2029,"transit":false,"is_transit":false,"station_id":"KAT","time":5,"line":1},{"transit":false,"is_transit":false,"time":1,"station_id":"SUDB","i_long":106.819881,"distance":471,"i_lat":-6.201433,"line":1,"station_name":"Sudirman Baru"},{"station_id":"SUD","is_transit":false,"i_long":106.822649,"i_lat":-6.202263,"line":1,"station_name":"Sudirman","transit":false,"time":1,"distance":280},{"line":2,"distance":3186,"station_id":"MRI","transit":true,"i_lat":-6.209883,"time":4,"is_transit":true,"i_long":106.84912,"station_name":"Manggarai"},{"distance":2610,"time":4,"station_name":"Tebet","station_id":"TEB","i_long":106.857948,"line":2,"i_lat":-6.226659,"is_transit":false,"transit":false},{"i_lat":-6.242512,"station_name":"Cawang","is_transit":false,"i_long":106.856607,"line":2,"time":2,"station_id":"CW","distance":1230,"transit":false},{"station_id":"DRN","i_lat":-6.255332,"distance":1546,"station_name":"Duren Kalibata","time":3,"i_long":106.85449,"transit":false,"line":2,"is_transit":false},{"station_id":"PSMB","transit":false,"line":2,"station_name":"Pasar Minggu Baru","is_transit":false,"time":2,"distance":824,"i_lat":-6.263214,"i_long":106.851577}],[{"is_transit":false,"station_name":"Jayakarta","i_long":106.820901,"line":2,"time":0,"i_lat":-6.141205,"station_id":"JAY","transit":false,"distance":0},{"station_name":"Jakarta Kota","station_id":"JAKK","distance":1264,"line":2,"i_lat":-6.137569,"transit":true,"time":4,"i_long":106.812439,"is_transit":true},{"time":3,"line":4,"transit":true,"station_name":"Kampung Bandan","distance":1364,"station_id":"KPB","is_transit":true,"i_long":106.826365,"i_lat":-6.132549},{"is_transit":false,"i_lat":-6.14505,"station_id":"RJW","station_name":"Rajawali","distance":1444,"transit":false,"time":3,"i_long":106.836569,"line":11},{"distance":1901,"is_transit":false,"station_id":"KMO","i_long":106.839204,"transit":false,"line":11,"i_lat":-6.161728,"time":5,"station_name":"Kemayoran"},{"i_long":106.84368,"transit":false,"distance":1436,"station_name":"Pasar Senen","is_transit":false,"time":4,"i_lat":-6.174784,"station_id":"PSE","line":11},{"is_transit":false,"time":8,"station_name":"Gang Sentiong","station_id":"GST","distance":1567,"i_long":106.850107,"line":11,"i_lat":-6.185975,"transit":false},{"line":11,"distance":973,"station_id":"KMT","is_transit":false,"station_name":"Kramat","time":1,"i_lat":-6.193792,"i_long":106.855437,"transit":false},{"distance":1829,"station_name":"Pondok Jati","station_id":"POK","is_transit":false,"time":2,"i_lat":-6.209188,"i_long":106.861737,"line":11,"transit":false},{"transit":true,"is_transit":true,"i_lat":-6.215091,"i_long":106.86807400000001,"line":1,"time":9,"station_name":"Jatinegara","station_id":"JNG","distance":1236},{"line":1,"station_name":"Matraman","i_long":106.858896,"time":2,"transit":false,"i_lat":-6.212485,"is_transit":false,"distance":1377,"station_id":"MTR"},{"line":2,"station_name":"Manggarai","is_transit":true,"i_long":106.84912,"distance":1275,"transit":true,"i_lat":-6.209883,"station_id":"MRI","time":2},{"transit":false,"line":2,"station_name":"Tebet","time":4,"station_id":"TEB","i_long":106.857948,"distance":2610,"i_lat":-6.226659,"is_transit":false},{"station_name":"Cawang","time":2,"is_transit":false,"station_id":"CW","distance":1230,"i_lat":-6.242512,"i_long":106.856607,"line":2,"transit":false},{"i_long":106.85449,"time":3,"station_name":"Duren Kalibata","i_lat":-6.255332,"station_id":"DRN","is_transit":false,"distance":1546,"line":2,"transit":false},{"line":2,"is_transit":false,"i_long":106.851577,"transit":false,"station_id":"PSMB","station_name":"Pasar Minggu Baru","i_lat":-6.263214,"distance":824,"time":2}]]}