{"data":[[{"station_id":"JAY","transit":false,"i_lat":-6.141205,"line":7,"time":0,"distance":0,"i_long":106.820901,"is_transit":false,"station_name":"Jayakarta"},{"i_lat":-6.137569,"is_transit":true,"i_long":106.812439,"line":0,"station_name":"Jakarta Kota","time":4,"station_id":"JAKK","distance":1264,"transit":true},{"distance":1364,"station_name":"Kampung Bandan","transit":false,"i_lat":-6.132549,"station_id":"KPB","time":3,"i_long":106.826365,"line":0,"is_transit":true},{"line":0,"i_long":106.79867,"is_transit":false,"transit":false,"station_id":"AK","station_name":"Angke","time":9,"i_lat":-6.144674,"distance":4102},{"is_transit":true,"time":4,"transit":true,"i_lat":-6.155215,"line":1,"station_name":"Duri","distance":1230,"i_long":106.800832,"station_id":"DU"},{"is_transit":true,"time":8,"transit":false,"i_long":106.811091,"station_id":"THB","i_lat":-6.185545,"distance":3632,"station_name":"Tanah Abang","line":1},{"i_long":106.816351,"is_transit":false,"time":5,"distance":2029,"i_lat":-6.20132,"station_name":"Karet","station_id":"KAT","transit":false,"line":1},{"distance":471,"transit":false,"i_lat":-6.201433,"line":1,"station_id":"SUDB","is_transit":false,"station_name":"Sudirman Baru","i_long":106.819881,"time":1}],[{"station_id":"JAY","line":7,"station_name":"Jayakarta","i_long":106.820901,"is_transit":false,"distance":0,"time":0,"i_lat":-6.141205,"transit":false},{"station_id":"MGB","i_long":106.82482,"i_lat":-6.149769,"station_name":"Manggabesar","line":2,"time":2,"is_transit":false,"distance":1080,"transit":false},{"line":2,"i_lat":-6.160725,"station_name":"Sawah Besar","distance":906,"transit":false,"time":2,"station_id":"SW","is_transit":false,"i_long":106.827103},{"time":2,"station_id":"JUA","i_lat":-6.166716,"line":2,"distance":1149,"i_long":106.828284,"station_name":"Juanda","transit":false,"is_transit":false},{"time":4,"line":2,"station_name":"Gondangdia","i_long":106.832183,"transit":false,"station_id":"GDD","is_transit":false,"i_lat":-6.186295,"distance":2015},{"transit":false,"line":0,"is_transit":false,"distance":1750,"station_id":"CKI","time":3,"i_long":106.840169,"station_name":"Cikini","i_lat":-6.198556},{"line":0,"time":4,"station_name":"Manggarai","station_id":"MRI","i_long":106.84912,"transit":true,"distance":1590,"i_lat":-6.209883,"is_transit":true},{"distance":3186,"i_lat":-6.202263,"station_name":"Sudirman","i_long":106.822649,"line":1,"station_id":"SUD","time":4,"transit":false,"is_transit":false},{"distance":280,"i_long":106.819881,"transit":false,"line":1,"station_id":"SUDB","station_name":"Sudirman Baru","time":1,"i_lat":-6.201433,"is_transit":false}],[{"line":7,"i_lat":-6.141205,"i_long":106.820901,"distance":0,"is_transit":false,"station_id":"JAY","time":0,"transit":false,"station_name":"Jayakarta"},{"i_lat":-6.137569,"is_transit":true,"line":0,"station_name":"Jakarta Kota","i_long":106.812439,"time":4,"transit":true,"distance":1264,"station_id":"JAKK"},{"is_transit":true,"distance":1364,"i_lat":-6.132549,"station_id":"KPB","line":0,"station_name":"Kampung Bandan","time":3,"transit":true,"i_long":106.826365},{"is_transit":false,"station_name":"Rajawali","time":3,"transit":false,"distance":1444,"line":11,"station_id":"RJW","i_lat":-6.14505,"i_long":106.836569},{"station_name":"Kemayoran","is_transit":false,"time":5,"line":11,"transit":false,"station_id":"KMO","distance":1901,"i_long":106.839204,"i_lat":-6.161728},{"distance":1436,"transit":false,"station_name":"Pasar Senen","time":4,"is_transit":false,"i_lat":-6.174784,"i_long":106.84368,"line":11,"station_id":"PSE"},{"station_id":"GST","time":8,"station_name":"Gang Sentiong","distance":1567,"transit":false,"is_transit":false,"i_lat":-6.185975,"i_long":106.850107,"line":11},{"i_lat":-6.193792,"station_name":"Kramat","line":11,"transit":false,"station_id":"KMT","time":1,"is_transit":false,"distance":973,"i_long":106.855437},{"i_long":106.861737,"station_id":"POK","time":2,"station_name":"Pondok Jati","distance":1829,"is_transit":false,"transit":false,"i_lat":-6.209188,"line":11},{"distance":1236,"i_lat":-6.215091,"is_transit":true,"station_id":"JNG","i_long":106.86807400000001,"time":9,"line":0,"transit":true,"station_name":"Jatinegara"},{"time":2,"i_long":106.858896,"line":1,"is_transit":false,"distance":1377,"transit":false,"i_lat":-6.212485,"station_id":"MTR","station_name":"Matraman"},{"station_name":"Manggarai","time":2,"transit":false,"is_transit":true,"i_lat":-6.209883,"station_id":"MRI","line":0,"distance":1275,"i_long":106.84912},{"i_lat":-6.202263,"station_name":"Sudirman","transit":false,"i_long":106.822649,"distance":3186,"is_transit":false,"time":4,"line":1,"station_id":"SUD"},{"time":1,"distance":280,"i_long":106.819881,"i_lat":-6.201433,"is_transit":false,"station_name":"Sudirman Baru","station_id":"SUDB","transit":false,"line":1}],[{"i_lat":-6.141205,"distance":0,"i_long":106.820901,"line":7,"is_transit":false,"time":0,"transit":false,"station_name":"Jayakarta","station_id":"JAY"},{"distance":1080,"i_long":106.82482,"station_name":"Manggabesar","station_id":"MGB","line":2,"time":2,"i_lat":-6.149769,"is_transit":false,"transit":false},{"i_long":106.827103,"distance":906,"i_lat":-6.160725,"line":2,"station_id":"SW","station_name":"Sawah Besar","time":2,"is_transit":false,"transit":false},{"transit":false,"time":2,"distance":1149,"line":2,"is_transit":false,"i_long":106.828284,"station_id":"JUA","station_name":"Juanda","i_lat":-6.166716},{"is_transit":false,"station_id":"GDD","transit":false,"station_name":"Gondangdia","time":4,"i_long":106.832183,"line":2,"i_lat":-6.186295,"distance":2015},{"distance":1750,"station_id":"CKI","transit":false,"i_lat":-6.198556,"i_long":106.840169,"is_transit":false,"time":3,"line":0,"station_name":"Cikini"},{"i_long":106.84912,"station_name":"Manggarai","i_lat":-6.209883,"line":0,"is_transit":true,"transit":true,"time":4,"station_id":"MRI","distance":1590},{"station_name":"Matraman","station_id":"MTR","transit":false,"distance":1275,"is_transit":false,"i_long":106.858896,"time":2,"i_lat":-6.212485,"line":1},{"distance":1377,"station_name":"Jatinegara","transit":true,"line":0,"i_long":106.86807400000001,"time":8,"station_id":"JNG","is_transit":true,"i_lat":-6.215091},{"time":2,"i_long":106.861737,"station_name":"Pondok Jati","distance":1236,"station_id":"POK","is_transit":false,"transit":false,"i_lat":-6.209188,"line":11},{"i_long":106.855437,"line":11,"transit":false,"station_id":"KMT","time":2,"i_lat":-6.193792,"is_transit":false,"distance":1829,"station_name":"Kramat"},{"i_lat":-6.185975,"station_name":"Gang Sentiong","station_id":"GST","time":1,"distance":973,"transit":false,"line":11,"is_transit":false,"i_long":106.850107},{"i_lat":-6.174784,"is_transit":false,"transit":false,"time":8,"i_long":106.84368,"station_id":"PSE","station_name":"Pasar Senen","distance":1567,"line":11},{"is_transit":false,"distance":1436,"line":11,"time":4,"transit":false,"station_name":"Kemayoran","i_long":106.839204,"i_lat":-6.161728,"station_id":"KMO"},{"i_long":106.836569,"transit":false,"line":11,"station_id":"RJW","is_transit":false,"distance":1901,"station_name":"Rajawali","time":5,"i_lat":-6.14505},{"line":0,"time":3,"distance":1444,"is_transit":true,"transit":true,"i_long":106.826365,"station_name":"Kampung Bandan","i_lat":-6.132549,"station_id":"KPB"},{"distance":4102,"station_id":"AK","transit":false,"i_lat":-6.144674,"time":9,"station_name":"Angke","i_long":106.79867,"line":0,"is_transit":false},{"is_transit":true,"i_long":106.800832,"station_name":"Duri","transit":true,"line":1,"i_lat":-6.155215,"station_id":"DU","distance":1230,"time":4},{"station_name":"Tanah Abang","is_transit":true,"station_id":"THB","time":8,"i_lat":-6.185545,"transit":false,"line":1,"distance":3632,"i_long":106.811091},{"time":5,"transit":false,"i_lat":-6.20132,"station_name":"Karet","line":1,"i_long":106.816351,"station_id":"KAT","is_transit":false,"distance":2029},{"i_lat":-6.201433,"station_name":"Sudirman Baru","is_transit":false,"transit":false,"distance":471,"i_long":106.819881,"station_id":"SUDB","time":1,"line":1}]]}