{"data":[[{"station_id":"JAY","is_transit":false,"station_name":"Jayakarta","i_lat":-6.141205,"transit":false,"time":0,"line":2,"distance":0,"i_long":106.820901},{"line":2,"is_transit":false,"i_lat":-6.149769,"station_name":"Manggabesar","time":2,"distance":1080,"i_long":106.82482,"station_id":"MGB","transit":false},{"line":2,"is_transit":false,"i_long":106.827103,"station_name":"Sawah Besar","distance":906,"time":2,"station_id":"SW","transit":false,"i_lat":-6.160725},{"station_name":"Juanda","time":2,"transit":false,"i_lat":-6.166716,"i_long":106.828284,"station_id":"JUA","distance":1149,"is_transit":false,"line":2},{"station_name":"Gondangdia","is_transit":false,"i_long":106.832183,"station_id":"GDD","distance":2015,"i_lat":-6.186295,"time":4,"transit":false,"line":2},{"distance":1750,"line":2,"station_name":"Cikini","transit":false,"is_transit":false,"time":3,"station_id":"CKI","i_lat":-6.198556,"i_long":106.840169},{"time":4,"station_name":"Manggarai","station_id":"MRI","transit":false,"is_transit":false,"distance":1590,"i_lat":-6.209883,"i_long":106.84912,"line":2},{"station_id":"TEB","i_long":106.857948,"station_name":"Tebet","time":4,"transit":false,"i_lat":-6.226659,"is_transit":false,"distance":2610,"line":2},{"i_long":106.856607,"station_id":"CW","transit":false,"distance":1230,"i_lat":-6.242512,"station_name":"Cawang","line":2,"is_transit":false,"time":2}],[{"line":2,"time":0,"station_name":"Jayakarta","station_id":"JAY","transit":false,"distance":0,"i_lat":-6.141205,"is_transit":false,"i_long":106.820901},{"station_id":"JAKK","i_lat":-6.137569,"i_long":106.812439,"is_transit":true,"distance":1264,"line":2,"time":4,"station_name":"Jakarta Kota","transit":true},{"i_lat":-6.132549,"time":3,"station_id":"KPB","transit":true,"is_transit":true,"line":4,"distance":1364,"station_name":"Kampung Bandan","i_long":106.826365},{"station_name":"Angke","i_long":106.79867,"distance":4102,"transit":false,"station_id":"AK","i_lat":-6.144674,"line":1,"time":9,"is_transit":false},{"transit":false,"distance":1230,"station_name":"Duri","is_transit":false,"time":4,"station_id":"DU","line":1,"i_lat":-6.155215,"i_long":106.800832},{"i_long":106.811091,"transit":false,"line":1,"distance":3632,"i_lat":-6.185545,"station_name":"Tanah Abang","station_id":"THB","is_transit":false,"time":8},{"i_long":106.816351,"station_name":"Karet","time":5,"distance":2029,"line":1,"transit":false,"station_id":"KAT","i_lat":-6.20132,"is_transit":false},{"i_long":106.819881,"distance":471,"line":1,"is_transit":false,"time":1,"station_id":"SUDB","i_lat":-6.201433,"station_name":"Sudirman Baru","transit":false},{"i_long":106.822649,"station_id":"SUD","i_lat":-6.202263,"time":1,"station_name":"Sudirman","transit":false,"distance":280,"line":1,"is_transit":false},{"station_id":"MRI","station_name":"Manggarai","is_transit":true,"line":2,"time":4,"distance":3186,"transit":true,"i_lat":-6.209883,"i_long":106.84912},{"station_name":"Tebet","station_id":"TEB","distance":2610,"i_long":106.857948,"transit":false,"time":4,"line":2,"is_transit":false,"i_lat":-6.226659},{"distance":1230,"i_lat":-6.242512,"line":2,"station_name":"Cawang","station_id":"CW","time":2,"transit":false,"i_long":106.856607,"is_transit":false}],[{"is_transit":false,"station_id":"JAY","transit":false,"time":0,"i_long":106.820901,"i_lat":-6.141205,"station_name":"Jayakarta","distance":0,"line":2},{"line":2,"distance":1264,"transit":true,"i_long":106.812439,"station_name":"Jakarta Kota","time":4,"is_transit":true,"station_id":"JAKK","i_lat":-6.137569},{"transit":true,"time":3,"distance":1364,"line":4,"station_name":"Kampung Bandan","is_transit":true,"station_id":"KPB","i_lat":-6.132549,"i_long":106.826365},{"station_name":"Rajawali","i_long":106.836569,"line":11,"distance":1444,"time":3,"i_lat":-6.14505,"transit":false,"station_id":"RJW","is_transit":false},{"station_name":"Kemayoran","i_lat":-6.161728,"transit":false,"i_long":106.839204,"line":11,"distance":1901,"time":5,"station_id":"KMO","is_transit":false},{"station_id":"PSE","i_long":106.84368,"station_name":"Pasar Senen","line":11,"transit":false,"i_lat":-6.174784,"distance":1436,"time":4,"is_transit":false},{"time":8,"station_id":"GST","distance":1567,"i_long":106.850107,"i_lat":-6.185975,"station_name":"Gang Sentiong","is_transit":false,"line":11,"transit":false},{"station_name":"Kramat","station_id":"KMT","transit":false,"is_transit":false,"i_long":106.855437,"line":11,"i_lat":-6.193792,"distance":973,"time":1},{"transit":false,"distance":1829,"i_lat":-6.209188,"i_long":106.861737,"station_id":"POK","station_name":"Pondok Jati","line":11,"time":2,"is_transit":false},{"i_lat":-6.215091,"time":9,"distance":1236,"transit":true,"station_name":"Jatinegara","is_transit":true,"i_long":106.86807400000001,"line":1,"station_id":"JNG"},{"transit":false,"station_id":"MTR","i_lat":-6.212485,"line":1,"distance":1377,"is_transit":false,"station_name":"Matraman","i_long":106.858896,"time":2},{"station_name":"Manggarai","station_id":"MRI","is_transit":true,"i_lat":-6.209883,"i_long":106.84912,"time":2,"transit":true,"distance":1275,"line":2},{"station_id":"TEB","station_name":"Tebet","distance":2610,"is_transit":false,"line":2,"i_lat":-6.226659,"transit":false,"i_long":106.857948,"time":4},{"line":2,"station_name":"Cawang","transit":false,"time":2,"is_transit":false,"i_long":106.856607,"distance":1230,"station_id":"CW","i_lat":-6.242512}]]}