{"data":[[{"station_name":"Jayakarta","distance":0,"line":2,"station_id":"JAY","i_long":106.820901,"transit":false,"is_transit":false,"time":0,"i_lat":-6.141205},{"time":2,"distance":1080,"i_long":106.82482,"line":2,"i_lat":-6.149769,"station_name":"Manggabesar","station_id":"MGB","transit":false,"is_transit":false},{"is_transit":false,"line":2,"time":2,"station_name":"Sawah Besar","station_id":"SW","transit":false,"i_lat":-6.160725,"distance":906,"i_long":106.827103},{"line":2,"station_name":"Juanda","station_id":"JUA","i_lat":-6.166716,"transit":false,"distance":1149,"time":2,"i_long":106.828284,"is_transit":false},{"i_lat":-6.186295,"i_long":106.832183,"line":2,"is_transit":false,"station_name":"Gondangdia","time":4,"station_id":"GDD","transit":false,"distance":2015},{"is_transit":false,"station_id":"CKI","line":2,"distance":1750,"i_long":106.840169,"station_name":"Cikini","transit":false,"time":3,"i_lat":-6.198556},{"i_lat":-6.209883,"line":2,"station_id":"MRI","time":4,"distance":1590,"station_name":"Manggarai","i_long":106.84912,"is_transit":true,"transit":true},{"distance":1275,"line":1,"is_transit":false,"station_name":"Matraman","i_lat":-6.212485,"i_long":106.858896,"time":2,"transit":false,"station_id":"MTR"},{"is_transit":false,"transit":false,"i_lat":-6.215091,"i_long":106.86807400000001,"station_name":"Jatinegara","time":8,"line":1,"distance":1377,"station_id":"JNG"},{"is_transit":false,"line":1,"i_lat":-6.2135,"i_long":106.899548,"station_id":"KLD","distance":3395,"station_name":"Klender","transit":false,"time":3},{"station_name":"Buaran","is_transit":false,"i_lat":-6.215568,"time":2,"distance":3100,"station_id":"BUA","i_long":106.922662,"transit":false,"line":1},{"station_name":"Klenderbaru","i_long":106.939679,"line":1,"is_transit":false,"i_lat":-6.217455,"distance":1305,"time":1,"station_id":"KLDB","transit":false}],[{"line":2,"station_name":"Jayakarta","time":0,"station_id":"JAY","transit":false,"i_lat":-6.141205,"i_long":106.820901,"is_transit":false,"distance":0},{"line":2,"station_name":"Jakarta Kota","transit":true,"is_transit":true,"time":4,"station_id":"JAKK","i_lat":-6.137569,"i_long":106.812439,"distance":1264},{"distance":1364,"station_name":"Kampung Bandan","i_long":106.826365,"is_transit":true,"transit":true,"i_lat":-6.132549,"line":4,"station_id":"KPB","time":3},{"station_name":"Rajawali","time":3,"distance":1444,"i_lat":-6.14505,"i_long":106.836569,"line":11,"transit":false,"is_transit":false,"station_id":"RJW"},{"line":11,"station_name":"Kemayoran","is_transit":false,"station_id":"KMO","time":5,"i_long":106.839204,"distance":1901,"i_lat":-6.161728,"transit":false},{"i_lat":-6.174784,"time":4,"line":11,"distance":1436,"station_id":"PSE","transit":false,"is_transit":false,"station_name":"Pasar Senen","i_long":106.84368},{"is_transit":false,"i_lat":-6.185975,"i_long":106.850107,"transit":false,"station_id":"GST","time":8,"line":11,"station_name":"Gang Sentiong","distance":1567},{"station_name":"Kramat","station_id":"KMT","is_transit":false,"i_lat":-6.193792,"time":1,"i_long":106.855437,"distance":973,"transit":false,"line":11},{"time":2,"line":11,"i_long":106.861737,"i_lat":-6.209188,"transit":false,"station_id":"POK","is_transit":false,"station_name":"Pondok Jati","distance":1829},{"distance":1236,"time":9,"i_lat":-6.215091,"station_name":"Jatinegara","transit":true,"is_transit":true,"station_id":"JNG","line":1,"i_long":106.86807400000001},{"transit":false,"distance":3395,"i_lat":-6.2135,"station_id":"KLD","line":1,"is_transit":false,"station_name":"Klender","i_long":106.899548,"time":3},{"line":1,"distance":3100,"i_lat":-6.215568,"station_id":"BUA","station_name":"Buaran","time":2,"is_transit":false,"transit":false,"i_long":106.922662},{"i_lat":-6.217455,"time":1,"i_long":106.939679,"line":1,"station_name":"Klenderbaru","distance":1305,"is_transit":false,"transit":false,"station_id":"KLDB"}],[{"transit":false,"i_long":106.820901,"distance":0,"is_transit":false,"time":0,"station_name":"Jayakarta","i_lat":-6.141205,"station_id":"JAY","line":2},{"station_name":"Jakarta Kota","is_transit":true,"line":2,"time":4,"i_long":106.812439,"station_id":"JAKK","distance":1264,"i_lat":-6.137569,"transit":true},{"transit":true,"line":4,"station_name":"Kampung Bandan","station_id":"KPB","is_transit":true,"time":3,"i_lat":-6.132549,"distance":1364,"i_long":106.826365},{"transit":false,"i_long":106.79867,"line":1,"station_name":"Angke","is_transit":false,"station_id":"AK","distance":4102,"i_lat":-6.144674,"time":9},{"transit":false,"station_id":"DU","time":4,"i_lat":-6.155215,"station_name":"Duri","line":1,"distance":1230,"is_transit":false,"i_long":106.800832},{"line":1,"is_transit":false,"distance":3632,"i_long":106.811091,"station_name":"Tanah Abang","station_id":"THB","transit":false,"i_lat":-6.185545,"time":8},{"distance":2029,"i_lat":-6.20132,"line":1,"i_long":106.816351,"is_transit":false,"transit":false,"station_name":"Karet","time":5,"station_id":"KAT"},{"is_transit":false,"i_lat":-6.201433,"i_long":106.819881,"time":1,"distance":471,"line":1,"station_name":"Sudirman Baru","transit":false,"station_id":"SUDB"},{"line":1,"i_lat":-6.202263,"is_transit":false,"station_name":"Sudirman","station_id":"SUD","i_long":106.822649,"distance":280,"time":1,"transit":false},{"station_name":"Manggarai","time":4,"line":2,"transit":false,"distance":3186,"station_id":"MRI","i_lat":-6.209883,"is_transit":false,"i_long":106.84912},{"transit":false,"is_transit":false,"i_long":106.858896,"station_name":"Matraman","i_lat":-6.212485,"line":1,"distance":1275,"station_id":"MTR","time":2},{"i_lat":-6.215091,"i_long":106.86807400000001,"distance":1377,"is_transit":false,"station_name":"Jatinegara","line":1,"transit":false,"station_id":"JNG","time":8},{"station_name":"Klender","line":1,"distance":3395,"time":3,"transit":false,"station_id":"KLD","is_transit":false,"i_lat":-6.2135,"i_long":106.899548},{"i_lat":-6.215568,"line":1,"station_id":"BUA","is_transit":false,"transit":false,"i_long":106.922662,"distance":3100,"time":2,"station_name":"Buaran"},{"station_name":"Klenderbaru","is_transit":false,"i_lat":-6.217455,"i_long":106.939679,"transit":false,"station_id":"KLDB","distance":1305,"time":1,"line":1}],[{"i_lat":-6.141205,"time":0,"station_name":"Jayakarta","i_long":106.820901,"line":2,"station_id":"JAY","transit":false,"is_transit":false,"distance":0},{"station_name":"Manggabesar","line":2,"transit":false,"time":2,"is_transit":false,"i_lat":-6.149769,"station_id":"MGB","i_long":106.82482,"distance":1080},{"i_lat":-6.160725,"station_id":"SW","is_transit":false,"i_long":106.827103,"station_name":"Sawah Besar","distance":906,"line":2,"time":2,"transit":false},{"station_id":"JUA","distance":1149,"is_transit":false,"time":2,"i_long":106.828284,"line":2,"station_name":"Juanda","transit":false,"i_lat":-6.166716},{"station_name":"Gondangdia","station_id":"GDD","distance":2015,"i_long":106.832183,"transit":false,"time":4,"line":2,"is_transit":false,"i_lat":-6.186295},{"distance":1750,"station_name":"Cikini","station_id":"CKI","is_transit":false,"time":3,"i_long":106.840169,"transit":false,"i_lat":-6.198556,"line":2},{"line":2,"i_lat":-6.209883,"station_id":"MRI","time":4,"transit":true,"station_name":"Manggarai","distance":1590,"i_long":106.84912,"is_transit":true},{"transit":false,"distance":3186,"line":1,"i_long":106.822649,"time":4,"is_transit":false,"station_id":"SUD","station_name":"Sudirman","i_lat":-6.202263},{"station_name":"Sudirman Baru","distance":280,"time":1,"station_id":"SUDB","i_lat":-6.201433,"line":1,"is_transit":false,"transit":false,"i_long":106.819881},{"time":1,"station_name":"Karet","i_lat":-6.20132,"distance":471,"i_long":106.816351,"line":1,"is_transit":false,"station_id":"KAT","transit":false},{"i_long":106.811091,"distance":2029,"transit":false,"station_name":"Tanah Abang","is_transit":false,"station_id":"THB","i_lat":-6.185545,"time":5,"line":1},{"transit":false,"time":8,"distance":3632,"i_lat":-6.155215,"i_long":106.800832,"is_transit":false,"line":1,"station_name":"Duri","station_id":"DU"},{"station_name":"Angke","station_id":"AK","is_transit":false,"time":4,"i_long":106.79867,"transit":false,"line":1,"distance":1230,"i_lat":-6.144674},{"station_name":"Kampung Bandan","is_transit":true,"i_lat":-6.132549,"time":9,"distance":4102,"line":4,"station_id":"KPB","i_long":106.826365,"transit":true},{"i_lat":-6.14505,"line":11,"station_id":"RJW","distance":1444,"transit":false,"is_transit":false,"time":3,"station_name":"Rajawali","i_long":106.836569},{"distance":1901,"station_id":"KMO","is_transit":false,"i_long":106.839204,"transit":false,"time":5,"i_lat":-6.161728,"station_name":"Kemayoran","line":11},{"station_id":"PSE","time":4,"i_lat":-6.174784,"is_transit":false,"i_long":106.84368,"transit":false,"distance":1436,"line":11,"station_name":"Pasar Senen"},{"station_name":"Gang Sentiong","distance":1567,"is_transit":false,"i_long":106.850107,"line":11,"station_id":"GST","transit":false,"i_lat":-6.185975,"time":8},{"distance":973,"station_id":"KMT","time":1,"i_lat":-6.193792,"transit":false,"i_long":106.855437,"is_transit":false,"station_name":"Kramat","line":11},{"line":11,"distance":1829,"i_long":106.861737,"transit":false,"station_name":"Pondok Jati","time":2,"is_transit":false,"station_id":"POK","i_lat":-6.209188},{"transit":true,"i_long":106.86807400000001,"line":1,"time":9,"distance":1236,"is_transit":true,"station_id":"JNG","i_lat":-6.215091,"station_name":"Jatinegara"},{"is_transit":false,"transit":false,"line":1,"distance":3395,"time":3,"i_lat":-6.2135,"station_name":"Klender","station_id":"KLD","i_long":106.899548},{"i_lat":-6.215568,"station_id":"BUA","transit":false,"is_transit":false,"i_long":106.922662,"station_name":"Buaran","line":1,"time":2,"distance":3100},{"transit":false,"is_transit":false,"station_name":"Klenderbaru","time":1,"station_id":"KLDB","distance":1305,"i_lat":-6.217455,"i_long":106.939679,"line":1}]]}