{"data":[[{"station_name":"Jayakarta","distance":0,"station_id":"JAY","time":0,"i_long":106.820901,"transit":false,"is_transit":false,"i_lat":-6.141205,"line":7},{"i_long":106.812439,"distance":1264,"line":0,"time":4,"transit":true,"station_id":"JAKK","station_name":"Jakarta Kota","is_transit":true,"i_lat":-6.137569},{"line":0,"i_lat":-6.132549,"station_name":"Kampung Bandan","time":3,"distance":1364,"transit":false,"station_id":"KPB","is_transit":true,"i_long":106.826365},{"time":9,"i_long":106.79867,"transit":false,"is_transit":false,"station_id":"AK","i_lat":-6.144674,"line":0,"distance":4102,"station_name":"Angke"},{"i_lat":-6.155215,"station_name":"Duri","i_long":106.800832,"transit":true,"time":4,"station_id":"DU","distance":1230,"line":1,"is_transit":true},{"station_name":"Grogol","is_transit":false,"time":3,"station_id":"GGL","i_lat":-6.162021,"transit":false,"distance":1700,"i_long":106.788277,"line":5},{"is_transit":false,"i_lat":-6.161433,"i_long":106.771379,"time":2,"station_id":"PSG","line":5,"distance":2036,"transit":false,"station_name":"Pesing"},{"distance":1614,"station_id":"TKO","station_name":"Taman Kota","i_lat":-6.1587309999999995,"time":2,"transit":false,"line":5,"i_long":106.756522,"is_transit":false},{"transit":false,"time":2,"is_transit":false,"i_lat":-6.159876,"distance":2334,"station_name":"Bojongindah","line":0,"i_long":106.737035,"station_id":"BOI"},{"transit":false,"i_lat":-6.162758,"station_id":"RW","is_transit":false,"station_name":"Rawa Buaya","line":5,"distance":1152,"time":4,"i_long":106.723064},{"distance":2504,"station_name":"Kalideres","i_long":106.701612,"station_id":"KDS","line":5,"is_transit":false,"transit":false,"i_lat":-6.166068,"time":3},{"station_id":"PI","station_name":"Poris","is_transit":false,"i_lat":-6.169933,"distance":2548,"time":3,"i_long":106.679458,"transit":false,"line":5}],[{"station_name":"Jayakarta","station_id":"JAY","transit":false,"i_long":106.820901,"distance":0,"is_transit":false,"line":7,"i_lat":-6.141205,"time":0},{"i_lat":-6.149769,"time":2,"station_id":"MGB","station_name":"Manggabesar","is_transit":false,"i_long":106.82482,"line":2,"transit":false,"distance":1080},{"line":2,"is_transit":false,"i_long":106.827103,"transit":false,"distance":906,"i_lat":-6.160725,"time":2,"station_id":"SW","station_name":"Sawah Besar"},{"time":2,"station_id":"JUA","is_transit":false,"transit":false,"station_name":"Juanda","i_long":106.828284,"i_lat":-6.166716,"distance":1149,"line":2},{"i_lat":-6.186295,"i_long":106.832183,"time":4,"station_name":"Gondangdia","distance":2015,"transit":false,"line":2,"station_id":"GDD","is_transit":false},{"time":3,"distance":1750,"transit":false,"i_long":106.840169,"line":0,"is_transit":false,"station_name":"Cikini","station_id":"CKI","i_lat":-6.198556},{"is_transit":true,"transit":true,"station_name":"Manggarai","station_id":"MRI","i_lat":-6.209883,"line":0,"i_long":106.84912,"time":4,"distance":1590},{"line":1,"distance":3186,"time":4,"transit":false,"station_id":"SUD","station_name":"Sudirman","is_transit":false,"i_lat":-6.202263,"i_long":106.822649},{"distance":280,"station_id":"SUDB","station_name":"Sudirman Baru","is_transit":false,"time":1,"i_lat":-6.201433,"i_long":106.819881,"line":1,"transit":false},{"i_long":106.816351,"i_lat":-6.20132,"time":1,"transit":false,"station_name":"Karet","distance":471,"is_transit":false,"station_id":"KAT","line":1},{"transit":false,"i_long":106.811091,"i_lat":-6.185545,"is_transit":true,"time":5,"station_id":"THB","station_name":"Tanah Abang","distance":2029,"line":1},{"station_name":"Duri","transit":true,"station_id":"DU","line":1,"time":8,"i_lat":-6.155215,"i_long":106.800832,"distance":3632,"is_transit":true},{"line":5,"transit":false,"station_id":"GGL","distance":1700,"station_name":"Grogol","i_lat":-6.162021,"is_transit":false,"time":3,"i_long":106.788277},{"station_id":"PSG","distance":2036,"time":2,"line":5,"transit":false,"i_long":106.771379,"station_name":"Pesing","is_transit":false,"i_lat":-6.161433},{"i_long":106.756522,"i_lat":-6.1587309999999995,"transit":false,"distance":1614,"time":2,"line":5,"is_transit":false,"station_id":"TKO","station_name":"Taman Kota"},{"transit":false,"time":2,"station_id":"BOI","is_transit":false,"i_lat":-6.159876,"distance":2334,"station_name":"Bojongindah","i_long":106.737035,"line":0},{"i_lat":-6.162758,"station_id":"RW","time":4,"distance":1152,"station_name":"Rawa Buaya","is_transit":false,"i_long":106.723064,"line":5,"transit":false},{"distance":2504,"i_lat":-6.166068,"station_id":"KDS","transit":false,"line":5,"is_transit":false,"station_name":"Kalideres","i_long":106.701612,"time":3},{"i_long":106.679458,"station_id":"PI","transit":false,"line":5,"i_lat":-6.169933,"distance":2548,"station_name":"Poris","is_transit":false,"time":3}],[{"station_name":"Jayakarta","distance":0,"is_transit":false,"line":7,"station_id":"JAY","time":0,"i_lat":-6.141205,"transit":false,"i_long":106.820901},{"transit":true,"i_lat":-6.137569,"is_transit":true,"distance":1264,"line":0,"station_name":"Jakarta Kota","station_id":"JAKK","i_long":106.812439,"time":4},{"i_lat":-6.132549,"transit":true,"time":3,"station_name":"Kampung Bandan","is_transit":true,"station_id":"KPB","line":0,"i_long":106.826365,"distance":1364},{"i_lat":-6.14505,"time":3,"station_name":"Rajawali","i_long":106.836569,"line":11,"distance":1444,"is_transit":false,"transit":false,"station_id":"RJW"},{"time":5,"i_lat":-6.161728,"i_long":106.839204,"station_id":"KMO","station_name":"Kemayoran","distance":1901,"line":11,"transit":false,"is_transit":false},{"station_name":"Pasar Senen","transit":false,"line":11,"time":4,"distance":1436,"is_transit":false,"i_lat":-6.174784,"i_long":106.84368,"station_id":"PSE"},{"time":8,"i_lat":-6.185975,"station_name":"Gang Sentiong","line":11,"i_long":106.850107,"is_transit":false,"station_id":"GST","transit":false,"distance":1567},{"station_id":"KMT","transit":false,"distance":973,"line":11,"i_long":106.855437,"i_lat":-6.193792,"is_transit":false,"station_name":"Kramat","time":1},{"station_id":"POK","distance":1829,"line":11,"station_name":"Pondok Jati","i_lat":-6.209188,"is_transit":false,"i_long":106.861737,"transit":false,"time":2},{"i_lat":-6.215091,"i_long":106.86807400000001,"distance":1236,"station_name":"Jatinegara","is_transit":true,"station_id":"JNG","time":9,"line":0,"transit":true},{"line":1,"i_long":106.858896,"transit":false,"distance":1377,"i_lat":-6.212485,"time":2,"station_name":"Matraman","station_id":"MTR","is_transit":false},{"station_name":"Manggarai","i_lat":-6.209883,"transit":false,"i_long":106.84912,"line":0,"time":2,"station_id":"MRI","distance":1275,"is_transit":true},{"station_id":"SUD","distance":3186,"transit":false,"time":4,"is_transit":false,"i_lat":-6.202263,"station_name":"Sudirman","i_long":106.822649,"line":1},{"station_id":"SUDB","station_name":"Sudirman Baru","i_long":106.819881,"distance":280,"time":1,"line":1,"i_lat":-6.201433,"is_transit":false,"transit":false},{"distance":471,"transit":false,"i_long":106.816351,"time":1,"i_lat":-6.20132,"station_id":"KAT","line":1,"is_transit":false,"station_name":"Karet"},{"i_long":106.811091,"transit":false,"line":1,"time":5,"i_lat":-6.185545,"station_name":"Tanah Abang","distance":2029,"station_id":"THB","is_transit":true},{"station_id":"DU","i_long":106.800832,"time":8,"is_transit":true,"station_name":"Duri","line":1,"distance":3632,"transit":true,"i_lat":-6.155215},{"station_id":"GGL","is_transit":false,"transit":false,"distance":1700,"line":5,"time":3,"i_lat":-6.162021,"station_name":"Grogol","i_long":106.788277},{"time":2,"is_transit":false,"station_id":"PSG","transit":false,"distance":2036,"i_lat":-6.161433,"station_name":"Pesing","line":5,"i_long":106.771379},{"is_transit":false,"distance":1614,"line":5,"i_long":106.756522,"station_name":"Taman Kota","time":2,"station_id":"TKO","transit":false,"i_lat":-6.1587309999999995},{"station_name":"Bojongindah","distance":2334,"i_long":106.737035,"i_lat":-6.159876,"line":0,"station_id":"BOI","is_transit":false,"transit":false,"time":2},{"transit":false,"i_long":106.723064,"time":4,"station_name":"Rawa Buaya","line":5,"distance":1152,"station_id":"RW","is_transit":false,"i_lat":-6.162758},{"time":3,"i_lat":-6.166068,"distance":2504,"transit":false,"station_name":"Kalideres","i_long":106.701612,"station_id":"KDS","line":5,"is_transit":false},{"distance":2548,"time":3,"station_id":"PI","is_transit":false,"i_lat":-6.169933,"i_long":106.679458,"transit":false,"station_name":"Poris","line":5}],[{"station_id":"JAY","transit":false,"station_name":"Jayakarta","distance":0,"i_lat":-6.141205,"time":0,"i_long":106.820901,"line":7,"is_transit":false},{"time":2,"is_transit":false,"transit":false,"station_name":"Manggabesar","distance":1080,"i_long":106.82482,"i_lat":-6.149769,"station_id":"MGB","line":2},{"transit":false,"station_id":"SW","is_transit":false,"i_lat":-6.160725,"line":2,"i_long":106.827103,"time":2,"distance":906,"station_name":"Sawah Besar"},{"station_id":"JUA","i_long":106.828284,"distance":1149,"i_lat":-6.166716,"time":2,"station_name":"Juanda","transit":false,"is_transit":false,"line":2},{"distance":2015,"is_transit":false,"line":2,"time":4,"station_name":"Gondangdia","i_lat":-6.186295,"station_id":"GDD","transit":false,"i_long":106.832183},{"time":3,"line":0,"is_transit":false,"i_long":106.840169,"station_name":"Cikini","distance":1750,"station_id":"CKI","transit":false,"i_lat":-6.198556},{"line":0,"station_id":"MRI","is_transit":true,"station_name":"Manggarai","transit":true,"time":4,"i_long":106.84912,"i_lat":-6.209883,"distance":1590},{"line":1,"transit":false,"i_long":106.858896,"i_lat":-6.212485,"station_id":"MTR","time":2,"is_transit":false,"distance":1275,"station_name":"Matraman"},{"transit":true,"distance":1377,"time":8,"i_lat":-6.215091,"i_long":106.86807400000001,"line":0,"station_name":"Jatinegara","is_transit":true,"station_id":"JNG"},{"line":11,"i_long":106.861737,"station_id":"POK","time":2,"is_transit":false,"i_lat":-6.209188,"distance":1236,"transit":false,"station_name":"Pondok Jati"},{"transit":false,"time":2,"distance":1829,"i_lat":-6.193792,"station_id":"KMT","is_transit":false,"i_long":106.855437,"station_name":"Kramat","line":11},{"distance":973,"time":1,"station_id":"GST","transit":false,"line":11,"station_name":"Gang Sentiong","is_transit":false,"i_lat":-6.185975,"i_long":106.850107},{"transit":false,"station_id":"PSE","is_transit":false,"time":8,"distance":1567,"i_lat":-6.174784,"line":11,"station_name":"Pasar Senen","i_long":106.84368},{"station_id":"KMO","transit":false,"is_transit":false,"i_long":106.839204,"line":11,"distance":1436,"time":4,"i_lat":-6.161728,"station_name":"Kemayoran"},{"is_transit":false,"i_long":106.836569,"transit":false,"i_lat":-6.14505,"distance":1901,"station_id":"RJW","time":5,"station_name":"Rajawali","line":11},{"is_transit":true,"transit":true,"time":3,"distance":1444,"i_long":106.826365,"line":0,"station_id":"KPB","i_lat":-6.132549,"station_name":"Kampung Bandan"},{"station_id":"AK","is_transit":false,"station_name":"Angke","i_lat":-6.144674,"line":0,"distance":4102,"transit":false,"i_long":106.79867,"time":9},{"time":4,"transit":true,"i_lat":-6.155215,"station_name":"Duri","is_transit":true,"station_id":"DU","line":1,"distance":1230,"i_long":106.800832},{"station_name":"Grogol","i_long":106.788277,"i_lat":-6.162021,"station_id":"GGL","line":5,"time":3,"is_transit":false,"distance":1700,"transit":false},{"is_transit":false,"i_long":106.771379,"time":2,"station_name":"Pesing","line":5,"distance":2036,"station_id":"PSG","i_lat":-6.161433,"transit":false},{"station_name":"Taman Kota","time":2,"distance":1614,"line":5,"i_lat":-6.1587309999999995,"transit":false,"is_transit":false,"i_long":106.756522,"station_id":"TKO"},{"line":0,"is_transit":false,"station_name":"Bojongindah","distance":2334,"i_long":106.737035,"station_id":"BOI","time":2,"transit":false,"i_lat":-6.159876},{"time":4,"station_name":"Rawa Buaya","line":5,"is_transit":false,"transit":false,"distance":1152,"i_lat":-6.162758,"i_long":106.723064,"station_id":"RW"},{"distance":2504,"is_transit":false,"i_lat":-6.166068,"transit":false,"time":3,"station_id":"KDS","i_long":106.701612,"station_name":"Kalideres","line":5},{"line":5,"transit":false,"i_lat":-6.169933,"is_transit":false,"i_long":106.679458,"time":3,"station_name":"Poris","station_id":"PI","distance":2548}]]}