{"data":[[{"station_id":"JAY","transit":false,"is_transit":false,"distance":0,"station_name":"Jayakarta","i_lat":-6.141205,"i_long":106.820901,"line":7,"time":0},{"station_id":"MGB","distance":1080,"station_name":"Manggabesar","transit":false,"line":2,"is_transit":false,"time":2,"i_long":106.82482,"i_lat":-6.149769},{"station_id":"SW","is_transit":false,"i_lat":-6.160725,"line":2,"time":2,"station_name":"Sawah Besar","transit":false,"i_long":106.827103,"distance":906},{"station_id":"JUA","transit":false,"distance":1149,"line":2,"is_transit":false,"i_long":106.828284,"i_lat":-6.166716,"station_name":"Juanda","time":2},{"transit":false,"i_lat":-6.186295,"station_id":"GDD","station_name":"Gondangdia","i_long":106.832183,"time":4,"line":2,"is_transit":false,"distance":2015},{"distance":1750,"transit":false,"station_id":"CKI","i_lat":-6.198556,"line":0,"i_long":106.840169,"is_transit":false,"time":3,"station_name":"Cikini"},{"distance":1590,"i_lat":-6.209883,"is_transit":true,"i_long":106.84912,"station_id":"MRI","station_name":"Manggarai","time":4,"line":0,"transit":true},{"transit":false,"station_id":"MTR","i_lat":-6.212485,"is_transit":false,"time":2,"i_long":106.858896,"line":1,"distance":1275,"station_name":"Matraman"},{"distance":1377,"is_transit":true,"station_name":"Jatinegara","line":0,"i_long":106.86807400000001,"time":8,"station_id":"JNG","transit":false,"i_lat":-6.215091},{"is_transit":false,"line":1,"i_lat":-6.2135,"station_id":"KLD","transit":false,"distance":3395,"station_name":"Klender","time":3,"i_long":106.899548}],[{"i_lat":-6.141205,"distance":0,"transit":false,"is_transit":false,"station_name":"Jayakarta","i_long":106.820901,"station_id":"JAY","time":0,"line":7},{"i_lat":-6.137569,"station_id":"JAKK","station_name":"Jakarta Kota","i_long":106.812439,"time":4,"distance":1264,"is_transit":true,"line":0,"transit":true},{"i_long":106.826365,"line":0,"distance":1364,"station_id":"KPB","transit":true,"station_name":"Kampung Bandan","time":3,"i_lat":-6.132549,"is_transit":true},{"i_lat":-6.14505,"is_transit":false,"line":11,"distance":1444,"transit":false,"station_id":"RJW","station_name":"Rajawali","time":3,"i_long":106.836569},{"i_long":106.839204,"station_name":"Kemayoran","line":11,"station_id":"KMO","is_transit":false,"distance":1901,"transit":false,"i_lat":-6.161728,"time":5},{"station_id":"PSE","transit":false,"distance":1436,"i_long":106.84368,"line":11,"time":4,"i_lat":-6.174784,"is_transit":false,"station_name":"Pasar Senen"},{"line":11,"station_id":"GST","distance":1567,"is_transit":false,"transit":false,"i_lat":-6.185975,"station_name":"Gang Sentiong","time":8,"i_long":106.850107},{"i_long":106.855437,"station_name":"Kramat","station_id":"KMT","transit":false,"line":11,"time":1,"is_transit":false,"i_lat":-6.193792,"distance":973},{"transit":false,"line":11,"station_name":"Pondok Jati","is_transit":false,"distance":1829,"station_id":"POK","time":2,"i_lat":-6.209188,"i_long":106.861737},{"station_id":"JNG","line":0,"station_name":"Jatinegara","i_lat":-6.215091,"distance":1236,"i_long":106.86807400000001,"transit":true,"is_transit":true,"time":9},{"i_lat":-6.2135,"line":1,"i_long":106.899548,"station_id":"KLD","station_name":"Klender","transit":false,"distance":3395,"time":3,"is_transit":false}],[{"is_transit":false,"distance":0,"station_name":"Jayakarta","time":0,"station_id":"JAY","i_lat":-6.141205,"i_long":106.820901,"transit":false,"line":7},{"station_name":"Jakarta Kota","station_id":"JAKK","line":0,"distance":1264,"i_long":106.812439,"i_lat":-6.137569,"is_transit":true,"transit":true,"time":4},{"station_id":"KPB","i_long":106.826365,"transit":false,"line":0,"i_lat":-6.132549,"time":3,"is_transit":true,"distance":1364,"station_name":"Kampung Bandan"},{"time":9,"distance":4102,"i_lat":-6.144674,"line":0,"is_transit":false,"station_name":"Angke","station_id":"AK","transit":false,"i_long":106.79867},{"transit":true,"distance":1230,"is_transit":true,"station_name":"Duri","time":4,"station_id":"DU","i_lat":-6.155215,"i_long":106.800832,"line":1},{"station_name":"Tanah Abang","time":8,"i_lat":-6.185545,"station_id":"THB","i_long":106.811091,"is_transit":true,"distance":3632,"line":1,"transit":false},{"i_long":106.816351,"i_lat":-6.20132,"station_id":"KAT","is_transit":false,"station_name":"Karet","line":1,"distance":2029,"time":5,"transit":false},{"line":1,"transit":false,"distance":471,"time":1,"i_long":106.819881,"is_transit":false,"station_id":"SUDB","station_name":"Sudirman Baru","i_lat":-6.201433},{"transit":false,"is_transit":false,"i_lat":-6.202263,"i_long":106.822649,"time":1,"line":1,"station_name":"Sudirman","distance":280,"station_id":"SUD"},{"distance":3186,"line":0,"i_long":106.84912,"time":4,"station_id":"MRI","is_transit":true,"transit":false,"station_name":"Manggarai","i_lat":-6.209883},{"distance":1275,"station_name":"Matraman","time":2,"transit":false,"i_long":106.858896,"i_lat":-6.212485,"station_id":"MTR","line":1,"is_transit":false},{"i_long":106.86807400000001,"transit":false,"distance":1377,"line":0,"station_id":"JNG","time":8,"is_transit":true,"station_name":"Jatinegara","i_lat":-6.215091},{"i_lat":-6.2135,"station_name":"Klender","i_long":106.899548,"time":3,"transit":false,"station_id":"KLD","line":1,"is_transit":false,"distance":3395}],[{"line":7,"time":0,"transit":false,"station_id":"JAY","i_lat":-6.141205,"is_transit":false,"i_long":106.820901,"distance":0,"station_name":"Jayakarta"},{"station_id":"MGB","station_name":"Manggabesar","time":2,"line":2,"distance":1080,"transit":false,"i_lat":-6.149769,"is_transit":false,"i_long":106.82482},{"time":2,"station_id":"SW","station_name":"Sawah Besar","line":2,"distance":906,"i_lat":-6.160725,"i_long":106.827103,"is_transit":false,"transit":false},{"distance":1149,"i_lat":-6.166716,"station_name":"Juanda","line":2,"is_transit":false,"transit":false,"station_id":"JUA","i_long":106.828284,"time":2},{"distance":2015,"station_id":"GDD","is_transit":false,"i_long":106.832183,"line":2,"time":4,"transit":false,"station_name":"Gondangdia","i_lat":-6.186295},{"distance":1750,"station_id":"CKI","i_lat":-6.198556,"is_transit":false,"line":0,"station_name":"Cikini","i_long":106.840169,"transit":false,"time":3},{"station_id":"MRI","time":4,"distance":1590,"i_long":106.84912,"transit":true,"line":0,"i_lat":-6.209883,"station_name":"Manggarai","is_transit":true},{"i_long":106.822649,"i_lat":-6.202263,"time":4,"line":1,"transit":false,"distance":3186,"is_transit":false,"station_id":"SUD","station_name":"Sudirman"},{"distance":280,"station_id":"SUDB","is_transit":false,"station_name":"Sudirman Baru","transit":false,"i_lat":-6.201433,"time":1,"line":1,"i_long":106.819881},{"distance":471,"station_id":"KAT","is_transit":false,"time":1,"i_lat":-6.20132,"i_long":106.816351,"transit":false,"line":1,"station_name":"Karet"},{"time":5,"is_transit":true,"station_name":"Tanah Abang","station_id":"THB","transit":false,"i_long":106.811091,"i_lat":-6.185545,"line":1,"distance":2029},{"distance":3632,"line":1,"i_lat":-6.155215,"time":8,"station_name":"Duri","is_transit":true,"station_id":"DU","transit":true,"i_long":106.800832},{"station_id":"AK","time":4,"is_transit":false,"i_long":106.79867,"distance":1230,"station_name":"Angke","line":0,"i_lat":-6.144674,"transit":false},{"i_lat":-6.132549,"time":9,"is_transit":true,"station_id":"KPB","distance":4102,"station_name":"Kampung Bandan","transit":true,"i_long":106.826365,"line":0},{"i_lat":-6.14505,"i_long":106.836569,"time":3,"distance":1444,"station_id":"RJW","transit":false,"line":11,"station_name":"Rajawali","is_transit":false},{"time":5,"i_long":106.839204,"is_transit":false,"line":11,"station_id":"KMO","distance":1901,"transit":false,"station_name":"Kemayoran","i_lat":-6.161728},{"distance":1436,"line":11,"time":4,"station_name":"Pasar Senen","i_long":106.84368,"transit":false,"is_transit":false,"station_id":"PSE","i_lat":-6.174784},{"station_name":"Gang Sentiong","transit":false,"i_lat":-6.185975,"distance":1567,"i_long":106.850107,"is_transit":false,"time":8,"line":11,"station_id":"GST"},{"line":11,"station_name":"Kramat","transit":false,"distance":973,"i_long":106.855437,"station_id":"KMT","time":1,"i_lat":-6.193792,"is_transit":false},{"i_long":106.861737,"is_transit":false,"transit":false,"time":2,"i_lat":-6.209188,"distance":1829,"line":11,"station_id":"POK","station_name":"Pondok Jati"},{"transit":true,"station_name":"Jatinegara","is_transit":true,"time":9,"distance":1236,"i_lat":-6.215091,"i_long":106.86807400000001,"line":0,"station_id":"JNG"},{"station_id":"KLD","time":3,"transit":false,"distance":3395,"station_name":"Klender","line":1,"i_long":106.899548,"is_transit":false,"i_lat":-6.2135}]]}