{"data":[[{"i_long":106.728916,"station_name":"Jurangmangu","line":6,"transit":false,"time":0,"station_id":"JMU","is_transit":false,"distance":0,"i_lat":-6.288927},{"station_id":"SDM","distance":1994,"time":4,"line":6,"i_long":106.712277,"i_lat":-6.296963,"transit":false,"is_transit":false,"station_name":"Sudimara"},{"line":6,"time":6,"transit":false,"i_lat":-6.314823,"distance":4566,"is_transit":false,"station_id":"RU","station_name":"Rawa Buntu","i_long":106.675475},{"time":4,"distance":2413,"i_long":106.66566,"i_lat":-6.319871,"station_name":"Serpong","station_id":"SRP","line":6,"transit":false,"is_transit":false},{"time":4,"distance":1784,"station_name":"Cisauk","station_id":"CSK","i_long":106.640411,"is_transit":false,"transit":false,"line":3,"i_lat":-6.32484},{"i_lat":-6.329547,"line":3,"is_transit":false,"station_id":"CC","i_long":106.617853,"transit":false,"time":4,"distance":2519,"station_name":"Cicayur"},{"station_id":"PRP","i_long":106.568863,"is_transit":false,"time":8,"line":6,"station_name":"Parung Panjang","i_lat":-6.3441410000000005,"transit":false,"distance":5968},{"station_name":"Cilejit","i_lat":-6.354349,"line":3,"is_transit":false,"distance":7025,"station_id":"CJT","i_long":106.508482,"time":9,"transit":false},{"transit":false,"i_long":106.491338,"is_transit":false,"i_lat":-6.338021,"line":0,"time":6,"station_name":"Daru","station_id":"DAR","distance":2675},{"is_transit":false,"station_id":"TEJ","line":6,"station_name":"Tenjo","time":5,"distance":3902,"i_lat":-6.327251,"i_long":106.460812,"transit":false},{"i_lat":-6.328533,"line":6,"i_long":106.425991,"time":5,"distance":2974,"transit":false,"station_id":"TGS","is_transit":false,"station_name":"Tigaraksa"},{"i_lat":-6.33561,"i_long":106.411216,"time":3,"station_id":"CKY","station_name":"Cikoya","distance":2651,"transit":false,"is_transit":false,"line":3}]]}