{"data":[[{"time":0,"i_lat":-6.288927,"transit":false,"is_transit":false,"line":6,"distance":0,"i_long":106.728916,"station_name":"Jurangmangu","station_id":"JMU"},{"is_transit":false,"station_id":"PDJ","transit":false,"distance":2179,"station_name":"Pondokranji","i_long":106.74273,"line":6,"time":3,"i_lat":-6.276362},{"transit":false,"station_id":"KBY","line":6,"station_name":"Kebayoran","time":8,"i_lat":-6.237242,"distance":6218,"is_transit":false,"i_long":106.780334},{"time":7,"transit":false,"i_lat":-6.207404,"distance":3737,"is_transit":false,"station_id":"PLM","i_long":106.79689,"line":6,"station_name":"Palmerah"},{"station_id":"THB","transit":true,"i_long":106.811091,"i_lat":-6.185545,"is_transit":true,"distance":3191,"station_name":"Tanah Abang","time":6,"line":1},{"line":1,"distance":3632,"time":8,"i_long":106.800832,"is_transit":true,"i_lat":-6.155215,"transit":true,"station_name":"Duri","station_id":"DU"},{"distance":1230,"station_id":"AK","is_transit":false,"line":0,"time":4,"transit":false,"station_name":"Angke","i_lat":-6.144674,"i_long":106.79867},{"transit":true,"time":9,"line":0,"is_transit":true,"i_lat":-6.132549,"i_long":106.826365,"station_id":"KPB","distance":4102,"station_name":"Kampung Bandan"},{"distance":1444,"transit":false,"station_name":"Rajawali","line":11,"i_long":106.836569,"time":3,"i_lat":-6.14505,"station_id":"RJW","is_transit":false},{"time":5,"transit":false,"i_long":106.839204,"is_transit":false,"line":11,"distance":1901,"station_id":"KMO","i_lat":-6.161728,"station_name":"Kemayoran"},{"is_transit":false,"station_id":"PSE","line":11,"time":4,"i_lat":-6.174784,"i_long":106.84368,"transit":false,"station_name":"Pasar Senen","distance":1436},{"is_transit":false,"i_lat":-6.185975,"line":11,"distance":1567,"transit":false,"station_name":"Gang Sentiong","i_long":106.850107,"time":8,"station_id":"GST"}],[{"station_id":"JMU","time":0,"station_name":"Jurangmangu","i_lat":-6.288927,"is_transit":false,"transit":false,"line":6,"distance":0,"i_long":106.728916},{"time":3,"station_id":"PDJ","line":6,"is_transit":false,"station_name":"Pondokranji","distance":2179,"i_lat":-6.276362,"transit":false,"i_long":106.74273},{"i_lat":-6.237242,"is_transit":false,"time":8,"station_name":"Kebayoran","line":6,"distance":6218,"transit":false,"station_id":"KBY","i_long":106.780334},{"station_id":"PLM","time":7,"i_lat":-6.207404,"is_transit":false,"station_name":"Palmerah","transit":false,"line":6,"i_long":106.79689,"distance":3737},{"distance":3191,"i_lat":-6.185545,"station_name":"Tanah Abang","station_id":"THB","line":1,"i_long":106.811091,"transit":true,"time":6,"is_transit":true},{"transit":false,"i_long":106.816351,"station_id":"KAT","is_transit":false,"line":1,"distance":2029,"i_lat":-6.20132,"time":5,"station_name":"Karet"},{"station_name":"Sudirman Baru","i_lat":-6.201433,"transit":false,"time":1,"is_transit":false,"station_id":"SUDB","line":1,"i_long":106.819881,"distance":471},{"transit":false,"station_name":"Sudirman","i_long":106.822649,"line":1,"station_id":"SUD","is_transit":false,"i_lat":-6.202263,"time":1,"distance":280},{"time":4,"transit":false,"is_transit":true,"line":0,"i_lat":-6.209883,"i_long":106.84912,"station_name":"Manggarai","distance":3186,"station_id":"MRI"},{"station_name":"Matraman","station_id":"MTR","i_lat":-6.212485,"i_long":106.858896,"line":1,"is_transit":false,"distance":1275,"transit":false,"time":2},{"transit":true,"distance":1377,"is_transit":true,"time":8,"station_name":"Jatinegara","i_long":106.86807400000001,"line":0,"i_lat":-6.215091,"station_id":"JNG"},{"transit":false,"i_long":106.861737,"i_lat":-6.209188,"distance":1236,"station_id":"POK","line":11,"time":2,"station_name":"Pondok Jati","is_transit":false},{"station_id":"KMT","i_lat":-6.193792,"i_long":106.855437,"line":11,"distance":1829,"is_transit":false,"transit":false,"time":2,"station_name":"Kramat"},{"is_transit":false,"time":1,"transit":false,"distance":973,"station_id":"GST","i_long":106.850107,"line":11,"station_name":"Gang Sentiong","i_lat":-6.185975}],[{"is_transit":false,"transit":false,"time":0,"distance":0,"i_lat":-6.288927,"station_id":"JMU","station_name":"Jurangmangu","i_long":106.728916,"line":6},{"station_id":"PDJ","distance":2179,"i_long":106.74273,"line":6,"station_name":"Pondokranji","is_transit":false,"i_lat":-6.276362,"time":3,"transit":false},{"i_long":106.780334,"i_lat":-6.237242,"distance":6218,"line":6,"is_transit":false,"time":8,"transit":false,"station_id":"KBY","station_name":"Kebayoran"},{"i_lat":-6.207404,"transit":false,"station_id":"PLM","time":7,"i_long":106.79689,"station_name":"Palmerah","line":6,"distance":3737,"is_transit":false},{"time":6,"station_name":"Tanah Abang","is_transit":true,"station_id":"THB","line":1,"i_lat":-6.185545,"i_long":106.811091,"distance":3191,"transit":true},{"time":8,"transit":true,"i_long":106.800832,"line":1,"station_name":"Duri","is_transit":true,"station_id":"DU","distance":3632,"i_lat":-6.155215},{"i_long":106.79867,"distance":1230,"station_id":"AK","i_lat":-6.144674,"line":0,"station_name":"Angke","time":4,"is_transit":false,"transit":false},{"time":9,"station_name":"Kampung Bandan","is_transit":true,"i_lat":-6.132549,"transit":false,"distance":4102,"i_long":106.826365,"line":0,"station_id":"KPB"},{"i_lat":-6.137569,"is_transit":true,"i_long":106.812439,"distance":1364,"line":0,"station_id":"JAKK","time":3,"station_name":"Jakarta Kota","transit":true},{"i_long":106.820901,"line":7,"time":4,"station_name":"Jayakarta","station_id":"JAY","distance":1264,"is_transit":false,"transit":false,"i_lat":-6.141205},{"time":2,"station_name":"Manggabesar","is_transit":false,"station_id":"MGB","transit":false,"distance":1080,"i_lat":-6.149769,"i_long":106.82482,"line":2},{"station_id":"SW","station_name":"Sawah Besar","i_lat":-6.160725,"i_long":106.827103,"time":2,"line":2,"transit":false,"is_transit":false,"distance":906},{"i_long":106.828284,"station_id":"JUA","transit":false,"distance":1149,"time":2,"station_name":"Juanda","is_transit":false,"i_lat":-6.166716,"line":2},{"is_transit":false,"i_long":106.832183,"station_id":"GDD","station_name":"Gondangdia","i_lat":-6.186295,"time":4,"distance":2015,"transit":false,"line":2},{"station_name":"Cikini","station_id":"CKI","line":0,"is_transit":false,"time":3,"i_long":106.840169,"i_lat":-6.198556,"distance":1750,"transit":false},{"line":0,"i_lat":-6.209883,"is_transit":true,"station_name":"Manggarai","time":4,"transit":true,"station_id":"MRI","i_long":106.84912,"distance":1590},{"station_id":"MTR","i_lat":-6.212485,"line":1,"transit":false,"distance":1275,"time":2,"is_transit":false,"station_name":"Matraman","i_long":106.858896},{"i_lat":-6.215091,"transit":true,"station_id":"JNG","time":8,"i_long":106.86807400000001,"is_transit":true,"distance":1377,"line":0,"station_name":"Jatinegara"},{"i_long":106.861737,"transit":false,"line":11,"time":2,"station_id":"POK","i_lat":-6.209188,"is_transit":false,"station_name":"Pondok Jati","distance":1236},{"line":11,"distance":1829,"i_long":106.855437,"is_transit":false,"i_lat":-6.193792,"transit":false,"time":2,"station_name":"Kramat","station_id":"KMT"},{"station_id":"GST","i_lat":-6.185975,"i_long":106.850107,"line":11,"station_name":"Gang Sentiong","is_transit":false,"transit":false,"distance":973,"time":1}],[{"time":0,"station_name":"Jurangmangu","transit":false,"line":6,"i_lat":-6.288927,"is_transit":false,"i_long":106.728916,"station_id":"JMU","distance":0},{"station_name":"Pondokranji","is_transit":false,"distance":2179,"i_long":106.74273,"line":6,"i_lat":-6.276362,"transit":false,"station_id":"PDJ","time":3},{"transit":false,"station_id":"KBY","i_long":106.780334,"is_transit":false,"line":6,"distance":6218,"station_name":"Kebayoran","i_lat":-6.237242,"time":8},{"station_name":"Palmerah","distance":3737,"i_long":106.79689,"time":7,"i_lat":-6.207404,"transit":false,"station_id":"PLM","is_transit":false,"line":6},{"is_transit":true,"distance":3191,"i_lat":-6.185545,"station_name":"Tanah Abang","station_id":"THB","line":1,"time":6,"i_long":106.811091,"transit":true},{"i_long":106.816351,"line":1,"transit":false,"distance":2029,"time":5,"station_id":"KAT","i_lat":-6.20132,"station_name":"Karet","is_transit":false},{"station_id":"SUDB","distance":471,"station_name":"Sudirman Baru","transit":false,"i_lat":-6.201433,"i_long":106.819881,"time":1,"is_transit":false,"line":1},{"i_long":106.822649,"i_lat":-6.202263,"time":1,"station_id":"SUD","is_transit":false,"distance":280,"line":1,"transit":false,"station_name":"Sudirman"},{"distance":3186,"transit":true,"time":4,"station_id":"MRI","is_transit":true,"line":0,"i_long":106.84912,"station_name":"Manggarai","i_lat":-6.209883},{"line":0,"station_name":"Cikini","time":4,"transit":false,"station_id":"CKI","distance":1590,"i_lat":-6.198556,"i_long":106.840169,"is_transit":false},{"time":3,"station_name":"Gondangdia","i_lat":-6.186295,"distance":1750,"station_id":"GDD","is_transit":false,"line":2,"transit":false,"i_long":106.832183},{"time":4,"i_long":106.828284,"line":2,"station_name":"Juanda","transit":false,"distance":2015,"station_id":"JUA","is_transit":false,"i_lat":-6.166716},{"time":2,"transit":false,"station_id":"SW","i_lat":-6.160725,"i_long":106.827103,"station_name":"Sawah Besar","distance":1149,"line":2,"is_transit":false},{"time":2,"transit":false,"line":2,"i_long":106.82482,"is_transit":false,"station_name":"Manggabesar","distance":906,"station_id":"MGB","i_lat":-6.149769},{"i_lat":-6.141205,"station_name":"Jayakarta","transit":false,"line":7,"station_id":"JAY","is_transit":false,"time":2,"distance":1080,"i_long":106.820901},{"transit":true,"line":0,"station_name":"Jakarta Kota","is_transit":true,"time":4,"station_id":"JAKK","i_lat":-6.137569,"i_long":106.812439,"distance":1264},{"i_lat":-6.132549,"station_id":"KPB","i_long":106.826365,"time":3,"line":0,"is_transit":true,"distance":1364,"station_name":"Kampung Bandan","transit":true},{"station_name":"Rajawali","distance":1444,"station_id":"RJW","is_transit":false,"i_long":106.836569,"i_lat":-6.14505,"time":3,"line":11,"transit":false},{"time":5,"transit":false,"distance":1901,"i_long":106.839204,"station_name":"Kemayoran","is_transit":false,"station_id":"KMO","i_lat":-6.161728,"line":11},{"i_long":106.84368,"time":4,"transit":false,"line":11,"station_name":"Pasar Senen","station_id":"PSE","is_transit":false,"distance":1436,"i_lat":-6.174784},{"transit":false,"distance":1567,"line":11,"station_id":"GST","station_name":"Gang Sentiong","is_transit":false,"i_lat":-6.185975,"i_long":106.850107,"time":8}]]}