{"data":[[{"line":6,"transit":false,"distance":0,"is_transit":false,"station_id":"JMU","i_lat":-6.288927,"station_name":"Jurangmangu","time":0,"i_long":106.728916},{"transit":false,"time":3,"distance":2179,"station_id":"PDJ","is_transit":false,"i_long":106.74273,"station_name":"Pondokranji","i_lat":-6.276362,"line":6},{"i_long":106.780334,"station_name":"Kebayoran","distance":6218,"transit":false,"time":8,"is_transit":false,"station_id":"KBY","i_lat":-6.237242,"line":6},{"is_transit":false,"distance":3737,"station_name":"Palmerah","time":7,"station_id":"PLM","line":6,"i_long":106.79689,"i_lat":-6.207404,"transit":false},{"distance":3191,"is_transit":true,"station_id":"THB","i_lat":-6.185545,"line":1,"transit":true,"station_name":"Tanah Abang","i_long":106.811091,"time":6},{"line":1,"is_transit":false,"station_name":"Karet","i_long":106.816351,"time":5,"distance":2029,"station_id":"KAT","transit":false,"i_lat":-6.20132},{"line":1,"transit":false,"is_transit":false,"station_id":"SUDB","station_name":"Sudirman Baru","time":1,"i_lat":-6.201433,"distance":471,"i_long":106.819881},{"i_long":106.822649,"distance":280,"station_id":"SUD","time":1,"transit":false,"station_name":"Sudirman","line":1,"is_transit":false,"i_lat":-6.202263},{"time":4,"station_id":"MRI","i_long":106.84912,"distance":3186,"is_transit":false,"transit":false,"i_lat":-6.209883,"line":2,"station_name":"Manggarai"},{"station_name":"Matraman","time":2,"line":1,"distance":1275,"is_transit":false,"i_lat":-6.212485,"i_long":106.858896,"transit":false,"station_id":"MTR"},{"transit":false,"station_id":"JNG","is_transit":false,"station_name":"Jatinegara","i_long":106.86807400000001,"i_lat":-6.215091,"time":8,"line":1,"distance":1377},{"transit":false,"station_name":"Klender","station_id":"KLD","i_long":106.899548,"i_lat":-6.2135,"is_transit":false,"distance":3395,"time":3,"line":1},{"i_long":106.922662,"line":1,"is_transit":false,"distance":3100,"station_name":"Buaran","transit":false,"i_lat":-6.215568,"station_id":"BUA","time":2},{"transit":false,"is_transit":false,"station_id":"KLDB","distance":1305,"i_long":106.939679,"line":1,"time":1,"i_lat":-6.217455,"station_name":"Klenderbaru"},{"distance":1385,"station_id":"CUK","i_long":106.951283,"is_transit":false,"time":8,"i_lat":-6.219053,"station_name":"Cakung","line":1,"transit":false}],[{"station_name":"Jurangmangu","i_long":106.728916,"distance":0,"line":6,"transit":false,"station_id":"JMU","i_lat":-6.288927,"time":0,"is_transit":false},{"transit":false,"station_name":"Pondokranji","time":3,"distance":2179,"is_transit":false,"i_lat":-6.276362,"i_long":106.74273,"line":6,"station_id":"PDJ"},{"i_lat":-6.237242,"transit":false,"station_name":"Kebayoran","time":8,"line":6,"distance":6218,"i_long":106.780334,"station_id":"KBY","is_transit":false},{"station_name":"Palmerah","time":7,"i_lat":-6.207404,"transit":false,"line":6,"i_long":106.79689,"distance":3737,"station_id":"PLM","is_transit":false},{"time":6,"i_lat":-6.185545,"is_transit":true,"station_id":"THB","i_long":106.811091,"transit":true,"distance":3191,"station_name":"Tanah Abang","line":1},{"transit":false,"time":8,"distance":3632,"line":1,"station_id":"DU","i_lat":-6.155215,"i_long":106.800832,"is_transit":false,"station_name":"Duri"},{"i_long":106.79867,"transit":false,"is_transit":false,"station_name":"Angke","distance":1230,"station_id":"AK","i_lat":-6.144674,"line":1,"time":4},{"distance":4102,"is_transit":true,"transit":true,"i_long":106.826365,"line":4,"station_name":"Kampung Bandan","i_lat":-6.132549,"time":9,"station_id":"KPB"},{"time":3,"transit":false,"station_id":"RJW","distance":1444,"line":11,"station_name":"Rajawali","i_long":106.836569,"is_transit":false,"i_lat":-6.14505},{"station_id":"KMO","i_lat":-6.161728,"line":11,"is_transit":false,"i_long":106.839204,"transit":false,"distance":1901,"station_name":"Kemayoran","time":5},{"is_transit":false,"i_lat":-6.174784,"time":4,"distance":1436,"station_id":"PSE","line":11,"i_long":106.84368,"transit":false,"station_name":"Pasar Senen"},{"station_name":"Gang Sentiong","line":11,"station_id":"GST","i_lat":-6.185975,"is_transit":false,"time":8,"i_long":106.850107,"distance":1567,"transit":false},{"time":1,"transit":false,"station_id":"KMT","line":11,"station_name":"Kramat","distance":973,"i_lat":-6.193792,"is_transit":false,"i_long":106.855437},{"i_long":106.861737,"line":11,"station_id":"POK","i_lat":-6.209188,"station_name":"Pondok Jati","time":2,"transit":false,"distance":1829,"is_transit":false},{"station_name":"Jatinegara","time":9,"i_lat":-6.215091,"line":1,"station_id":"JNG","transit":true,"is_transit":true,"i_long":106.86807400000001,"distance":1236},{"i_lat":-6.2135,"distance":3395,"is_transit":false,"station_id":"KLD","line":1,"time":3,"station_name":"Klender","transit":false,"i_long":106.899548},{"time":2,"transit":false,"distance":3100,"station_id":"BUA","station_name":"Buaran","is_transit":false,"i_long":106.922662,"i_lat":-6.215568,"line":1},{"i_long":106.939679,"is_transit":false,"station_name":"Klenderbaru","line":1,"transit":false,"i_lat":-6.217455,"station_id":"KLDB","time":1,"distance":1305},{"time":8,"station_name":"Cakung","i_long":106.951283,"is_transit":false,"line":1,"station_id":"CUK","distance":1385,"i_lat":-6.219053,"transit":false}],[{"distance":0,"i_lat":-6.288927,"line":6,"i_long":106.728916,"transit":false,"time":0,"station_id":"JMU","is_transit":false,"station_name":"Jurangmangu"},{"station_name":"Pondokranji","line":6,"station_id":"PDJ","time":3,"i_lat":-6.276362,"is_transit":false,"distance":2179,"transit":false,"i_long":106.74273},{"is_transit":false,"station_id":"KBY","distance":6218,"i_lat":-6.237242,"transit":false,"time":8,"station_name":"Kebayoran","line":6,"i_long":106.780334},{"time":7,"is_transit":false,"line":6,"distance":3737,"station_name":"Palmerah","transit":false,"i_long":106.79689,"station_id":"PLM","i_lat":-6.207404},{"time":6,"station_id":"THB","transit":true,"distance":3191,"i_lat":-6.185545,"line":1,"i_long":106.811091,"station_name":"Tanah Abang","is_transit":true},{"station_id":"DU","is_transit":false,"i_long":106.800832,"transit":false,"time":8,"line":1,"station_name":"Duri","i_lat":-6.155215,"distance":3632},{"i_long":106.79867,"distance":1230,"station_name":"Angke","station_id":"AK","is_transit":false,"line":1,"transit":false,"time":4,"i_lat":-6.144674},{"station_name":"Kampung Bandan","is_transit":true,"station_id":"KPB","distance":4102,"line":4,"i_lat":-6.132549,"transit":true,"i_long":106.826365,"time":9},{"transit":true,"line":2,"station_id":"JAKK","i_long":106.812439,"i_lat":-6.137569,"distance":1364,"is_transit":true,"time":3,"station_name":"Jakarta Kota"},{"station_id":"JAY","i_lat":-6.141205,"i_long":106.820901,"station_name":"Jayakarta","distance":1264,"is_transit":false,"line":2,"transit":false,"time":4},{"i_long":106.82482,"station_name":"Manggabesar","is_transit":false,"time":2,"station_id":"MGB","transit":false,"i_lat":-6.149769,"line":2,"distance":1080},{"transit":false,"line":2,"is_transit":false,"time":2,"station_id":"SW","i_long":106.827103,"distance":906,"i_lat":-6.160725,"station_name":"Sawah Besar"},{"i_long":106.828284,"station_name":"Juanda","distance":1149,"time":2,"transit":false,"is_transit":false,"i_lat":-6.166716,"line":2,"station_id":"JUA"},{"is_transit":false,"distance":2015,"i_long":106.832183,"line":2,"i_lat":-6.186295,"station_id":"GDD","time":4,"transit":false,"station_name":"Gondangdia"},{"station_id":"CKI","i_long":106.840169,"distance":1750,"i_lat":-6.198556,"line":2,"transit":false,"is_transit":false,"station_name":"Cikini","time":3},{"is_transit":true,"i_lat":-6.209883,"station_name":"Manggarai","distance":1590,"time":4,"line":2,"i_long":106.84912,"transit":true,"station_id":"MRI"},{"i_long":106.858896,"i_lat":-6.212485,"line":1,"station_id":"MTR","station_name":"Matraman","transit":false,"time":2,"distance":1275,"is_transit":false},{"i_lat":-6.215091,"station_name":"Jatinegara","i_long":106.86807400000001,"station_id":"JNG","time":8,"distance":1377,"is_transit":false,"transit":false,"line":1},{"time":3,"i_long":106.899548,"is_transit":false,"station_name":"Klender","station_id":"KLD","distance":3395,"i_lat":-6.2135,"transit":false,"line":1},{"station_name":"Buaran","i_lat":-6.215568,"station_id":"BUA","distance":3100,"time":2,"i_long":106.922662,"line":1,"is_transit":false,"transit":false},{"station_name":"Klenderbaru","transit":false,"station_id":"KLDB","is_transit":false,"time":1,"i_lat":-6.217455,"distance":1305,"line":1,"i_long":106.939679},{"distance":1385,"station_name":"Cakung","is_transit":false,"i_lat":-6.219053,"time":8,"station_id":"CUK","line":1,"i_long":106.951283,"transit":false}],[{"is_transit":false,"i_lat":-6.288927,"transit":false,"station_id":"JMU","station_name":"Jurangmangu","time":0,"i_long":106.728916,"line":6,"distance":0},{"time":3,"is_transit":false,"station_id":"PDJ","i_lat":-6.276362,"i_long":106.74273,"line":6,"transit":false,"station_name":"Pondokranji","distance":2179},{"distance":6218,"line":6,"transit":false,"station_name":"Kebayoran","is_transit":false,"station_id":"KBY","i_long":106.780334,"i_lat":-6.237242,"time":8},{"i_lat":-6.207404,"transit":false,"station_name":"Palmerah","i_long":106.79689,"line":6,"distance":3737,"time":7,"station_id":"PLM","is_transit":false},{"station_name":"Tanah Abang","station_id":"THB","distance":3191,"is_transit":true,"transit":true,"i_long":106.811091,"line":1,"i_lat":-6.185545,"time":6},{"i_long":106.816351,"i_lat":-6.20132,"station_id":"KAT","line":1,"distance":2029,"transit":false,"time":5,"station_name":"Karet","is_transit":false},{"line":1,"time":1,"i_long":106.819881,"transit":false,"distance":471,"is_transit":false,"i_lat":-6.201433,"station_name":"Sudirman Baru","station_id":"SUDB"},{"i_long":106.822649,"station_name":"Sudirman","line":1,"station_id":"SUD","distance":280,"transit":false,"time":1,"is_transit":false,"i_lat":-6.202263},{"station_name":"Manggarai","transit":true,"time":4,"distance":3186,"i_lat":-6.209883,"station_id":"MRI","i_long":106.84912,"is_transit":true,"line":2},{"i_long":106.840169,"i_lat":-6.198556,"line":2,"time":4,"transit":false,"distance":1590,"is_transit":false,"station_name":"Cikini","station_id":"CKI"},{"station_id":"GDD","transit":false,"station_name":"Gondangdia","time":3,"is_transit":false,"i_long":106.832183,"line":2,"distance":1750,"i_lat":-6.186295},{"i_lat":-6.166716,"station_name":"Juanda","distance":2015,"station_id":"JUA","i_long":106.828284,"line":2,"transit":false,"time":4,"is_transit":false},{"distance":1149,"i_long":106.827103,"station_id":"SW","station_name":"Sawah Besar","transit":false,"time":2,"is_transit":false,"i_lat":-6.160725,"line":2},{"distance":906,"line":2,"is_transit":false,"transit":false,"station_id":"MGB","time":2,"i_lat":-6.149769,"i_long":106.82482,"station_name":"Manggabesar"},{"station_id":"JAY","i_long":106.820901,"station_name":"Jayakarta","time":2,"transit":false,"i_lat":-6.141205,"line":2,"is_transit":false,"distance":1080},{"is_transit":true,"i_long":106.812439,"i_lat":-6.137569,"distance":1264,"line":2,"station_name":"Jakarta Kota","transit":true,"time":4,"station_id":"JAKK"},{"i_long":106.826365,"is_transit":true,"line":4,"station_name":"Kampung Bandan","station_id":"KPB","time":3,"i_lat":-6.132549,"transit":true,"distance":1364},{"transit":false,"station_name":"Rajawali","time":3,"is_transit":false,"i_lat":-6.14505,"line":11,"i_long":106.836569,"distance":1444,"station_id":"RJW"},{"distance":1901,"station_id":"KMO","station_name":"Kemayoran","is_transit":false,"i_long":106.839204,"line":11,"i_lat":-6.161728,"transit":false,"time":5},{"line":11,"is_transit":false,"station_id":"PSE","i_lat":-6.174784,"time":4,"transit":false,"i_long":106.84368,"station_name":"Pasar Senen","distance":1436},{"station_id":"GST","is_transit":false,"distance":1567,"i_lat":-6.185975,"line":11,"time":8,"i_long":106.850107,"transit":false,"station_name":"Gang Sentiong"},{"is_transit":false,"time":1,"i_long":106.855437,"station_id":"KMT","transit":false,"distance":973,"line":11,"i_lat":-6.193792,"station_name":"Kramat"},{"time":2,"is_transit":false,"i_lat":-6.209188,"i_long":106.861737,"line":11,"transit":false,"station_name":"Pondok Jati","station_id":"POK","distance":1829},{"transit":true,"is_transit":true,"station_name":"Jatinegara","station_id":"JNG","distance":1236,"time":9,"i_lat":-6.215091,"line":1,"i_long":106.86807400000001},{"station_name":"Klender","transit":false,"i_lat":-6.2135,"is_transit":false,"time":3,"i_long":106.899548,"station_id":"KLD","distance":3395,"line":1},{"station_name":"Buaran","time":2,"distance":3100,"i_lat":-6.215568,"i_long":106.922662,"is_transit":false,"station_id":"BUA","transit":false,"line":1},{"station_id":"KLDB","distance":1305,"time":1,"is_transit":false,"i_long":106.939679,"transit":false,"line":1,"i_lat":-6.217455,"station_name":"Klenderbaru"},{"is_transit":false,"time":8,"line":1,"distance":1385,"i_long":106.951283,"i_lat":-6.219053,"transit":false,"station_id":"CUK","station_name":"Cakung"}]]}