{"data":[[{"time":0,"station_id":"JMU","i_long":106.728916,"distance":0,"is_transit":false,"transit":false,"station_name":"Jurangmangu","i_lat":-6.288927,"line":6},{"transit":false,"time":3,"distance":2179,"station_id":"PDJ","i_lat":-6.276362,"is_transit":false,"i_long":106.74273,"line":6,"station_name":"Pondokranji"},{"transit":false,"i_lat":-6.237242,"line":6,"is_transit":false,"distance":6218,"i_long":106.780334,"station_id":"KBY","station_name":"Kebayoran","time":8},{"distance":3737,"station_name":"Palmerah","i_long":106.79689,"transit":false,"station_id":"PLM","time":7,"i_lat":-6.207404,"is_transit":false,"line":6},{"time":6,"i_long":106.811091,"is_transit":true,"station_name":"Tanah Abang","station_id":"THB","transit":true,"line":1,"distance":3191,"i_lat":-6.185545},{"transit":false,"time":8,"line":1,"station_id":"DU","station_name":"Duri","is_transit":false,"distance":3632,"i_long":106.800832,"i_lat":-6.155215},{"distance":1230,"time":4,"is_transit":false,"transit":false,"station_name":"Angke","i_lat":-6.144674,"line":1,"station_id":"AK","i_long":106.79867},{"station_name":"Kampung Bandan","time":9,"i_long":106.826365,"is_transit":true,"line":4,"transit":true,"i_lat":-6.132549,"distance":4102,"station_id":"KPB"},{"time":3,"i_long":106.836569,"transit":false,"distance":1444,"i_lat":-6.14505,"is_transit":false,"line":11,"station_id":"RJW","station_name":"Rajawali"},{"i_long":106.839204,"line":11,"distance":1901,"is_transit":false,"station_id":"KMO","transit":false,"station_name":"Kemayoran","i_lat":-6.161728,"time":5},{"i_lat":-6.174784,"station_name":"Pasar Senen","line":11,"is_transit":false,"i_long":106.84368,"station_id":"PSE","distance":1436,"transit":false,"time":4},{"transit":false,"line":11,"i_lat":-6.185975,"station_id":"GST","i_long":106.850107,"time":8,"station_name":"Gang Sentiong","distance":1567,"is_transit":false}],[{"i_long":106.728916,"distance":0,"is_transit":false,"time":0,"line":6,"station_id":"JMU","transit":false,"station_name":"Jurangmangu","i_lat":-6.288927},{"is_transit":false,"i_long":106.74273,"line":6,"transit":false,"station_id":"PDJ","time":3,"distance":2179,"i_lat":-6.276362,"station_name":"Pondokranji"},{"distance":6218,"station_id":"KBY","time":8,"i_lat":-6.237242,"transit":false,"line":6,"is_transit":false,"station_name":"Kebayoran","i_long":106.780334},{"distance":3737,"i_long":106.79689,"station_name":"Palmerah","transit":false,"i_lat":-6.207404,"time":7,"line":6,"is_transit":false,"station_id":"PLM"},{"line":1,"station_id":"THB","i_lat":-6.185545,"distance":3191,"transit":true,"time":6,"is_transit":true,"i_long":106.811091,"station_name":"Tanah Abang"},{"station_name":"Karet","line":1,"transit":false,"station_id":"KAT","i_lat":-6.20132,"distance":2029,"i_long":106.816351,"is_transit":false,"time":5},{"i_lat":-6.201433,"line":1,"is_transit":false,"transit":false,"time":1,"station_id":"SUDB","station_name":"Sudirman Baru","distance":471,"i_long":106.819881},{"line":1,"is_transit":false,"station_name":"Sudirman","time":1,"station_id":"SUD","i_lat":-6.202263,"i_long":106.822649,"distance":280,"transit":false},{"i_lat":-6.209883,"distance":3186,"line":2,"is_transit":false,"transit":false,"time":4,"station_id":"MRI","station_name":"Manggarai","i_long":106.84912},{"station_id":"MTR","distance":1275,"i_lat":-6.212485,"transit":false,"time":2,"i_long":106.858896,"is_transit":false,"line":1,"station_name":"Matraman"},{"station_name":"Jatinegara","line":1,"i_lat":-6.215091,"distance":1377,"i_long":106.86807400000001,"is_transit":true,"station_id":"JNG","time":8,"transit":true},{"transit":false,"station_name":"Pondok Jati","time":2,"distance":1236,"i_lat":-6.209188,"line":11,"is_transit":false,"station_id":"POK","i_long":106.861737},{"time":2,"station_id":"KMT","is_transit":false,"distance":1829,"transit":false,"i_lat":-6.193792,"i_long":106.855437,"line":11,"station_name":"Kramat"},{"time":1,"distance":973,"is_transit":false,"station_id":"GST","i_lat":-6.185975,"i_long":106.850107,"station_name":"Gang Sentiong","line":11,"transit":false}],[{"time":0,"is_transit":false,"i_lat":-6.288927,"transit":false,"i_long":106.728916,"distance":0,"station_id":"JMU","line":6,"station_name":"Jurangmangu"},{"distance":2179,"transit":false,"station_name":"Pondokranji","time":3,"station_id":"PDJ","line":6,"is_transit":false,"i_lat":-6.276362,"i_long":106.74273},{"i_long":106.780334,"distance":6218,"line":6,"is_transit":false,"station_id":"KBY","transit":false,"station_name":"Kebayoran","i_lat":-6.237242,"time":8},{"time":7,"transit":false,"is_transit":false,"station_name":"Palmerah","i_long":106.79689,"line":6,"i_lat":-6.207404,"distance":3737,"station_id":"PLM"},{"distance":3191,"station_id":"THB","transit":true,"time":6,"station_name":"Tanah Abang","is_transit":true,"i_long":106.811091,"line":1,"i_lat":-6.185545},{"time":8,"line":1,"distance":3632,"station_name":"Duri","station_id":"DU","transit":false,"i_lat":-6.155215,"i_long":106.800832,"is_transit":false},{"transit":false,"i_lat":-6.144674,"station_name":"Angke","time":4,"i_long":106.79867,"line":1,"is_transit":false,"distance":1230,"station_id":"AK"},{"time":9,"transit":true,"i_long":106.826365,"station_name":"Kampung Bandan","distance":4102,"is_transit":true,"line":4,"station_id":"KPB","i_lat":-6.132549},{"is_transit":true,"distance":1364,"i_lat":-6.137569,"time":3,"transit":true,"line":2,"station_id":"JAKK","station_name":"Jakarta Kota","i_long":106.812439},{"line":2,"is_transit":false,"i_long":106.820901,"i_lat":-6.141205,"transit":false,"time":4,"distance":1264,"station_name":"Jayakarta","station_id":"JAY"},{"i_long":106.82482,"station_name":"Manggabesar","station_id":"MGB","line":2,"i_lat":-6.149769,"is_transit":false,"distance":1080,"transit":false,"time":2},{"distance":906,"is_transit":false,"i_long":106.827103,"transit":false,"time":2,"line":2,"station_name":"Sawah Besar","station_id":"SW","i_lat":-6.160725},{"i_long":106.828284,"line":2,"transit":false,"is_transit":false,"station_name":"Juanda","time":2,"station_id":"JUA","i_lat":-6.166716,"distance":1149},{"time":4,"line":2,"transit":false,"station_id":"GDD","distance":2015,"station_name":"Gondangdia","i_lat":-6.186295,"is_transit":false,"i_long":106.832183},{"transit":false,"time":3,"distance":1750,"station_name":"Cikini","i_lat":-6.198556,"line":2,"i_long":106.840169,"station_id":"CKI","is_transit":false},{"transit":true,"station_name":"Manggarai","station_id":"MRI","distance":1590,"time":4,"line":2,"is_transit":true,"i_lat":-6.209883,"i_long":106.84912},{"distance":1275,"is_transit":false,"time":2,"station_name":"Matraman","i_lat":-6.212485,"i_long":106.858896,"line":1,"station_id":"MTR","transit":false},{"distance":1377,"station_name":"Jatinegara","is_transit":true,"time":8,"i_long":106.86807400000001,"line":1,"transit":true,"station_id":"JNG","i_lat":-6.215091},{"i_lat":-6.209188,"distance":1236,"transit":false,"line":11,"is_transit":false,"time":2,"i_long":106.861737,"station_name":"Pondok Jati","station_id":"POK"},{"i_long":106.855437,"i_lat":-6.193792,"transit":false,"station_name":"Kramat","time":2,"station_id":"KMT","is_transit":false,"distance":1829,"line":11},{"transit":false,"distance":973,"station_name":"Gang Sentiong","station_id":"GST","time":1,"i_long":106.850107,"i_lat":-6.185975,"line":11,"is_transit":false}],[{"i_long":106.728916,"station_name":"Jurangmangu","line":6,"time":0,"transit":false,"distance":0,"station_id":"JMU","is_transit":false,"i_lat":-6.288927},{"distance":2179,"is_transit":false,"i_lat":-6.276362,"line":6,"station_id":"PDJ","time":3,"station_name":"Pondokranji","transit":false,"i_long":106.74273},{"station_name":"Kebayoran","is_transit":false,"i_lat":-6.237242,"distance":6218,"transit":false,"station_id":"KBY","i_long":106.780334,"line":6,"time":8},{"distance":3737,"i_lat":-6.207404,"time":7,"i_long":106.79689,"line":6,"is_transit":false,"station_id":"PLM","transit":false,"station_name":"Palmerah"},{"line":1,"station_name":"Tanah Abang","transit":true,"distance":3191,"i_lat":-6.185545,"time":6,"station_id":"THB","is_transit":true,"i_long":106.811091},{"line":1,"i_long":106.816351,"distance":2029,"station_id":"KAT","transit":false,"is_transit":false,"time":5,"station_name":"Karet","i_lat":-6.20132},{"time":1,"line":1,"distance":471,"station_name":"Sudirman Baru","i_lat":-6.201433,"i_long":106.819881,"transit":false,"is_transit":false,"station_id":"SUDB"},{"is_transit":false,"distance":280,"line":1,"station_name":"Sudirman","time":1,"transit":false,"i_lat":-6.202263,"station_id":"SUD","i_long":106.822649},{"time":4,"station_id":"MRI","distance":3186,"is_transit":true,"station_name":"Manggarai","i_long":106.84912,"line":2,"transit":true,"i_lat":-6.209883},{"station_name":"Cikini","transit":false,"i_long":106.840169,"is_transit":false,"time":4,"station_id":"CKI","i_lat":-6.198556,"line":2,"distance":1590},{"station_name":"Gondangdia","transit":false,"time":3,"i_lat":-6.186295,"line":2,"i_long":106.832183,"distance":1750,"is_transit":false,"station_id":"GDD"},{"time":4,"i_long":106.828284,"distance":2015,"i_lat":-6.166716,"is_transit":false,"line":2,"transit":false,"station_id":"JUA","station_name":"Juanda"},{"transit":false,"station_id":"SW","i_long":106.827103,"time":2,"distance":1149,"station_name":"Sawah Besar","is_transit":false,"i_lat":-6.160725,"line":2},{"is_transit":false,"station_name":"Manggabesar","time":2,"i_lat":-6.149769,"i_long":106.82482,"transit":false,"distance":906,"station_id":"MGB","line":2},{"distance":1080,"line":2,"time":2,"i_long":106.820901,"is_transit":false,"station_name":"Jayakarta","transit":false,"station_id":"JAY","i_lat":-6.141205},{"transit":true,"time":4,"i_lat":-6.137569,"i_long":106.812439,"station_id":"JAKK","distance":1264,"line":2,"is_transit":true,"station_name":"Jakarta Kota"},{"distance":1364,"station_name":"Kampung Bandan","is_transit":true,"i_lat":-6.132549,"line":4,"time":3,"transit":true,"i_long":106.826365,"station_id":"KPB"},{"transit":false,"distance":1444,"time":3,"station_id":"RJW","line":11,"i_lat":-6.14505,"station_name":"Rajawali","is_transit":false,"i_long":106.836569},{"i_lat":-6.161728,"transit":false,"is_transit":false,"line":11,"time":5,"i_long":106.839204,"distance":1901,"station_id":"KMO","station_name":"Kemayoran"},{"i_long":106.84368,"distance":1436,"i_lat":-6.174784,"transit":false,"line":11,"time":4,"is_transit":false,"station_name":"Pasar Senen","station_id":"PSE"},{"time":8,"station_name":"Gang Sentiong","transit":false,"distance":1567,"station_id":"GST","i_lat":-6.185975,"line":11,"is_transit":false,"i_long":106.850107}]]}