{"data":[[{"time":0,"line":6,"station_id":"JMU","is_transit":false,"distance":0,"station_name":"Jurangmangu","i_lat":-6.288927,"i_long":106.728916,"transit":false},{"time":3,"station_name":"Pondokranji","distance":2179,"station_id":"PDJ","line":6,"i_long":106.74273,"i_lat":-6.276362,"transit":false,"is_transit":false},{"distance":6218,"i_long":106.780334,"station_name":"Kebayoran","i_lat":-6.237242,"line":6,"transit":false,"time":8,"is_transit":false,"station_id":"KBY"},{"transit":false,"station_name":"Palmerah","distance":3737,"is_transit":false,"station_id":"PLM","i_long":106.79689,"line":6,"i_lat":-6.207404,"time":7},{"is_transit":true,"i_long":106.811091,"line":1,"station_name":"Tanah Abang","i_lat":-6.185545,"transit":true,"station_id":"THB","time":6,"distance":3191},{"station_id":"KAT","transit":false,"station_name":"Karet","is_transit":false,"i_lat":-6.20132,"distance":2029,"time":5,"i_long":106.816351,"line":1},{"i_long":106.819881,"station_id":"SUDB","i_lat":-6.201433,"is_transit":false,"time":1,"distance":471,"line":1,"station_name":"Sudirman Baru","transit":false},{"transit":false,"station_name":"Sudirman","line":1,"time":1,"distance":280,"station_id":"SUD","i_lat":-6.202263,"is_transit":false,"i_long":106.822649},{"i_long":106.84912,"distance":3186,"station_id":"MRI","line":2,"station_name":"Manggarai","i_lat":-6.209883,"is_transit":true,"time":4,"transit":true},{"transit":false,"station_name":"Tebet","is_transit":false,"station_id":"TEB","distance":2610,"i_long":106.857948,"i_lat":-6.226659,"time":4,"line":2},{"distance":1230,"time":2,"line":2,"station_id":"CW","i_long":106.856607,"station_name":"Cawang","transit":false,"i_lat":-6.242512,"is_transit":false},{"transit":false,"station_name":"Duren Kalibata","line":2,"time":3,"i_long":106.85449,"distance":1546,"i_lat":-6.255332,"is_transit":false,"station_id":"DRN"},{"i_long":106.851577,"transit":false,"station_name":"Pasar Minggu Baru","line":2,"i_lat":-6.263214,"station_id":"PSMB","is_transit":false,"distance":824,"time":2},{"station_name":"Pasar Minggu","line":2,"i_lat":-6.2842400000000005,"time":2,"station_id":"PSM","transit":false,"i_long":106.843999,"distance":2380,"is_transit":false},{"is_transit":false,"line":2,"transit":false,"time":4,"station_name":"Tanjung Barat","station_id":"TNT","i_lat":-6.3080680000000005,"i_long":106.838896,"distance":2820},{"time":3,"i_lat":-6.330363,"station_name":"Lenteng Agung","i_long":106.832616,"line":2,"is_transit":false,"transit":false,"distance":2671,"station_id":"LNA"},{"time":2,"i_lat":-6.339291,"i_long":106.834175,"station_id":"UP","distance":1029,"is_transit":false,"transit":false,"station_name":"Univ. Pancasila","line":2},{"time":3,"i_long":106.831474,"i_lat":-6.360749,"station_id":"UI","line":2,"distance":2264,"station_name":"Univ. Indonesia","transit":false,"is_transit":false},{"line":2,"distance":1109,"i_long":106.831114,"station_name":"Pondok Cina","i_lat":-6.369073,"station_id":"POC","is_transit":false,"transit":false,"time":2},{"transit":false,"station_id":"DPB","is_transit":false,"i_long":106.819451,"time":4,"station_name":"Depokbaru","i_lat":-6.391065,"distance":2727,"line":2},{"station_name":"Depok","is_transit":false,"transit":false,"station_id":"DP","i_long":106.816926,"distance":1584,"line":2,"time":3,"i_lat":-6.405256},{"distance":5084,"station_id":"CTA","time":6,"transit":false,"is_transit":false,"i_long":106.800298,"line":2,"station_name":"Citayam","i_lat":-6.448811},{"line":2,"station_id":"BJD","is_transit":false,"time":5,"distance":5197,"i_lat":-6.493243,"transit":false,"station_name":"Bojonggede","i_long":106.792719}],[{"i_long":106.728916,"transit":false,"line":6,"is_transit":false,"station_id":"JMU","i_lat":-6.288927,"station_name":"Jurangmangu","time":0,"distance":0},{"i_lat":-6.276362,"line":6,"transit":false,"station_id":"PDJ","is_transit":false,"time":3,"station_name":"Pondokranji","distance":2179,"i_long":106.74273},{"i_lat":-6.237242,"line":6,"transit":false,"station_id":"KBY","distance":6218,"station_name":"Kebayoran","is_transit":false,"i_long":106.780334,"time":8},{"distance":3737,"i_lat":-6.207404,"i_long":106.79689,"line":6,"station_name":"Palmerah","transit":false,"station_id":"PLM","is_transit":false,"time":7},{"distance":3191,"i_long":106.811091,"transit":true,"i_lat":-6.185545,"station_id":"THB","is_transit":true,"line":1,"station_name":"Tanah Abang","time":6},{"i_lat":-6.155215,"station_id":"DU","station_name":"Duri","transit":false,"is_transit":false,"time":8,"distance":3632,"line":1,"i_long":106.800832},{"line":1,"i_long":106.79867,"i_lat":-6.144674,"distance":1230,"station_name":"Angke","station_id":"AK","transit":false,"time":4,"is_transit":false},{"line":4,"station_id":"KPB","time":9,"i_long":106.826365,"distance":4102,"transit":true,"station_name":"Kampung Bandan","i_lat":-6.132549,"is_transit":true},{"time":3,"station_name":"Jakarta Kota","distance":1364,"is_transit":true,"i_long":106.812439,"transit":true,"i_lat":-6.137569,"line":2,"station_id":"JAKK"},{"time":4,"line":2,"i_lat":-6.141205,"i_long":106.820901,"transit":false,"station_id":"JAY","distance":1264,"is_transit":false,"station_name":"Jayakarta"},{"station_name":"Manggabesar","time":2,"i_long":106.82482,"is_transit":false,"transit":false,"distance":1080,"station_id":"MGB","i_lat":-6.149769,"line":2},{"is_transit":false,"line":2,"i_lat":-6.160725,"i_long":106.827103,"station_id":"SW","station_name":"Sawah Besar","transit":false,"time":2,"distance":906},{"is_transit":false,"distance":1149,"station_id":"JUA","transit":false,"time":2,"i_lat":-6.166716,"i_long":106.828284,"line":2,"station_name":"Juanda"},{"distance":2015,"time":4,"line":2,"station_id":"GDD","station_name":"Gondangdia","is_transit":false,"transit":false,"i_lat":-6.186295,"i_long":106.832183},{"transit":false,"is_transit":false,"line":2,"station_name":"Cikini","station_id":"CKI","time":3,"i_long":106.840169,"i_lat":-6.198556,"distance":1750},{"line":2,"is_transit":false,"time":4,"i_lat":-6.209883,"i_long":106.84912,"transit":false,"station_name":"Manggarai","distance":1590,"station_id":"MRI"},{"i_lat":-6.226659,"is_transit":false,"station_name":"Tebet","transit":false,"line":2,"distance":2610,"time":4,"i_long":106.857948,"station_id":"TEB"},{"i_long":106.856607,"line":2,"time":2,"transit":false,"station_id":"CW","is_transit":false,"station_name":"Cawang","i_lat":-6.242512,"distance":1230},{"time":3,"is_transit":false,"station_name":"Duren Kalibata","transit":false,"station_id":"DRN","distance":1546,"i_long":106.85449,"line":2,"i_lat":-6.255332},{"station_id":"PSMB","line":2,"distance":824,"i_lat":-6.263214,"station_name":"Pasar Minggu Baru","time":2,"is_transit":false,"i_long":106.851577,"transit":false},{"station_id":"PSM","line":2,"distance":2380,"time":2,"transit":false,"station_name":"Pasar Minggu","i_long":106.843999,"is_transit":false,"i_lat":-6.2842400000000005},{"i_long":106.838896,"line":2,"station_id":"TNT","time":4,"distance":2820,"is_transit":false,"i_lat":-6.3080680000000005,"transit":false,"station_name":"Tanjung Barat"},{"station_name":"Lenteng Agung","i_lat":-6.330363,"transit":false,"line":2,"is_transit":false,"distance":2671,"time":3,"station_id":"LNA","i_long":106.832616},{"time":2,"station_id":"UP","line":2,"i_long":106.834175,"i_lat":-6.339291,"distance":1029,"station_name":"Univ. Pancasila","is_transit":false,"transit":false},{"time":3,"i_long":106.831474,"station_id":"UI","transit":false,"station_name":"Univ. Indonesia","is_transit":false,"distance":2264,"line":2,"i_lat":-6.360749},{"time":2,"line":2,"distance":1109,"is_transit":false,"i_long":106.831114,"station_name":"Pondok Cina","transit":false,"station_id":"POC","i_lat":-6.369073},{"line":2,"station_name":"Depokbaru","time":4,"station_id":"DPB","is_transit":false,"distance":2727,"i_long":106.819451,"i_lat":-6.391065,"transit":false},{"i_lat":-6.405256,"i_long":106.816926,"station_name":"Depok","line":2,"station_id":"DP","transit":false,"is_transit":false,"time":3,"distance":1584},{"i_long":106.800298,"line":2,"station_name":"Citayam","transit":false,"i_lat":-6.448811,"time":6,"is_transit":false,"distance":5084,"station_id":"CTA"},{"transit":false,"is_transit":false,"station_name":"Bojonggede","i_long":106.792719,"line":2,"i_lat":-6.493243,"station_id":"BJD","time":5,"distance":5197}],[{"i_lat":-6.288927,"transit":false,"distance":0,"line":6,"station_name":"Jurangmangu","time":0,"i_long":106.728916,"station_id":"JMU","is_transit":false},{"station_id":"PDJ","i_long":106.74273,"distance":2179,"transit":false,"is_transit":false,"station_name":"Pondokranji","i_lat":-6.276362,"time":3,"line":6},{"is_transit":false,"station_name":"Kebayoran","distance":6218,"i_lat":-6.237242,"transit":false,"station_id":"KBY","i_long":106.780334,"time":8,"line":6},{"i_long":106.79689,"station_name":"Palmerah","station_id":"PLM","is_transit":false,"time":7,"distance":3737,"line":6,"i_lat":-6.207404,"transit":false},{"station_id":"THB","station_name":"Tanah Abang","i_long":106.811091,"is_transit":true,"line":1,"time":6,"i_lat":-6.185545,"distance":3191,"transit":true},{"transit":false,"time":8,"line":1,"is_transit":false,"station_id":"DU","i_long":106.800832,"distance":3632,"i_lat":-6.155215,"station_name":"Duri"},{"station_name":"Angke","i_lat":-6.144674,"transit":false,"is_transit":false,"distance":1230,"line":1,"time":4,"station_id":"AK","i_long":106.79867},{"line":4,"station_id":"KPB","time":9,"distance":4102,"station_name":"Kampung Bandan","i_long":106.826365,"transit":true,"is_transit":true,"i_lat":-6.132549},{"station_name":"Rajawali","is_transit":false,"i_long":106.836569,"line":11,"i_lat":-6.14505,"time":3,"transit":false,"distance":1444,"station_id":"RJW"},{"distance":1901,"time":5,"line":11,"station_name":"Kemayoran","i_lat":-6.161728,"station_id":"KMO","i_long":106.839204,"is_transit":false,"transit":false},{"station_id":"PSE","line":11,"time":4,"station_name":"Pasar Senen","is_transit":false,"distance":1436,"transit":false,"i_lat":-6.174784,"i_long":106.84368},{"line":11,"station_name":"Gang Sentiong","time":8,"transit":false,"station_id":"GST","i_lat":-6.185975,"i_long":106.850107,"is_transit":false,"distance":1567},{"time":1,"station_name":"Kramat","is_transit":false,"distance":973,"transit":false,"line":11,"i_lat":-6.193792,"station_id":"KMT","i_long":106.855437},{"station_id":"POK","time":2,"is_transit":false,"i_lat":-6.209188,"distance":1829,"transit":false,"line":11,"station_name":"Pondok Jati","i_long":106.861737},{"station_name":"Jatinegara","time":9,"distance":1236,"station_id":"JNG","i_long":106.86807400000001,"i_lat":-6.215091,"is_transit":true,"line":1,"transit":true},{"station_name":"Matraman","station_id":"MTR","distance":1377,"time":2,"transit":false,"is_transit":false,"i_lat":-6.212485,"i_long":106.858896,"line":1},{"line":2,"station_id":"MRI","station_name":"Manggarai","i_lat":-6.209883,"i_long":106.84912,"transit":true,"is_transit":true,"time":2,"distance":1275},{"time":4,"line":2,"station_id":"TEB","distance":2610,"is_transit":false,"i_lat":-6.226659,"transit":false,"i_long":106.857948,"station_name":"Tebet"},{"station_id":"CW","i_lat":-6.242512,"i_long":106.856607,"transit":false,"distance":1230,"station_name":"Cawang","time":2,"is_transit":false,"line":2},{"i_long":106.85449,"station_id":"DRN","transit":false,"is_transit":false,"time":3,"i_lat":-6.255332,"line":2,"station_name":"Duren Kalibata","distance":1546},{"transit":false,"distance":824,"i_lat":-6.263214,"time":2,"station_name":"Pasar Minggu Baru","station_id":"PSMB","is_transit":false,"i_long":106.851577,"line":2},{"station_id":"PSM","i_lat":-6.2842400000000005,"line":2,"station_name":"Pasar Minggu","is_transit":false,"transit":false,"time":2,"distance":2380,"i_long":106.843999},{"time":4,"distance":2820,"station_id":"TNT","station_name":"Tanjung Barat","transit":false,"i_lat":-6.3080680000000005,"is_transit":false,"i_long":106.838896,"line":2},{"i_lat":-6.330363,"time":3,"i_long":106.832616,"line":2,"station_name":"Lenteng Agung","transit":false,"distance":2671,"station_id":"LNA","is_transit":false},{"is_transit":false,"distance":1029,"line":2,"station_id":"UP","time":2,"i_lat":-6.339291,"station_name":"Univ. Pancasila","i_long":106.834175,"transit":false},{"i_long":106.831474,"transit":false,"time":3,"station_id":"UI","line":2,"distance":2264,"station_name":"Univ. Indonesia","is_transit":false,"i_lat":-6.360749},{"i_long":106.831114,"line":2,"i_lat":-6.369073,"time":2,"station_name":"Pondok Cina","distance":1109,"station_id":"POC","transit":false,"is_transit":false},{"is_transit":false,"station_id":"DPB","i_lat":-6.391065,"time":4,"i_long":106.819451,"transit":false,"distance":2727,"line":2,"station_name":"Depokbaru"},{"station_name":"Depok","i_long":106.816926,"is_transit":false,"station_id":"DP","distance":1584,"time":3,"i_lat":-6.405256,"transit":false,"line":2},{"transit":false,"distance":5084,"i_long":106.800298,"line":2,"i_lat":-6.448811,"station_name":"Citayam","time":6,"station_id":"CTA","is_transit":false},{"i_long":106.792719,"line":2,"i_lat":-6.493243,"time":5,"is_transit":false,"station_id":"BJD","station_name":"Bojonggede","transit":false,"distance":5197}]]}