{"data":[[{"station_name":"Jurangmangu","station_id":"JMU","i_lat":-6.288927,"time":0,"i_long":106.728916,"line":6,"distance":0,"transit":false,"is_transit":false},{"station_id":"PDJ","distance":2179,"i_lat":-6.276362,"i_long":106.74273,"is_transit":false,"transit":false,"station_name":"Pondokranji","line":6,"time":3},{"line":6,"distance":6218,"station_name":"Kebayoran","time":8,"i_lat":-6.237242,"is_transit":false,"station_id":"KBY","i_long":106.780334,"transit":false},{"i_lat":-6.207404,"time":7,"i_long":106.79689,"is_transit":false,"distance":3737,"transit":false,"station_name":"Palmerah","station_id":"PLM","line":6},{"i_long":106.811091,"line":1,"is_transit":false,"transit":false,"station_name":"Tanah Abang","time":6,"distance":3191,"i_lat":-6.185545,"station_id":"THB"}]]}