{"data":[[{"transit":false,"time":0,"i_long":106.728916,"line":6,"station_id":"JMU","station_name":"Jurangmangu","distance":0,"is_transit":false,"i_lat":-6.288927},{"line":6,"is_transit":false,"transit":false,"station_id":"SDM","distance":1994,"station_name":"Sudimara","time":4,"i_lat":-6.296963,"i_long":106.712277},{"distance":4566,"station_name":"Rawa Buntu","transit":false,"time":6,"i_long":106.675475,"i_lat":-6.314823,"line":6,"station_id":"RU","is_transit":false},{"i_lat":-6.319871,"station_name":"Serpong","line":6,"i_long":106.66566,"distance":2413,"station_id":"SRP","is_transit":false,"transit":false,"time":4},{"i_lat":-6.32484,"station_id":"CSK","time":4,"i_long":106.640411,"station_name":"Cisauk","distance":1784,"transit":false,"is_transit":false,"line":0},{"transit":false,"station_name":"Cicayur","i_lat":-6.329547,"distance":2519,"station_id":"CC","is_transit":false,"line":0,"i_long":106.617853,"time":4},{"distance":5968,"is_transit":false,"station_id":"PRP","i_lat":-6.3441410000000005,"time":8,"transit":false,"i_long":106.568863,"station_name":"Parung Panjang","line":6},{"transit":false,"i_lat":-6.354349,"station_name":"Cilejit","distance":7025,"i_long":106.508482,"is_transit":false,"line":0,"time":9,"station_id":"CJT"},{"distance":2675,"time":6,"station_name":"Daru","transit":false,"i_lat":-6.338021,"is_transit":false,"i_long":106.491338,"station_id":"DAR","line":0},{"transit":false,"time":5,"i_long":106.460812,"i_lat":-6.327251,"station_name":"Tenjo","line":6,"station_id":"TEJ","is_transit":false,"distance":3902},{"station_id":"TGS","transit":false,"distance":2974,"station_name":"Tigaraksa","i_long":106.425991,"line":6,"is_transit":false,"time":5,"i_lat":-6.328533},{"station_id":"CKY","time":3,"i_long":106.411216,"station_name":"Cikoya","transit":false,"line":0,"is_transit":false,"distance":2651,"i_lat":-6.33561},{"i_long":106.394373,"transit":false,"i_lat":-6.332307,"is_transit":false,"station_id":"MJ","distance":1853,"time":4,"line":6,"station_name":"Maja"}]]}