{"data":[[{"line":6,"station_name":"Jurangmangu","i_lat":-6.288927,"is_transit":false,"time":0,"i_long":106.728916,"distance":0,"transit":false,"station_id":"JMU"},{"station_id":"SDM","transit":false,"i_long":106.712277,"time":4,"is_transit":false,"line":6,"station_name":"Sudimara","i_lat":-6.296963,"distance":1994},{"station_id":"RU","distance":4566,"transit":false,"time":6,"line":6,"is_transit":false,"station_name":"Rawa Buntu","i_lat":-6.314823,"i_long":106.675475},{"station_id":"SRP","i_long":106.66566,"distance":2413,"line":6,"time":4,"station_name":"Serpong","transit":false,"i_lat":-6.319871,"is_transit":false},{"i_lat":-6.32484,"is_transit":false,"line":3,"station_id":"CSK","station_name":"Cisauk","transit":false,"distance":1784,"time":4,"i_long":106.640411},{"line":3,"distance":2519,"transit":false,"station_id":"CC","station_name":"Cicayur","i_lat":-6.329547,"is_transit":false,"time":4,"i_long":106.617853},{"i_lat":-6.3441410000000005,"transit":false,"is_transit":false,"station_id":"PRP","distance":5968,"i_long":106.568863,"time":8,"line":6,"station_name":"Parung Panjang"},{"station_name":"Cilejit","line":3,"i_lat":-6.354349,"i_long":106.508482,"transit":false,"is_transit":false,"station_id":"CJT","distance":7025,"time":9},{"distance":2675,"is_transit":false,"transit":false,"i_lat":-6.338021,"station_id":"DAR","station_name":"Daru","i_long":106.491338,"time":6,"line":0},{"i_long":106.460812,"transit":false,"time":5,"station_id":"TEJ","i_lat":-6.327251,"station_name":"Tenjo","is_transit":false,"distance":3902,"line":6},{"station_name":"Tigaraksa","is_transit":false,"line":6,"distance":2974,"time":5,"i_lat":-6.328533,"station_id":"TGS","i_long":106.425991,"transit":false},{"i_lat":-6.33561,"time":3,"i_long":106.411216,"line":3,"distance":2651,"transit":false,"station_id":"CKY","station_name":"Cikoya","is_transit":false},{"i_long":106.394373,"line":6,"time":4,"transit":false,"station_id":"MJ","distance":1853,"is_transit":false,"i_lat":-6.332307,"station_name":"Maja"}]]}