{"data":[[{"station_name":"Jurangmangu","is_transit":false,"time":0,"i_long":106.728916,"line":6,"station_id":"JMU","distance":0,"transit":false,"i_lat":-6.288927},{"station_id":"SDM","time":4,"transit":false,"i_lat":-6.296963,"line":6,"i_long":106.712277,"station_name":"Sudimara","distance":1994,"is_transit":false},{"distance":4566,"is_transit":false,"transit":false,"station_name":"Rawa Buntu","station_id":"RU","i_lat":-6.314823,"line":6,"time":6,"i_long":106.675475},{"station_name":"Serpong","station_id":"SRP","is_transit":false,"distance":2413,"line":6,"i_long":106.66566,"i_lat":-6.319871,"time":4,"transit":false},{"i_lat":-6.32484,"is_transit":false,"line":0,"distance":1784,"station_name":"Cisauk","time":4,"transit":false,"i_long":106.640411,"station_id":"CSK"},{"station_id":"CC","is_transit":false,"distance":2519,"transit":false,"i_long":106.617853,"station_name":"Cicayur","i_lat":-6.329547,"line":0,"time":4},{"time":8,"transit":false,"is_transit":false,"distance":5968,"i_long":106.568863,"station_name":"Parung Panjang","line":6,"i_lat":-6.3441410000000005,"station_id":"PRP"},{"distance":7025,"i_lat":-6.354349,"is_transit":false,"station_id":"CJT","line":0,"station_name":"Cilejit","time":9,"transit":false,"i_long":106.508482},{"is_transit":false,"distance":2675,"line":0,"time":6,"station_id":"DAR","transit":false,"i_long":106.491338,"station_name":"Daru","i_lat":-6.338021},{"i_lat":-6.327251,"time":5,"i_long":106.460812,"station_id":"TEJ","distance":3902,"transit":false,"line":6,"station_name":"Tenjo","is_transit":false},{"i_long":106.425991,"station_name":"Tigaraksa","line":6,"is_transit":false,"i_lat":-6.328533,"station_id":"TGS","distance":2974,"transit":false,"time":5}]]}