{"data":[[{"transit":false,"time":0,"station_name":"Jurangmangu","station_id":"JMU","is_transit":false,"i_lat":-6.288927,"i_long":106.728916,"line":6,"distance":0},{"distance":2179,"time":3,"transit":false,"station_id":"PDJ","i_long":106.74273,"station_name":"Pondokranji","is_transit":false,"line":6,"i_lat":-6.276362},{"transit":false,"i_long":106.780334,"line":6,"time":8,"station_id":"KBY","i_lat":-6.237242,"distance":6218,"is_transit":false,"station_name":"Kebayoran"},{"time":7,"is_transit":false,"distance":3737,"i_long":106.79689,"line":6,"station_name":"Palmerah","station_id":"PLM","transit":false,"i_lat":-6.207404},{"line":1,"i_lat":-6.185545,"i_long":106.811091,"time":6,"distance":3191,"is_transit":true,"transit":true,"station_id":"THB","station_name":"Tanah Abang"},{"transit":false,"distance":3632,"station_id":"DU","i_long":106.800832,"station_name":"Duri","is_transit":false,"i_lat":-6.155215,"time":8,"line":1},{"i_lat":-6.144674,"distance":1230,"line":1,"station_id":"AK","time":4,"station_name":"Angke","is_transit":false,"transit":false,"i_long":106.79867},{"distance":4102,"i_lat":-6.132549,"station_name":"Kampung Bandan","station_id":"KPB","line":4,"time":9,"i_long":106.826365,"transit":true,"is_transit":true},{"i_long":106.84464,"transit":false,"i_lat":-6.128023,"station_id":"AC","line":4,"distance":2185,"time":4,"station_name":"Ancol","is_transit":false}],[{"distance":0,"station_id":"JMU","station_name":"Jurangmangu","is_transit":false,"i_long":106.728916,"i_lat":-6.288927,"time":0,"line":6,"transit":false},{"i_long":106.74273,"i_lat":-6.276362,"station_name":"Pondokranji","station_id":"PDJ","is_transit":false,"transit":false,"distance":2179,"time":3,"line":6},{"is_transit":false,"i_lat":-6.237242,"line":6,"station_id":"KBY","transit":false,"station_name":"Kebayoran","time":8,"distance":6218,"i_long":106.780334},{"station_name":"Palmerah","is_transit":false,"transit":false,"line":6,"i_lat":-6.207404,"time":7,"distance":3737,"i_long":106.79689,"station_id":"PLM"},{"i_lat":-6.185545,"station_id":"THB","distance":3191,"transit":true,"station_name":"Tanah Abang","line":1,"time":6,"is_transit":true,"i_long":106.811091},{"distance":2029,"station_name":"Karet","line":1,"time":5,"transit":false,"i_long":106.816351,"i_lat":-6.20132,"station_id":"KAT","is_transit":false},{"time":1,"distance":471,"i_lat":-6.201433,"transit":false,"i_long":106.819881,"station_name":"Sudirman Baru","is_transit":false,"station_id":"SUDB","line":1},{"distance":280,"is_transit":false,"station_name":"Sudirman","i_lat":-6.202263,"transit":false,"time":1,"station_id":"SUD","line":1,"i_long":106.822649},{"time":4,"is_transit":true,"i_long":106.84912,"distance":3186,"station_id":"MRI","line":2,"transit":true,"station_name":"Manggarai","i_lat":-6.209883},{"line":2,"time":4,"station_name":"Cikini","station_id":"CKI","is_transit":false,"distance":1590,"transit":false,"i_long":106.840169,"i_lat":-6.198556},{"is_transit":false,"distance":1750,"station_name":"Gondangdia","i_lat":-6.186295,"time":3,"line":2,"station_id":"GDD","i_long":106.832183,"transit":false},{"transit":false,"line":2,"distance":2015,"station_name":"Juanda","i_lat":-6.166716,"i_long":106.828284,"time":4,"station_id":"JUA","is_transit":false},{"distance":1149,"station_name":"Sawah Besar","time":2,"line":2,"station_id":"SW","i_lat":-6.160725,"is_transit":false,"transit":false,"i_long":106.827103},{"transit":false,"line":2,"station_id":"MGB","time":2,"is_transit":false,"i_long":106.82482,"station_name":"Manggabesar","distance":906,"i_lat":-6.149769},{"i_lat":-6.141205,"i_long":106.820901,"line":2,"station_id":"JAY","station_name":"Jayakarta","distance":1080,"time":2,"is_transit":false,"transit":false},{"is_transit":true,"station_name":"Jakarta Kota","time":4,"distance":1264,"i_lat":-6.137569,"station_id":"JAKK","transit":true,"line":2,"i_long":106.812439},{"station_id":"KPB","line":4,"transit":true,"i_lat":-6.132549,"time":3,"i_long":106.826365,"station_name":"Kampung Bandan","is_transit":true,"distance":1364},{"time":4,"station_id":"AC","transit":false,"i_lat":-6.128023,"line":4,"station_name":"Ancol","is_transit":false,"distance":2185,"i_long":106.84464}],[{"transit":false,"time":0,"station_name":"Jurangmangu","line":6,"station_id":"JMU","distance":0,"i_long":106.728916,"is_transit":false,"i_lat":-6.288927},{"station_id":"PDJ","is_transit":false,"station_name":"Pondokranji","distance":2179,"time":3,"transit":false,"i_lat":-6.276362,"i_long":106.74273,"line":6},{"line":6,"time":8,"distance":6218,"is_transit":false,"transit":false,"station_name":"Kebayoran","station_id":"KBY","i_lat":-6.237242,"i_long":106.780334},{"i_lat":-6.207404,"line":6,"station_id":"PLM","transit":false,"i_long":106.79689,"station_name":"Palmerah","is_transit":false,"time":7,"distance":3737},{"i_lat":-6.185545,"i_long":106.811091,"time":6,"station_name":"Tanah Abang","line":1,"station_id":"THB","transit":true,"is_transit":true,"distance":3191},{"line":1,"i_long":106.816351,"is_transit":false,"i_lat":-6.20132,"station_id":"KAT","station_name":"Karet","transit":false,"distance":2029,"time":5},{"distance":471,"is_transit":false,"time":1,"i_long":106.819881,"i_lat":-6.201433,"transit":false,"station_id":"SUDB","line":1,"station_name":"Sudirman Baru"},{"station_name":"Sudirman","transit":false,"is_transit":false,"station_id":"SUD","i_long":106.822649,"line":1,"time":1,"i_lat":-6.202263,"distance":280},{"i_long":106.84912,"transit":false,"i_lat":-6.209883,"station_name":"Manggarai","is_transit":false,"distance":3186,"line":2,"time":4,"station_id":"MRI"},{"i_long":106.858896,"is_transit":false,"distance":1275,"transit":false,"station_id":"MTR","station_name":"Matraman","line":1,"time":2,"i_lat":-6.212485},{"time":8,"line":1,"distance":1377,"station_id":"JNG","i_lat":-6.215091,"is_transit":true,"transit":true,"i_long":106.86807400000001,"station_name":"Jatinegara"},{"distance":1236,"line":11,"transit":false,"is_transit":false,"station_name":"Pondok Jati","station_id":"POK","i_lat":-6.209188,"i_long":106.861737,"time":2},{"station_id":"KMT","distance":1829,"station_name":"Kramat","is_transit":false,"i_lat":-6.193792,"time":2,"i_long":106.855437,"transit":false,"line":11},{"is_transit":false,"line":11,"transit":false,"station_name":"Gang Sentiong","i_long":106.850107,"time":1,"distance":973,"station_id":"GST","i_lat":-6.185975},{"is_transit":false,"station_name":"Pasar Senen","station_id":"PSE","distance":1567,"time":8,"i_lat":-6.174784,"line":11,"transit":false,"i_long":106.84368},{"distance":1436,"station_name":"Kemayoran","transit":false,"line":11,"i_long":106.839204,"i_lat":-6.161728,"is_transit":false,"station_id":"KMO","time":4},{"station_id":"RJW","i_long":106.836569,"line":11,"station_name":"Rajawali","distance":1901,"transit":false,"time":5,"i_lat":-6.14505,"is_transit":false},{"station_id":"KPB","distance":1444,"i_long":106.826365,"line":4,"transit":true,"time":3,"is_transit":true,"station_name":"Kampung Bandan","i_lat":-6.132549},{"is_transit":false,"i_long":106.84464,"line":4,"station_name":"Ancol","transit":false,"time":4,"station_id":"AC","distance":2185,"i_lat":-6.128023}]]}