{"data":[[{"time":0,"i_lat":-6.288927,"i_long":106.728916,"is_transit":false,"transit":false,"station_name":"Jurangmangu","line":6,"distance":0,"station_id":"JMU"},{"station_id":"PDJ","line":6,"is_transit":false,"distance":2179,"time":3,"station_name":"Pondokranji","i_lat":-6.276362,"i_long":106.74273,"transit":false},{"distance":6218,"line":6,"station_name":"Kebayoran","i_long":106.780334,"transit":false,"time":8,"i_lat":-6.237242,"is_transit":false,"station_id":"KBY"},{"i_long":106.79689,"i_lat":-6.207404,"station_id":"PLM","station_name":"Palmerah","distance":3737,"time":7,"line":6,"is_transit":false,"transit":false},{"is_transit":true,"transit":true,"station_name":"Tanah Abang","distance":3191,"i_long":106.811091,"line":1,"station_id":"THB","i_lat":-6.185545,"time":6},{"station_id":"KAT","line":1,"station_name":"Karet","is_transit":false,"time":5,"distance":2029,"i_long":106.816351,"transit":false,"i_lat":-6.20132},{"i_long":106.819881,"line":1,"distance":471,"station_id":"SUDB","station_name":"Sudirman Baru","transit":false,"is_transit":false,"time":1,"i_lat":-6.201433},{"station_name":"Sudirman","line":1,"station_id":"SUD","is_transit":false,"transit":false,"time":1,"distance":280,"i_long":106.822649,"i_lat":-6.202263},{"transit":true,"i_long":106.84912,"station_id":"MRI","time":4,"distance":3186,"is_transit":true,"station_name":"Manggarai","i_lat":-6.209883,"line":2},{"time":4,"i_lat":-6.226659,"i_long":106.857948,"station_id":"TEB","station_name":"Tebet","distance":2610,"line":2,"is_transit":false,"transit":false},{"i_long":106.856607,"station_id":"CW","distance":1230,"line":2,"time":2,"is_transit":false,"transit":false,"i_lat":-6.242512,"station_name":"Cawang"}],[{"station_id":"JMU","is_transit":false,"transit":false,"station_name":"Jurangmangu","line":6,"i_long":106.728916,"distance":0,"time":0,"i_lat":-6.288927},{"line":6,"time":3,"transit":false,"station_name":"Pondokranji","distance":2179,"i_lat":-6.276362,"station_id":"PDJ","is_transit":false,"i_long":106.74273},{"line":6,"distance":6218,"station_name":"Kebayoran","station_id":"KBY","is_transit":false,"time":8,"i_lat":-6.237242,"i_long":106.780334,"transit":false},{"i_long":106.79689,"transit":false,"station_id":"PLM","distance":3737,"i_lat":-6.207404,"is_transit":false,"time":7,"line":6,"station_name":"Palmerah"},{"i_long":106.811091,"transit":true,"time":6,"line":1,"station_id":"THB","is_transit":true,"station_name":"Tanah Abang","distance":3191,"i_lat":-6.185545},{"i_lat":-6.155215,"line":1,"station_name":"Duri","i_long":106.800832,"time":8,"station_id":"DU","is_transit":false,"transit":false,"distance":3632},{"i_long":106.79867,"time":4,"transit":false,"i_lat":-6.144674,"line":1,"is_transit":false,"distance":1230,"station_id":"AK","station_name":"Angke"},{"line":4,"is_transit":true,"station_id":"KPB","distance":4102,"transit":true,"time":9,"i_lat":-6.132549,"i_long":106.826365,"station_name":"Kampung Bandan"},{"is_transit":true,"distance":1364,"i_lat":-6.137569,"station_name":"Jakarta Kota","station_id":"JAKK","transit":true,"time":3,"i_long":106.812439,"line":2},{"time":4,"i_long":106.820901,"transit":false,"station_id":"JAY","station_name":"Jayakarta","distance":1264,"i_lat":-6.141205,"line":2,"is_transit":false},{"station_name":"Manggabesar","transit":false,"station_id":"MGB","distance":1080,"time":2,"line":2,"is_transit":false,"i_lat":-6.149769,"i_long":106.82482},{"i_lat":-6.160725,"is_transit":false,"line":2,"time":2,"distance":906,"transit":false,"i_long":106.827103,"station_id":"SW","station_name":"Sawah Besar"},{"time":2,"i_lat":-6.166716,"transit":false,"is_transit":false,"distance":1149,"i_long":106.828284,"station_name":"Juanda","line":2,"station_id":"JUA"},{"station_name":"Gondangdia","is_transit":false,"line":2,"transit":false,"station_id":"GDD","distance":2015,"i_long":106.832183,"i_lat":-6.186295,"time":4},{"distance":1750,"station_id":"CKI","line":2,"i_lat":-6.198556,"i_long":106.840169,"station_name":"Cikini","is_transit":false,"time":3,"transit":false},{"distance":1590,"i_lat":-6.209883,"transit":false,"station_name":"Manggarai","station_id":"MRI","time":4,"i_long":106.84912,"is_transit":false,"line":2},{"is_transit":false,"station_id":"TEB","i_long":106.857948,"time":4,"transit":false,"line":2,"distance":2610,"station_name":"Tebet","i_lat":-6.226659},{"distance":1230,"is_transit":false,"line":2,"i_long":106.856607,"station_name":"Cawang","station_id":"CW","time":2,"transit":false,"i_lat":-6.242512}],[{"is_transit":false,"time":0,"distance":0,"station_name":"Jurangmangu","station_id":"JMU","i_long":106.728916,"line":6,"transit":false,"i_lat":-6.288927},{"i_long":106.74273,"transit":false,"station_name":"Pondokranji","distance":2179,"is_transit":false,"station_id":"PDJ","time":3,"i_lat":-6.276362,"line":6},{"is_transit":false,"station_name":"Kebayoran","station_id":"KBY","distance":6218,"i_long":106.780334,"time":8,"line":6,"i_lat":-6.237242,"transit":false},{"is_transit":false,"distance":3737,"i_long":106.79689,"transit":false,"station_id":"PLM","time":7,"i_lat":-6.207404,"line":6,"station_name":"Palmerah"},{"i_lat":-6.185545,"distance":3191,"transit":true,"station_name":"Tanah Abang","line":1,"i_long":106.811091,"time":6,"station_id":"THB","is_transit":true},{"station_name":"Duri","distance":3632,"i_long":106.800832,"time":8,"is_transit":false,"i_lat":-6.155215,"line":1,"station_id":"DU","transit":false},{"distance":1230,"i_lat":-6.144674,"i_long":106.79867,"line":1,"is_transit":false,"station_id":"AK","station_name":"Angke","transit":false,"time":4},{"distance":4102,"i_lat":-6.132549,"transit":true,"time":9,"is_transit":true,"i_long":106.826365,"station_id":"KPB","line":4,"station_name":"Kampung Bandan"},{"time":3,"is_transit":false,"i_lat":-6.14505,"line":11,"transit":false,"station_name":"Rajawali","station_id":"RJW","distance":1444,"i_long":106.836569},{"station_name":"Kemayoran","station_id":"KMO","distance":1901,"i_long":106.839204,"is_transit":false,"time":5,"line":11,"transit":false,"i_lat":-6.161728},{"time":4,"i_long":106.84368,"is_transit":false,"transit":false,"i_lat":-6.174784,"station_id":"PSE","distance":1436,"station_name":"Pasar Senen","line":11},{"is_transit":false,"distance":1567,"station_id":"GST","transit":false,"line":11,"station_name":"Gang Sentiong","time":8,"i_long":106.850107,"i_lat":-6.185975},{"distance":973,"time":1,"i_lat":-6.193792,"line":11,"transit":false,"is_transit":false,"station_id":"KMT","station_name":"Kramat","i_long":106.855437},{"station_id":"POK","station_name":"Pondok Jati","i_lat":-6.209188,"is_transit":false,"time":2,"transit":false,"distance":1829,"line":11,"i_long":106.861737},{"station_name":"Jatinegara","transit":true,"i_lat":-6.215091,"i_long":106.86807400000001,"station_id":"JNG","line":1,"distance":1236,"time":9,"is_transit":true},{"line":1,"station_id":"MTR","i_lat":-6.212485,"distance":1377,"i_long":106.858896,"is_transit":false,"time":2,"transit":false,"station_name":"Matraman"},{"i_long":106.84912,"transit":true,"line":2,"i_lat":-6.209883,"is_transit":true,"station_id":"MRI","distance":1275,"station_name":"Manggarai","time":2},{"transit":false,"line":2,"time":4,"station_id":"TEB","distance":2610,"is_transit":false,"i_lat":-6.226659,"i_long":106.857948,"station_name":"Tebet"},{"line":2,"is_transit":false,"distance":1230,"i_lat":-6.242512,"transit":false,"i_long":106.856607,"station_id":"CW","station_name":"Cawang","time":2}]]}