{"data":[[{"line":6,"distance":0,"station_id":"JMU","is_transit":false,"time":0,"transit":false,"i_long":106.728916,"i_lat":-6.288927,"station_name":"Jurangmangu"},{"station_name":"Pondokranji","i_long":106.74273,"line":6,"time":3,"distance":2179,"is_transit":false,"i_lat":-6.276362,"station_id":"PDJ","transit":false},{"i_lat":-6.237242,"is_transit":false,"station_name":"Kebayoran","distance":6218,"i_long":106.780334,"line":6,"transit":false,"station_id":"KBY","time":8},{"line":6,"i_lat":-6.207404,"i_long":106.79689,"station_id":"PLM","time":7,"station_name":"Palmerah","distance":3737,"is_transit":false,"transit":false},{"distance":3191,"station_name":"Tanah Abang","i_lat":-6.185545,"line":1,"is_transit":true,"transit":true,"time":6,"station_id":"THB","i_long":106.811091},{"is_transit":false,"i_long":106.800832,"line":1,"time":8,"distance":3632,"transit":false,"i_lat":-6.155215,"station_id":"DU","station_name":"Duri"},{"i_long":106.79867,"station_id":"AK","station_name":"Angke","is_transit":false,"i_lat":-6.144674,"time":4,"transit":false,"distance":1230,"line":1},{"station_id":"KPB","time":9,"distance":4102,"station_name":"Kampung Bandan","transit":true,"is_transit":true,"i_lat":-6.132549,"i_long":106.826365,"line":4},{"is_transit":false,"i_lat":-6.128023,"distance":2185,"station_name":"Ancol","time":4,"transit":false,"line":4,"station_id":"AC","i_long":106.84464}],[{"is_transit":false,"i_long":106.728916,"line":6,"station_name":"Jurangmangu","transit":false,"distance":0,"station_id":"JMU","time":0,"i_lat":-6.288927},{"station_name":"Pondokranji","is_transit":false,"distance":2179,"time":3,"i_lat":-6.276362,"i_long":106.74273,"line":6,"transit":false,"station_id":"PDJ"},{"transit":false,"line":6,"time":8,"station_id":"KBY","is_transit":false,"distance":6218,"i_lat":-6.237242,"i_long":106.780334,"station_name":"Kebayoran"},{"station_id":"PLM","station_name":"Palmerah","time":7,"i_lat":-6.207404,"is_transit":false,"i_long":106.79689,"transit":false,"line":6,"distance":3737},{"distance":3191,"time":6,"i_lat":-6.185545,"station_id":"THB","i_long":106.811091,"is_transit":true,"transit":true,"station_name":"Tanah Abang","line":1},{"transit":false,"distance":2029,"i_long":106.816351,"is_transit":false,"station_name":"Karet","station_id":"KAT","time":5,"i_lat":-6.20132,"line":1},{"transit":false,"i_long":106.819881,"i_lat":-6.201433,"time":1,"distance":471,"line":1,"station_name":"Sudirman Baru","station_id":"SUDB","is_transit":false},{"time":1,"station_id":"SUD","distance":280,"line":1,"i_long":106.822649,"is_transit":false,"transit":false,"i_lat":-6.202263,"station_name":"Sudirman"},{"line":2,"distance":3186,"i_long":106.84912,"i_lat":-6.209883,"time":4,"transit":true,"station_id":"MRI","is_transit":true,"station_name":"Manggarai"},{"transit":false,"is_transit":false,"i_lat":-6.198556,"i_long":106.840169,"line":2,"station_name":"Cikini","time":4,"station_id":"CKI","distance":1590},{"i_long":106.832183,"time":3,"line":2,"i_lat":-6.186295,"is_transit":false,"station_name":"Gondangdia","distance":1750,"station_id":"GDD","transit":false},{"station_name":"Juanda","i_lat":-6.166716,"is_transit":false,"line":2,"transit":false,"time":4,"station_id":"JUA","i_long":106.828284,"distance":2015},{"is_transit":false,"station_name":"Sawah Besar","time":2,"i_lat":-6.160725,"station_id":"SW","distance":1149,"i_long":106.827103,"line":2,"transit":false},{"time":2,"station_id":"MGB","distance":906,"transit":false,"i_lat":-6.149769,"line":2,"station_name":"Manggabesar","i_long":106.82482,"is_transit":false},{"station_id":"JAY","station_name":"Jayakarta","i_lat":-6.141205,"line":2,"is_transit":false,"distance":1080,"i_long":106.820901,"time":2,"transit":false},{"transit":true,"i_lat":-6.137569,"line":2,"distance":1264,"i_long":106.812439,"station_id":"JAKK","is_transit":true,"time":4,"station_name":"Jakarta Kota"},{"transit":true,"distance":1364,"station_name":"Kampung Bandan","is_transit":true,"i_long":106.826365,"line":4,"time":3,"station_id":"KPB","i_lat":-6.132549},{"i_lat":-6.128023,"is_transit":false,"line":4,"transit":false,"station_id":"AC","time":4,"distance":2185,"station_name":"Ancol","i_long":106.84464}],[{"line":6,"i_lat":-6.288927,"station_id":"JMU","is_transit":false,"transit":false,"i_long":106.728916,"distance":0,"time":0,"station_name":"Jurangmangu"},{"is_transit":false,"transit":false,"station_name":"Pondokranji","station_id":"PDJ","i_lat":-6.276362,"distance":2179,"i_long":106.74273,"line":6,"time":3},{"transit":false,"is_transit":false,"time":8,"line":6,"station_name":"Kebayoran","i_lat":-6.237242,"station_id":"KBY","i_long":106.780334,"distance":6218},{"transit":false,"line":6,"station_id":"PLM","is_transit":false,"time":7,"distance":3737,"i_lat":-6.207404,"i_long":106.79689,"station_name":"Palmerah"},{"station_name":"Tanah Abang","line":1,"time":6,"i_lat":-6.185545,"i_long":106.811091,"station_id":"THB","distance":3191,"transit":true,"is_transit":true},{"transit":false,"time":5,"distance":2029,"station_name":"Karet","is_transit":false,"line":1,"station_id":"KAT","i_long":106.816351,"i_lat":-6.20132},{"station_id":"SUDB","transit":false,"line":1,"i_long":106.819881,"is_transit":false,"i_lat":-6.201433,"distance":471,"time":1,"station_name":"Sudirman Baru"},{"station_id":"SUD","station_name":"Sudirman","transit":false,"i_lat":-6.202263,"i_long":106.822649,"distance":280,"time":1,"line":1,"is_transit":false},{"i_lat":-6.209883,"distance":3186,"transit":false,"time":4,"is_transit":false,"line":2,"station_id":"MRI","station_name":"Manggarai","i_long":106.84912},{"transit":false,"station_id":"MTR","time":2,"i_long":106.858896,"line":1,"is_transit":false,"distance":1275,"station_name":"Matraman","i_lat":-6.212485},{"is_transit":true,"time":8,"transit":true,"i_lat":-6.215091,"station_name":"Jatinegara","distance":1377,"line":1,"i_long":106.86807400000001,"station_id":"JNG"},{"i_long":106.861737,"transit":false,"time":2,"distance":1236,"station_id":"POK","is_transit":false,"station_name":"Pondok Jati","line":11,"i_lat":-6.209188},{"distance":1829,"time":2,"transit":false,"station_name":"Kramat","is_transit":false,"i_lat":-6.193792,"i_long":106.855437,"station_id":"KMT","line":11},{"line":11,"distance":973,"i_long":106.850107,"station_name":"Gang Sentiong","is_transit":false,"i_lat":-6.185975,"station_id":"GST","transit":false,"time":1},{"is_transit":false,"i_lat":-6.174784,"distance":1567,"transit":false,"time":8,"station_id":"PSE","station_name":"Pasar Senen","i_long":106.84368,"line":11},{"i_lat":-6.161728,"line":11,"station_name":"Kemayoran","i_long":106.839204,"is_transit":false,"distance":1436,"transit":false,"time":4,"station_id":"KMO"},{"time":5,"distance":1901,"transit":false,"i_lat":-6.14505,"is_transit":false,"station_name":"Rajawali","station_id":"RJW","i_long":106.836569,"line":11},{"time":3,"station_name":"Kampung Bandan","distance":1444,"is_transit":true,"i_lat":-6.132549,"i_long":106.826365,"transit":true,"station_id":"KPB","line":4},{"line":4,"transit":false,"is_transit":false,"i_lat":-6.128023,"distance":2185,"time":4,"i_long":106.84464,"station_name":"Ancol","station_id":"AC"}]]}