{"data":[[{"distance":0,"line":6,"i_lat":-6.288927,"time":0,"is_transit":false,"i_long":106.728916,"station_name":"Jurangmangu","transit":false,"station_id":"JMU"},{"transit":false,"i_lat":-6.296963,"station_name":"Sudimara","i_long":106.712277,"station_id":"SDM","is_transit":false,"time":4,"distance":1994,"line":6},{"time":6,"station_name":"Rawa Buntu","transit":false,"station_id":"RU","i_lat":-6.314823,"line":6,"is_transit":false,"i_long":106.675475,"distance":4566},{"time":4,"distance":2413,"station_name":"Serpong","transit":false,"is_transit":false,"i_lat":-6.319871,"line":6,"i_long":106.66566,"station_id":"SRP"},{"distance":1784,"station_name":"Cisauk","transit":false,"station_id":"CSK","time":4,"i_lat":-6.32484,"is_transit":false,"line":3,"i_long":106.640411},{"transit":false,"station_id":"CC","line":3,"time":4,"station_name":"Cicayur","i_lat":-6.329547,"i_long":106.617853,"distance":2519,"is_transit":false},{"station_id":"PRP","distance":5968,"is_transit":false,"time":8,"i_long":106.568863,"transit":false,"line":6,"station_name":"Parung Panjang","i_lat":-6.3441410000000005},{"station_name":"Cilejit","distance":7025,"i_lat":-6.354349,"time":9,"i_long":106.508482,"line":3,"is_transit":false,"transit":false,"station_id":"CJT"},{"time":6,"distance":2675,"is_transit":false,"transit":false,"line":0,"i_lat":-6.338021,"i_long":106.491338,"station_id":"DAR","station_name":"Daru"},{"is_transit":false,"station_name":"Tenjo","station_id":"TEJ","transit":false,"i_long":106.460812,"line":6,"time":5,"distance":3902,"i_lat":-6.327251},{"is_transit":false,"time":5,"station_id":"TGS","transit":false,"i_long":106.425991,"distance":2974,"station_name":"Tigaraksa","line":6,"i_lat":-6.328533},{"distance":2651,"station_id":"CKY","station_name":"Cikoya","i_lat":-6.33561,"i_long":106.411216,"line":3,"is_transit":false,"time":3,"transit":false},{"time":4,"station_id":"MJ","line":6,"station_name":"Maja","transit":false,"is_transit":false,"i_long":106.394373,"distance":1853,"i_lat":-6.332307},{"transit":false,"distance":7293,"is_transit":false,"station_id":"CTR","i_lat":-6.334892,"i_long":106.332092,"line":3,"time":10,"station_name":"Citeras"},{"transit":false,"station_id":"RK","line":3,"time":13,"distance":9847,"station_name":"Rangkasbitung","is_transit":false,"i_long":106.250396,"i_lat":-6.352675}]]}