{"data":[[{"i_lat":-6.288927,"i_long":106.728916,"transit":false,"station_name":"Jurangmangu","line":6,"station_id":"JMU","time":0,"is_transit":false,"distance":0},{"station_name":"Sudimara","time":4,"transit":false,"i_lat":-6.296963,"is_transit":false,"line":6,"distance":1994,"station_id":"SDM","i_long":106.712277},{"station_id":"RU","i_lat":-6.314823,"line":6,"distance":4566,"is_transit":false,"transit":false,"i_long":106.675475,"station_name":"Rawa Buntu","time":6},{"i_lat":-6.319871,"line":6,"transit":false,"station_name":"Serpong","distance":2413,"station_id":"SRP","i_long":106.66566,"is_transit":false,"time":4},{"distance":1784,"station_id":"CSK","i_long":106.640411,"transit":false,"is_transit":false,"line":3,"time":4,"station_name":"Cisauk","i_lat":-6.32484},{"time":4,"i_lat":-6.329547,"distance":2519,"station_name":"Cicayur","is_transit":false,"transit":false,"i_long":106.617853,"line":3,"station_id":"CC"},{"time":8,"station_id":"PRP","i_long":106.568863,"distance":5968,"station_name":"Parung Panjang","line":6,"i_lat":-6.3441410000000005,"transit":false,"is_transit":false},{"i_lat":-6.354349,"distance":7025,"i_long":106.508482,"station_name":"Cilejit","is_transit":false,"line":3,"transit":false,"time":9,"station_id":"CJT"},{"time":6,"distance":2675,"station_id":"DAR","transit":false,"station_name":"Daru","i_long":106.491338,"is_transit":false,"i_lat":-6.338021,"line":0},{"is_transit":false,"i_long":106.460812,"i_lat":-6.327251,"distance":3902,"line":6,"station_name":"Tenjo","station_id":"TEJ","time":5,"transit":false},{"i_long":106.425991,"line":6,"transit":false,"i_lat":-6.328533,"station_name":"Tigaraksa","station_id":"TGS","is_transit":false,"distance":2974,"time":5},{"line":3,"station_name":"Cikoya","i_lat":-6.33561,"distance":2651,"transit":false,"time":3,"station_id":"CKY","i_long":106.411216,"is_transit":false},{"i_lat":-6.332307,"station_name":"Maja","transit":false,"distance":1853,"i_long":106.394373,"is_transit":false,"time":4,"station_id":"MJ","line":6},{"distance":7293,"line":3,"is_transit":false,"i_lat":-6.334892,"i_long":106.332092,"station_id":"CTR","station_name":"Citeras","time":10,"transit":false}]]}