{"data":[[{"time":0,"station_name":"Jurangmangu","is_transit":false,"transit":false,"i_lat":-6.288927,"station_id":"JMU","distance":0,"i_long":106.728916,"line":6},{"station_id":"PDJ","i_long":106.74273,"line":6,"i_lat":-6.276362,"time":3,"transit":false,"is_transit":false,"distance":2179,"station_name":"Pondokranji"},{"is_transit":false,"station_name":"Kebayoran","time":8,"distance":6218,"i_lat":-6.237242,"transit":false,"i_long":106.780334,"station_id":"KBY","line":6},{"is_transit":false,"time":7,"station_name":"Palmerah","distance":3737,"i_lat":-6.207404,"line":6,"i_long":106.79689,"station_id":"PLM","transit":false},{"i_lat":-6.185545,"is_transit":true,"line":1,"station_id":"THB","distance":3191,"station_name":"Tanah Abang","i_long":106.811091,"time":6,"transit":true},{"i_long":106.816351,"line":1,"is_transit":false,"time":5,"i_lat":-6.20132,"station_id":"KAT","transit":false,"station_name":"Karet","distance":2029},{"station_name":"Sudirman Baru","line":1,"time":1,"distance":471,"transit":false,"i_lat":-6.201433,"is_transit":false,"i_long":106.819881,"station_id":"SUDB"},{"i_lat":-6.202263,"is_transit":false,"distance":280,"time":1,"i_long":106.822649,"station_id":"SUD","transit":false,"station_name":"Sudirman","line":1},{"i_lat":-6.209883,"is_transit":true,"distance":3186,"line":0,"transit":true,"station_id":"MRI","station_name":"Manggarai","time":4,"i_long":106.84912},{"station_name":"Tebet","distance":2610,"station_id":"TEB","i_long":106.857948,"transit":false,"line":2,"i_lat":-6.226659,"time":4,"is_transit":false},{"distance":1230,"i_long":106.856607,"station_name":"Cawang","i_lat":-6.242512,"station_id":"CW","is_transit":false,"time":2,"line":0,"transit":false},{"transit":false,"i_lat":-6.255332,"i_long":106.85449,"distance":1546,"is_transit":false,"time":3,"station_id":"DRN","line":0,"station_name":"Duren Kalibata"},{"i_long":106.851577,"distance":824,"station_id":"PSMB","is_transit":false,"transit":false,"i_lat":-6.263214,"line":2,"time":2,"station_name":"Pasar Minggu Baru"},{"distance":2380,"transit":false,"station_name":"Pasar Minggu","i_long":106.843999,"is_transit":false,"time":2,"i_lat":-6.2842400000000005,"line":2,"station_id":"PSM"},{"station_name":"Tanjung Barat","transit":false,"i_lat":-6.3080680000000005,"i_long":106.838896,"line":2,"distance":2820,"time":4,"station_id":"TNT","is_transit":false},{"transit":false,"i_lat":-6.330363,"i_long":106.832616,"time":3,"is_transit":false,"distance":2671,"station_id":"LNA","station_name":"Lenteng Agung","line":2},{"i_lat":-6.339291,"station_id":"UP","station_name":"Univ. Pancasila","line":2,"time":2,"is_transit":false,"distance":1029,"i_long":106.834175,"transit":false},{"station_name":"Univ. Indonesia","station_id":"UI","distance":2264,"transit":false,"time":3,"line":2,"is_transit":false,"i_long":106.831474,"i_lat":-6.360749},{"is_transit":false,"station_id":"POC","i_long":106.831114,"time":2,"distance":1109,"line":2,"station_name":"Pondok Cina","transit":false,"i_lat":-6.369073},{"transit":false,"is_transit":false,"time":4,"i_long":106.819451,"distance":2727,"line":0,"station_name":"Depokbaru","station_id":"DPB","i_lat":-6.391065}],[{"time":0,"i_lat":-6.288927,"line":6,"station_id":"JMU","i_long":106.728916,"is_transit":false,"distance":0,"transit":false,"station_name":"Jurangmangu"},{"station_id":"PDJ","station_name":"Pondokranji","distance":2179,"is_transit":false,"i_lat":-6.276362,"i_long":106.74273,"line":6,"time":3,"transit":false},{"is_transit":false,"time":8,"line":6,"distance":6218,"transit":false,"station_id":"KBY","station_name":"Kebayoran","i_lat":-6.237242,"i_long":106.780334},{"distance":3737,"station_name":"Palmerah","is_transit":false,"time":7,"i_long":106.79689,"i_lat":-6.207404,"transit":false,"station_id":"PLM","line":6},{"is_transit":true,"station_id":"THB","i_long":106.811091,"station_name":"Tanah Abang","time":6,"i_lat":-6.185545,"transit":true,"line":1,"distance":3191},{"i_long":106.800832,"station_name":"Duri","time":8,"transit":true,"station_id":"DU","is_transit":true,"i_lat":-6.155215,"line":1,"distance":3632},{"distance":1230,"i_long":106.79867,"station_id":"AK","line":0,"i_lat":-6.144674,"is_transit":false,"transit":false,"station_name":"Angke","time":4},{"transit":false,"i_lat":-6.132549,"line":0,"i_long":106.826365,"time":9,"station_id":"KPB","is_transit":true,"station_name":"Kampung Bandan","distance":4102},{"station_id":"JAKK","i_lat":-6.137569,"line":0,"station_name":"Jakarta Kota","time":3,"transit":true,"distance":1364,"is_transit":true,"i_long":106.812439},{"time":4,"station_name":"Jayakarta","i_lat":-6.141205,"is_transit":false,"i_long":106.820901,"distance":1264,"transit":false,"station_id":"JAY","line":7},{"time":2,"i_lat":-6.149769,"line":2,"distance":1080,"is_transit":false,"i_long":106.82482,"transit":false,"station_id":"MGB","station_name":"Manggabesar"},{"station_name":"Sawah Besar","time":2,"distance":906,"station_id":"SW","i_lat":-6.160725,"is_transit":false,"transit":false,"i_long":106.827103,"line":2},{"station_id":"JUA","distance":1149,"line":2,"station_name":"Juanda","is_transit":false,"i_lat":-6.166716,"i_long":106.828284,"time":2,"transit":false},{"transit":false,"time":4,"i_lat":-6.186295,"line":2,"station_id":"GDD","i_long":106.832183,"is_transit":false,"station_name":"Gondangdia","distance":2015},{"time":3,"i_long":106.840169,"transit":false,"line":0,"station_name":"Cikini","is_transit":false,"distance":1750,"station_id":"CKI","i_lat":-6.198556},{"station_name":"Manggarai","station_id":"MRI","time":4,"transit":true,"i_long":106.84912,"i_lat":-6.209883,"line":0,"is_transit":true,"distance":1590},{"transit":false,"station_id":"TEB","i_lat":-6.226659,"time":4,"i_long":106.857948,"station_name":"Tebet","line":2,"distance":2610,"is_transit":false},{"time":2,"is_transit":false,"transit":false,"i_long":106.856607,"line":0,"station_name":"Cawang","distance":1230,"i_lat":-6.242512,"station_id":"CW"},{"time":3,"i_lat":-6.255332,"line":0,"station_name":"Duren Kalibata","is_transit":false,"distance":1546,"transit":false,"i_long":106.85449,"station_id":"DRN"},{"distance":824,"is_transit":false,"station_name":"Pasar Minggu Baru","line":2,"transit":false,"i_lat":-6.263214,"station_id":"PSMB","i_long":106.851577,"time":2},{"time":2,"is_transit":false,"station_name":"Pasar Minggu","distance":2380,"i_long":106.843999,"station_id":"PSM","transit":false,"line":2,"i_lat":-6.2842400000000005},{"transit":false,"station_id":"TNT","line":2,"is_transit":false,"time":4,"i_long":106.838896,"i_lat":-6.3080680000000005,"station_name":"Tanjung Barat","distance":2820},{"station_name":"Lenteng Agung","time":3,"distance":2671,"station_id":"LNA","transit":false,"is_transit":false,"i_lat":-6.330363,"i_long":106.832616,"line":2},{"time":2,"station_id":"UP","transit":false,"line":2,"is_transit":false,"distance":1029,"station_name":"Univ. Pancasila","i_lat":-6.339291,"i_long":106.834175},{"station_id":"UI","is_transit":false,"transit":false,"i_lat":-6.360749,"time":3,"station_name":"Univ. Indonesia","i_long":106.831474,"distance":2264,"line":2},{"station_name":"Pondok Cina","transit":false,"i_long":106.831114,"time":2,"is_transit":false,"i_lat":-6.369073,"line":2,"distance":1109,"station_id":"POC"},{"transit":false,"station_id":"DPB","i_long":106.819451,"line":0,"i_lat":-6.391065,"station_name":"Depokbaru","time":4,"distance":2727,"is_transit":false}],[{"distance":0,"line":6,"i_long":106.728916,"time":0,"station_id":"JMU","station_name":"Jurangmangu","is_transit":false,"transit":false,"i_lat":-6.288927},{"i_lat":-6.276362,"distance":2179,"i_long":106.74273,"line":6,"time":3,"station_name":"Pondokranji","station_id":"PDJ","is_transit":false,"transit":false},{"time":8,"transit":false,"i_lat":-6.237242,"distance":6218,"station_id":"KBY","station_name":"Kebayoran","line":6,"is_transit":false,"i_long":106.780334},{"station_id":"PLM","transit":false,"station_name":"Palmerah","line":6,"i_lat":-6.207404,"time":7,"i_long":106.79689,"is_transit":false,"distance":3737},{"is_transit":true,"i_lat":-6.185545,"i_long":106.811091,"distance":3191,"time":6,"station_name":"Tanah Abang","line":1,"transit":true,"station_id":"THB"},{"distance":3632,"station_name":"Duri","is_transit":true,"time":8,"i_lat":-6.155215,"transit":true,"line":1,"i_long":106.800832,"station_id":"DU"},{"transit":false,"i_lat":-6.144674,"station_id":"AK","distance":1230,"time":4,"i_long":106.79867,"line":0,"is_transit":false,"station_name":"Angke"},{"station_name":"Kampung Bandan","is_transit":true,"time":9,"distance":4102,"transit":true,"i_long":106.826365,"line":0,"i_lat":-6.132549,"station_id":"KPB"},{"station_name":"Rajawali","transit":false,"line":11,"station_id":"RJW","is_transit":false,"time":3,"i_lat":-6.14505,"distance":1444,"i_long":106.836569},{"station_id":"KMO","is_transit":false,"distance":1901,"transit":false,"i_lat":-6.161728,"station_name":"Kemayoran","i_long":106.839204,"time":5,"line":11},{"time":4,"station_name":"Pasar Senen","transit":false,"is_transit":false,"i_lat":-6.174784,"i_long":106.84368,"distance":1436,"station_id":"PSE","line":11},{"i_lat":-6.185975,"distance":1567,"is_transit":false,"station_id":"GST","line":11,"time":8,"station_name":"Gang Sentiong","transit":false,"i_long":106.850107},{"station_name":"Kramat","line":11,"transit":false,"i_lat":-6.193792,"is_transit":false,"station_id":"KMT","distance":973,"i_long":106.855437,"time":1},{"is_transit":false,"line":11,"distance":1829,"station_id":"POK","i_long":106.861737,"station_name":"Pondok Jati","time":2,"i_lat":-6.209188,"transit":false},{"transit":true,"i_long":106.86807400000001,"i_lat":-6.215091,"line":0,"station_name":"Jatinegara","station_id":"JNG","is_transit":true,"time":9,"distance":1236},{"station_name":"Matraman","distance":1377,"station_id":"MTR","transit":false,"i_long":106.858896,"is_transit":false,"i_lat":-6.212485,"line":1,"time":2},{"station_id":"MRI","station_name":"Manggarai","is_transit":true,"time":2,"distance":1275,"transit":true,"i_long":106.84912,"line":0,"i_lat":-6.209883},{"is_transit":false,"station_id":"TEB","station_name":"Tebet","line":2,"time":4,"transit":false,"distance":2610,"i_lat":-6.226659,"i_long":106.857948},{"station_name":"Cawang","transit":false,"time":2,"i_long":106.856607,"station_id":"CW","i_lat":-6.242512,"is_transit":false,"line":0,"distance":1230},{"i_lat":-6.255332,"station_name":"Duren Kalibata","station_id":"DRN","time":3,"i_long":106.85449,"is_transit":false,"transit":false,"line":0,"distance":1546},{"line":2,"time":2,"i_lat":-6.263214,"i_long":106.851577,"station_id":"PSMB","distance":824,"is_transit":false,"transit":false,"station_name":"Pasar Minggu Baru"},{"time":2,"i_lat":-6.2842400000000005,"i_long":106.843999,"station_name":"Pasar Minggu","distance":2380,"line":2,"station_id":"PSM","is_transit":false,"transit":false},{"is_transit":false,"transit":false,"distance":2820,"i_lat":-6.3080680000000005,"time":4,"station_name":"Tanjung Barat","i_long":106.838896,"line":2,"station_id":"TNT"},{"station_id":"LNA","i_lat":-6.330363,"station_name":"Lenteng Agung","is_transit":false,"i_long":106.832616,"distance":2671,"transit":false,"line":2,"time":3},{"is_transit":false,"time":2,"i_lat":-6.339291,"line":2,"station_id":"UP","distance":1029,"i_long":106.834175,"transit":false,"station_name":"Univ. Pancasila"},{"i_lat":-6.360749,"distance":2264,"is_transit":false,"transit":false,"i_long":106.831474,"line":2,"time":3,"station_id":"UI","station_name":"Univ. Indonesia"},{"station_id":"POC","distance":1109,"is_transit":false,"i_long":106.831114,"time":2,"line":2,"station_name":"Pondok Cina","transit":false,"i_lat":-6.369073},{"is_transit":false,"time":4,"transit":false,"station_name":"Depokbaru","station_id":"DPB","distance":2727,"i_lat":-6.391065,"i_long":106.819451,"line":0}]]}