{"data":[[{"station_name":"Jurangmangu","time":0,"distance":0,"transit":false,"i_long":106.728916,"station_id":"JMU","i_lat":-6.288927,"line":6,"is_transit":false},{"is_transit":false,"time":3,"station_id":"PDJ","line":6,"station_name":"Pondokranji","distance":2179,"i_lat":-6.276362,"i_long":106.74273,"transit":false},{"line":6,"station_id":"KBY","station_name":"Kebayoran","i_lat":-6.237242,"i_long":106.780334,"is_transit":false,"time":8,"transit":false,"distance":6218},{"is_transit":false,"time":7,"i_lat":-6.207404,"line":6,"station_name":"Palmerah","i_long":106.79689,"transit":false,"distance":3737,"station_id":"PLM"},{"transit":true,"i_lat":-6.185545,"time":6,"i_long":106.811091,"line":1,"station_id":"THB","distance":3191,"station_name":"Tanah Abang","is_transit":true},{"distance":2029,"station_name":"Karet","station_id":"KAT","is_transit":false,"time":5,"i_lat":-6.20132,"line":1,"transit":false,"i_long":106.816351},{"i_lat":-6.201433,"i_long":106.819881,"time":1,"is_transit":false,"distance":471,"station_name":"Sudirman Baru","station_id":"SUDB","transit":false,"line":1},{"i_long":106.822649,"station_id":"SUD","station_name":"Sudirman","transit":false,"distance":280,"line":1,"is_transit":false,"i_lat":-6.202263,"time":1},{"station_id":"MRI","is_transit":true,"station_name":"Manggarai","time":4,"transit":true,"i_long":106.84912,"distance":3186,"line":0,"i_lat":-6.209883},{"distance":2610,"station_name":"Tebet","transit":false,"i_long":106.857948,"is_transit":false,"time":4,"station_id":"TEB","line":2,"i_lat":-6.226659},{"i_lat":-6.242512,"distance":1230,"transit":false,"i_long":106.856607,"station_id":"CW","station_name":"Cawang","time":2,"is_transit":false,"line":0},{"station_id":"DRN","transit":false,"i_long":106.85449,"i_lat":-6.255332,"line":0,"station_name":"Duren Kalibata","time":3,"is_transit":false,"distance":1546},{"time":2,"i_long":106.851577,"station_name":"Pasar Minggu Baru","transit":false,"distance":824,"station_id":"PSMB","is_transit":false,"i_lat":-6.263214,"line":2}],[{"transit":false,"station_name":"Jurangmangu","distance":0,"is_transit":false,"i_lat":-6.288927,"i_long":106.728916,"line":6,"station_id":"JMU","time":0},{"time":3,"is_transit":false,"transit":false,"i_lat":-6.276362,"line":6,"station_id":"PDJ","station_name":"Pondokranji","i_long":106.74273,"distance":2179},{"distance":6218,"station_name":"Kebayoran","i_long":106.780334,"line":6,"time":8,"i_lat":-6.237242,"transit":false,"station_id":"KBY","is_transit":false},{"station_id":"PLM","station_name":"Palmerah","time":7,"i_long":106.79689,"i_lat":-6.207404,"is_transit":false,"distance":3737,"line":6,"transit":false},{"transit":true,"i_long":106.811091,"line":1,"i_lat":-6.185545,"station_name":"Tanah Abang","distance":3191,"is_transit":true,"time":6,"station_id":"THB"},{"station_name":"Duri","transit":true,"i_lat":-6.155215,"is_transit":true,"time":8,"distance":3632,"line":1,"i_long":106.800832,"station_id":"DU"},{"distance":1230,"station_name":"Angke","station_id":"AK","time":4,"transit":false,"i_lat":-6.144674,"i_long":106.79867,"is_transit":false,"line":0},{"is_transit":true,"station_id":"KPB","time":9,"i_lat":-6.132549,"station_name":"Kampung Bandan","distance":4102,"i_long":106.826365,"line":0,"transit":false},{"is_transit":true,"i_lat":-6.137569,"time":3,"i_long":106.812439,"line":0,"transit":true,"station_name":"Jakarta Kota","station_id":"JAKK","distance":1364},{"transit":false,"station_id":"JAY","i_lat":-6.141205,"i_long":106.820901,"distance":1264,"time":4,"line":7,"is_transit":false,"station_name":"Jayakarta"},{"station_id":"MGB","is_transit":false,"time":2,"line":2,"distance":1080,"i_lat":-6.149769,"transit":false,"i_long":106.82482,"station_name":"Manggabesar"},{"i_lat":-6.160725,"station_name":"Sawah Besar","i_long":106.827103,"line":2,"is_transit":false,"time":2,"transit":false,"station_id":"SW","distance":906},{"line":2,"distance":1149,"transit":false,"station_name":"Juanda","time":2,"i_lat":-6.166716,"station_id":"JUA","i_long":106.828284,"is_transit":false},{"station_name":"Gondangdia","distance":2015,"i_lat":-6.186295,"is_transit":false,"line":2,"station_id":"GDD","transit":false,"time":4,"i_long":106.832183},{"line":0,"i_long":106.840169,"station_id":"CKI","time":3,"station_name":"Cikini","is_transit":false,"transit":false,"distance":1750,"i_lat":-6.198556},{"is_transit":true,"time":4,"i_long":106.84912,"station_name":"Manggarai","transit":true,"station_id":"MRI","i_lat":-6.209883,"line":0,"distance":1590},{"time":4,"transit":false,"station_name":"Tebet","i_long":106.857948,"is_transit":false,"distance":2610,"station_id":"TEB","line":2,"i_lat":-6.226659},{"is_transit":false,"distance":1230,"station_name":"Cawang","i_lat":-6.242512,"station_id":"CW","line":0,"i_long":106.856607,"time":2,"transit":false},{"time":3,"distance":1546,"i_long":106.85449,"line":0,"station_id":"DRN","is_transit":false,"i_lat":-6.255332,"station_name":"Duren Kalibata","transit":false},{"is_transit":false,"time":2,"distance":824,"station_name":"Pasar Minggu Baru","i_lat":-6.263214,"line":2,"station_id":"PSMB","transit":false,"i_long":106.851577}],[{"time":0,"distance":0,"i_lat":-6.288927,"transit":false,"line":6,"station_name":"Jurangmangu","i_long":106.728916,"station_id":"JMU","is_transit":false},{"is_transit":false,"station_name":"Pondokranji","transit":false,"i_lat":-6.276362,"line":6,"distance":2179,"station_id":"PDJ","time":3,"i_long":106.74273},{"i_long":106.780334,"station_name":"Kebayoran","station_id":"KBY","time":8,"line":6,"i_lat":-6.237242,"is_transit":false,"distance":6218,"transit":false},{"station_id":"PLM","i_long":106.79689,"is_transit":false,"i_lat":-6.207404,"line":6,"station_name":"Palmerah","distance":3737,"transit":false,"time":7},{"is_transit":true,"time":6,"station_id":"THB","i_long":106.811091,"station_name":"Tanah Abang","i_lat":-6.185545,"line":1,"distance":3191,"transit":true},{"i_lat":-6.155215,"station_id":"DU","time":8,"line":1,"distance":3632,"station_name":"Duri","i_long":106.800832,"transit":true,"is_transit":true},{"time":4,"i_lat":-6.144674,"is_transit":false,"station_name":"Angke","station_id":"AK","transit":false,"i_long":106.79867,"distance":1230,"line":0},{"transit":true,"is_transit":true,"i_long":106.826365,"i_lat":-6.132549,"station_id":"KPB","distance":4102,"station_name":"Kampung Bandan","line":0,"time":9},{"line":11,"station_name":"Rajawali","i_long":106.836569,"time":3,"is_transit":false,"distance":1444,"transit":false,"station_id":"RJW","i_lat":-6.14505},{"station_id":"KMO","station_name":"Kemayoran","distance":1901,"time":5,"transit":false,"i_lat":-6.161728,"i_long":106.839204,"line":11,"is_transit":false},{"distance":1436,"i_lat":-6.174784,"transit":false,"time":4,"is_transit":false,"station_name":"Pasar Senen","station_id":"PSE","i_long":106.84368,"line":11},{"station_id":"GST","transit":false,"i_long":106.850107,"i_lat":-6.185975,"distance":1567,"line":11,"is_transit":false,"station_name":"Gang Sentiong","time":8},{"station_id":"KMT","time":1,"station_name":"Kramat","transit":false,"i_lat":-6.193792,"line":11,"i_long":106.855437,"is_transit":false,"distance":973},{"is_transit":false,"time":2,"line":11,"station_name":"Pondok Jati","i_long":106.861737,"distance":1829,"transit":false,"station_id":"POK","i_lat":-6.209188},{"line":0,"i_long":106.86807400000001,"station_id":"JNG","is_transit":true,"transit":true,"station_name":"Jatinegara","time":9,"distance":1236,"i_lat":-6.215091},{"i_long":106.858896,"distance":1377,"is_transit":false,"time":2,"line":1,"station_name":"Matraman","i_lat":-6.212485,"station_id":"MTR","transit":false},{"is_transit":true,"line":0,"station_name":"Manggarai","i_long":106.84912,"time":2,"distance":1275,"station_id":"MRI","i_lat":-6.209883,"transit":true},{"station_id":"TEB","station_name":"Tebet","distance":2610,"i_lat":-6.226659,"line":2,"i_long":106.857948,"time":4,"is_transit":false,"transit":false},{"transit":false,"station_name":"Cawang","station_id":"CW","line":0,"is_transit":false,"time":2,"i_lat":-6.242512,"i_long":106.856607,"distance":1230},{"transit":false,"i_long":106.85449,"is_transit":false,"i_lat":-6.255332,"station_name":"Duren Kalibata","line":0,"station_id":"DRN","distance":1546,"time":3},{"i_lat":-6.263214,"line":2,"time":2,"transit":false,"i_long":106.851577,"is_transit":false,"distance":824,"station_id":"PSMB","station_name":"Pasar Minggu Baru"}]]}