{"data":[[{"is_transit":false,"station_name":"Jurangmangu","station_id":"JMU","distance":0,"time":0,"i_long":106.728916,"i_lat":-6.288927,"line":6,"transit":false},{"station_name":"Pondokranji","i_lat":-6.276362,"i_long":106.74273,"transit":false,"line":6,"distance":2179,"station_id":"PDJ","is_transit":false,"time":3},{"distance":6218,"time":8,"i_lat":-6.237242,"transit":false,"line":6,"station_name":"Kebayoran","is_transit":false,"station_id":"KBY","i_long":106.780334},{"line":6,"i_lat":-6.207404,"i_long":106.79689,"distance":3737,"station_id":"PLM","station_name":"Palmerah","is_transit":false,"transit":false,"time":7},{"time":6,"transit":true,"i_lat":-6.185545,"is_transit":true,"distance":3191,"i_long":106.811091,"line":1,"station_name":"Tanah Abang","station_id":"THB"},{"station_name":"Duri","i_lat":-6.155215,"is_transit":false,"time":8,"distance":3632,"station_id":"DU","line":1,"i_long":106.800832,"transit":false},{"is_transit":false,"distance":1230,"station_id":"AK","line":1,"time":4,"i_long":106.79867,"transit":false,"i_lat":-6.144674,"station_name":"Angke"},{"station_id":"KPB","transit":true,"station_name":"Kampung Bandan","distance":4102,"i_long":106.826365,"is_transit":true,"line":4,"time":9,"i_lat":-6.132549},{"transit":false,"distance":1444,"is_transit":false,"i_long":106.836569,"station_name":"Rajawali","time":3,"station_id":"RJW","line":11,"i_lat":-6.14505},{"transit":false,"is_transit":false,"i_lat":-6.161728,"time":5,"distance":1901,"station_id":"KMO","station_name":"Kemayoran","i_long":106.839204,"line":11},{"time":4,"is_transit":false,"station_name":"Pasar Senen","i_long":106.84368,"distance":1436,"i_lat":-6.174784,"station_id":"PSE","transit":false,"line":11},{"transit":false,"station_name":"Gang Sentiong","is_transit":false,"time":8,"station_id":"GST","line":11,"i_long":106.850107,"distance":1567,"i_lat":-6.185975}],[{"transit":false,"station_id":"JMU","distance":0,"i_lat":-6.288927,"station_name":"Jurangmangu","line":6,"time":0,"i_long":106.728916,"is_transit":false},{"station_id":"PDJ","transit":false,"i_long":106.74273,"station_name":"Pondokranji","time":3,"i_lat":-6.276362,"distance":2179,"line":6,"is_transit":false},{"line":6,"i_long":106.780334,"i_lat":-6.237242,"station_name":"Kebayoran","distance":6218,"station_id":"KBY","is_transit":false,"transit":false,"time":8},{"is_transit":false,"i_lat":-6.207404,"station_id":"PLM","time":7,"i_long":106.79689,"line":6,"transit":false,"station_name":"Palmerah","distance":3737},{"station_name":"Tanah Abang","distance":3191,"line":1,"i_long":106.811091,"station_id":"THB","is_transit":true,"time":6,"i_lat":-6.185545,"transit":true},{"station_name":"Karet","i_lat":-6.20132,"distance":2029,"transit":false,"is_transit":false,"time":5,"station_id":"KAT","i_long":106.816351,"line":1},{"i_lat":-6.201433,"time":1,"station_name":"Sudirman Baru","station_id":"SUDB","i_long":106.819881,"line":1,"is_transit":false,"distance":471,"transit":false},{"i_long":106.822649,"distance":280,"line":1,"station_name":"Sudirman","station_id":"SUD","transit":false,"time":1,"i_lat":-6.202263,"is_transit":false},{"is_transit":false,"distance":3186,"i_lat":-6.209883,"time":4,"station_name":"Manggarai","i_long":106.84912,"transit":false,"station_id":"MRI","line":2},{"time":2,"i_lat":-6.212485,"transit":false,"i_long":106.858896,"station_name":"Matraman","is_transit":false,"distance":1275,"station_id":"MTR","line":1},{"i_long":106.86807400000001,"is_transit":true,"i_lat":-6.215091,"station_id":"JNG","line":1,"distance":1377,"transit":true,"time":8,"station_name":"Jatinegara"},{"i_long":106.861737,"distance":1236,"station_name":"Pondok Jati","time":2,"line":11,"is_transit":false,"transit":false,"i_lat":-6.209188,"station_id":"POK"},{"distance":1829,"is_transit":false,"time":2,"station_id":"KMT","i_lat":-6.193792,"station_name":"Kramat","transit":false,"i_long":106.855437,"line":11},{"time":1,"transit":false,"station_id":"GST","i_lat":-6.185975,"station_name":"Gang Sentiong","distance":973,"i_long":106.850107,"line":11,"is_transit":false}],[{"distance":0,"is_transit":false,"line":6,"station_name":"Jurangmangu","station_id":"JMU","i_lat":-6.288927,"time":0,"transit":false,"i_long":106.728916},{"is_transit":false,"i_lat":-6.276362,"i_long":106.74273,"line":6,"station_name":"Pondokranji","transit":false,"time":3,"station_id":"PDJ","distance":2179},{"i_long":106.780334,"i_lat":-6.237242,"line":6,"transit":false,"is_transit":false,"station_id":"KBY","time":8,"distance":6218,"station_name":"Kebayoran"},{"i_lat":-6.207404,"time":7,"station_id":"PLM","transit":false,"station_name":"Palmerah","is_transit":false,"i_long":106.79689,"line":6,"distance":3737},{"transit":true,"i_lat":-6.185545,"station_id":"THB","station_name":"Tanah Abang","is_transit":true,"line":1,"time":6,"distance":3191,"i_long":106.811091},{"station_id":"DU","i_long":106.800832,"line":1,"distance":3632,"transit":false,"time":8,"i_lat":-6.155215,"is_transit":false,"station_name":"Duri"},{"i_long":106.79867,"station_name":"Angke","i_lat":-6.144674,"transit":false,"time":4,"station_id":"AK","line":1,"is_transit":false,"distance":1230},{"distance":4102,"time":9,"transit":true,"i_long":106.826365,"line":4,"station_name":"Kampung Bandan","i_lat":-6.132549,"is_transit":true,"station_id":"KPB"},{"time":3,"is_transit":true,"line":2,"station_name":"Jakarta Kota","distance":1364,"i_lat":-6.137569,"transit":true,"i_long":106.812439,"station_id":"JAKK"},{"station_name":"Jayakarta","station_id":"JAY","distance":1264,"is_transit":false,"i_long":106.820901,"line":2,"i_lat":-6.141205,"transit":false,"time":4},{"line":2,"i_long":106.82482,"i_lat":-6.149769,"station_id":"MGB","is_transit":false,"distance":1080,"station_name":"Manggabesar","transit":false,"time":2},{"i_long":106.827103,"station_id":"SW","i_lat":-6.160725,"station_name":"Sawah Besar","transit":false,"is_transit":false,"time":2,"distance":906,"line":2},{"transit":false,"i_lat":-6.166716,"i_long":106.828284,"distance":1149,"line":2,"is_transit":false,"time":2,"station_name":"Juanda","station_id":"JUA"},{"transit":false,"station_name":"Gondangdia","time":4,"i_lat":-6.186295,"i_long":106.832183,"is_transit":false,"station_id":"GDD","line":2,"distance":2015},{"is_transit":false,"i_long":106.840169,"i_lat":-6.198556,"station_name":"Cikini","station_id":"CKI","transit":false,"distance":1750,"line":2,"time":3},{"line":2,"distance":1590,"station_name":"Manggarai","i_long":106.84912,"transit":true,"time":4,"is_transit":true,"i_lat":-6.209883,"station_id":"MRI"},{"is_transit":false,"i_lat":-6.212485,"distance":1275,"line":1,"station_id":"MTR","transit":false,"i_long":106.858896,"station_name":"Matraman","time":2},{"i_long":106.86807400000001,"station_name":"Jatinegara","distance":1377,"line":1,"time":8,"transit":true,"is_transit":true,"station_id":"JNG","i_lat":-6.215091},{"line":11,"station_name":"Pondok Jati","is_transit":false,"distance":1236,"transit":false,"station_id":"POK","i_long":106.861737,"time":2,"i_lat":-6.209188},{"station_name":"Kramat","i_lat":-6.193792,"distance":1829,"line":11,"time":2,"i_long":106.855437,"transit":false,"is_transit":false,"station_id":"KMT"},{"transit":false,"is_transit":false,"station_id":"GST","i_lat":-6.185975,"i_long":106.850107,"line":11,"time":1,"distance":973,"station_name":"Gang Sentiong"}],[{"is_transit":false,"distance":0,"station_id":"JMU","i_long":106.728916,"i_lat":-6.288927,"station_name":"Jurangmangu","line":6,"time":0,"transit":false},{"i_lat":-6.276362,"i_long":106.74273,"line":6,"time":3,"transit":false,"station_name":"Pondokranji","is_transit":false,"distance":2179,"station_id":"PDJ"},{"i_long":106.780334,"distance":6218,"station_name":"Kebayoran","time":8,"transit":false,"is_transit":false,"station_id":"KBY","line":6,"i_lat":-6.237242},{"i_long":106.79689,"station_name":"Palmerah","station_id":"PLM","line":6,"is_transit":false,"time":7,"transit":false,"distance":3737,"i_lat":-6.207404},{"transit":true,"is_transit":true,"time":6,"station_id":"THB","station_name":"Tanah Abang","i_lat":-6.185545,"distance":3191,"line":1,"i_long":106.811091},{"distance":2029,"station_name":"Karet","i_lat":-6.20132,"is_transit":false,"station_id":"KAT","transit":false,"line":1,"time":5,"i_long":106.816351},{"station_name":"Sudirman Baru","time":1,"i_lat":-6.201433,"i_long":106.819881,"is_transit":false,"station_id":"SUDB","line":1,"distance":471,"transit":false},{"station_id":"SUD","line":1,"i_long":106.822649,"station_name":"Sudirman","i_lat":-6.202263,"is_transit":false,"time":1,"distance":280,"transit":false},{"line":2,"transit":true,"i_long":106.84912,"time":4,"station_id":"MRI","station_name":"Manggarai","distance":3186,"is_transit":true,"i_lat":-6.209883},{"i_lat":-6.198556,"transit":false,"is_transit":false,"line":2,"station_id":"CKI","i_long":106.840169,"time":4,"distance":1590,"station_name":"Cikini"},{"is_transit":false,"station_name":"Gondangdia","transit":false,"distance":1750,"time":3,"station_id":"GDD","i_long":106.832183,"i_lat":-6.186295,"line":2},{"i_long":106.828284,"is_transit":false,"time":4,"station_name":"Juanda","distance":2015,"station_id":"JUA","i_lat":-6.166716,"line":2,"transit":false},{"time":2,"transit":false,"i_long":106.827103,"station_name":"Sawah Besar","i_lat":-6.160725,"station_id":"SW","is_transit":false,"distance":1149,"line":2},{"i_long":106.82482,"station_id":"MGB","distance":906,"line":2,"transit":false,"is_transit":false,"time":2,"station_name":"Manggabesar","i_lat":-6.149769},{"i_long":106.820901,"transit":false,"line":2,"station_name":"Jayakarta","is_transit":false,"station_id":"JAY","distance":1080,"i_lat":-6.141205,"time":2},{"i_long":106.812439,"time":4,"is_transit":true,"i_lat":-6.137569,"line":2,"transit":true,"station_id":"JAKK","station_name":"Jakarta Kota","distance":1264},{"is_transit":true,"station_id":"KPB","station_name":"Kampung Bandan","line":4,"transit":true,"i_lat":-6.132549,"distance":1364,"i_long":106.826365,"time":3},{"i_lat":-6.14505,"i_long":106.836569,"is_transit":false,"time":3,"station_name":"Rajawali","station_id":"RJW","distance":1444,"line":11,"transit":false},{"station_id":"KMO","distance":1901,"station_name":"Kemayoran","i_long":106.839204,"line":11,"time":5,"i_lat":-6.161728,"is_transit":false,"transit":false},{"transit":false,"time":4,"station_id":"PSE","distance":1436,"line":11,"i_lat":-6.174784,"is_transit":false,"i_long":106.84368,"station_name":"Pasar Senen"},{"line":11,"i_long":106.850107,"station_id":"GST","transit":false,"time":8,"i_lat":-6.185975,"distance":1567,"station_name":"Gang Sentiong","is_transit":false}]]}