{"data":[[{"station_id":"JMU","is_transit":false,"i_long":106.728916,"time":0,"distance":0,"line":6,"i_lat":-6.288927,"station_name":"Jurangmangu","transit":false},{"time":3,"distance":2179,"transit":false,"i_long":106.74273,"station_id":"PDJ","is_transit":false,"station_name":"Pondokranji","i_lat":-6.276362,"line":6},{"distance":6218,"is_transit":false,"transit":false,"line":6,"time":8,"i_long":106.780334,"i_lat":-6.237242,"station_name":"Kebayoran","station_id":"KBY"},{"transit":false,"i_lat":-6.207404,"time":7,"station_name":"Palmerah","line":6,"station_id":"PLM","distance":3737,"is_transit":false,"i_long":106.79689},{"station_name":"Tanah Abang","is_transit":true,"distance":3191,"line":1,"time":6,"station_id":"THB","transit":true,"i_long":106.811091,"i_lat":-6.185545},{"distance":2029,"i_long":106.816351,"station_id":"KAT","time":5,"station_name":"Karet","transit":false,"line":1,"is_transit":false,"i_lat":-6.20132},{"line":1,"station_name":"Sudirman Baru","distance":471,"time":1,"station_id":"SUDB","transit":false,"i_lat":-6.201433,"is_transit":false,"i_long":106.819881},{"time":1,"station_id":"SUD","is_transit":false,"i_lat":-6.202263,"i_long":106.822649,"line":1,"distance":280,"station_name":"Sudirman","transit":false},{"time":4,"distance":3186,"line":2,"i_lat":-6.209883,"station_name":"Manggarai","is_transit":true,"station_id":"MRI","transit":true,"i_long":106.84912},{"line":2,"time":4,"station_id":"TEB","distance":2610,"station_name":"Tebet","transit":false,"is_transit":false,"i_lat":-6.226659,"i_long":106.857948},{"station_id":"CW","line":2,"i_lat":-6.242512,"time":2,"distance":1230,"is_transit":false,"transit":false,"i_long":106.856607,"station_name":"Cawang"},{"station_id":"DRN","time":3,"is_transit":false,"station_name":"Duren Kalibata","distance":1546,"i_long":106.85449,"transit":false,"line":2,"i_lat":-6.255332},{"time":2,"station_name":"Pasar Minggu Baru","i_lat":-6.263214,"station_id":"PSMB","distance":824,"transit":false,"i_long":106.851577,"line":2,"is_transit":false},{"line":2,"is_transit":false,"time":2,"station_id":"PSM","transit":false,"i_lat":-6.2842400000000005,"distance":2380,"station_name":"Pasar Minggu","i_long":106.843999},{"station_name":"Tanjung Barat","is_transit":false,"distance":2820,"time":4,"station_id":"TNT","transit":false,"i_long":106.838896,"line":2,"i_lat":-6.3080680000000005},{"distance":2671,"i_long":106.832616,"transit":false,"station_id":"LNA","is_transit":false,"time":3,"i_lat":-6.330363,"line":2,"station_name":"Lenteng Agung"},{"i_lat":-6.339291,"transit":false,"time":2,"line":2,"i_long":106.834175,"is_transit":false,"distance":1029,"station_id":"UP","station_name":"Univ. Pancasila"},{"i_long":106.831474,"time":3,"is_transit":false,"distance":2264,"i_lat":-6.360749,"line":2,"station_name":"Univ. Indonesia","station_id":"UI","transit":false},{"station_name":"Pondok Cina","line":2,"is_transit":false,"time":2,"transit":false,"i_lat":-6.369073,"distance":1109,"i_long":106.831114,"station_id":"POC"},{"distance":2727,"i_long":106.819451,"station_name":"Depokbaru","time":4,"is_transit":false,"transit":false,"i_lat":-6.391065,"station_id":"DPB","line":2}],[{"transit":false,"station_name":"Jurangmangu","is_transit":false,"station_id":"JMU","distance":0,"i_lat":-6.288927,"time":0,"i_long":106.728916,"line":6},{"line":6,"is_transit":false,"time":3,"i_lat":-6.276362,"station_name":"Pondokranji","i_long":106.74273,"transit":false,"station_id":"PDJ","distance":2179},{"distance":6218,"time":8,"station_id":"KBY","is_transit":false,"i_long":106.780334,"transit":false,"i_lat":-6.237242,"line":6,"station_name":"Kebayoran"},{"distance":3737,"station_id":"PLM","time":7,"station_name":"Palmerah","i_lat":-6.207404,"i_long":106.79689,"transit":false,"is_transit":false,"line":6},{"is_transit":true,"i_lat":-6.185545,"transit":true,"line":1,"distance":3191,"station_name":"Tanah Abang","time":6,"station_id":"THB","i_long":106.811091},{"distance":3632,"transit":false,"station_name":"Duri","is_transit":false,"i_lat":-6.155215,"line":1,"time":8,"station_id":"DU","i_long":106.800832},{"station_name":"Angke","time":4,"i_long":106.79867,"is_transit":false,"station_id":"AK","distance":1230,"transit":false,"i_lat":-6.144674,"line":1},{"time":9,"line":4,"is_transit":true,"i_lat":-6.132549,"station_id":"KPB","station_name":"Kampung Bandan","transit":true,"i_long":106.826365,"distance":4102},{"is_transit":true,"line":2,"distance":1364,"time":3,"station_name":"Jakarta Kota","i_long":106.812439,"i_lat":-6.137569,"station_id":"JAKK","transit":true},{"i_long":106.820901,"station_id":"JAY","line":2,"transit":false,"is_transit":false,"distance":1264,"time":4,"station_name":"Jayakarta","i_lat":-6.141205},{"distance":1080,"line":2,"i_long":106.82482,"time":2,"station_id":"MGB","transit":false,"station_name":"Manggabesar","is_transit":false,"i_lat":-6.149769},{"transit":false,"is_transit":false,"i_lat":-6.160725,"station_id":"SW","time":2,"i_long":106.827103,"distance":906,"station_name":"Sawah Besar","line":2},{"i_long":106.828284,"time":2,"line":2,"station_id":"JUA","distance":1149,"i_lat":-6.166716,"is_transit":false,"station_name":"Juanda","transit":false},{"is_transit":false,"transit":false,"distance":2015,"station_id":"GDD","i_lat":-6.186295,"i_long":106.832183,"station_name":"Gondangdia","time":4,"line":2},{"distance":1750,"i_lat":-6.198556,"line":2,"station_id":"CKI","station_name":"Cikini","transit":false,"is_transit":false,"i_long":106.840169,"time":3},{"is_transit":false,"i_lat":-6.209883,"time":4,"line":2,"distance":1590,"station_name":"Manggarai","i_long":106.84912,"transit":false,"station_id":"MRI"},{"time":4,"is_transit":false,"station_id":"TEB","i_lat":-6.226659,"station_name":"Tebet","transit":false,"line":2,"i_long":106.857948,"distance":2610},{"i_long":106.856607,"time":2,"distance":1230,"line":2,"transit":false,"is_transit":false,"i_lat":-6.242512,"station_id":"CW","station_name":"Cawang"},{"distance":1546,"i_long":106.85449,"time":3,"transit":false,"is_transit":false,"station_name":"Duren Kalibata","station_id":"DRN","line":2,"i_lat":-6.255332},{"station_id":"PSMB","distance":824,"i_long":106.851577,"i_lat":-6.263214,"time":2,"station_name":"Pasar Minggu Baru","transit":false,"is_transit":false,"line":2},{"distance":2380,"station_id":"PSM","is_transit":false,"i_lat":-6.2842400000000005,"i_long":106.843999,"line":2,"time":2,"transit":false,"station_name":"Pasar Minggu"},{"i_long":106.838896,"is_transit":false,"i_lat":-6.3080680000000005,"station_name":"Tanjung Barat","transit":false,"line":2,"distance":2820,"time":4,"station_id":"TNT"},{"station_id":"LNA","distance":2671,"i_lat":-6.330363,"time":3,"station_name":"Lenteng Agung","i_long":106.832616,"is_transit":false,"transit":false,"line":2},{"is_transit":false,"time":2,"transit":false,"i_long":106.834175,"line":2,"station_name":"Univ. Pancasila","i_lat":-6.339291,"station_id":"UP","distance":1029},{"is_transit":false,"distance":2264,"line":2,"station_id":"UI","i_lat":-6.360749,"station_name":"Univ. Indonesia","i_long":106.831474,"time":3,"transit":false},{"time":2,"line":2,"distance":1109,"station_id":"POC","i_lat":-6.369073,"i_long":106.831114,"transit":false,"station_name":"Pondok Cina","is_transit":false},{"distance":2727,"time":4,"station_name":"Depokbaru","station_id":"DPB","line":2,"i_long":106.819451,"transit":false,"i_lat":-6.391065,"is_transit":false}],[{"line":6,"i_lat":-6.288927,"i_long":106.728916,"station_id":"JMU","distance":0,"time":0,"station_name":"Jurangmangu","is_transit":false,"transit":false},{"transit":false,"station_name":"Pondokranji","distance":2179,"is_transit":false,"i_lat":-6.276362,"time":3,"station_id":"PDJ","i_long":106.74273,"line":6},{"time":8,"station_id":"KBY","transit":false,"distance":6218,"station_name":"Kebayoran","i_long":106.780334,"is_transit":false,"i_lat":-6.237242,"line":6},{"distance":3737,"line":6,"i_lat":-6.207404,"time":7,"is_transit":false,"i_long":106.79689,"transit":false,"station_name":"Palmerah","station_id":"PLM"},{"transit":true,"i_lat":-6.185545,"station_name":"Tanah Abang","i_long":106.811091,"station_id":"THB","is_transit":true,"time":6,"distance":3191,"line":1},{"time":8,"transit":false,"station_name":"Duri","station_id":"DU","i_lat":-6.155215,"line":1,"is_transit":false,"i_long":106.800832,"distance":3632},{"time":4,"distance":1230,"station_name":"Angke","transit":false,"is_transit":false,"i_lat":-6.144674,"line":1,"i_long":106.79867,"station_id":"AK"},{"distance":4102,"transit":true,"station_name":"Kampung Bandan","station_id":"KPB","time":9,"i_lat":-6.132549,"is_transit":true,"line":4,"i_long":106.826365},{"is_transit":false,"station_id":"RJW","line":11,"time":3,"station_name":"Rajawali","i_lat":-6.14505,"i_long":106.836569,"distance":1444,"transit":false},{"station_id":"KMO","distance":1901,"is_transit":false,"time":5,"i_long":106.839204,"transit":false,"line":11,"station_name":"Kemayoran","i_lat":-6.161728},{"station_name":"Pasar Senen","distance":1436,"i_lat":-6.174784,"time":4,"i_long":106.84368,"line":11,"is_transit":false,"transit":false,"station_id":"PSE"},{"distance":1567,"time":8,"is_transit":false,"transit":false,"line":11,"i_lat":-6.185975,"i_long":106.850107,"station_id":"GST","station_name":"Gang Sentiong"},{"is_transit":false,"station_name":"Kramat","transit":false,"station_id":"KMT","i_long":106.855437,"line":11,"time":1,"distance":973,"i_lat":-6.193792},{"is_transit":false,"time":2,"station_id":"POK","transit":false,"i_long":106.861737,"distance":1829,"station_name":"Pondok Jati","line":11,"i_lat":-6.209188},{"distance":1236,"station_id":"JNG","station_name":"Jatinegara","i_lat":-6.215091,"i_long":106.86807400000001,"line":1,"is_transit":true,"time":9,"transit":true},{"time":2,"station_id":"MTR","line":1,"station_name":"Matraman","transit":false,"is_transit":false,"i_long":106.858896,"distance":1377,"i_lat":-6.212485},{"transit":true,"distance":1275,"is_transit":true,"station_id":"MRI","i_lat":-6.209883,"i_long":106.84912,"line":2,"time":2,"station_name":"Manggarai"},{"is_transit":false,"time":4,"line":2,"i_long":106.857948,"station_id":"TEB","distance":2610,"transit":false,"i_lat":-6.226659,"station_name":"Tebet"},{"station_name":"Cawang","transit":false,"station_id":"CW","line":2,"distance":1230,"i_lat":-6.242512,"is_transit":false,"i_long":106.856607,"time":2},{"time":3,"i_long":106.85449,"line":2,"station_name":"Duren Kalibata","transit":false,"station_id":"DRN","is_transit":false,"distance":1546,"i_lat":-6.255332},{"i_lat":-6.263214,"line":2,"distance":824,"transit":false,"time":2,"station_id":"PSMB","station_name":"Pasar Minggu Baru","is_transit":false,"i_long":106.851577},{"time":2,"transit":false,"station_name":"Pasar Minggu","i_long":106.843999,"is_transit":false,"line":2,"station_id":"PSM","i_lat":-6.2842400000000005,"distance":2380},{"line":2,"time":4,"station_name":"Tanjung Barat","i_long":106.838896,"distance":2820,"transit":false,"station_id":"TNT","i_lat":-6.3080680000000005,"is_transit":false},{"is_transit":false,"distance":2671,"i_long":106.832616,"transit":false,"time":3,"station_id":"LNA","station_name":"Lenteng Agung","line":2,"i_lat":-6.330363},{"i_long":106.834175,"is_transit":false,"line":2,"distance":1029,"station_id":"UP","time":2,"station_name":"Univ. Pancasila","i_lat":-6.339291,"transit":false},{"is_transit":false,"i_lat":-6.360749,"station_id":"UI","transit":false,"distance":2264,"line":2,"time":3,"station_name":"Univ. Indonesia","i_long":106.831474},{"distance":1109,"time":2,"transit":false,"station_name":"Pondok Cina","i_long":106.831114,"is_transit":false,"i_lat":-6.369073,"line":2,"station_id":"POC"},{"i_lat":-6.391065,"distance":2727,"station_id":"DPB","is_transit":false,"station_name":"Depokbaru","line":2,"time":4,"transit":false,"i_long":106.819451}]]}