{"data":[[{"line":6,"time":0,"station_id":"JMU","station_name":"Jurangmangu","distance":0,"i_long":106.728916,"transit":false,"is_transit":false,"i_lat":-6.288927},{"time":4,"is_transit":false,"line":6,"station_id":"SDM","station_name":"Sudimara","transit":false,"distance":1994,"i_lat":-6.296963,"i_long":106.712277},{"is_transit":false,"station_name":"Rawa Buntu","distance":4566,"i_lat":-6.314823,"time":6,"i_long":106.675475,"line":6,"station_id":"RU","transit":false},{"transit":false,"station_id":"SRP","distance":2413,"i_long":106.66566,"i_lat":-6.319871,"station_name":"Serpong","is_transit":false,"time":4,"line":6},{"i_long":106.640411,"distance":1784,"station_name":"Cisauk","transit":false,"line":0,"station_id":"CSK","is_transit":false,"time":4,"i_lat":-6.32484},{"transit":false,"distance":2519,"station_name":"Cicayur","line":0,"i_lat":-6.329547,"is_transit":false,"station_id":"CC","time":4,"i_long":106.617853},{"station_id":"PRP","station_name":"Parung Panjang","i_long":106.568863,"i_lat":-6.3441410000000005,"line":6,"distance":5968,"is_transit":false,"transit":false,"time":8},{"station_id":"CJT","transit":false,"i_lat":-6.354349,"i_long":106.508482,"time":9,"distance":7025,"line":0,"is_transit":false,"station_name":"Cilejit"},{"is_transit":false,"distance":2675,"station_id":"DAR","station_name":"Daru","time":6,"transit":false,"i_long":106.491338,"line":0,"i_lat":-6.338021},{"station_name":"Tenjo","i_lat":-6.327251,"station_id":"TEJ","is_transit":false,"line":6,"i_long":106.460812,"transit":false,"time":5,"distance":3902},{"time":5,"transit":false,"is_transit":false,"i_lat":-6.328533,"i_long":106.425991,"station_id":"TGS","station_name":"Tigaraksa","distance":2974,"line":6},{"station_name":"Cikoya","transit":false,"distance":2651,"time":3,"line":0,"station_id":"CKY","is_transit":false,"i_long":106.411216,"i_lat":-6.33561},{"transit":false,"line":6,"is_transit":false,"i_lat":-6.332307,"i_long":106.394373,"station_name":"Maja","time":4,"distance":1853,"station_id":"MJ"},{"station_name":"Citeras","time":10,"i_long":106.332092,"is_transit":false,"i_lat":-6.334892,"line":0,"distance":7293,"transit":false,"station_id":"CTR"},{"station_id":"RK","station_name":"Rangkasbitung","is_transit":true,"time":13,"transit":false,"line":0,"distance":9847,"i_lat":-6.352675,"i_long":106.250396}]]}