{"data":[[{"time":0,"i_lat":-6.288927,"line":6,"is_transit":false,"station_name":"Jurangmangu","transit":false,"station_id":"JMU","distance":0,"i_long":106.728916},{"distance":2179,"i_lat":-6.276362,"station_name":"Pondokranji","transit":false,"station_id":"PDJ","is_transit":false,"i_long":106.74273,"line":6,"time":3},{"time":8,"station_id":"KBY","line":6,"distance":6218,"is_transit":false,"transit":false,"i_long":106.780334,"station_name":"Kebayoran","i_lat":-6.237242},{"time":7,"transit":false,"station_name":"Palmerah","station_id":"PLM","distance":3737,"line":6,"i_lat":-6.207404,"is_transit":false,"i_long":106.79689},{"distance":3191,"i_lat":-6.185545,"transit":true,"station_id":"THB","time":6,"is_transit":true,"i_long":106.811091,"line":1,"station_name":"Tanah Abang"},{"i_long":106.800832,"time":8,"transit":false,"station_name":"Duri","is_transit":false,"distance":3632,"station_id":"DU","i_lat":-6.155215,"line":1},{"is_transit":false,"distance":1230,"line":1,"i_lat":-6.144674,"i_long":106.79867,"station_name":"Angke","station_id":"AK","time":4,"transit":false},{"station_id":"KPB","i_long":106.826365,"is_transit":true,"time":9,"station_name":"Kampung Bandan","transit":true,"line":4,"distance":4102,"i_lat":-6.132549},{"distance":2185,"i_long":106.84464,"line":4,"transit":false,"station_id":"AC","station_name":"Ancol","is_transit":false,"i_lat":-6.128023,"time":4}],[{"transit":false,"distance":0,"is_transit":false,"station_name":"Jurangmangu","i_lat":-6.288927,"station_id":"JMU","i_long":106.728916,"time":0,"line":6},{"station_id":"PDJ","line":6,"distance":2179,"is_transit":false,"time":3,"i_long":106.74273,"transit":false,"i_lat":-6.276362,"station_name":"Pondokranji"},{"i_lat":-6.237242,"transit":false,"station_name":"Kebayoran","station_id":"KBY","is_transit":false,"distance":6218,"line":6,"time":8,"i_long":106.780334},{"is_transit":false,"i_lat":-6.207404,"time":7,"transit":false,"station_name":"Palmerah","station_id":"PLM","line":6,"i_long":106.79689,"distance":3737},{"i_lat":-6.185545,"i_long":106.811091,"station_id":"THB","transit":true,"station_name":"Tanah Abang","line":1,"distance":3191,"is_transit":true,"time":6},{"transit":false,"i_lat":-6.20132,"distance":2029,"time":5,"i_long":106.816351,"station_id":"KAT","station_name":"Karet","is_transit":false,"line":1},{"transit":false,"is_transit":false,"time":1,"distance":471,"i_lat":-6.201433,"i_long":106.819881,"station_id":"SUDB","line":1,"station_name":"Sudirman Baru"},{"station_name":"Sudirman","transit":false,"station_id":"SUD","i_long":106.822649,"line":1,"is_transit":false,"distance":280,"i_lat":-6.202263,"time":1},{"distance":3186,"i_long":106.84912,"is_transit":true,"line":2,"transit":true,"i_lat":-6.209883,"time":4,"station_id":"MRI","station_name":"Manggarai"},{"station_name":"Cikini","is_transit":false,"transit":false,"i_lat":-6.198556,"i_long":106.840169,"line":2,"station_id":"CKI","time":4,"distance":1590},{"transit":false,"line":2,"i_long":106.832183,"is_transit":false,"station_name":"Gondangdia","distance":1750,"i_lat":-6.186295,"station_id":"GDD","time":3},{"station_name":"Juanda","distance":2015,"i_long":106.828284,"station_id":"JUA","is_transit":false,"line":2,"transit":false,"time":4,"i_lat":-6.166716},{"i_lat":-6.160725,"transit":false,"time":2,"is_transit":false,"station_name":"Sawah Besar","i_long":106.827103,"station_id":"SW","line":2,"distance":1149},{"time":2,"i_long":106.82482,"distance":906,"line":2,"station_id":"MGB","station_name":"Manggabesar","transit":false,"i_lat":-6.149769,"is_transit":false},{"i_long":106.820901,"line":2,"transit":false,"i_lat":-6.141205,"station_name":"Jayakarta","distance":1080,"is_transit":false,"station_id":"JAY","time":2},{"transit":true,"is_transit":true,"line":2,"station_id":"JAKK","distance":1264,"i_long":106.812439,"i_lat":-6.137569,"time":4,"station_name":"Jakarta Kota"},{"i_lat":-6.132549,"is_transit":true,"transit":true,"distance":1364,"station_name":"Kampung Bandan","station_id":"KPB","i_long":106.826365,"time":3,"line":4},{"i_long":106.84464,"station_name":"Ancol","time":4,"distance":2185,"station_id":"AC","is_transit":false,"i_lat":-6.128023,"line":4,"transit":false}],[{"i_lat":-6.288927,"line":6,"distance":0,"transit":false,"station_name":"Jurangmangu","station_id":"JMU","is_transit":false,"time":0,"i_long":106.728916},{"i_long":106.74273,"station_id":"PDJ","i_lat":-6.276362,"distance":2179,"line":6,"transit":false,"station_name":"Pondokranji","is_transit":false,"time":3},{"transit":false,"distance":6218,"line":6,"is_transit":false,"station_name":"Kebayoran","time":8,"i_lat":-6.237242,"i_long":106.780334,"station_id":"KBY"},{"station_id":"PLM","i_lat":-6.207404,"line":6,"is_transit":false,"i_long":106.79689,"station_name":"Palmerah","time":7,"transit":false,"distance":3737},{"time":6,"distance":3191,"line":1,"is_transit":true,"station_id":"THB","i_lat":-6.185545,"i_long":106.811091,"transit":true,"station_name":"Tanah Abang"},{"station_name":"Karet","transit":false,"time":5,"i_long":106.816351,"i_lat":-6.20132,"line":1,"distance":2029,"station_id":"KAT","is_transit":false},{"is_transit":false,"line":1,"time":1,"i_long":106.819881,"station_name":"Sudirman Baru","transit":false,"station_id":"SUDB","distance":471,"i_lat":-6.201433},{"distance":280,"station_id":"SUD","is_transit":false,"time":1,"transit":false,"i_lat":-6.202263,"i_long":106.822649,"line":1,"station_name":"Sudirman"},{"distance":3186,"station_id":"MRI","i_long":106.84912,"is_transit":false,"line":2,"time":4,"station_name":"Manggarai","i_lat":-6.209883,"transit":false},{"i_long":106.858896,"is_transit":false,"transit":false,"station_name":"Matraman","station_id":"MTR","distance":1275,"i_lat":-6.212485,"line":1,"time":2},{"time":8,"i_long":106.86807400000001,"station_id":"JNG","distance":1377,"is_transit":true,"station_name":"Jatinegara","line":1,"i_lat":-6.215091,"transit":true},{"line":11,"time":2,"station_id":"POK","i_lat":-6.209188,"distance":1236,"station_name":"Pondok Jati","is_transit":false,"transit":false,"i_long":106.861737},{"distance":1829,"is_transit":false,"i_long":106.855437,"line":11,"i_lat":-6.193792,"transit":false,"station_name":"Kramat","station_id":"KMT","time":2},{"line":11,"transit":false,"is_transit":false,"station_id":"GST","station_name":"Gang Sentiong","distance":973,"i_lat":-6.185975,"i_long":106.850107,"time":1},{"line":11,"transit":false,"station_name":"Pasar Senen","is_transit":false,"time":8,"i_lat":-6.174784,"station_id":"PSE","i_long":106.84368,"distance":1567},{"station_id":"KMO","i_lat":-6.161728,"time":4,"station_name":"Kemayoran","line":11,"transit":false,"i_long":106.839204,"distance":1436,"is_transit":false},{"transit":false,"time":5,"station_name":"Rajawali","i_lat":-6.14505,"is_transit":false,"i_long":106.836569,"distance":1901,"station_id":"RJW","line":11},{"is_transit":true,"i_long":106.826365,"transit":true,"station_name":"Kampung Bandan","i_lat":-6.132549,"distance":1444,"line":4,"station_id":"KPB","time":3},{"line":4,"time":4,"i_long":106.84464,"transit":false,"station_name":"Ancol","station_id":"AC","is_transit":false,"distance":2185,"i_lat":-6.128023}]]}