{"data":[[{"i_long":106.728916,"transit":false,"station_name":"Jurangmangu","time":0,"station_id":"JMU","is_transit":false,"line":6,"distance":0,"i_lat":-6.288927},{"station_name":"Sudimara","transit":false,"distance":1994,"time":4,"i_lat":-6.296963,"i_long":106.712277,"line":6,"station_id":"SDM","is_transit":false},{"station_name":"Rawa Buntu","i_lat":-6.314823,"i_long":106.675475,"station_id":"RU","time":6,"line":6,"is_transit":false,"transit":false,"distance":4566},{"station_id":"SRP","transit":false,"time":4,"distance":2413,"is_transit":false,"line":6,"i_lat":-6.319871,"i_long":106.66566,"station_name":"Serpong"},{"transit":false,"i_long":106.640411,"is_transit":false,"station_id":"CSK","time":4,"line":3,"i_lat":-6.32484,"station_name":"Cisauk","distance":1784},{"i_lat":-6.329547,"time":4,"i_long":106.617853,"station_id":"CC","line":3,"distance":2519,"station_name":"Cicayur","is_transit":false,"transit":false},{"distance":5968,"is_transit":false,"i_lat":-6.3441410000000005,"i_long":106.568863,"station_id":"PRP","time":8,"station_name":"Parung Panjang","transit":false,"line":6},{"time":9,"i_long":106.508482,"station_id":"CJT","station_name":"Cilejit","i_lat":-6.354349,"is_transit":false,"transit":false,"distance":7025,"line":3},{"i_long":106.491338,"line":0,"time":6,"station_name":"Daru","distance":2675,"station_id":"DAR","i_lat":-6.338021,"is_transit":false,"transit":false},{"is_transit":false,"distance":3902,"station_name":"Tenjo","line":6,"time":5,"i_lat":-6.327251,"station_id":"TEJ","transit":false,"i_long":106.460812},{"time":5,"station_id":"TGS","i_lat":-6.328533,"distance":2974,"station_name":"Tigaraksa","is_transit":false,"i_long":106.425991,"transit":false,"line":6},{"i_lat":-6.33561,"distance":2651,"station_name":"Cikoya","is_transit":false,"station_id":"CKY","i_long":106.411216,"line":3,"transit":false,"time":3},{"transit":false,"time":4,"is_transit":false,"i_long":106.394373,"i_lat":-6.332307,"station_id":"MJ","station_name":"Maja","line":6,"distance":1853}]]}