{"data":[[{"is_transit":false,"distance":0,"transit":false,"time":0,"station_name":"Jurangmangu","i_lat":-6.288927,"line":6,"i_long":106.728916,"station_id":"JMU"},{"distance":2179,"transit":false,"i_long":106.74273,"station_name":"Pondokranji","i_lat":-6.276362,"is_transit":false,"line":6,"station_id":"PDJ","time":3},{"time":8,"distance":6218,"i_long":106.780334,"transit":false,"line":6,"i_lat":-6.237242,"is_transit":false,"station_name":"Kebayoran","station_id":"KBY"},{"station_id":"PLM","i_long":106.79689,"transit":false,"time":7,"distance":3737,"i_lat":-6.207404,"line":6,"is_transit":false,"station_name":"Palmerah"},{"time":6,"is_transit":true,"transit":true,"i_long":106.811091,"line":1,"station_name":"Tanah Abang","distance":3191,"i_lat":-6.185545,"station_id":"THB"},{"time":8,"i_lat":-6.155215,"line":1,"station_name":"Duri","is_transit":true,"distance":3632,"transit":true,"i_long":106.800832,"station_id":"DU"},{"distance":1700,"is_transit":false,"station_name":"Grogol","line":5,"transit":false,"i_lat":-6.162021,"station_id":"GGL","i_long":106.788277,"time":3},{"time":2,"is_transit":false,"station_name":"Pesing","distance":2036,"i_long":106.771379,"station_id":"PSG","transit":false,"line":5,"i_lat":-6.161433},{"transit":false,"station_id":"TKO","line":5,"is_transit":false,"time":2,"i_long":106.756522,"i_lat":-6.1587309999999995,"station_name":"Taman Kota","distance":1614},{"station_name":"Bojongindah","time":2,"distance":2334,"station_id":"BOI","transit":false,"is_transit":false,"i_lat":-6.159876,"i_long":106.737035,"line":0},{"time":4,"station_id":"RW","transit":false,"line":5,"is_transit":false,"distance":1152,"station_name":"Rawa Buaya","i_lat":-6.162758,"i_long":106.723064},{"station_id":"KDS","is_transit":false,"transit":false,"i_lat":-6.166068,"time":3,"station_name":"Kalideres","i_long":106.701612,"distance":2504,"line":5},{"station_name":"Poris","transit":false,"i_long":106.679458,"time":3,"is_transit":false,"i_lat":-6.169933,"line":5,"distance":2548,"station_id":"PI"},{"transit":false,"station_id":"BPR","i_long":106.665036,"line":0,"i_lat":-6.171811,"station_name":"Batuceper","time":3,"distance":1834,"is_transit":false},{"distance":2028,"line":5,"i_long":106.64657,"time":3,"station_id":"TTI","station_name":"Tanah Tinggi","is_transit":false,"transit":false,"i_lat":-6.17331},{"i_lat":-6.176583,"distance":1547,"i_long":106.632761,"line":5,"time":3,"station_name":"Tangerang","station_id":"TNG","is_transit":false,"transit":false}],[{"time":0,"transit":false,"i_lat":-6.288927,"distance":0,"station_id":"JMU","station_name":"Jurangmangu","line":6,"is_transit":false,"i_long":106.728916},{"station_id":"PDJ","transit":false,"station_name":"Pondokranji","line":6,"i_lat":-6.276362,"time":3,"i_long":106.74273,"is_transit":false,"distance":2179},{"is_transit":false,"i_lat":-6.237242,"i_long":106.780334,"distance":6218,"time":8,"station_name":"Kebayoran","line":6,"transit":false,"station_id":"KBY"},{"distance":3737,"station_name":"Palmerah","is_transit":false,"time":7,"i_lat":-6.207404,"transit":false,"line":6,"i_long":106.79689,"station_id":"PLM"},{"transit":true,"i_lat":-6.185545,"station_id":"THB","distance":3191,"time":6,"i_long":106.811091,"line":1,"is_transit":true,"station_name":"Tanah Abang"},{"station_name":"Karet","is_transit":false,"time":5,"distance":2029,"transit":false,"i_long":106.816351,"line":1,"i_lat":-6.20132,"station_id":"KAT"},{"station_name":"Sudirman Baru","transit":false,"line":1,"station_id":"SUDB","is_transit":false,"time":1,"i_lat":-6.201433,"distance":471,"i_long":106.819881},{"station_id":"SUD","is_transit":false,"distance":280,"transit":false,"i_lat":-6.202263,"station_name":"Sudirman","i_long":106.822649,"time":1,"line":1},{"time":4,"station_name":"Manggarai","transit":true,"is_transit":true,"i_lat":-6.209883,"i_long":106.84912,"distance":3186,"station_id":"MRI","line":0},{"i_lat":-6.198556,"distance":1590,"is_transit":false,"station_id":"CKI","line":0,"time":4,"station_name":"Cikini","transit":false,"i_long":106.840169},{"station_name":"Gondangdia","line":2,"transit":false,"i_lat":-6.186295,"is_transit":false,"station_id":"GDD","distance":1750,"i_long":106.832183,"time":3},{"is_transit":false,"line":2,"distance":2015,"station_id":"JUA","i_long":106.828284,"station_name":"Juanda","time":4,"i_lat":-6.166716,"transit":false},{"transit":false,"i_long":106.827103,"i_lat":-6.160725,"line":2,"station_name":"Sawah Besar","station_id":"SW","is_transit":false,"time":2,"distance":1149},{"station_name":"Manggabesar","distance":906,"station_id":"MGB","transit":false,"i_long":106.82482,"is_transit":false,"i_lat":-6.149769,"line":2,"time":2},{"station_id":"JAY","station_name":"Jayakarta","is_transit":false,"time":2,"distance":1080,"transit":false,"i_long":106.820901,"line":7,"i_lat":-6.141205},{"station_id":"JAKK","time":4,"line":0,"station_name":"Jakarta Kota","transit":true,"i_lat":-6.137569,"i_long":106.812439,"is_transit":true,"distance":1264},{"station_id":"KPB","distance":1364,"transit":false,"line":0,"i_lat":-6.132549,"station_name":"Kampung Bandan","i_long":106.826365,"is_transit":true,"time":3},{"station_id":"AK","i_lat":-6.144674,"line":0,"distance":4102,"transit":false,"i_long":106.79867,"station_name":"Angke","is_transit":false,"time":9},{"station_id":"DU","transit":true,"station_name":"Duri","is_transit":true,"i_long":106.800832,"time":4,"distance":1230,"line":1,"i_lat":-6.155215},{"time":3,"distance":1700,"transit":false,"line":5,"i_lat":-6.162021,"i_long":106.788277,"station_id":"GGL","station_name":"Grogol","is_transit":false},{"i_lat":-6.161433,"line":5,"i_long":106.771379,"distance":2036,"station_id":"PSG","is_transit":false,"time":2,"station_name":"Pesing","transit":false},{"is_transit":false,"time":2,"i_long":106.756522,"distance":1614,"station_name":"Taman Kota","station_id":"TKO","transit":false,"line":5,"i_lat":-6.1587309999999995},{"distance":2334,"line":0,"station_id":"BOI","is_transit":false,"time":2,"i_lat":-6.159876,"i_long":106.737035,"transit":false,"station_name":"Bojongindah"},{"station_id":"RW","transit":false,"i_long":106.723064,"station_name":"Rawa Buaya","distance":1152,"line":5,"is_transit":false,"time":4,"i_lat":-6.162758},{"time":3,"i_long":106.701612,"i_lat":-6.166068,"distance":2504,"transit":false,"station_name":"Kalideres","station_id":"KDS","is_transit":false,"line":5},{"station_name":"Poris","distance":2548,"is_transit":false,"transit":false,"i_lat":-6.169933,"i_long":106.679458,"station_id":"PI","line":5,"time":3},{"time":3,"transit":false,"line":0,"station_name":"Batuceper","i_lat":-6.171811,"i_long":106.665036,"station_id":"BPR","is_transit":false,"distance":1834},{"is_transit":false,"time":3,"i_long":106.64657,"line":5,"station_id":"TTI","distance":2028,"station_name":"Tanah Tinggi","i_lat":-6.17331,"transit":false},{"transit":false,"distance":1547,"time":3,"station_id":"TNG","station_name":"Tangerang","i_lat":-6.176583,"is_transit":false,"i_long":106.632761,"line":5}],[{"i_long":106.728916,"is_transit":false,"distance":0,"i_lat":-6.288927,"time":0,"line":6,"station_id":"JMU","station_name":"Jurangmangu","transit":false},{"i_lat":-6.276362,"station_name":"Pondokranji","distance":2179,"line":6,"transit":false,"is_transit":false,"i_long":106.74273,"station_id":"PDJ","time":3},{"i_lat":-6.237242,"station_name":"Kebayoran","station_id":"KBY","line":6,"is_transit":false,"i_long":106.780334,"time":8,"distance":6218,"transit":false},{"station_name":"Palmerah","time":7,"i_long":106.79689,"line":6,"station_id":"PLM","i_lat":-6.207404,"distance":3737,"is_transit":false,"transit":false},{"time":6,"station_name":"Tanah Abang","transit":true,"i_lat":-6.185545,"distance":3191,"station_id":"THB","line":1,"i_long":106.811091,"is_transit":true},{"i_lat":-6.20132,"i_long":106.816351,"station_name":"Karet","line":1,"transit":false,"station_id":"KAT","time":5,"distance":2029,"is_transit":false},{"transit":false,"i_lat":-6.201433,"line":1,"i_long":106.819881,"distance":471,"station_name":"Sudirman Baru","station_id":"SUDB","is_transit":false,"time":1},{"line":1,"distance":280,"i_long":106.822649,"station_id":"SUD","i_lat":-6.202263,"is_transit":false,"transit":false,"time":1,"station_name":"Sudirman"},{"is_transit":true,"transit":false,"station_name":"Manggarai","station_id":"MRI","distance":3186,"i_lat":-6.209883,"line":0,"i_long":106.84912,"time":4},{"station_name":"Matraman","i_lat":-6.212485,"transit":false,"distance":1275,"i_long":106.858896,"station_id":"MTR","line":1,"is_transit":false,"time":2},{"is_transit":true,"line":0,"time":8,"station_name":"Jatinegara","distance":1377,"transit":true,"station_id":"JNG","i_lat":-6.215091,"i_long":106.86807400000001},{"station_id":"POK","time":2,"distance":1236,"is_transit":false,"i_lat":-6.209188,"i_long":106.861737,"line":11,"station_name":"Pondok Jati","transit":false},{"station_id":"KMT","is_transit":false,"station_name":"Kramat","time":2,"distance":1829,"i_lat":-6.193792,"line":11,"transit":false,"i_long":106.855437},{"distance":973,"station_name":"Gang Sentiong","time":1,"transit":false,"i_lat":-6.185975,"i_long":106.850107,"station_id":"GST","line":11,"is_transit":false},{"station_id":"PSE","transit":false,"distance":1567,"i_lat":-6.174784,"station_name":"Pasar Senen","is_transit":false,"i_long":106.84368,"line":11,"time":8},{"station_name":"Kemayoran","station_id":"KMO","i_lat":-6.161728,"line":11,"i_long":106.839204,"transit":false,"distance":1436,"time":4,"is_transit":false},{"i_lat":-6.14505,"transit":false,"line":11,"is_transit":false,"station_name":"Rajawali","time":5,"i_long":106.836569,"station_id":"RJW","distance":1901},{"distance":1444,"transit":true,"i_lat":-6.132549,"i_long":106.826365,"station_id":"KPB","is_transit":true,"line":0,"time":3,"station_name":"Kampung Bandan"},{"line":0,"time":9,"station_id":"AK","station_name":"Angke","i_lat":-6.144674,"i_long":106.79867,"is_transit":false,"transit":false,"distance":4102},{"is_transit":true,"station_id":"DU","station_name":"Duri","line":1,"time":4,"distance":1230,"i_lat":-6.155215,"i_long":106.800832,"transit":true},{"station_id":"GGL","i_lat":-6.162021,"transit":false,"i_long":106.788277,"time":3,"is_transit":false,"line":5,"station_name":"Grogol","distance":1700},{"station_name":"Pesing","is_transit":false,"station_id":"PSG","transit":false,"time":2,"line":5,"i_long":106.771379,"i_lat":-6.161433,"distance":2036},{"i_lat":-6.1587309999999995,"i_long":106.756522,"station_name":"Taman Kota","time":2,"line":5,"transit":false,"station_id":"TKO","is_transit":false,"distance":1614},{"station_name":"Bojongindah","station_id":"BOI","transit":false,"is_transit":false,"i_lat":-6.159876,"time":2,"i_long":106.737035,"line":0,"distance":2334},{"distance":1152,"station_id":"RW","line":5,"is_transit":false,"i_lat":-6.162758,"station_name":"Rawa Buaya","i_long":106.723064,"transit":false,"time":4},{"transit":false,"is_transit":false,"i_long":106.701612,"line":5,"time":3,"station_id":"KDS","i_lat":-6.166068,"station_name":"Kalideres","distance":2504},{"is_transit":false,"station_id":"PI","line":5,"station_name":"Poris","time":3,"transit":false,"i_lat":-6.169933,"distance":2548,"i_long":106.679458},{"station_id":"BPR","time":3,"distance":1834,"transit":false,"line":0,"i_lat":-6.171811,"station_name":"Batuceper","is_transit":false,"i_long":106.665036},{"line":5,"transit":false,"is_transit":false,"distance":2028,"i_long":106.64657,"time":3,"station_id":"TTI","station_name":"Tanah Tinggi","i_lat":-6.17331},{"transit":false,"i_long":106.632761,"is_transit":false,"line":5,"station_id":"TNG","station_name":"Tangerang","time":3,"i_lat":-6.176583,"distance":1547}]]}