{"data":[[{"i_lat":-6.288927,"line":6,"transit":false,"station_id":"JMU","station_name":"Jurangmangu","time":0,"i_long":106.728916,"distance":0,"is_transit":false},{"i_lat":-6.296963,"station_name":"Sudimara","line":6,"time":4,"i_long":106.712277,"is_transit":false,"station_id":"SDM","transit":false,"distance":1994},{"i_long":106.675475,"time":6,"is_transit":false,"transit":false,"station_name":"Rawa Buntu","distance":4566,"i_lat":-6.314823,"line":6,"station_id":"RU"},{"line":6,"station_name":"Serpong","station_id":"SRP","transit":false,"is_transit":false,"time":4,"distance":2413,"i_lat":-6.319871,"i_long":106.66566},{"i_lat":-6.32484,"station_name":"Cisauk","station_id":"CSK","is_transit":false,"time":4,"distance":1784,"line":3,"transit":false,"i_long":106.640411},{"station_name":"Cicayur","is_transit":false,"time":4,"distance":2519,"i_lat":-6.329547,"line":3,"station_id":"CC","i_long":106.617853,"transit":false},{"i_long":106.568863,"transit":false,"station_name":"Parung Panjang","line":6,"time":8,"station_id":"PRP","is_transit":false,"distance":5968,"i_lat":-6.3441410000000005},{"line":3,"time":9,"i_lat":-6.354349,"i_long":106.508482,"transit":false,"is_transit":false,"station_name":"Cilejit","station_id":"CJT","distance":7025},{"is_transit":false,"distance":2675,"line":0,"transit":false,"station_name":"Daru","i_long":106.491338,"i_lat":-6.338021,"station_id":"DAR","time":6},{"station_name":"Tenjo","station_id":"TEJ","i_lat":-6.327251,"time":5,"distance":3902,"is_transit":false,"i_long":106.460812,"line":6,"transit":false},{"transit":false,"station_id":"TGS","line":6,"time":5,"is_transit":false,"station_name":"Tigaraksa","i_lat":-6.328533,"distance":2974,"i_long":106.425991},{"station_name":"Cikoya","is_transit":false,"i_lat":-6.33561,"station_id":"CKY","distance":2651,"time":3,"i_long":106.411216,"line":3,"transit":false},{"distance":1853,"i_lat":-6.332307,"i_long":106.394373,"is_transit":false,"line":6,"time":4,"station_id":"MJ","transit":false,"station_name":"Maja"},{"station_name":"Citeras","station_id":"CTR","transit":false,"i_lat":-6.334892,"time":10,"line":3,"is_transit":false,"distance":7293,"i_long":106.332092}]]}