{"data":[[{"time":0,"line":6,"distance":0,"i_lat":-6.288927,"station_id":"JMU","station_name":"Jurangmangu","is_transit":false,"transit":false,"i_long":106.728916},{"time":3,"is_transit":false,"line":6,"station_id":"PDJ","i_long":106.74273,"distance":2179,"station_name":"Pondokranji","transit":false,"i_lat":-6.276362},{"transit":false,"line":6,"is_transit":false,"distance":6218,"station_id":"KBY","time":8,"station_name":"Kebayoran","i_lat":-6.237242,"i_long":106.780334},{"line":6,"station_id":"PLM","transit":false,"i_long":106.79689,"time":7,"distance":3737,"is_transit":false,"i_lat":-6.207404,"station_name":"Palmerah"},{"i_long":106.811091,"transit":true,"time":6,"station_name":"Tanah Abang","distance":3191,"i_lat":-6.185545,"station_id":"THB","is_transit":true,"line":1},{"time":8,"distance":3632,"is_transit":true,"line":1,"station_id":"DU","transit":true,"station_name":"Duri","i_lat":-6.155215,"i_long":106.800832},{"station_id":"GGL","station_name":"Grogol","is_transit":false,"transit":false,"time":3,"i_lat":-6.162021,"i_long":106.788277,"line":5,"distance":1700},{"i_long":106.771379,"is_transit":false,"station_id":"PSG","time":2,"distance":2036,"i_lat":-6.161433,"line":5,"transit":false,"station_name":"Pesing"},{"station_id":"TKO","distance":1614,"i_long":106.756522,"is_transit":false,"line":5,"station_name":"Taman Kota","transit":false,"i_lat":-6.1587309999999995,"time":2},{"time":2,"station_name":"Bojongindah","i_lat":-6.159876,"distance":2334,"transit":false,"station_id":"BOI","is_transit":false,"i_long":106.737035,"line":5}],[{"transit":false,"i_lat":-6.288927,"line":6,"station_name":"Jurangmangu","distance":0,"is_transit":false,"time":0,"station_id":"JMU","i_long":106.728916},{"i_lat":-6.276362,"distance":2179,"station_name":"Pondokranji","line":6,"time":3,"is_transit":false,"transit":false,"i_long":106.74273,"station_id":"PDJ"},{"station_id":"KBY","is_transit":false,"i_long":106.780334,"station_name":"Kebayoran","i_lat":-6.237242,"time":8,"line":6,"distance":6218,"transit":false},{"station_id":"PLM","is_transit":false,"i_lat":-6.207404,"station_name":"Palmerah","time":7,"transit":false,"i_long":106.79689,"distance":3737,"line":6},{"time":6,"distance":3191,"station_name":"Tanah Abang","station_id":"THB","transit":true,"i_long":106.811091,"is_transit":true,"i_lat":-6.185545,"line":1},{"is_transit":false,"time":5,"line":1,"distance":2029,"station_name":"Karet","station_id":"KAT","transit":false,"i_lat":-6.20132,"i_long":106.816351},{"station_name":"Sudirman Baru","transit":false,"i_lat":-6.201433,"station_id":"SUDB","time":1,"distance":471,"i_long":106.819881,"line":1,"is_transit":false},{"is_transit":false,"station_id":"SUD","i_long":106.822649,"transit":false,"line":1,"distance":280,"time":1,"station_name":"Sudirman","i_lat":-6.202263},{"i_long":106.84912,"is_transit":true,"i_lat":-6.209883,"line":2,"station_id":"MRI","station_name":"Manggarai","transit":true,"time":4,"distance":3186},{"time":4,"line":2,"i_lat":-6.198556,"station_name":"Cikini","station_id":"CKI","is_transit":false,"i_long":106.840169,"distance":1590,"transit":false},{"station_id":"GDD","i_long":106.832183,"station_name":"Gondangdia","transit":false,"i_lat":-6.186295,"line":2,"is_transit":false,"time":3,"distance":1750},{"time":4,"station_name":"Juanda","transit":false,"distance":2015,"station_id":"JUA","is_transit":false,"i_long":106.828284,"i_lat":-6.166716,"line":2},{"time":2,"distance":1149,"station_id":"SW","is_transit":false,"station_name":"Sawah Besar","i_lat":-6.160725,"line":2,"transit":false,"i_long":106.827103},{"line":2,"station_id":"MGB","distance":906,"i_lat":-6.149769,"time":2,"is_transit":false,"transit":false,"i_long":106.82482,"station_name":"Manggabesar"},{"i_lat":-6.141205,"distance":1080,"time":2,"line":2,"station_id":"JAY","station_name":"Jayakarta","is_transit":false,"transit":false,"i_long":106.820901},{"i_long":106.812439,"time":4,"distance":1264,"station_id":"JAKK","station_name":"Jakarta Kota","transit":true,"is_transit":true,"line":2,"i_lat":-6.137569},{"station_id":"KPB","time":3,"station_name":"Kampung Bandan","distance":1364,"is_transit":true,"i_long":106.826365,"line":4,"transit":true,"i_lat":-6.132549},{"station_id":"AK","time":9,"is_transit":false,"transit":false,"station_name":"Angke","i_lat":-6.144674,"i_long":106.79867,"line":1,"distance":4102},{"station_name":"Duri","station_id":"DU","i_long":106.800832,"i_lat":-6.155215,"distance":1230,"line":1,"time":4,"is_transit":true,"transit":true},{"station_id":"GGL","transit":false,"distance":1700,"i_lat":-6.162021,"i_long":106.788277,"station_name":"Grogol","is_transit":false,"line":5,"time":3},{"is_transit":false,"station_id":"PSG","i_lat":-6.161433,"station_name":"Pesing","time":2,"distance":2036,"line":5,"i_long":106.771379,"transit":false},{"line":5,"time":2,"station_name":"Taman Kota","i_long":106.756522,"is_transit":false,"transit":false,"station_id":"TKO","i_lat":-6.1587309999999995,"distance":1614},{"line":5,"time":2,"i_long":106.737035,"distance":2334,"transit":false,"station_name":"Bojongindah","station_id":"BOI","is_transit":false,"i_lat":-6.159876}],[{"station_name":"Jurangmangu","transit":false,"time":0,"i_long":106.728916,"i_lat":-6.288927,"line":6,"distance":0,"station_id":"JMU","is_transit":false},{"line":6,"station_name":"Pondokranji","i_long":106.74273,"i_lat":-6.276362,"distance":2179,"station_id":"PDJ","is_transit":false,"transit":false,"time":3},{"line":6,"is_transit":false,"transit":false,"time":8,"i_long":106.780334,"distance":6218,"i_lat":-6.237242,"station_name":"Kebayoran","station_id":"KBY"},{"i_lat":-6.207404,"station_name":"Palmerah","station_id":"PLM","line":6,"time":7,"transit":false,"is_transit":false,"distance":3737,"i_long":106.79689},{"time":6,"station_name":"Tanah Abang","i_lat":-6.185545,"i_long":106.811091,"line":1,"distance":3191,"is_transit":true,"station_id":"THB","transit":true},{"station_id":"KAT","line":1,"i_long":106.816351,"distance":2029,"time":5,"station_name":"Karet","transit":false,"i_lat":-6.20132,"is_transit":false},{"distance":471,"i_long":106.819881,"is_transit":false,"station_name":"Sudirman Baru","station_id":"SUDB","transit":false,"line":1,"time":1,"i_lat":-6.201433},{"time":1,"transit":false,"i_long":106.822649,"distance":280,"station_id":"SUD","line":1,"station_name":"Sudirman","is_transit":false,"i_lat":-6.202263},{"i_lat":-6.209883,"station_id":"MRI","transit":false,"time":4,"station_name":"Manggarai","distance":3186,"is_transit":false,"i_long":106.84912,"line":2},{"transit":false,"line":1,"is_transit":false,"station_name":"Matraman","station_id":"MTR","i_lat":-6.212485,"i_long":106.858896,"distance":1275,"time":2},{"i_long":106.86807400000001,"line":1,"i_lat":-6.215091,"station_id":"JNG","time":8,"distance":1377,"transit":true,"station_name":"Jatinegara","is_transit":true},{"time":2,"line":11,"distance":1236,"is_transit":false,"i_long":106.861737,"i_lat":-6.209188,"transit":false,"station_name":"Pondok Jati","station_id":"POK"},{"station_id":"KMT","time":2,"i_long":106.855437,"line":11,"transit":false,"station_name":"Kramat","is_transit":false,"i_lat":-6.193792,"distance":1829},{"transit":false,"station_id":"GST","station_name":"Gang Sentiong","i_long":106.850107,"is_transit":false,"i_lat":-6.185975,"time":1,"line":11,"distance":973},{"station_name":"Pasar Senen","is_transit":false,"i_lat":-6.174784,"i_long":106.84368,"line":11,"station_id":"PSE","transit":false,"distance":1567,"time":8},{"distance":1436,"line":11,"station_id":"KMO","i_lat":-6.161728,"is_transit":false,"station_name":"Kemayoran","time":4,"transit":false,"i_long":106.839204},{"distance":1901,"time":5,"station_id":"RJW","line":11,"is_transit":false,"i_lat":-6.14505,"i_long":106.836569,"transit":false,"station_name":"Rajawali"},{"is_transit":true,"time":3,"station_name":"Kampung Bandan","transit":true,"station_id":"KPB","i_lat":-6.132549,"i_long":106.826365,"line":4,"distance":1444},{"is_transit":false,"time":9,"distance":4102,"i_lat":-6.144674,"station_name":"Angke","line":1,"transit":false,"i_long":106.79867,"station_id":"AK"},{"station_name":"Duri","transit":true,"i_long":106.800832,"i_lat":-6.155215,"is_transit":true,"station_id":"DU","time":4,"distance":1230,"line":1},{"is_transit":false,"station_name":"Grogol","distance":1700,"line":5,"i_long":106.788277,"station_id":"GGL","i_lat":-6.162021,"time":3,"transit":false},{"time":2,"station_name":"Pesing","i_lat":-6.161433,"station_id":"PSG","i_long":106.771379,"line":5,"distance":2036,"is_transit":false,"transit":false},{"distance":1614,"station_id":"TKO","i_lat":-6.1587309999999995,"station_name":"Taman Kota","i_long":106.756522,"transit":false,"time":2,"line":5,"is_transit":false},{"i_long":106.737035,"station_id":"BOI","transit":false,"time":2,"distance":2334,"station_name":"Bojongindah","line":5,"is_transit":false,"i_lat":-6.159876}]]}