{"data":[[{"station_name":"Jurangmangu","transit":false,"is_transit":false,"line":6,"i_long":106.728916,"time":0,"station_id":"JMU","i_lat":-6.288927,"distance":0},{"transit":false,"distance":1994,"station_name":"Sudimara","i_lat":-6.296963,"i_long":106.712277,"line":6,"is_transit":false,"station_id":"SDM","time":4},{"time":6,"transit":false,"i_lat":-6.314823,"line":6,"station_name":"Rawa Buntu","is_transit":false,"station_id":"RU","distance":4566,"i_long":106.675475},{"transit":false,"i_long":106.66566,"station_name":"Serpong","i_lat":-6.319871,"distance":2413,"is_transit":false,"station_id":"SRP","line":6,"time":4},{"distance":1784,"transit":false,"i_long":106.640411,"line":3,"is_transit":false,"station_name":"Cisauk","i_lat":-6.32484,"station_id":"CSK","time":4},{"is_transit":false,"i_lat":-6.329547,"transit":false,"station_name":"Cicayur","station_id":"CC","distance":2519,"line":3,"time":4,"i_long":106.617853},{"time":8,"line":6,"station_id":"PRP","station_name":"Parung Panjang","transit":false,"i_lat":-6.3441410000000005,"i_long":106.568863,"is_transit":false,"distance":5968},{"station_name":"Cilejit","station_id":"CJT","i_long":106.508482,"transit":false,"line":3,"i_lat":-6.354349,"distance":7025,"time":9,"is_transit":false},{"i_lat":-6.338021,"transit":false,"station_id":"DAR","station_name":"Daru","time":6,"line":0,"distance":2675,"is_transit":false,"i_long":106.491338},{"i_lat":-6.327251,"distance":3902,"is_transit":false,"line":6,"station_id":"TEJ","station_name":"Tenjo","transit":false,"time":5,"i_long":106.460812},{"station_name":"Tigaraksa","i_long":106.425991,"distance":2974,"station_id":"TGS","i_lat":-6.328533,"is_transit":false,"line":6,"transit":false,"time":5},{"i_long":106.411216,"station_name":"Cikoya","i_lat":-6.33561,"station_id":"CKY","distance":2651,"is_transit":false,"line":3,"time":3,"transit":false},{"station_name":"Maja","distance":1853,"is_transit":false,"time":4,"i_lat":-6.332307,"line":6,"transit":false,"station_id":"MJ","i_long":106.394373},{"line":3,"station_id":"CTR","station_name":"Citeras","transit":false,"time":10,"distance":7293,"i_lat":-6.334892,"i_long":106.332092,"is_transit":false}]]}