{"data":[[{"is_transit":false,"i_lat":-6.288927,"time":0,"station_name":"Jurangmangu","i_long":106.728916,"distance":0,"line":6,"transit":false,"station_id":"JMU"},{"station_name":"Pondokranji","time":3,"distance":2179,"transit":false,"line":6,"station_id":"PDJ","is_transit":false,"i_long":106.74273,"i_lat":-6.276362},{"station_id":"KBY","line":6,"time":8,"station_name":"Kebayoran","i_lat":-6.237242,"i_long":106.780334,"transit":false,"distance":6218,"is_transit":false},{"is_transit":false,"station_name":"Palmerah","station_id":"PLM","time":7,"i_lat":-6.207404,"distance":3737,"transit":false,"i_long":106.79689,"line":6},{"station_id":"THB","station_name":"Tanah Abang","time":6,"distance":3191,"i_long":106.811091,"transit":true,"i_lat":-6.185545,"is_transit":true,"line":1},{"transit":false,"line":1,"i_long":106.816351,"i_lat":-6.20132,"time":5,"is_transit":false,"distance":2029,"station_id":"KAT","station_name":"Karet"},{"station_name":"Sudirman Baru","distance":471,"time":1,"transit":false,"i_long":106.819881,"line":1,"i_lat":-6.201433,"is_transit":false,"station_id":"SUDB"},{"distance":280,"i_lat":-6.202263,"i_long":106.822649,"line":1,"station_id":"SUD","is_transit":false,"transit":false,"station_name":"Sudirman","time":1},{"i_lat":-6.209883,"station_name":"Manggarai","is_transit":true,"time":4,"station_id":"MRI","distance":3186,"line":0,"i_long":106.84912,"transit":true},{"i_long":106.857948,"i_lat":-6.226659,"distance":2610,"station_id":"TEB","line":2,"transit":false,"is_transit":false,"time":4,"station_name":"Tebet"},{"distance":1230,"transit":false,"i_lat":-6.242512,"station_id":"CW","time":2,"i_long":106.856607,"is_transit":false,"station_name":"Cawang","line":0}],[{"distance":0,"line":6,"time":0,"station_id":"JMU","i_lat":-6.288927,"transit":false,"is_transit":false,"i_long":106.728916,"station_name":"Jurangmangu"},{"distance":2179,"i_long":106.74273,"transit":false,"time":3,"station_id":"PDJ","is_transit":false,"station_name":"Pondokranji","line":6,"i_lat":-6.276362},{"time":8,"transit":false,"line":6,"station_name":"Kebayoran","i_long":106.780334,"station_id":"KBY","is_transit":false,"distance":6218,"i_lat":-6.237242},{"i_long":106.79689,"is_transit":false,"station_name":"Palmerah","distance":3737,"station_id":"PLM","transit":false,"time":7,"line":6,"i_lat":-6.207404},{"transit":true,"station_id":"THB","station_name":"Tanah Abang","line":1,"is_transit":true,"i_long":106.811091,"time":6,"distance":3191,"i_lat":-6.185545},{"i_lat":-6.155215,"is_transit":true,"distance":3632,"station_name":"Duri","station_id":"DU","line":1,"time":8,"i_long":106.800832,"transit":true},{"station_id":"AK","is_transit":false,"line":0,"transit":false,"distance":1230,"station_name":"Angke","i_lat":-6.144674,"time":4,"i_long":106.79867},{"station_name":"Kampung Bandan","station_id":"KPB","i_lat":-6.132549,"is_transit":true,"distance":4102,"i_long":106.826365,"time":9,"line":0,"transit":false},{"station_id":"JAKK","line":0,"transit":true,"i_long":106.812439,"station_name":"Jakarta Kota","distance":1364,"i_lat":-6.137569,"time":3,"is_transit":true},{"i_long":106.820901,"station_id":"JAY","is_transit":false,"time":4,"station_name":"Jayakarta","transit":false,"i_lat":-6.141205,"line":7,"distance":1264},{"station_name":"Manggabesar","i_lat":-6.149769,"i_long":106.82482,"transit":false,"station_id":"MGB","time":2,"line":2,"distance":1080,"is_transit":false},{"distance":906,"line":2,"time":2,"station_id":"SW","transit":false,"i_long":106.827103,"station_name":"Sawah Besar","is_transit":false,"i_lat":-6.160725},{"i_long":106.828284,"transit":false,"i_lat":-6.166716,"is_transit":false,"distance":1149,"time":2,"line":2,"station_name":"Juanda","station_id":"JUA"},{"transit":false,"is_transit":false,"station_id":"GDD","line":2,"distance":2015,"i_long":106.832183,"i_lat":-6.186295,"time":4,"station_name":"Gondangdia"},{"time":3,"transit":false,"i_long":106.840169,"line":0,"i_lat":-6.198556,"distance":1750,"is_transit":false,"station_id":"CKI","station_name":"Cikini"},{"distance":1590,"station_name":"Manggarai","transit":true,"station_id":"MRI","is_transit":true,"time":4,"i_lat":-6.209883,"line":0,"i_long":106.84912},{"i_long":106.857948,"is_transit":false,"line":2,"time":4,"station_name":"Tebet","station_id":"TEB","transit":false,"distance":2610,"i_lat":-6.226659},{"i_long":106.856607,"line":0,"time":2,"i_lat":-6.242512,"station_id":"CW","distance":1230,"transit":false,"station_name":"Cawang","is_transit":false}],[{"transit":false,"distance":0,"station_id":"JMU","time":0,"line":6,"i_long":106.728916,"station_name":"Jurangmangu","is_transit":false,"i_lat":-6.288927},{"i_lat":-6.276362,"time":3,"i_long":106.74273,"station_name":"Pondokranji","distance":2179,"transit":false,"is_transit":false,"line":6,"station_id":"PDJ"},{"is_transit":false,"i_lat":-6.237242,"transit":false,"i_long":106.780334,"line":6,"station_id":"KBY","time":8,"station_name":"Kebayoran","distance":6218},{"distance":3737,"station_name":"Palmerah","i_lat":-6.207404,"time":7,"transit":false,"i_long":106.79689,"line":6,"is_transit":false,"station_id":"PLM"},{"i_lat":-6.185545,"i_long":106.811091,"time":6,"is_transit":true,"distance":3191,"line":1,"station_id":"THB","transit":true,"station_name":"Tanah Abang"},{"time":8,"station_name":"Duri","i_long":106.800832,"station_id":"DU","transit":true,"is_transit":true,"distance":3632,"i_lat":-6.155215,"line":1},{"distance":1230,"station_name":"Angke","time":4,"i_lat":-6.144674,"i_long":106.79867,"station_id":"AK","line":0,"is_transit":false,"transit":false},{"station_name":"Kampung Bandan","i_lat":-6.132549,"transit":true,"time":9,"station_id":"KPB","i_long":106.826365,"line":0,"distance":4102,"is_transit":true},{"distance":1444,"i_lat":-6.14505,"time":3,"station_id":"RJW","transit":false,"station_name":"Rajawali","i_long":106.836569,"line":11,"is_transit":false},{"station_id":"KMO","transit":false,"is_transit":false,"i_long":106.839204,"line":11,"i_lat":-6.161728,"station_name":"Kemayoran","time":5,"distance":1901},{"station_name":"Pasar Senen","is_transit":false,"transit":false,"time":4,"distance":1436,"i_lat":-6.174784,"line":11,"i_long":106.84368,"station_id":"PSE"},{"time":8,"transit":false,"i_lat":-6.185975,"station_id":"GST","station_name":"Gang Sentiong","is_transit":false,"i_long":106.850107,"distance":1567,"line":11},{"distance":973,"station_id":"KMT","transit":false,"is_transit":false,"station_name":"Kramat","time":1,"line":11,"i_long":106.855437,"i_lat":-6.193792},{"i_lat":-6.209188,"distance":1829,"station_name":"Pondok Jati","is_transit":false,"i_long":106.861737,"time":2,"station_id":"POK","transit":false,"line":11},{"i_long":106.86807400000001,"is_transit":true,"distance":1236,"time":9,"transit":true,"station_id":"JNG","station_name":"Jatinegara","i_lat":-6.215091,"line":0},{"line":1,"station_name":"Matraman","time":2,"distance":1377,"transit":false,"is_transit":false,"station_id":"MTR","i_long":106.858896,"i_lat":-6.212485},{"station_name":"Manggarai","transit":true,"station_id":"MRI","i_lat":-6.209883,"line":0,"is_transit":true,"i_long":106.84912,"time":2,"distance":1275},{"transit":false,"i_long":106.857948,"distance":2610,"station_id":"TEB","station_name":"Tebet","time":4,"is_transit":false,"i_lat":-6.226659,"line":2},{"distance":1230,"station_id":"CW","transit":false,"time":2,"i_long":106.856607,"station_name":"Cawang","line":0,"is_transit":false,"i_lat":-6.242512}]]}