{"data":[[{"i_long":106.728916,"line":6,"time":0,"is_transit":false,"station_id":"JMU","transit":false,"station_name":"Jurangmangu","distance":0,"i_lat":-6.288927},{"transit":false,"time":3,"distance":2179,"i_long":106.74273,"i_lat":-6.276362,"station_name":"Pondokranji","line":6,"station_id":"PDJ","is_transit":false},{"line":6,"i_lat":-6.237242,"distance":6218,"time":8,"station_id":"KBY","i_long":106.780334,"station_name":"Kebayoran","transit":false,"is_transit":false},{"distance":3737,"i_lat":-6.207404,"i_long":106.79689,"transit":false,"line":6,"station_name":"Palmerah","station_id":"PLM","is_transit":false,"time":7},{"line":1,"station_name":"Tanah Abang","time":6,"i_long":106.811091,"distance":3191,"transit":true,"i_lat":-6.185545,"is_transit":true,"station_id":"THB"},{"station_name":"Duri","line":1,"is_transit":true,"i_lat":-6.155215,"transit":true,"station_id":"DU","i_long":106.800832,"distance":3632,"time":8},{"transit":false,"i_long":106.79867,"i_lat":-6.144674,"line":0,"distance":1230,"time":4,"station_id":"AK","is_transit":false,"station_name":"Angke"}],[{"i_long":106.728916,"is_transit":false,"line":6,"time":0,"station_name":"Jurangmangu","station_id":"JMU","transit":false,"i_lat":-6.288927,"distance":0},{"distance":2179,"i_long":106.74273,"i_lat":-6.276362,"transit":false,"is_transit":false,"line":6,"station_id":"PDJ","time":3,"station_name":"Pondokranji"},{"station_name":"Kebayoran","line":6,"time":8,"is_transit":false,"i_lat":-6.237242,"i_long":106.780334,"station_id":"KBY","distance":6218,"transit":false},{"station_name":"Palmerah","line":6,"time":7,"station_id":"PLM","i_lat":-6.207404,"is_transit":false,"i_long":106.79689,"distance":3737,"transit":false},{"is_transit":true,"transit":true,"station_name":"Tanah Abang","time":6,"i_lat":-6.185545,"station_id":"THB","line":1,"distance":3191,"i_long":106.811091},{"line":1,"i_lat":-6.20132,"station_name":"Karet","i_long":106.816351,"station_id":"KAT","is_transit":false,"transit":false,"time":5,"distance":2029},{"distance":471,"i_long":106.819881,"station_id":"SUDB","is_transit":false,"time":1,"transit":false,"station_name":"Sudirman Baru","i_lat":-6.201433,"line":1},{"is_transit":false,"distance":280,"station_name":"Sudirman","line":1,"station_id":"SUD","i_long":106.822649,"time":1,"i_lat":-6.202263,"transit":false},{"time":4,"transit":true,"i_lat":-6.209883,"line":0,"i_long":106.84912,"station_id":"MRI","distance":3186,"station_name":"Manggarai","is_transit":true},{"station_id":"CKI","transit":false,"line":0,"station_name":"Cikini","i_lat":-6.198556,"i_long":106.840169,"time":4,"distance":1590,"is_transit":false},{"distance":1750,"station_id":"GDD","transit":false,"time":3,"i_lat":-6.186295,"line":2,"i_long":106.832183,"is_transit":false,"station_name":"Gondangdia"},{"station_name":"Juanda","time":4,"station_id":"JUA","is_transit":false,"distance":2015,"transit":false,"i_lat":-6.166716,"i_long":106.828284,"line":2},{"station_id":"SW","station_name":"Sawah Besar","distance":1149,"i_long":106.827103,"line":2,"i_lat":-6.160725,"is_transit":false,"time":2,"transit":false},{"station_name":"Manggabesar","station_id":"MGB","transit":false,"distance":906,"i_lat":-6.149769,"time":2,"is_transit":false,"line":2,"i_long":106.82482},{"time":2,"i_long":106.820901,"distance":1080,"station_name":"Jayakarta","station_id":"JAY","transit":false,"line":7,"is_transit":false,"i_lat":-6.141205},{"line":0,"station_id":"JAKK","station_name":"Jakarta Kota","i_lat":-6.137569,"time":4,"transit":true,"is_transit":true,"distance":1264,"i_long":106.812439},{"station_name":"Kampung Bandan","station_id":"KPB","is_transit":true,"transit":false,"i_lat":-6.132549,"line":0,"time":3,"distance":1364,"i_long":106.826365},{"station_name":"Angke","i_lat":-6.144674,"station_id":"AK","is_transit":false,"distance":4102,"line":0,"time":9,"transit":false,"i_long":106.79867}],[{"station_id":"JMU","i_long":106.728916,"line":6,"station_name":"Jurangmangu","is_transit":false,"transit":false,"distance":0,"i_lat":-6.288927,"time":0},{"is_transit":false,"distance":2179,"station_id":"PDJ","station_name":"Pondokranji","transit":false,"line":6,"time":3,"i_long":106.74273,"i_lat":-6.276362},{"line":6,"transit":false,"time":8,"station_id":"KBY","station_name":"Kebayoran","is_transit":false,"i_lat":-6.237242,"distance":6218,"i_long":106.780334},{"station_id":"PLM","i_lat":-6.207404,"transit":false,"time":7,"station_name":"Palmerah","is_transit":false,"line":6,"distance":3737,"i_long":106.79689},{"transit":true,"station_name":"Tanah Abang","time":6,"i_long":106.811091,"distance":3191,"line":1,"i_lat":-6.185545,"station_id":"THB","is_transit":true},{"line":1,"distance":2029,"i_lat":-6.20132,"is_transit":false,"i_long":106.816351,"transit":false,"station_name":"Karet","station_id":"KAT","time":5},{"time":1,"distance":471,"is_transit":false,"station_name":"Sudirman Baru","i_lat":-6.201433,"i_long":106.819881,"station_id":"SUDB","transit":false,"line":1},{"station_id":"SUD","is_transit":false,"transit":false,"line":1,"time":1,"station_name":"Sudirman","distance":280,"i_lat":-6.202263,"i_long":106.822649},{"line":0,"station_id":"MRI","station_name":"Manggarai","i_lat":-6.209883,"i_long":106.84912,"time":4,"is_transit":true,"distance":3186,"transit":false},{"station_name":"Matraman","i_long":106.858896,"station_id":"MTR","time":2,"distance":1275,"line":1,"transit":false,"is_transit":false,"i_lat":-6.212485},{"distance":1377,"transit":true,"line":0,"time":8,"station_name":"Jatinegara","station_id":"JNG","is_transit":true,"i_long":106.86807400000001,"i_lat":-6.215091},{"station_name":"Pondok Jati","is_transit":false,"time":2,"i_lat":-6.209188,"line":11,"i_long":106.861737,"distance":1236,"station_id":"POK","transit":false},{"station_name":"Kramat","is_transit":false,"time":2,"distance":1829,"line":11,"station_id":"KMT","i_long":106.855437,"i_lat":-6.193792,"transit":false},{"is_transit":false,"distance":973,"time":1,"transit":false,"station_name":"Gang Sentiong","line":11,"i_long":106.850107,"station_id":"GST","i_lat":-6.185975},{"time":8,"i_lat":-6.174784,"transit":false,"i_long":106.84368,"is_transit":false,"station_name":"Pasar Senen","line":11,"station_id":"PSE","distance":1567},{"time":4,"station_id":"KMO","is_transit":false,"transit":false,"i_lat":-6.161728,"station_name":"Kemayoran","line":11,"distance":1436,"i_long":106.839204},{"line":11,"distance":1901,"i_long":106.836569,"is_transit":false,"station_id":"RJW","transit":false,"time":5,"i_lat":-6.14505,"station_name":"Rajawali"},{"line":0,"station_id":"KPB","time":3,"is_transit":true,"i_lat":-6.132549,"transit":true,"distance":1444,"i_long":106.826365,"station_name":"Kampung Bandan"},{"distance":4102,"i_lat":-6.144674,"is_transit":false,"station_name":"Angke","time":9,"line":0,"station_id":"AK","i_long":106.79867,"transit":false}]]}