{"data":[[{"station_name":"Jurangmangu","i_lat":-6.288927,"i_long":106.728916,"station_id":"JMU","distance":0,"time":0,"transit":false,"is_transit":false,"line":6},{"station_name":"Sudimara","i_lat":-6.296963,"time":4,"line":6,"i_long":106.712277,"is_transit":false,"distance":1994,"transit":false,"station_id":"SDM"},{"station_id":"RU","distance":4566,"time":6,"station_name":"Rawa Buntu","is_transit":false,"transit":false,"i_lat":-6.314823,"i_long":106.675475,"line":6},{"line":6,"time":4,"station_id":"SRP","i_long":106.66566,"is_transit":false,"transit":false,"distance":2413,"i_lat":-6.319871,"station_name":"Serpong"},{"distance":1784,"station_id":"CSK","time":4,"is_transit":false,"station_name":"Cisauk","i_lat":-6.32484,"transit":false,"line":3,"i_long":106.640411},{"is_transit":false,"time":4,"i_long":106.617853,"i_lat":-6.329547,"line":3,"distance":2519,"station_name":"Cicayur","station_id":"CC","transit":false},{"line":6,"time":8,"transit":false,"i_long":106.568863,"station_name":"Parung Panjang","distance":5968,"i_lat":-6.3441410000000005,"is_transit":false,"station_id":"PRP"},{"station_name":"Cilejit","distance":7025,"line":3,"is_transit":false,"time":9,"transit":false,"station_id":"CJT","i_lat":-6.354349,"i_long":106.508482},{"is_transit":false,"time":6,"i_long":106.491338,"transit":false,"station_name":"Daru","i_lat":-6.338021,"station_id":"DAR","distance":2675,"line":0},{"station_id":"TEJ","i_long":106.460812,"transit":false,"i_lat":-6.327251,"is_transit":false,"line":6,"station_name":"Tenjo","time":5,"distance":3902},{"transit":false,"is_transit":false,"i_lat":-6.328533,"time":5,"distance":2974,"line":6,"station_id":"TGS","i_long":106.425991,"station_name":"Tigaraksa"},{"is_transit":false,"transit":false,"distance":2651,"time":3,"station_id":"CKY","i_long":106.411216,"line":3,"i_lat":-6.33561,"station_name":"Cikoya"}]]}