{"data":[[{"time":0,"i_lat":-6.288927,"distance":0,"i_long":106.728916,"line":6,"station_name":"Jurangmangu","station_id":"JMU","transit":false,"is_transit":false},{"distance":2179,"station_id":"PDJ","time":3,"i_long":106.74273,"station_name":"Pondokranji","line":6,"i_lat":-6.276362,"is_transit":false,"transit":false},{"transit":false,"time":8,"line":6,"station_id":"KBY","is_transit":false,"i_long":106.780334,"station_name":"Kebayoran","i_lat":-6.237242,"distance":6218},{"time":7,"i_lat":-6.207404,"station_id":"PLM","distance":3737,"line":6,"transit":false,"is_transit":false,"station_name":"Palmerah","i_long":106.79689},{"line":1,"time":6,"is_transit":true,"distance":3191,"i_long":106.811091,"transit":true,"station_name":"Tanah Abang","station_id":"THB","i_lat":-6.185545},{"is_transit":false,"station_id":"KAT","time":5,"station_name":"Karet","i_lat":-6.20132,"distance":2029,"i_long":106.816351,"line":1,"transit":false},{"station_id":"SUDB","transit":false,"time":1,"station_name":"Sudirman Baru","distance":471,"line":1,"i_lat":-6.201433,"i_long":106.819881,"is_transit":false},{"station_name":"Sudirman","i_lat":-6.202263,"is_transit":false,"distance":280,"line":1,"transit":false,"time":1,"station_id":"SUD","i_long":106.822649},{"station_name":"Manggarai","transit":true,"time":4,"i_lat":-6.209883,"i_long":106.84912,"line":2,"distance":3186,"is_transit":true,"station_id":"MRI"},{"distance":2610,"line":2,"station_id":"TEB","transit":false,"station_name":"Tebet","is_transit":false,"time":4,"i_lat":-6.226659,"i_long":106.857948},{"i_long":106.856607,"i_lat":-6.242512,"is_transit":false,"line":2,"time":2,"transit":false,"station_name":"Cawang","distance":1230,"station_id":"CW"},{"transit":false,"i_long":106.85449,"i_lat":-6.255332,"distance":1546,"time":3,"station_name":"Duren Kalibata","is_transit":false,"station_id":"DRN","line":2},{"i_long":106.851577,"transit":false,"is_transit":false,"time":2,"line":2,"station_name":"Pasar Minggu Baru","station_id":"PSMB","distance":824,"i_lat":-6.263214}],[{"line":6,"station_name":"Jurangmangu","distance":0,"is_transit":false,"transit":false,"station_id":"JMU","i_lat":-6.288927,"time":0,"i_long":106.728916},{"time":3,"station_name":"Pondokranji","distance":2179,"station_id":"PDJ","transit":false,"i_lat":-6.276362,"i_long":106.74273,"line":6,"is_transit":false},{"distance":6218,"i_lat":-6.237242,"transit":false,"is_transit":false,"line":6,"station_name":"Kebayoran","station_id":"KBY","time":8,"i_long":106.780334},{"station_id":"PLM","i_lat":-6.207404,"distance":3737,"transit":false,"time":7,"line":6,"is_transit":false,"i_long":106.79689,"station_name":"Palmerah"},{"transit":true,"time":6,"line":1,"i_lat":-6.185545,"distance":3191,"is_transit":true,"station_id":"THB","i_long":106.811091,"station_name":"Tanah Abang"},{"line":1,"station_name":"Duri","distance":3632,"time":8,"transit":false,"station_id":"DU","i_long":106.800832,"is_transit":false,"i_lat":-6.155215},{"distance":1230,"line":1,"i_lat":-6.144674,"is_transit":false,"station_id":"AK","time":4,"i_long":106.79867,"transit":false,"station_name":"Angke"},{"station_id":"KPB","is_transit":true,"i_long":106.826365,"time":9,"station_name":"Kampung Bandan","i_lat":-6.132549,"line":4,"transit":true,"distance":4102},{"time":3,"station_id":"JAKK","i_long":106.812439,"transit":true,"station_name":"Jakarta Kota","distance":1364,"is_transit":true,"i_lat":-6.137569,"line":2},{"line":2,"transit":false,"station_name":"Jayakarta","is_transit":false,"station_id":"JAY","time":4,"i_lat":-6.141205,"i_long":106.820901,"distance":1264},{"transit":false,"i_long":106.82482,"time":2,"distance":1080,"station_name":"Manggabesar","i_lat":-6.149769,"line":2,"station_id":"MGB","is_transit":false},{"line":2,"station_id":"SW","time":2,"station_name":"Sawah Besar","transit":false,"i_long":106.827103,"distance":906,"is_transit":false,"i_lat":-6.160725},{"line":2,"transit":false,"station_id":"JUA","time":2,"station_name":"Juanda","i_lat":-6.166716,"distance":1149,"is_transit":false,"i_long":106.828284},{"is_transit":false,"time":4,"distance":2015,"station_name":"Gondangdia","station_id":"GDD","transit":false,"i_long":106.832183,"line":2,"i_lat":-6.186295},{"transit":false,"time":3,"line":2,"i_lat":-6.198556,"station_name":"Cikini","i_long":106.840169,"is_transit":false,"distance":1750,"station_id":"CKI"},{"time":4,"i_long":106.84912,"distance":1590,"line":2,"i_lat":-6.209883,"transit":false,"is_transit":false,"station_name":"Manggarai","station_id":"MRI"},{"is_transit":false,"station_id":"TEB","station_name":"Tebet","i_lat":-6.226659,"transit":false,"distance":2610,"time":4,"i_long":106.857948,"line":2},{"line":2,"distance":1230,"is_transit":false,"i_long":106.856607,"i_lat":-6.242512,"transit":false,"station_id":"CW","station_name":"Cawang","time":2},{"i_long":106.85449,"time":3,"station_id":"DRN","distance":1546,"line":2,"is_transit":false,"i_lat":-6.255332,"station_name":"Duren Kalibata","transit":false},{"i_long":106.851577,"station_id":"PSMB","station_name":"Pasar Minggu Baru","i_lat":-6.263214,"transit":false,"is_transit":false,"time":2,"distance":824,"line":2}],[{"distance":0,"station_id":"JMU","station_name":"Jurangmangu","i_lat":-6.288927,"transit":false,"line":6,"i_long":106.728916,"is_transit":false,"time":0},{"line":6,"i_lat":-6.276362,"station_name":"Pondokranji","time":3,"is_transit":false,"distance":2179,"i_long":106.74273,"transit":false,"station_id":"PDJ"},{"is_transit":false,"line":6,"distance":6218,"station_id":"KBY","station_name":"Kebayoran","transit":false,"time":8,"i_long":106.780334,"i_lat":-6.237242},{"station_id":"PLM","i_long":106.79689,"line":6,"i_lat":-6.207404,"station_name":"Palmerah","transit":false,"is_transit":false,"distance":3737,"time":7},{"distance":3191,"transit":true,"i_long":106.811091,"is_transit":true,"station_id":"THB","time":6,"line":1,"station_name":"Tanah Abang","i_lat":-6.185545},{"distance":3632,"station_id":"DU","i_long":106.800832,"line":1,"i_lat":-6.155215,"transit":false,"is_transit":false,"time":8,"station_name":"Duri"},{"station_name":"Angke","is_transit":false,"time":4,"distance":1230,"transit":false,"station_id":"AK","i_lat":-6.144674,"i_long":106.79867,"line":1},{"station_id":"KPB","distance":4102,"is_transit":true,"station_name":"Kampung Bandan","i_long":106.826365,"transit":true,"line":4,"time":9,"i_lat":-6.132549},{"station_id":"RJW","transit":false,"is_transit":false,"i_lat":-6.14505,"i_long":106.836569,"line":11,"distance":1444,"time":3,"station_name":"Rajawali"},{"station_id":"KMO","distance":1901,"i_long":106.839204,"is_transit":false,"station_name":"Kemayoran","line":11,"i_lat":-6.161728,"time":5,"transit":false},{"i_lat":-6.174784,"transit":false,"is_transit":false,"distance":1436,"i_long":106.84368,"time":4,"station_name":"Pasar Senen","station_id":"PSE","line":11},{"station_name":"Gang Sentiong","is_transit":false,"time":8,"line":11,"station_id":"GST","i_long":106.850107,"transit":false,"i_lat":-6.185975,"distance":1567},{"is_transit":false,"line":11,"i_lat":-6.193792,"station_id":"KMT","i_long":106.855437,"distance":973,"transit":false,"time":1,"station_name":"Kramat"},{"distance":1829,"transit":false,"line":11,"i_long":106.861737,"station_name":"Pondok Jati","station_id":"POK","time":2,"is_transit":false,"i_lat":-6.209188},{"i_long":106.86807400000001,"is_transit":true,"distance":1236,"station_id":"JNG","station_name":"Jatinegara","time":9,"transit":true,"line":1,"i_lat":-6.215091},{"station_name":"Matraman","i_long":106.858896,"line":1,"distance":1377,"transit":false,"is_transit":false,"station_id":"MTR","i_lat":-6.212485,"time":2},{"transit":true,"i_lat":-6.209883,"i_long":106.84912,"is_transit":true,"distance":1275,"station_name":"Manggarai","station_id":"MRI","time":2,"line":2},{"line":2,"i_long":106.857948,"transit":false,"time":4,"distance":2610,"is_transit":false,"station_id":"TEB","i_lat":-6.226659,"station_name":"Tebet"},{"distance":1230,"i_long":106.856607,"is_transit":false,"station_id":"CW","transit":false,"station_name":"Cawang","i_lat":-6.242512,"line":2,"time":2},{"distance":1546,"transit":false,"i_long":106.85449,"time":3,"i_lat":-6.255332,"line":2,"is_transit":false,"station_name":"Duren Kalibata","station_id":"DRN"},{"station_id":"PSMB","is_transit":false,"station_name":"Pasar Minggu Baru","i_long":106.851577,"transit":false,"i_lat":-6.263214,"time":2,"distance":824,"line":2}]]}