{"data":[[{"time":0,"station_id":"JMU","distance":0,"i_long":106.728916,"line":6,"transit":false,"i_lat":-6.288927,"is_transit":false,"station_name":"Jurangmangu"},{"time":3,"station_name":"Pondokranji","i_long":106.74273,"station_id":"PDJ","transit":false,"distance":2179,"line":6,"i_lat":-6.276362,"is_transit":false},{"time":8,"transit":false,"is_transit":false,"distance":6218,"station_name":"Kebayoran","i_lat":-6.237242,"station_id":"KBY","i_long":106.780334,"line":6},{"distance":3737,"station_id":"PLM","station_name":"Palmerah","i_lat":-6.207404,"transit":false,"i_long":106.79689,"line":6,"is_transit":false,"time":7},{"station_name":"Tanah Abang","transit":true,"time":6,"i_long":106.811091,"is_transit":true,"line":1,"distance":3191,"i_lat":-6.185545,"station_id":"THB"},{"station_id":"KAT","transit":false,"time":5,"distance":2029,"i_lat":-6.20132,"i_long":106.816351,"station_name":"Karet","line":1,"is_transit":false},{"time":1,"is_transit":false,"line":1,"i_long":106.819881,"distance":471,"station_id":"SUDB","i_lat":-6.201433,"station_name":"Sudirman Baru","transit":false},{"line":1,"time":1,"station_name":"Sudirman","is_transit":false,"i_lat":-6.202263,"i_long":106.822649,"transit":false,"distance":280,"station_id":"SUD"},{"is_transit":true,"station_name":"Manggarai","transit":true,"station_id":"MRI","distance":3186,"i_lat":-6.209883,"i_long":106.84912,"line":2,"time":4},{"transit":false,"time":4,"i_long":106.857948,"i_lat":-6.226659,"distance":2610,"line":2,"station_name":"Tebet","station_id":"TEB","is_transit":false},{"station_name":"Cawang","transit":false,"is_transit":false,"line":2,"i_lat":-6.242512,"distance":1230,"station_id":"CW","i_long":106.856607,"time":2},{"station_id":"DRN","is_transit":false,"transit":false,"time":3,"i_long":106.85449,"line":2,"distance":1546,"i_lat":-6.255332,"station_name":"Duren Kalibata"},{"is_transit":false,"i_long":106.851577,"distance":824,"i_lat":-6.263214,"time":2,"line":2,"transit":false,"station_name":"Pasar Minggu Baru","station_id":"PSMB"},{"time":2,"station_name":"Pasar Minggu","i_long":106.843999,"distance":2380,"is_transit":false,"station_id":"PSM","transit":false,"i_lat":-6.2842400000000005,"line":2}],[{"distance":0,"line":6,"transit":false,"station_id":"JMU","station_name":"Jurangmangu","i_long":106.728916,"is_transit":false,"i_lat":-6.288927,"time":0},{"distance":2179,"time":3,"station_name":"Pondokranji","line":6,"transit":false,"i_long":106.74273,"i_lat":-6.276362,"is_transit":false,"station_id":"PDJ"},{"distance":6218,"time":8,"i_lat":-6.237242,"line":6,"i_long":106.780334,"transit":false,"is_transit":false,"station_name":"Kebayoran","station_id":"KBY"},{"station_id":"PLM","transit":false,"i_long":106.79689,"is_transit":false,"time":7,"i_lat":-6.207404,"station_name":"Palmerah","distance":3737,"line":6},{"line":1,"station_id":"THB","distance":3191,"time":6,"i_lat":-6.185545,"is_transit":true,"i_long":106.811091,"station_name":"Tanah Abang","transit":true},{"is_transit":false,"distance":3632,"station_name":"Duri","i_long":106.800832,"i_lat":-6.155215,"station_id":"DU","transit":false,"time":8,"line":1},{"transit":false,"station_id":"AK","distance":1230,"i_lat":-6.144674,"time":4,"i_long":106.79867,"is_transit":false,"line":1,"station_name":"Angke"},{"is_transit":true,"transit":true,"i_long":106.826365,"time":9,"station_name":"Kampung Bandan","distance":4102,"i_lat":-6.132549,"line":4,"station_id":"KPB"},{"i_lat":-6.137569,"distance":1364,"is_transit":true,"i_long":106.812439,"station_id":"JAKK","transit":true,"station_name":"Jakarta Kota","time":3,"line":2},{"station_id":"JAY","is_transit":false,"station_name":"Jayakarta","time":4,"i_lat":-6.141205,"i_long":106.820901,"transit":false,"line":2,"distance":1264},{"time":2,"transit":false,"i_lat":-6.149769,"station_name":"Manggabesar","line":2,"is_transit":false,"i_long":106.82482,"station_id":"MGB","distance":1080},{"time":2,"transit":false,"station_name":"Sawah Besar","i_lat":-6.160725,"station_id":"SW","distance":906,"line":2,"is_transit":false,"i_long":106.827103},{"station_name":"Juanda","distance":1149,"i_long":106.828284,"line":2,"time":2,"station_id":"JUA","i_lat":-6.166716,"is_transit":false,"transit":false},{"station_name":"Gondangdia","distance":2015,"i_lat":-6.186295,"transit":false,"i_long":106.832183,"station_id":"GDD","line":2,"time":4,"is_transit":false},{"distance":1750,"i_lat":-6.198556,"line":2,"time":3,"is_transit":false,"station_name":"Cikini","i_long":106.840169,"station_id":"CKI","transit":false},{"distance":1590,"line":2,"station_id":"MRI","time":4,"station_name":"Manggarai","is_transit":false,"i_lat":-6.209883,"transit":false,"i_long":106.84912},{"distance":2610,"station_id":"TEB","transit":false,"time":4,"i_lat":-6.226659,"station_name":"Tebet","i_long":106.857948,"line":2,"is_transit":false},{"line":2,"station_name":"Cawang","time":2,"distance":1230,"is_transit":false,"transit":false,"i_lat":-6.242512,"i_long":106.856607,"station_id":"CW"},{"i_lat":-6.255332,"is_transit":false,"time":3,"line":2,"distance":1546,"station_id":"DRN","station_name":"Duren Kalibata","i_long":106.85449,"transit":false},{"transit":false,"i_lat":-6.263214,"time":2,"station_name":"Pasar Minggu Baru","is_transit":false,"station_id":"PSMB","i_long":106.851577,"line":2,"distance":824},{"is_transit":false,"time":2,"i_long":106.843999,"distance":2380,"i_lat":-6.2842400000000005,"transit":false,"station_name":"Pasar Minggu","line":2,"station_id":"PSM"}],[{"station_id":"JMU","time":0,"station_name":"Jurangmangu","i_lat":-6.288927,"is_transit":false,"line":6,"distance":0,"i_long":106.728916,"transit":false},{"i_long":106.74273,"distance":2179,"is_transit":false,"i_lat":-6.276362,"station_id":"PDJ","transit":false,"station_name":"Pondokranji","time":3,"line":6},{"station_name":"Kebayoran","distance":6218,"i_long":106.780334,"time":8,"transit":false,"i_lat":-6.237242,"line":6,"is_transit":false,"station_id":"KBY"},{"distance":3737,"station_name":"Palmerah","time":7,"transit":false,"line":6,"i_long":106.79689,"station_id":"PLM","is_transit":false,"i_lat":-6.207404},{"time":6,"i_lat":-6.185545,"station_id":"THB","i_long":106.811091,"transit":true,"distance":3191,"line":1,"station_name":"Tanah Abang","is_transit":true},{"station_id":"DU","distance":3632,"i_long":106.800832,"station_name":"Duri","transit":false,"time":8,"i_lat":-6.155215,"line":1,"is_transit":false},{"station_name":"Angke","is_transit":false,"time":4,"distance":1230,"i_lat":-6.144674,"transit":false,"station_id":"AK","i_long":106.79867,"line":1},{"is_transit":true,"station_name":"Kampung Bandan","transit":true,"station_id":"KPB","time":9,"distance":4102,"i_lat":-6.132549,"i_long":106.826365,"line":4},{"i_lat":-6.14505,"is_transit":false,"distance":1444,"station_id":"RJW","i_long":106.836569,"time":3,"station_name":"Rajawali","transit":false,"line":11},{"station_id":"KMO","i_long":106.839204,"station_name":"Kemayoran","distance":1901,"line":11,"i_lat":-6.161728,"transit":false,"is_transit":false,"time":5},{"i_long":106.84368,"is_transit":false,"i_lat":-6.174784,"time":4,"line":11,"distance":1436,"station_name":"Pasar Senen","transit":false,"station_id":"PSE"},{"station_id":"GST","is_transit":false,"time":8,"line":11,"distance":1567,"transit":false,"i_long":106.850107,"station_name":"Gang Sentiong","i_lat":-6.185975},{"i_long":106.855437,"line":11,"transit":false,"station_name":"Kramat","i_lat":-6.193792,"is_transit":false,"time":1,"station_id":"KMT","distance":973},{"i_lat":-6.209188,"line":11,"station_id":"POK","time":2,"i_long":106.861737,"is_transit":false,"station_name":"Pondok Jati","distance":1829,"transit":false},{"i_long":106.86807400000001,"station_id":"JNG","distance":1236,"i_lat":-6.215091,"time":9,"is_transit":true,"station_name":"Jatinegara","transit":true,"line":1},{"station_id":"MTR","distance":1377,"i_long":106.858896,"is_transit":false,"time":2,"line":1,"transit":false,"station_name":"Matraman","i_lat":-6.212485},{"station_id":"MRI","transit":true,"i_long":106.84912,"i_lat":-6.209883,"line":2,"time":2,"distance":1275,"is_transit":true,"station_name":"Manggarai"},{"is_transit":false,"distance":2610,"i_lat":-6.226659,"i_long":106.857948,"transit":false,"line":2,"time":4,"station_name":"Tebet","station_id":"TEB"},{"time":2,"is_transit":false,"distance":1230,"station_name":"Cawang","i_long":106.856607,"station_id":"CW","transit":false,"line":2,"i_lat":-6.242512},{"station_name":"Duren Kalibata","time":3,"i_lat":-6.255332,"i_long":106.85449,"line":2,"is_transit":false,"transit":false,"station_id":"DRN","distance":1546},{"time":2,"i_lat":-6.263214,"i_long":106.851577,"station_id":"PSMB","station_name":"Pasar Minggu Baru","distance":824,"is_transit":false,"line":2,"transit":false},{"station_id":"PSM","is_transit":false,"station_name":"Pasar Minggu","distance":2380,"i_lat":-6.2842400000000005,"line":2,"i_long":106.843999,"transit":false,"time":2}]]}