{"data":[[{"station_name":"Jurangmangu","time":0,"is_transit":false,"i_lat":-6.288927,"station_id":"JMU","i_long":106.728916,"transit":false,"distance":0,"line":6},{"is_transit":false,"i_long":106.712277,"station_name":"Sudimara","transit":false,"time":4,"distance":1994,"station_id":"SDM","line":6,"i_lat":-6.296963},{"transit":false,"is_transit":false,"station_id":"RU","distance":4566,"i_long":106.675475,"station_name":"Rawa Buntu","time":6,"line":6,"i_lat":-6.314823},{"station_name":"Serpong","is_transit":false,"i_lat":-6.319871,"distance":2413,"time":4,"i_long":106.66566,"transit":false,"line":6,"station_id":"SRP"},{"i_long":106.640411,"station_name":"Cisauk","i_lat":-6.32484,"line":3,"transit":false,"time":4,"is_transit":false,"station_id":"CSK","distance":1784},{"transit":false,"station_id":"CC","line":3,"i_lat":-6.329547,"time":4,"is_transit":false,"station_name":"Cicayur","distance":2519,"i_long":106.617853},{"station_name":"Parung Panjang","station_id":"PRP","line":6,"time":8,"distance":5968,"i_lat":-6.3441410000000005,"transit":false,"i_long":106.568863,"is_transit":false},{"transit":false,"station_name":"Cilejit","distance":7025,"time":9,"is_transit":false,"i_long":106.508482,"line":3,"i_lat":-6.354349,"station_id":"CJT"},{"transit":false,"is_transit":false,"distance":2675,"i_lat":-6.338021,"time":6,"station_name":"Daru","station_id":"DAR","i_long":106.491338,"line":0},{"i_long":106.460812,"is_transit":false,"time":5,"line":6,"station_name":"Tenjo","distance":3902,"transit":false,"station_id":"TEJ","i_lat":-6.327251},{"i_lat":-6.328533,"is_transit":false,"time":5,"station_name":"Tigaraksa","station_id":"TGS","transit":false,"distance":2974,"i_long":106.425991,"line":6},{"i_lat":-6.33561,"distance":2651,"line":3,"i_long":106.411216,"is_transit":false,"time":3,"station_id":"CKY","station_name":"Cikoya","transit":false},{"station_name":"Maja","i_lat":-6.332307,"is_transit":false,"distance":1853,"station_id":"MJ","time":4,"i_long":106.394373,"transit":false,"line":6},{"station_name":"Citeras","i_lat":-6.334892,"transit":false,"is_transit":false,"i_long":106.332092,"time":10,"distance":7293,"line":3,"station_id":"CTR"},{"station_id":"RK","distance":9847,"i_long":106.250396,"i_lat":-6.352675,"line":3,"station_name":"Rangkasbitung","transit":false,"is_transit":false,"time":13}]]}