{"data":[[{"time":0,"line":6,"transit":false,"is_transit":false,"station_name":"Jurangmangu","station_id":"JMU","i_lat":-6.288927,"distance":0,"i_long":106.728916},{"station_name":"Pondokranji","time":3,"i_long":106.74273,"is_transit":false,"distance":2179,"transit":false,"line":6,"i_lat":-6.276362,"station_id":"PDJ"},{"line":6,"i_lat":-6.237242,"is_transit":false,"transit":false,"i_long":106.780334,"station_id":"KBY","distance":6218,"station_name":"Kebayoran","time":8},{"time":7,"i_lat":-6.207404,"station_name":"Palmerah","i_long":106.79689,"is_transit":false,"line":6,"station_id":"PLM","distance":3737,"transit":false},{"station_id":"THB","line":1,"station_name":"Tanah Abang","transit":true,"i_long":106.811091,"time":6,"i_lat":-6.185545,"is_transit":true,"distance":3191},{"line":1,"i_lat":-6.20132,"station_id":"KAT","distance":2029,"station_name":"Karet","is_transit":false,"transit":false,"i_long":106.816351,"time":5},{"distance":471,"i_long":106.819881,"line":1,"time":1,"transit":false,"station_id":"SUDB","is_transit":false,"station_name":"Sudirman Baru","i_lat":-6.201433},{"station_id":"SUD","i_long":106.822649,"is_transit":false,"line":1,"time":1,"distance":280,"transit":false,"station_name":"Sudirman","i_lat":-6.202263},{"time":4,"station_id":"MRI","is_transit":true,"i_lat":-6.209883,"transit":true,"distance":3186,"station_name":"Manggarai","i_long":106.84912,"line":0},{"i_long":106.857948,"station_id":"TEB","time":4,"transit":false,"station_name":"Tebet","distance":2610,"is_transit":false,"line":2,"i_lat":-6.226659},{"line":0,"station_id":"CW","transit":false,"time":2,"i_lat":-6.242512,"distance":1230,"i_long":106.856607,"station_name":"Cawang","is_transit":false},{"i_long":106.85449,"distance":1546,"i_lat":-6.255332,"time":3,"is_transit":false,"transit":false,"station_name":"Duren Kalibata","line":0,"station_id":"DRN"},{"station_id":"PSMB","distance":824,"time":2,"transit":false,"station_name":"Pasar Minggu Baru","i_lat":-6.263214,"i_long":106.851577,"is_transit":false,"line":2},{"distance":2380,"time":2,"station_name":"Pasar Minggu","line":2,"is_transit":false,"station_id":"PSM","i_lat":-6.2842400000000005,"transit":false,"i_long":106.843999},{"station_name":"Tanjung Barat","is_transit":false,"transit":false,"i_lat":-6.3080680000000005,"station_id":"TNT","distance":2820,"i_long":106.838896,"time":4,"line":2},{"i_lat":-6.330363,"distance":2671,"station_id":"LNA","i_long":106.832616,"station_name":"Lenteng Agung","line":2,"time":3,"transit":false,"is_transit":false},{"station_name":"Univ. Pancasila","station_id":"UP","time":2,"transit":false,"i_long":106.834175,"i_lat":-6.339291,"line":2,"is_transit":false,"distance":1029},{"station_name":"Univ. Indonesia","i_long":106.831474,"line":2,"distance":2264,"station_id":"UI","transit":false,"is_transit":false,"i_lat":-6.360749,"time":3},{"is_transit":false,"transit":false,"i_long":106.831114,"line":2,"station_name":"Pondok Cina","distance":1109,"station_id":"POC","i_lat":-6.369073,"time":2},{"is_transit":false,"i_long":106.819451,"time":4,"transit":false,"i_lat":-6.391065,"station_name":"Depokbaru","line":0,"station_id":"DPB","distance":2727},{"line":0,"time":3,"transit":false,"station_name":"Depok","distance":1584,"station_id":"DP","i_lat":-6.405256,"i_long":106.816926,"is_transit":false},{"is_transit":true,"time":6,"i_long":106.800298,"station_id":"CTA","station_name":"Citayam","i_lat":-6.448811,"distance":5084,"line":1,"transit":false},{"station_name":"Bojonggede","distance":5197,"transit":false,"station_id":"BJD","i_lat":-6.493243,"line":0,"time":5,"i_long":106.792719,"is_transit":false}],[{"station_id":"JMU","distance":0,"station_name":"Jurangmangu","i_long":106.728916,"time":0,"transit":false,"is_transit":false,"i_lat":-6.288927,"line":6},{"time":3,"distance":2179,"station_id":"PDJ","i_long":106.74273,"line":6,"i_lat":-6.276362,"station_name":"Pondokranji","is_transit":false,"transit":false},{"distance":6218,"line":6,"is_transit":false,"station_name":"Kebayoran","time":8,"i_lat":-6.237242,"transit":false,"i_long":106.780334,"station_id":"KBY"},{"distance":3737,"i_long":106.79689,"line":6,"station_name":"Palmerah","station_id":"PLM","is_transit":false,"time":7,"transit":false,"i_lat":-6.207404},{"is_transit":true,"station_name":"Tanah Abang","time":6,"i_lat":-6.185545,"line":1,"station_id":"THB","transit":true,"i_long":106.811091,"distance":3191},{"time":8,"i_lat":-6.155215,"station_id":"DU","line":1,"i_long":106.800832,"transit":true,"is_transit":true,"distance":3632,"station_name":"Duri"},{"distance":1230,"i_lat":-6.144674,"station_name":"Angke","i_long":106.79867,"transit":false,"line":0,"station_id":"AK","is_transit":false,"time":4},{"station_name":"Kampung Bandan","i_long":106.826365,"station_id":"KPB","i_lat":-6.132549,"is_transit":true,"distance":4102,"transit":false,"time":9,"line":0},{"line":0,"time":3,"i_long":106.812439,"transit":true,"station_id":"JAKK","is_transit":true,"distance":1364,"i_lat":-6.137569,"station_name":"Jakarta Kota"},{"station_id":"JAY","i_lat":-6.141205,"line":7,"time":4,"is_transit":false,"station_name":"Jayakarta","distance":1264,"transit":false,"i_long":106.820901},{"is_transit":false,"distance":1080,"line":2,"time":2,"station_id":"MGB","transit":false,"i_lat":-6.149769,"i_long":106.82482,"station_name":"Manggabesar"},{"station_name":"Sawah Besar","time":2,"i_lat":-6.160725,"station_id":"SW","line":2,"distance":906,"i_long":106.827103,"transit":false,"is_transit":false},{"i_lat":-6.166716,"station_name":"Juanda","transit":false,"i_long":106.828284,"station_id":"JUA","line":2,"time":2,"distance":1149,"is_transit":false},{"station_id":"GDD","station_name":"Gondangdia","distance":2015,"time":4,"i_lat":-6.186295,"i_long":106.832183,"line":2,"is_transit":false,"transit":false},{"is_transit":false,"transit":false,"station_id":"CKI","distance":1750,"i_lat":-6.198556,"i_long":106.840169,"line":0,"station_name":"Cikini","time":3},{"line":0,"is_transit":true,"i_long":106.84912,"distance":1590,"time":4,"station_name":"Manggarai","transit":true,"i_lat":-6.209883,"station_id":"MRI"},{"line":2,"station_name":"Tebet","is_transit":false,"i_long":106.857948,"transit":false,"time":4,"station_id":"TEB","distance":2610,"i_lat":-6.226659},{"line":0,"time":2,"distance":1230,"is_transit":false,"transit":false,"i_long":106.856607,"station_name":"Cawang","i_lat":-6.242512,"station_id":"CW"},{"distance":1546,"station_id":"DRN","transit":false,"i_lat":-6.255332,"time":3,"station_name":"Duren Kalibata","i_long":106.85449,"line":0,"is_transit":false},{"is_transit":false,"i_long":106.851577,"station_name":"Pasar Minggu Baru","transit":false,"line":2,"i_lat":-6.263214,"station_id":"PSMB","distance":824,"time":2},{"station_name":"Pasar Minggu","is_transit":false,"station_id":"PSM","time":2,"i_lat":-6.2842400000000005,"transit":false,"line":2,"distance":2380,"i_long":106.843999},{"time":4,"transit":false,"i_lat":-6.3080680000000005,"station_name":"Tanjung Barat","line":2,"i_long":106.838896,"station_id":"TNT","is_transit":false,"distance":2820},{"i_lat":-6.330363,"station_name":"Lenteng Agung","is_transit":false,"transit":false,"distance":2671,"i_long":106.832616,"station_id":"LNA","time":3,"line":2},{"station_id":"UP","distance":1029,"transit":false,"i_lat":-6.339291,"station_name":"Univ. Pancasila","time":2,"i_long":106.834175,"is_transit":false,"line":2},{"station_name":"Univ. Indonesia","is_transit":false,"i_lat":-6.360749,"transit":false,"time":3,"i_long":106.831474,"distance":2264,"station_id":"UI","line":2},{"station_name":"Pondok Cina","transit":false,"distance":1109,"i_lat":-6.369073,"station_id":"POC","is_transit":false,"line":2,"time":2,"i_long":106.831114},{"line":0,"station_id":"DPB","time":4,"is_transit":false,"transit":false,"i_lat":-6.391065,"i_long":106.819451,"station_name":"Depokbaru","distance":2727},{"distance":1584,"station_name":"Depok","transit":false,"is_transit":false,"i_lat":-6.405256,"i_long":106.816926,"time":3,"line":0,"station_id":"DP"},{"time":6,"station_id":"CTA","i_long":106.800298,"distance":5084,"line":1,"i_lat":-6.448811,"transit":false,"station_name":"Citayam","is_transit":true},{"station_name":"Bojonggede","time":5,"line":0,"i_lat":-6.493243,"is_transit":false,"transit":false,"station_id":"BJD","distance":5197,"i_long":106.792719}],[{"i_long":106.728916,"station_id":"JMU","station_name":"Jurangmangu","line":6,"i_lat":-6.288927,"time":0,"distance":0,"is_transit":false,"transit":false},{"station_id":"PDJ","line":6,"i_long":106.74273,"distance":2179,"transit":false,"i_lat":-6.276362,"time":3,"station_name":"Pondokranji","is_transit":false},{"station_id":"KBY","station_name":"Kebayoran","is_transit":false,"distance":6218,"transit":false,"i_long":106.780334,"line":6,"time":8,"i_lat":-6.237242},{"transit":false,"is_transit":false,"time":7,"distance":3737,"station_id":"PLM","i_lat":-6.207404,"line":6,"i_long":106.79689,"station_name":"Palmerah"},{"i_long":106.811091,"line":1,"transit":true,"station_name":"Tanah Abang","time":6,"i_lat":-6.185545,"station_id":"THB","is_transit":true,"distance":3191},{"station_id":"DU","time":8,"station_name":"Duri","distance":3632,"i_lat":-6.155215,"i_long":106.800832,"line":1,"is_transit":true,"transit":true},{"station_name":"Angke","time":4,"station_id":"AK","transit":false,"i_long":106.79867,"i_lat":-6.144674,"distance":1230,"line":0,"is_transit":false},{"i_lat":-6.132549,"transit":true,"station_id":"KPB","line":0,"distance":4102,"is_transit":true,"station_name":"Kampung Bandan","i_long":106.826365,"time":9},{"line":11,"time":3,"distance":1444,"station_id":"RJW","station_name":"Rajawali","i_lat":-6.14505,"is_transit":false,"transit":false,"i_long":106.836569},{"line":11,"is_transit":false,"i_lat":-6.161728,"station_name":"Kemayoran","time":5,"distance":1901,"transit":false,"station_id":"KMO","i_long":106.839204},{"station_id":"PSE","transit":false,"is_transit":false,"line":11,"distance":1436,"time":4,"i_lat":-6.174784,"i_long":106.84368,"station_name":"Pasar Senen"},{"transit":false,"i_lat":-6.185975,"distance":1567,"line":11,"i_long":106.850107,"station_id":"GST","is_transit":false,"time":8,"station_name":"Gang Sentiong"},{"line":11,"is_transit":false,"station_id":"KMT","time":1,"i_lat":-6.193792,"station_name":"Kramat","transit":false,"i_long":106.855437,"distance":973},{"transit":false,"time":2,"station_id":"POK","i_long":106.861737,"i_lat":-6.209188,"line":11,"is_transit":false,"distance":1829,"station_name":"Pondok Jati"},{"distance":1236,"station_name":"Jatinegara","i_long":106.86807400000001,"is_transit":true,"station_id":"JNG","time":9,"i_lat":-6.215091,"transit":true,"line":0},{"transit":false,"station_id":"MTR","line":1,"time":2,"is_transit":false,"distance":1377,"station_name":"Matraman","i_lat":-6.212485,"i_long":106.858896},{"i_lat":-6.209883,"distance":1275,"station_id":"MRI","station_name":"Manggarai","time":2,"i_long":106.84912,"transit":true,"is_transit":true,"line":0},{"station_id":"TEB","station_name":"Tebet","time":4,"i_lat":-6.226659,"i_long":106.857948,"distance":2610,"is_transit":false,"transit":false,"line":2},{"is_transit":false,"i_lat":-6.242512,"transit":false,"line":0,"i_long":106.856607,"station_name":"Cawang","station_id":"CW","distance":1230,"time":2},{"is_transit":false,"transit":false,"time":3,"station_name":"Duren Kalibata","i_lat":-6.255332,"line":0,"i_long":106.85449,"distance":1546,"station_id":"DRN"},{"line":2,"i_lat":-6.263214,"is_transit":false,"time":2,"distance":824,"i_long":106.851577,"station_id":"PSMB","station_name":"Pasar Minggu Baru","transit":false},{"station_name":"Pasar Minggu","i_lat":-6.2842400000000005,"is_transit":false,"line":2,"time":2,"station_id":"PSM","distance":2380,"transit":false,"i_long":106.843999},{"station_name":"Tanjung Barat","i_lat":-6.3080680000000005,"line":2,"station_id":"TNT","time":4,"transit":false,"i_long":106.838896,"is_transit":false,"distance":2820},{"transit":false,"distance":2671,"is_transit":false,"station_id":"LNA","i_long":106.832616,"station_name":"Lenteng Agung","time":3,"i_lat":-6.330363,"line":2},{"station_id":"UP","i_lat":-6.339291,"i_long":106.834175,"station_name":"Univ. Pancasila","line":2,"is_transit":false,"transit":false,"distance":1029,"time":2},{"is_transit":false,"i_long":106.831474,"time":3,"transit":false,"distance":2264,"station_name":"Univ. Indonesia","i_lat":-6.360749,"station_id":"UI","line":2},{"is_transit":false,"line":2,"station_id":"POC","station_name":"Pondok Cina","time":2,"i_long":106.831114,"transit":false,"i_lat":-6.369073,"distance":1109},{"i_lat":-6.391065,"is_transit":false,"time":4,"station_id":"DPB","distance":2727,"i_long":106.819451,"station_name":"Depokbaru","transit":false,"line":0},{"i_long":106.816926,"time":3,"line":0,"is_transit":false,"distance":1584,"station_id":"DP","station_name":"Depok","transit":false,"i_lat":-6.405256},{"transit":false,"station_id":"CTA","i_long":106.800298,"distance":5084,"i_lat":-6.448811,"line":1,"station_name":"Citayam","time":6,"is_transit":true},{"station_name":"Bojonggede","station_id":"BJD","time":5,"distance":5197,"is_transit":false,"i_long":106.792719,"line":0,"transit":false,"i_lat":-6.493243}]]}