{"data":[[{"transit":false,"is_transit":false,"line":6,"station_id":"JMU","time":0,"i_lat":-6.288927,"station_name":"Jurangmangu","distance":0,"i_long":106.728916},{"station_name":"Sudimara","time":4,"i_lat":-6.296963,"i_long":106.712277,"is_transit":false,"transit":false,"line":6,"distance":1994,"station_id":"SDM"},{"transit":false,"i_lat":-6.314823,"time":6,"station_name":"Rawa Buntu","is_transit":false,"distance":4566,"i_long":106.675475,"station_id":"RU","line":6},{"time":4,"station_id":"SRP","line":6,"distance":2413,"i_long":106.66566,"is_transit":false,"transit":false,"station_name":"Serpong","i_lat":-6.319871},{"time":4,"station_id":"CSK","line":0,"i_lat":-6.32484,"transit":false,"station_name":"Cisauk","is_transit":false,"distance":1784,"i_long":106.640411},{"station_id":"CC","is_transit":false,"transit":false,"distance":2519,"i_lat":-6.329547,"i_long":106.617853,"line":0,"time":4,"station_name":"Cicayur"},{"distance":5968,"i_lat":-6.3441410000000005,"i_long":106.568863,"station_id":"PRP","station_name":"Parung Panjang","transit":false,"line":6,"time":8,"is_transit":false},{"station_name":"Cilejit","is_transit":false,"station_id":"CJT","time":9,"i_lat":-6.354349,"transit":false,"i_long":106.508482,"line":0,"distance":7025},{"i_lat":-6.338021,"is_transit":false,"time":6,"line":0,"distance":2675,"station_id":"DAR","i_long":106.491338,"station_name":"Daru","transit":false},{"i_long":106.460812,"is_transit":false,"transit":false,"line":6,"distance":3902,"i_lat":-6.327251,"station_id":"TEJ","station_name":"Tenjo","time":5},{"station_name":"Tigaraksa","transit":false,"distance":2974,"line":6,"i_long":106.425991,"is_transit":false,"time":5,"i_lat":-6.328533,"station_id":"TGS"},{"i_long":106.411216,"line":0,"time":3,"station_id":"CKY","station_name":"Cikoya","i_lat":-6.33561,"is_transit":false,"distance":2651,"transit":false},{"time":4,"i_long":106.394373,"line":6,"transit":false,"is_transit":false,"station_id":"MJ","station_name":"Maja","i_lat":-6.332307,"distance":1853},{"station_id":"CTR","distance":7293,"is_transit":false,"line":0,"time":10,"station_name":"Citeras","transit":false,"i_long":106.332092,"i_lat":-6.334892}]]}