{"data":[[{"time":0,"transit":false,"i_lat":-6.288927,"line":6,"is_transit":false,"distance":0,"station_id":"JMU","i_long":106.728916,"station_name":"Jurangmangu"},{"time":4,"station_id":"SDM","line":6,"station_name":"Sudimara","distance":1994,"i_lat":-6.296963,"i_long":106.712277,"transit":false,"is_transit":false},{"station_id":"RU","is_transit":false,"time":6,"transit":false,"distance":4566,"i_lat":-6.314823,"line":6,"i_long":106.675475,"station_name":"Rawa Buntu"},{"distance":2413,"is_transit":false,"time":4,"station_id":"SRP","transit":false,"station_name":"Serpong","i_long":106.66566,"i_lat":-6.319871,"line":6},{"is_transit":false,"line":3,"i_long":106.640411,"station_name":"Cisauk","i_lat":-6.32484,"distance":1784,"transit":false,"time":4,"station_id":"CSK"},{"is_transit":false,"time":4,"i_long":106.617853,"distance":2519,"i_lat":-6.329547,"line":3,"transit":false,"station_name":"Cicayur","station_id":"CC"},{"station_id":"PRP","time":8,"distance":5968,"station_name":"Parung Panjang","is_transit":false,"i_lat":-6.3441410000000005,"i_long":106.568863,"transit":false,"line":6},{"line":3,"transit":false,"is_transit":false,"station_id":"CJT","time":9,"i_long":106.508482,"distance":7025,"station_name":"Cilejit","i_lat":-6.354349},{"is_transit":false,"i_lat":-6.338021,"transit":false,"line":0,"station_name":"Daru","station_id":"DAR","time":6,"i_long":106.491338,"distance":2675},{"i_lat":-6.327251,"time":5,"station_id":"TEJ","line":6,"transit":false,"distance":3902,"is_transit":false,"station_name":"Tenjo","i_long":106.460812},{"line":6,"distance":2974,"station_id":"TGS","time":5,"is_transit":false,"station_name":"Tigaraksa","transit":false,"i_long":106.425991,"i_lat":-6.328533},{"line":3,"station_name":"Cikoya","transit":false,"is_transit":false,"distance":2651,"i_lat":-6.33561,"i_long":106.411216,"time":3,"station_id":"CKY"}]]}