{"data":[[{"station_id":"JMU","i_long":106.728916,"distance":0,"is_transit":false,"line":6,"station_name":"Jurangmangu","time":0,"i_lat":-6.288927,"transit":false},{"station_name":"Pondokranji","time":3,"station_id":"PDJ","transit":false,"i_lat":-6.276362,"distance":2179,"line":6,"i_long":106.74273,"is_transit":false},{"transit":false,"time":8,"i_long":106.780334,"station_name":"Kebayoran","is_transit":false,"i_lat":-6.237242,"line":6,"distance":6218,"station_id":"KBY"},{"distance":3737,"station_id":"PLM","station_name":"Palmerah","i_lat":-6.207404,"i_long":106.79689,"transit":false,"time":7,"is_transit":false,"line":6},{"distance":3191,"station_id":"THB","i_lat":-6.185545,"time":6,"is_transit":true,"station_name":"Tanah Abang","transit":true,"i_long":106.811091,"line":1},{"i_long":106.816351,"time":5,"is_transit":false,"station_id":"KAT","station_name":"Karet","transit":false,"line":1,"distance":2029,"i_lat":-6.20132},{"i_lat":-6.201433,"line":1,"time":1,"station_name":"Sudirman Baru","distance":471,"station_id":"SUDB","transit":false,"is_transit":false,"i_long":106.819881},{"i_long":106.822649,"distance":280,"station_name":"Sudirman","station_id":"SUD","is_transit":false,"time":1,"transit":false,"i_lat":-6.202263,"line":1},{"station_name":"Manggarai","time":4,"i_lat":-6.209883,"i_long":106.84912,"station_id":"MRI","line":2,"is_transit":true,"distance":3186,"transit":true},{"station_id":"TEB","transit":false,"i_lat":-6.226659,"line":2,"is_transit":false,"time":4,"distance":2610,"station_name":"Tebet","i_long":106.857948},{"transit":false,"distance":1230,"time":2,"station_id":"CW","i_lat":-6.242512,"is_transit":false,"i_long":106.856607,"line":2,"station_name":"Cawang"},{"station_id":"DRN","station_name":"Duren Kalibata","i_long":106.85449,"i_lat":-6.255332,"time":3,"line":2,"distance":1546,"transit":false,"is_transit":false},{"station_id":"PSMB","i_lat":-6.263214,"transit":false,"station_name":"Pasar Minggu Baru","time":2,"is_transit":false,"distance":824,"line":2,"i_long":106.851577}],[{"station_id":"JMU","is_transit":false,"station_name":"Jurangmangu","i_lat":-6.288927,"distance":0,"i_long":106.728916,"line":6,"time":0,"transit":false},{"station_id":"PDJ","distance":2179,"transit":false,"time":3,"is_transit":false,"line":6,"station_name":"Pondokranji","i_long":106.74273,"i_lat":-6.276362},{"i_lat":-6.237242,"distance":6218,"transit":false,"time":8,"station_id":"KBY","station_name":"Kebayoran","is_transit":false,"i_long":106.780334,"line":6},{"station_id":"PLM","transit":false,"i_long":106.79689,"station_name":"Palmerah","i_lat":-6.207404,"time":7,"distance":3737,"line":6,"is_transit":false},{"i_lat":-6.185545,"station_name":"Tanah Abang","transit":true,"i_long":106.811091,"is_transit":true,"line":1,"time":6,"station_id":"THB","distance":3191},{"is_transit":false,"distance":3632,"station_id":"DU","transit":false,"i_long":106.800832,"i_lat":-6.155215,"time":8,"line":1,"station_name":"Duri"},{"is_transit":false,"line":1,"station_name":"Angke","transit":false,"time":4,"station_id":"AK","distance":1230,"i_long":106.79867,"i_lat":-6.144674},{"distance":4102,"station_id":"KPB","time":9,"is_transit":true,"i_lat":-6.132549,"station_name":"Kampung Bandan","i_long":106.826365,"line":4,"transit":true},{"i_lat":-6.137569,"line":2,"distance":1364,"transit":true,"station_name":"Jakarta Kota","time":3,"i_long":106.812439,"station_id":"JAKK","is_transit":true},{"time":4,"station_name":"Jayakarta","i_long":106.820901,"distance":1264,"station_id":"JAY","i_lat":-6.141205,"line":2,"is_transit":false,"transit":false},{"is_transit":false,"transit":false,"distance":1080,"i_lat":-6.149769,"i_long":106.82482,"station_id":"MGB","station_name":"Manggabesar","time":2,"line":2},{"is_transit":false,"i_long":106.827103,"time":2,"distance":906,"transit":false,"station_id":"SW","i_lat":-6.160725,"station_name":"Sawah Besar","line":2},{"distance":1149,"i_long":106.828284,"station_name":"Juanda","i_lat":-6.166716,"station_id":"JUA","is_transit":false,"transit":false,"line":2,"time":2},{"distance":2015,"time":4,"i_lat":-6.186295,"i_long":106.832183,"is_transit":false,"transit":false,"line":2,"station_name":"Gondangdia","station_id":"GDD"},{"station_id":"CKI","distance":1750,"i_lat":-6.198556,"i_long":106.840169,"is_transit":false,"time":3,"transit":false,"station_name":"Cikini","line":2},{"is_transit":false,"distance":1590,"station_name":"Manggarai","i_long":106.84912,"line":2,"transit":false,"station_id":"MRI","i_lat":-6.209883,"time":4},{"i_long":106.857948,"i_lat":-6.226659,"time":4,"distance":2610,"station_id":"TEB","station_name":"Tebet","is_transit":false,"transit":false,"line":2},{"time":2,"line":2,"transit":false,"station_name":"Cawang","is_transit":false,"distance":1230,"i_lat":-6.242512,"i_long":106.856607,"station_id":"CW"},{"i_lat":-6.255332,"time":3,"transit":false,"is_transit":false,"line":2,"station_id":"DRN","station_name":"Duren Kalibata","distance":1546,"i_long":106.85449},{"distance":824,"station_id":"PSMB","i_lat":-6.263214,"is_transit":false,"line":2,"time":2,"transit":false,"station_name":"Pasar Minggu Baru","i_long":106.851577}],[{"time":0,"i_long":106.728916,"line":6,"is_transit":false,"station_id":"JMU","distance":0,"i_lat":-6.288927,"station_name":"Jurangmangu","transit":false},{"i_long":106.74273,"line":6,"distance":2179,"is_transit":false,"transit":false,"station_name":"Pondokranji","time":3,"i_lat":-6.276362,"station_id":"PDJ"},{"line":6,"i_lat":-6.237242,"time":8,"transit":false,"is_transit":false,"station_name":"Kebayoran","station_id":"KBY","distance":6218,"i_long":106.780334},{"i_long":106.79689,"station_name":"Palmerah","line":6,"transit":false,"i_lat":-6.207404,"time":7,"distance":3737,"station_id":"PLM","is_transit":false},{"i_lat":-6.185545,"i_long":106.811091,"time":6,"station_id":"THB","is_transit":true,"line":1,"station_name":"Tanah Abang","distance":3191,"transit":true},{"station_id":"DU","distance":3632,"i_lat":-6.155215,"line":1,"station_name":"Duri","time":8,"i_long":106.800832,"transit":false,"is_transit":false},{"time":4,"i_long":106.79867,"station_name":"Angke","line":1,"is_transit":false,"transit":false,"distance":1230,"station_id":"AK","i_lat":-6.144674},{"is_transit":true,"i_long":106.826365,"line":4,"transit":true,"i_lat":-6.132549,"time":9,"station_name":"Kampung Bandan","station_id":"KPB","distance":4102},{"station_id":"RJW","station_name":"Rajawali","is_transit":false,"line":11,"i_long":106.836569,"i_lat":-6.14505,"transit":false,"time":3,"distance":1444},{"time":5,"i_lat":-6.161728,"is_transit":false,"transit":false,"distance":1901,"i_long":106.839204,"line":11,"station_name":"Kemayoran","station_id":"KMO"},{"i_long":106.84368,"line":11,"station_id":"PSE","distance":1436,"station_name":"Pasar Senen","time":4,"i_lat":-6.174784,"transit":false,"is_transit":false},{"distance":1567,"line":11,"station_id":"GST","station_name":"Gang Sentiong","transit":false,"i_long":106.850107,"is_transit":false,"time":8,"i_lat":-6.185975},{"i_long":106.855437,"station_name":"Kramat","i_lat":-6.193792,"is_transit":false,"distance":973,"time":1,"transit":false,"station_id":"KMT","line":11},{"time":2,"i_lat":-6.209188,"i_long":106.861737,"line":11,"station_name":"Pondok Jati","station_id":"POK","transit":false,"distance":1829,"is_transit":false},{"i_lat":-6.215091,"station_id":"JNG","is_transit":true,"transit":true,"distance":1236,"time":9,"i_long":106.86807400000001,"station_name":"Jatinegara","line":1},{"station_name":"Matraman","transit":false,"distance":1377,"time":2,"line":1,"is_transit":false,"i_long":106.858896,"i_lat":-6.212485,"station_id":"MTR"},{"station_name":"Manggarai","distance":1275,"station_id":"MRI","time":2,"i_lat":-6.209883,"i_long":106.84912,"line":2,"transit":true,"is_transit":true},{"transit":false,"time":4,"station_id":"TEB","is_transit":false,"station_name":"Tebet","line":2,"distance":2610,"i_lat":-6.226659,"i_long":106.857948},{"station_id":"CW","time":2,"i_lat":-6.242512,"station_name":"Cawang","i_long":106.856607,"line":2,"is_transit":false,"transit":false,"distance":1230},{"time":3,"i_long":106.85449,"station_name":"Duren Kalibata","line":2,"distance":1546,"transit":false,"is_transit":false,"station_id":"DRN","i_lat":-6.255332},{"transit":false,"station_name":"Pasar Minggu Baru","station_id":"PSMB","time":2,"line":2,"distance":824,"i_lat":-6.263214,"is_transit":false,"i_long":106.851577}]]}