{"data":[[{"is_transit":false,"line":6,"transit":false,"i_long":106.728916,"distance":0,"station_id":"JMU","i_lat":-6.288927,"time":0,"station_name":"Jurangmangu"},{"i_lat":-6.276362,"time":3,"station_name":"Pondokranji","transit":false,"i_long":106.74273,"station_id":"PDJ","distance":2179,"is_transit":false,"line":6},{"station_id":"KBY","distance":6218,"station_name":"Kebayoran","transit":false,"is_transit":false,"i_lat":-6.237242,"time":8,"line":6,"i_long":106.780334},{"station_id":"PLM","i_lat":-6.207404,"distance":3737,"i_long":106.79689,"time":7,"is_transit":false,"station_name":"Palmerah","transit":false,"line":6},{"station_name":"Tanah Abang","transit":true,"i_long":106.811091,"distance":3191,"time":6,"station_id":"THB","i_lat":-6.185545,"is_transit":true,"line":1},{"station_name":"Karet","line":1,"distance":2029,"station_id":"KAT","transit":false,"i_lat":-6.20132,"time":5,"is_transit":false,"i_long":106.816351},{"line":1,"i_long":106.819881,"time":1,"station_id":"SUDB","station_name":"Sudirman Baru","distance":471,"transit":false,"is_transit":false,"i_lat":-6.201433},{"transit":false,"distance":280,"i_lat":-6.202263,"line":1,"i_long":106.822649,"station_id":"SUD","station_name":"Sudirman","is_transit":false,"time":1},{"is_transit":true,"transit":true,"i_long":106.84912,"station_id":"MRI","station_name":"Manggarai","line":2,"time":4,"i_lat":-6.209883,"distance":3186},{"is_transit":false,"time":4,"station_name":"Tebet","distance":2610,"line":2,"i_long":106.857948,"i_lat":-6.226659,"transit":false,"station_id":"TEB"},{"distance":1230,"i_lat":-6.242512,"line":2,"time":2,"transit":false,"i_long":106.856607,"station_name":"Cawang","station_id":"CW","is_transit":false},{"line":2,"distance":1546,"station_name":"Duren Kalibata","i_lat":-6.255332,"is_transit":false,"transit":false,"station_id":"DRN","time":3,"i_long":106.85449},{"station_id":"PSMB","distance":824,"time":2,"transit":false,"i_long":106.851577,"line":2,"station_name":"Pasar Minggu Baru","i_lat":-6.263214,"is_transit":false},{"station_id":"PSM","station_name":"Pasar Minggu","distance":2380,"is_transit":false,"i_lat":-6.2842400000000005,"i_long":106.843999,"transit":false,"time":2,"line":2}],[{"i_lat":-6.288927,"is_transit":false,"distance":0,"i_long":106.728916,"time":0,"station_name":"Jurangmangu","station_id":"JMU","line":6,"transit":false},{"i_lat":-6.276362,"time":3,"is_transit":false,"transit":false,"i_long":106.74273,"distance":2179,"station_id":"PDJ","station_name":"Pondokranji","line":6},{"is_transit":false,"line":6,"distance":6218,"station_id":"KBY","i_long":106.780334,"station_name":"Kebayoran","transit":false,"i_lat":-6.237242,"time":8},{"i_lat":-6.207404,"time":7,"is_transit":false,"station_id":"PLM","distance":3737,"station_name":"Palmerah","transit":false,"line":6,"i_long":106.79689},{"is_transit":true,"line":1,"i_lat":-6.185545,"station_id":"THB","transit":true,"i_long":106.811091,"time":6,"distance":3191,"station_name":"Tanah Abang"},{"distance":3632,"time":8,"station_id":"DU","is_transit":false,"transit":false,"i_long":106.800832,"station_name":"Duri","line":1,"i_lat":-6.155215},{"station_name":"Angke","is_transit":false,"line":1,"transit":false,"i_lat":-6.144674,"time":4,"i_long":106.79867,"distance":1230,"station_id":"AK"},{"station_name":"Kampung Bandan","transit":true,"distance":4102,"station_id":"KPB","is_transit":true,"time":9,"i_long":106.826365,"line":4,"i_lat":-6.132549},{"transit":true,"is_transit":true,"i_long":106.812439,"station_id":"JAKK","station_name":"Jakarta Kota","distance":1364,"time":3,"i_lat":-6.137569,"line":2},{"station_id":"JAY","transit":false,"i_lat":-6.141205,"distance":1264,"i_long":106.820901,"line":2,"time":4,"station_name":"Jayakarta","is_transit":false},{"station_name":"Manggabesar","distance":1080,"station_id":"MGB","time":2,"transit":false,"i_lat":-6.149769,"i_long":106.82482,"line":2,"is_transit":false},{"distance":906,"station_id":"SW","i_lat":-6.160725,"time":2,"station_name":"Sawah Besar","transit":false,"i_long":106.827103,"is_transit":false,"line":2},{"i_long":106.828284,"is_transit":false,"transit":false,"i_lat":-6.166716,"distance":1149,"station_name":"Juanda","line":2,"time":2,"station_id":"JUA"},{"line":2,"station_id":"GDD","time":4,"i_long":106.832183,"distance":2015,"transit":false,"i_lat":-6.186295,"station_name":"Gondangdia","is_transit":false},{"i_lat":-6.198556,"i_long":106.840169,"time":3,"station_id":"CKI","transit":false,"distance":1750,"station_name":"Cikini","is_transit":false,"line":2},{"transit":false,"i_long":106.84912,"line":2,"i_lat":-6.209883,"station_name":"Manggarai","distance":1590,"time":4,"station_id":"MRI","is_transit":false},{"i_lat":-6.226659,"line":2,"distance":2610,"time":4,"station_id":"TEB","station_name":"Tebet","transit":false,"i_long":106.857948,"is_transit":false},{"line":2,"is_transit":false,"station_id":"CW","distance":1230,"transit":false,"station_name":"Cawang","time":2,"i_long":106.856607,"i_lat":-6.242512},{"station_id":"DRN","time":3,"station_name":"Duren Kalibata","i_lat":-6.255332,"transit":false,"is_transit":false,"line":2,"i_long":106.85449,"distance":1546},{"i_lat":-6.263214,"i_long":106.851577,"distance":824,"is_transit":false,"station_id":"PSMB","station_name":"Pasar Minggu Baru","transit":false,"time":2,"line":2},{"i_long":106.843999,"station_name":"Pasar Minggu","transit":false,"station_id":"PSM","i_lat":-6.2842400000000005,"line":2,"is_transit":false,"time":2,"distance":2380}],[{"line":6,"station_name":"Jurangmangu","time":0,"i_lat":-6.288927,"transit":false,"is_transit":false,"station_id":"JMU","i_long":106.728916,"distance":0},{"station_id":"PDJ","i_lat":-6.276362,"distance":2179,"is_transit":false,"line":6,"station_name":"Pondokranji","transit":false,"i_long":106.74273,"time":3},{"is_transit":false,"distance":6218,"station_name":"Kebayoran","station_id":"KBY","time":8,"i_lat":-6.237242,"i_long":106.780334,"line":6,"transit":false},{"station_name":"Palmerah","time":7,"line":6,"transit":false,"station_id":"PLM","is_transit":false,"i_long":106.79689,"distance":3737,"i_lat":-6.207404},{"i_lat":-6.185545,"line":1,"distance":3191,"is_transit":true,"transit":true,"i_long":106.811091,"station_id":"THB","time":6,"station_name":"Tanah Abang"},{"station_name":"Duri","i_long":106.800832,"is_transit":false,"station_id":"DU","distance":3632,"i_lat":-6.155215,"line":1,"time":8,"transit":false},{"station_name":"Angke","distance":1230,"is_transit":false,"i_long":106.79867,"station_id":"AK","transit":false,"time":4,"line":1,"i_lat":-6.144674},{"station_id":"KPB","line":4,"distance":4102,"station_name":"Kampung Bandan","is_transit":true,"transit":true,"time":9,"i_lat":-6.132549,"i_long":106.826365},{"distance":1444,"line":11,"station_id":"RJW","is_transit":false,"station_name":"Rajawali","i_lat":-6.14505,"time":3,"i_long":106.836569,"transit":false},{"station_id":"KMO","time":5,"distance":1901,"transit":false,"is_transit":false,"i_long":106.839204,"station_name":"Kemayoran","line":11,"i_lat":-6.161728},{"station_id":"PSE","i_lat":-6.174784,"distance":1436,"line":11,"is_transit":false,"i_long":106.84368,"station_name":"Pasar Senen","time":4,"transit":false},{"transit":false,"station_name":"Gang Sentiong","station_id":"GST","i_lat":-6.185975,"line":11,"is_transit":false,"time":8,"distance":1567,"i_long":106.850107},{"i_lat":-6.193792,"station_id":"KMT","line":11,"distance":973,"is_transit":false,"transit":false,"i_long":106.855437,"time":1,"station_name":"Kramat"},{"line":11,"i_long":106.861737,"is_transit":false,"transit":false,"time":2,"i_lat":-6.209188,"distance":1829,"station_id":"POK","station_name":"Pondok Jati"},{"is_transit":true,"transit":true,"station_id":"JNG","i_long":106.86807400000001,"line":1,"time":9,"distance":1236,"i_lat":-6.215091,"station_name":"Jatinegara"},{"is_transit":false,"station_name":"Matraman","distance":1377,"transit":false,"station_id":"MTR","i_long":106.858896,"line":1,"time":2,"i_lat":-6.212485},{"transit":true,"i_lat":-6.209883,"distance":1275,"station_name":"Manggarai","is_transit":true,"i_long":106.84912,"line":2,"station_id":"MRI","time":2},{"line":2,"station_id":"TEB","distance":2610,"i_long":106.857948,"i_lat":-6.226659,"transit":false,"time":4,"station_name":"Tebet","is_transit":false},{"distance":1230,"i_long":106.856607,"transit":false,"time":2,"is_transit":false,"i_lat":-6.242512,"station_name":"Cawang","station_id":"CW","line":2},{"distance":1546,"i_lat":-6.255332,"i_long":106.85449,"line":2,"is_transit":false,"station_id":"DRN","station_name":"Duren Kalibata","transit":false,"time":3},{"line":2,"time":2,"i_long":106.851577,"distance":824,"i_lat":-6.263214,"station_id":"PSMB","transit":false,"is_transit":false,"station_name":"Pasar Minggu Baru"},{"i_long":106.843999,"transit":false,"station_id":"PSM","station_name":"Pasar Minggu","i_lat":-6.2842400000000005,"line":2,"distance":2380,"is_transit":false,"time":2}]]}