{"data":[[{"station_name":"Jurangmangu","line":6,"is_transit":false,"distance":0,"station_id":"JMU","time":0,"transit":false,"i_lat":-6.288927,"i_long":106.728916},{"time":3,"is_transit":false,"i_lat":-6.276362,"station_id":"PDJ","transit":false,"distance":2179,"i_long":106.74273,"line":6,"station_name":"Pondokranji"},{"transit":false,"station_name":"Kebayoran","distance":6218,"is_transit":false,"time":8,"i_lat":-6.237242,"i_long":106.780334,"line":6,"station_id":"KBY"},{"time":7,"line":6,"is_transit":false,"distance":3737,"station_id":"PLM","transit":false,"station_name":"Palmerah","i_lat":-6.207404,"i_long":106.79689},{"station_name":"Tanah Abang","transit":true,"i_lat":-6.185545,"is_transit":true,"time":6,"line":1,"i_long":106.811091,"distance":3191,"station_id":"THB"},{"station_name":"Karet","is_transit":false,"time":5,"transit":false,"line":1,"distance":2029,"i_lat":-6.20132,"station_id":"KAT","i_long":106.816351},{"station_id":"SUDB","distance":471,"is_transit":false,"transit":false,"station_name":"Sudirman Baru","i_lat":-6.201433,"line":1,"time":1,"i_long":106.819881},{"transit":false,"is_transit":false,"time":1,"station_name":"Sudirman","distance":280,"station_id":"SUD","i_long":106.822649,"line":1,"i_lat":-6.202263},{"line":2,"time":4,"distance":3186,"transit":true,"i_lat":-6.209883,"i_long":106.84912,"is_transit":true,"station_id":"MRI","station_name":"Manggarai"},{"station_name":"Tebet","i_lat":-6.226659,"time":4,"distance":2610,"transit":false,"station_id":"TEB","is_transit":false,"i_long":106.857948,"line":2},{"station_name":"Cawang","transit":false,"line":2,"time":2,"i_lat":-6.242512,"i_long":106.856607,"is_transit":false,"distance":1230,"station_id":"CW"},{"station_id":"DRN","distance":1546,"transit":false,"i_lat":-6.255332,"time":3,"line":2,"i_long":106.85449,"is_transit":false,"station_name":"Duren Kalibata"},{"distance":824,"is_transit":false,"time":2,"station_name":"Pasar Minggu Baru","line":2,"station_id":"PSMB","transit":false,"i_lat":-6.263214,"i_long":106.851577},{"transit":false,"i_long":106.843999,"line":2,"is_transit":false,"i_lat":-6.2842400000000005,"station_id":"PSM","distance":2380,"time":2,"station_name":"Pasar Minggu"},{"station_id":"TNT","transit":false,"is_transit":false,"i_long":106.838896,"i_lat":-6.3080680000000005,"distance":2820,"station_name":"Tanjung Barat","time":4,"line":2},{"is_transit":false,"line":2,"station_id":"LNA","i_lat":-6.330363,"transit":false,"distance":2671,"station_name":"Lenteng Agung","time":3,"i_long":106.832616},{"i_long":106.834175,"is_transit":false,"station_id":"UP","time":2,"distance":1029,"transit":false,"line":2,"i_lat":-6.339291,"station_name":"Univ. Pancasila"},{"line":2,"time":3,"distance":2264,"station_name":"Univ. Indonesia","i_lat":-6.360749,"i_long":106.831474,"station_id":"UI","transit":false,"is_transit":false},{"distance":1109,"station_id":"POC","i_long":106.831114,"is_transit":false,"time":2,"line":2,"transit":false,"station_name":"Pondok Cina","i_lat":-6.369073},{"station_id":"DPB","is_transit":false,"distance":2727,"station_name":"Depokbaru","i_lat":-6.391065,"i_long":106.819451,"transit":false,"time":4,"line":2},{"line":2,"station_id":"DP","distance":1584,"transit":false,"station_name":"Depok","time":3,"i_lat":-6.405256,"i_long":106.816926,"is_transit":false},{"station_name":"Citayam","transit":false,"distance":5084,"time":6,"line":2,"is_transit":false,"i_lat":-6.448811,"station_id":"CTA","i_long":106.800298},{"is_transit":false,"time":5,"station_id":"BJD","distance":5197,"i_long":106.792719,"i_lat":-6.493243,"line":2,"station_name":"Bojonggede","transit":false}],[{"i_lat":-6.288927,"line":6,"time":0,"station_id":"JMU","i_long":106.728916,"transit":false,"distance":0,"station_name":"Jurangmangu","is_transit":false},{"is_transit":false,"line":6,"station_id":"PDJ","i_lat":-6.276362,"i_long":106.74273,"distance":2179,"time":3,"transit":false,"station_name":"Pondokranji"},{"is_transit":false,"distance":6218,"station_id":"KBY","transit":false,"station_name":"Kebayoran","i_lat":-6.237242,"i_long":106.780334,"time":8,"line":6},{"i_lat":-6.207404,"distance":3737,"station_name":"Palmerah","is_transit":false,"transit":false,"station_id":"PLM","i_long":106.79689,"line":6,"time":7},{"i_lat":-6.185545,"line":1,"transit":true,"distance":3191,"time":6,"station_id":"THB","station_name":"Tanah Abang","i_long":106.811091,"is_transit":true},{"station_name":"Duri","is_transit":false,"i_long":106.800832,"i_lat":-6.155215,"transit":false,"distance":3632,"station_id":"DU","time":8,"line":1},{"transit":false,"station_name":"Angke","distance":1230,"i_long":106.79867,"is_transit":false,"station_id":"AK","i_lat":-6.144674,"line":1,"time":4},{"distance":4102,"is_transit":true,"i_long":106.826365,"station_name":"Kampung Bandan","station_id":"KPB","line":4,"time":9,"i_lat":-6.132549,"transit":true},{"transit":true,"i_lat":-6.137569,"time":3,"station_name":"Jakarta Kota","i_long":106.812439,"is_transit":true,"line":2,"distance":1364,"station_id":"JAKK"},{"i_lat":-6.141205,"i_long":106.820901,"transit":false,"is_transit":false,"distance":1264,"time":4,"station_name":"Jayakarta","line":2,"station_id":"JAY"},{"distance":1080,"station_id":"MGB","i_lat":-6.149769,"time":2,"transit":false,"line":2,"station_name":"Manggabesar","is_transit":false,"i_long":106.82482},{"distance":906,"station_id":"SW","transit":false,"station_name":"Sawah Besar","i_lat":-6.160725,"line":2,"time":2,"is_transit":false,"i_long":106.827103},{"i_lat":-6.166716,"time":2,"station_id":"JUA","distance":1149,"is_transit":false,"station_name":"Juanda","transit":false,"i_long":106.828284,"line":2},{"station_id":"GDD","transit":false,"time":4,"line":2,"station_name":"Gondangdia","is_transit":false,"i_long":106.832183,"i_lat":-6.186295,"distance":2015},{"station_name":"Cikini","distance":1750,"time":3,"transit":false,"i_lat":-6.198556,"line":2,"is_transit":false,"station_id":"CKI","i_long":106.840169},{"station_id":"MRI","i_lat":-6.209883,"is_transit":false,"i_long":106.84912,"transit":false,"line":2,"distance":1590,"time":4,"station_name":"Manggarai"},{"i_lat":-6.226659,"line":2,"is_transit":false,"time":4,"station_name":"Tebet","distance":2610,"transit":false,"i_long":106.857948,"station_id":"TEB"},{"station_id":"CW","i_long":106.856607,"transit":false,"distance":1230,"is_transit":false,"station_name":"Cawang","i_lat":-6.242512,"time":2,"line":2},{"is_transit":false,"distance":1546,"station_id":"DRN","line":2,"time":3,"transit":false,"i_lat":-6.255332,"station_name":"Duren Kalibata","i_long":106.85449},{"time":2,"line":2,"distance":824,"i_long":106.851577,"station_name":"Pasar Minggu Baru","i_lat":-6.263214,"transit":false,"is_transit":false,"station_id":"PSMB"},{"i_long":106.843999,"is_transit":false,"time":2,"station_name":"Pasar Minggu","line":2,"i_lat":-6.2842400000000005,"distance":2380,"transit":false,"station_id":"PSM"},{"is_transit":false,"line":2,"i_lat":-6.3080680000000005,"station_id":"TNT","time":4,"transit":false,"i_long":106.838896,"station_name":"Tanjung Barat","distance":2820},{"time":3,"i_lat":-6.330363,"distance":2671,"i_long":106.832616,"line":2,"station_id":"LNA","is_transit":false,"station_name":"Lenteng Agung","transit":false},{"distance":1029,"transit":false,"i_long":106.834175,"is_transit":false,"station_id":"UP","i_lat":-6.339291,"station_name":"Univ. Pancasila","time":2,"line":2},{"distance":2264,"station_name":"Univ. Indonesia","is_transit":false,"transit":false,"i_lat":-6.360749,"i_long":106.831474,"time":3,"station_id":"UI","line":2},{"time":2,"i_lat":-6.369073,"is_transit":false,"transit":false,"station_id":"POC","i_long":106.831114,"distance":1109,"station_name":"Pondok Cina","line":2},{"i_lat":-6.391065,"time":4,"i_long":106.819451,"distance":2727,"is_transit":false,"station_id":"DPB","line":2,"station_name":"Depokbaru","transit":false},{"station_name":"Depok","i_long":106.816926,"line":2,"station_id":"DP","is_transit":false,"time":3,"distance":1584,"i_lat":-6.405256,"transit":false},{"line":2,"is_transit":false,"station_id":"CTA","time":6,"i_long":106.800298,"distance":5084,"i_lat":-6.448811,"transit":false,"station_name":"Citayam"},{"station_id":"BJD","i_lat":-6.493243,"distance":5197,"time":5,"i_long":106.792719,"station_name":"Bojonggede","line":2,"is_transit":false,"transit":false}],[{"time":0,"transit":false,"i_lat":-6.288927,"is_transit":false,"i_long":106.728916,"distance":0,"station_id":"JMU","line":6,"station_name":"Jurangmangu"},{"i_lat":-6.276362,"distance":2179,"station_name":"Pondokranji","station_id":"PDJ","i_long":106.74273,"transit":false,"is_transit":false,"line":6,"time":3},{"i_long":106.780334,"station_id":"KBY","distance":6218,"is_transit":false,"time":8,"station_name":"Kebayoran","line":6,"transit":false,"i_lat":-6.237242},{"transit":false,"station_name":"Palmerah","line":6,"station_id":"PLM","time":7,"distance":3737,"is_transit":false,"i_long":106.79689,"i_lat":-6.207404},{"station_id":"THB","time":6,"line":1,"distance":3191,"i_lat":-6.185545,"transit":true,"is_transit":true,"station_name":"Tanah Abang","i_long":106.811091},{"line":1,"i_lat":-6.155215,"distance":3632,"i_long":106.800832,"is_transit":false,"station_id":"DU","transit":false,"time":8,"station_name":"Duri"},{"station_name":"Angke","i_lat":-6.144674,"i_long":106.79867,"station_id":"AK","time":4,"line":1,"distance":1230,"is_transit":false,"transit":false},{"line":4,"station_id":"KPB","station_name":"Kampung Bandan","is_transit":true,"time":9,"transit":true,"distance":4102,"i_long":106.826365,"i_lat":-6.132549},{"i_lat":-6.14505,"is_transit":false,"station_id":"RJW","station_name":"Rajawali","transit":false,"line":11,"time":3,"i_long":106.836569,"distance":1444},{"line":11,"is_transit":false,"transit":false,"station_name":"Kemayoran","station_id":"KMO","i_long":106.839204,"i_lat":-6.161728,"distance":1901,"time":5},{"time":4,"station_name":"Pasar Senen","i_long":106.84368,"station_id":"PSE","is_transit":false,"transit":false,"i_lat":-6.174784,"distance":1436,"line":11},{"transit":false,"line":11,"is_transit":false,"i_long":106.850107,"i_lat":-6.185975,"distance":1567,"time":8,"station_name":"Gang Sentiong","station_id":"GST"},{"transit":false,"station_id":"KMT","station_name":"Kramat","line":11,"is_transit":false,"time":1,"distance":973,"i_lat":-6.193792,"i_long":106.855437},{"is_transit":false,"i_long":106.861737,"line":11,"distance":1829,"station_id":"POK","time":2,"i_lat":-6.209188,"transit":false,"station_name":"Pondok Jati"},{"station_id":"JNG","station_name":"Jatinegara","distance":1236,"line":1,"i_long":106.86807400000001,"i_lat":-6.215091,"is_transit":true,"time":9,"transit":true},{"time":2,"i_lat":-6.212485,"line":1,"is_transit":false,"station_id":"MTR","transit":false,"distance":1377,"station_name":"Matraman","i_long":106.858896},{"station_name":"Manggarai","i_lat":-6.209883,"time":2,"line":2,"distance":1275,"transit":true,"i_long":106.84912,"station_id":"MRI","is_transit":true},{"is_transit":false,"station_id":"TEB","time":4,"transit":false,"i_long":106.857948,"station_name":"Tebet","i_lat":-6.226659,"distance":2610,"line":2},{"transit":false,"time":2,"is_transit":false,"station_id":"CW","i_long":106.856607,"distance":1230,"i_lat":-6.242512,"line":2,"station_name":"Cawang"},{"transit":false,"is_transit":false,"i_lat":-6.255332,"distance":1546,"line":2,"station_name":"Duren Kalibata","i_long":106.85449,"time":3,"station_id":"DRN"},{"station_name":"Pasar Minggu Baru","i_lat":-6.263214,"is_transit":false,"line":2,"transit":false,"time":2,"distance":824,"station_id":"PSMB","i_long":106.851577},{"station_id":"PSM","transit":false,"distance":2380,"i_lat":-6.2842400000000005,"station_name":"Pasar Minggu","time":2,"line":2,"i_long":106.843999,"is_transit":false},{"line":2,"time":4,"is_transit":false,"distance":2820,"station_id":"TNT","i_long":106.838896,"transit":false,"i_lat":-6.3080680000000005,"station_name":"Tanjung Barat"},{"transit":false,"i_lat":-6.330363,"station_name":"Lenteng Agung","is_transit":false,"time":3,"distance":2671,"station_id":"LNA","i_long":106.832616,"line":2},{"line":2,"distance":1029,"station_name":"Univ. Pancasila","i_long":106.834175,"is_transit":false,"station_id":"UP","transit":false,"i_lat":-6.339291,"time":2},{"is_transit":false,"station_name":"Univ. Indonesia","line":2,"time":3,"station_id":"UI","transit":false,"i_long":106.831474,"distance":2264,"i_lat":-6.360749},{"station_name":"Pondok Cina","transit":false,"i_lat":-6.369073,"station_id":"POC","time":2,"distance":1109,"is_transit":false,"i_long":106.831114,"line":2},{"time":4,"transit":false,"i_long":106.819451,"station_id":"DPB","is_transit":false,"line":2,"i_lat":-6.391065,"station_name":"Depokbaru","distance":2727},{"is_transit":false,"station_id":"DP","time":3,"i_long":106.816926,"distance":1584,"i_lat":-6.405256,"line":2,"station_name":"Depok","transit":false},{"is_transit":false,"distance":5084,"line":2,"time":6,"i_long":106.800298,"station_id":"CTA","transit":false,"station_name":"Citayam","i_lat":-6.448811},{"i_lat":-6.493243,"time":5,"transit":false,"station_name":"Bojonggede","i_long":106.792719,"station_id":"BJD","distance":5197,"is_transit":false,"line":2}]]}