{"data":[[{"station_id":"JMU","time":0,"distance":0,"is_transit":false,"transit":false,"i_lat":-6.288927,"i_long":106.728916,"station_name":"Jurangmangu","line":6},{"i_lat":-6.296963,"time":4,"station_id":"SDM","transit":false,"distance":1994,"line":6,"is_transit":false,"station_name":"Sudimara","i_long":106.712277},{"i_lat":-6.314823,"i_long":106.675475,"station_name":"Rawa Buntu","is_transit":false,"distance":4566,"time":6,"transit":false,"line":6,"station_id":"RU"},{"distance":2413,"i_lat":-6.319871,"is_transit":false,"station_id":"SRP","line":6,"transit":false,"time":4,"i_long":106.66566,"station_name":"Serpong"},{"distance":1784,"i_long":106.640411,"is_transit":false,"i_lat":-6.32484,"transit":false,"station_id":"CSK","time":4,"station_name":"Cisauk","line":3},{"distance":2519,"time":4,"transit":false,"station_name":"Cicayur","line":3,"i_lat":-6.329547,"is_transit":false,"i_long":106.617853,"station_id":"CC"},{"station_name":"Parung Panjang","station_id":"PRP","i_lat":-6.3441410000000005,"distance":5968,"transit":false,"line":6,"i_long":106.568863,"time":8,"is_transit":false},{"transit":false,"i_lat":-6.354349,"is_transit":false,"i_long":106.508482,"station_id":"CJT","line":3,"station_name":"Cilejit","distance":7025,"time":9},{"line":0,"station_name":"Daru","i_lat":-6.338021,"transit":false,"station_id":"DAR","is_transit":false,"i_long":106.491338,"time":6,"distance":2675},{"station_name":"Tenjo","i_long":106.460812,"station_id":"TEJ","time":5,"i_lat":-6.327251,"is_transit":false,"distance":3902,"transit":false,"line":6},{"station_id":"TGS","station_name":"Tigaraksa","i_lat":-6.328533,"is_transit":false,"line":6,"distance":2974,"time":5,"i_long":106.425991,"transit":false},{"distance":2651,"i_lat":-6.33561,"is_transit":false,"transit":false,"station_name":"Cikoya","station_id":"CKY","time":3,"line":3,"i_long":106.411216},{"line":6,"i_lat":-6.332307,"distance":1853,"is_transit":false,"station_name":"Maja","time":4,"station_id":"MJ","transit":false,"i_long":106.394373}]]}