{"data":[[{"i_lat":-6.288927,"is_transit":false,"transit":false,"station_name":"Jurangmangu","distance":0,"i_long":106.728916,"time":0,"station_id":"JMU","line":6},{"line":6,"i_long":106.712277,"transit":false,"distance":1994,"station_id":"SDM","station_name":"Sudimara","time":4,"is_transit":false,"i_lat":-6.296963},{"station_id":"RU","is_transit":false,"i_long":106.675475,"transit":false,"i_lat":-6.314823,"line":6,"station_name":"Rawa Buntu","time":6,"distance":4566},{"distance":2413,"i_lat":-6.319871,"time":4,"line":6,"i_long":106.66566,"station_name":"Serpong","transit":false,"is_transit":false,"station_id":"SRP"},{"station_name":"Cisauk","is_transit":false,"i_lat":-6.32484,"transit":false,"i_long":106.640411,"station_id":"CSK","line":3,"time":4,"distance":1784},{"i_long":106.617853,"distance":2519,"station_name":"Cicayur","is_transit":false,"time":4,"station_id":"CC","line":3,"transit":false,"i_lat":-6.329547},{"station_name":"Parung Panjang","i_lat":-6.3441410000000005,"is_transit":false,"line":6,"station_id":"PRP","transit":false,"i_long":106.568863,"distance":5968,"time":8},{"transit":false,"time":9,"is_transit":false,"i_lat":-6.354349,"station_id":"CJT","i_long":106.508482,"station_name":"Cilejit","line":3,"distance":7025},{"i_lat":-6.338021,"transit":false,"distance":2675,"time":6,"is_transit":false,"station_name":"Daru","i_long":106.491338,"line":0,"station_id":"DAR"},{"time":5,"distance":3902,"transit":false,"station_id":"TEJ","is_transit":false,"i_lat":-6.327251,"i_long":106.460812,"line":6,"station_name":"Tenjo"},{"i_lat":-6.328533,"line":6,"time":5,"i_long":106.425991,"station_id":"TGS","station_name":"Tigaraksa","distance":2974,"transit":false,"is_transit":false}]]}