{"data":[[{"transit":false,"station_name":"Jurangmangu","station_id":"JMU","is_transit":false,"time":0,"i_long":106.728916,"line":6,"distance":0,"i_lat":-6.288927},{"is_transit":false,"station_name":"Pondokranji","i_long":106.74273,"transit":false,"line":6,"distance":2179,"station_id":"PDJ","time":3,"i_lat":-6.276362},{"station_name":"Kebayoran","distance":6218,"line":6,"time":8,"i_long":106.780334,"transit":false,"station_id":"KBY","i_lat":-6.237242,"is_transit":false},{"line":6,"is_transit":false,"i_long":106.79689,"station_name":"Palmerah","transit":false,"time":7,"distance":3737,"i_lat":-6.207404,"station_id":"PLM"},{"distance":3191,"station_id":"THB","time":6,"i_long":106.811091,"transit":true,"station_name":"Tanah Abang","is_transit":true,"i_lat":-6.185545,"line":1},{"i_long":106.816351,"station_id":"KAT","transit":false,"time":5,"distance":2029,"is_transit":false,"station_name":"Karet","line":1,"i_lat":-6.20132},{"station_name":"Sudirman Baru","i_long":106.819881,"transit":false,"i_lat":-6.201433,"distance":471,"line":1,"station_id":"SUDB","is_transit":false,"time":1},{"is_transit":false,"distance":280,"i_lat":-6.202263,"line":1,"transit":false,"time":1,"station_id":"SUD","i_long":106.822649,"station_name":"Sudirman"},{"i_lat":-6.209883,"line":2,"time":4,"i_long":106.84912,"distance":3186,"transit":false,"station_id":"MRI","station_name":"Manggarai","is_transit":false},{"i_lat":-6.212485,"station_name":"Matraman","line":1,"time":2,"station_id":"MTR","is_transit":false,"distance":1275,"i_long":106.858896,"transit":false},{"transit":false,"time":8,"i_lat":-6.215091,"is_transit":false,"line":1,"station_id":"JNG","station_name":"Jatinegara","distance":1377,"i_long":106.86807400000001},{"station_name":"Klender","time":3,"station_id":"KLD","is_transit":false,"i_long":106.899548,"i_lat":-6.2135,"distance":3395,"transit":false,"line":1},{"time":2,"distance":3100,"is_transit":false,"station_name":"Buaran","i_long":106.922662,"transit":false,"station_id":"BUA","i_lat":-6.215568,"line":1},{"distance":1305,"transit":false,"station_name":"Klenderbaru","i_long":106.939679,"station_id":"KLDB","i_lat":-6.217455,"is_transit":false,"line":1,"time":1},{"station_name":"Cakung","is_transit":false,"i_lat":-6.219053,"station_id":"CUK","time":8,"distance":1385,"i_long":106.951283,"transit":false,"line":1}],[{"station_id":"JMU","i_lat":-6.288927,"is_transit":false,"time":0,"line":6,"transit":false,"distance":0,"i_long":106.728916,"station_name":"Jurangmangu"},{"i_long":106.74273,"transit":false,"station_name":"Pondokranji","i_lat":-6.276362,"station_id":"PDJ","time":3,"distance":2179,"line":6,"is_transit":false},{"i_lat":-6.237242,"distance":6218,"station_name":"Kebayoran","station_id":"KBY","is_transit":false,"line":6,"transit":false,"i_long":106.780334,"time":8},{"line":6,"transit":false,"is_transit":false,"station_id":"PLM","station_name":"Palmerah","time":7,"i_lat":-6.207404,"i_long":106.79689,"distance":3737},{"time":6,"transit":true,"station_name":"Tanah Abang","is_transit":true,"distance":3191,"i_long":106.811091,"station_id":"THB","i_lat":-6.185545,"line":1},{"is_transit":false,"i_lat":-6.155215,"station_id":"DU","station_name":"Duri","transit":false,"time":8,"line":1,"i_long":106.800832,"distance":3632},{"station_id":"AK","station_name":"Angke","transit":false,"distance":1230,"line":1,"time":4,"i_lat":-6.144674,"i_long":106.79867,"is_transit":false},{"is_transit":true,"line":4,"i_lat":-6.132549,"transit":true,"station_name":"Kampung Bandan","i_long":106.826365,"station_id":"KPB","time":9,"distance":4102},{"distance":1444,"i_long":106.836569,"station_name":"Rajawali","is_transit":false,"i_lat":-6.14505,"time":3,"line":11,"transit":false,"station_id":"RJW"},{"line":11,"station_name":"Kemayoran","transit":false,"is_transit":false,"distance":1901,"i_lat":-6.161728,"i_long":106.839204,"time":5,"station_id":"KMO"},{"i_lat":-6.174784,"i_long":106.84368,"transit":false,"is_transit":false,"line":11,"time":4,"distance":1436,"station_id":"PSE","station_name":"Pasar Senen"},{"is_transit":false,"time":8,"station_name":"Gang Sentiong","transit":false,"i_long":106.850107,"i_lat":-6.185975,"line":11,"distance":1567,"station_id":"GST"},{"i_long":106.855437,"transit":false,"station_id":"KMT","time":1,"distance":973,"line":11,"station_name":"Kramat","is_transit":false,"i_lat":-6.193792},{"time":2,"i_lat":-6.209188,"i_long":106.861737,"line":11,"is_transit":false,"station_id":"POK","transit":false,"distance":1829,"station_name":"Pondok Jati"},{"time":9,"distance":1236,"line":1,"transit":true,"is_transit":true,"station_name":"Jatinegara","station_id":"JNG","i_long":106.86807400000001,"i_lat":-6.215091},{"station_id":"KLD","i_long":106.899548,"distance":3395,"station_name":"Klender","transit":false,"line":1,"time":3,"is_transit":false,"i_lat":-6.2135},{"is_transit":false,"distance":3100,"time":2,"station_name":"Buaran","transit":false,"i_long":106.922662,"station_id":"BUA","line":1,"i_lat":-6.215568},{"transit":false,"station_id":"KLDB","i_lat":-6.217455,"station_name":"Klenderbaru","distance":1305,"line":1,"time":1,"is_transit":false,"i_long":106.939679},{"i_lat":-6.219053,"i_long":106.951283,"station_id":"CUK","transit":false,"station_name":"Cakung","time":8,"distance":1385,"line":1,"is_transit":false}],[{"is_transit":false,"distance":0,"i_long":106.728916,"time":0,"i_lat":-6.288927,"station_id":"JMU","line":6,"transit":false,"station_name":"Jurangmangu"},{"station_id":"PDJ","i_lat":-6.276362,"i_long":106.74273,"transit":false,"station_name":"Pondokranji","time":3,"line":6,"distance":2179,"is_transit":false},{"transit":false,"i_long":106.780334,"station_id":"KBY","distance":6218,"i_lat":-6.237242,"time":8,"is_transit":false,"station_name":"Kebayoran","line":6},{"time":7,"is_transit":false,"i_lat":-6.207404,"station_name":"Palmerah","station_id":"PLM","transit":false,"distance":3737,"i_long":106.79689,"line":6},{"station_name":"Tanah Abang","transit":true,"is_transit":true,"time":6,"distance":3191,"station_id":"THB","i_long":106.811091,"i_lat":-6.185545,"line":1},{"is_transit":false,"distance":3632,"i_lat":-6.155215,"i_long":106.800832,"transit":false,"line":1,"station_name":"Duri","station_id":"DU","time":8},{"i_lat":-6.144674,"line":1,"station_id":"AK","is_transit":false,"transit":false,"time":4,"i_long":106.79867,"station_name":"Angke","distance":1230},{"line":4,"station_id":"KPB","i_lat":-6.132549,"is_transit":true,"time":9,"i_long":106.826365,"station_name":"Kampung Bandan","transit":true,"distance":4102},{"distance":1364,"time":3,"line":2,"is_transit":true,"i_lat":-6.137569,"i_long":106.812439,"station_name":"Jakarta Kota","transit":true,"station_id":"JAKK"},{"transit":false,"i_lat":-6.141205,"station_name":"Jayakarta","is_transit":false,"station_id":"JAY","distance":1264,"i_long":106.820901,"line":2,"time":4},{"station_name":"Manggabesar","line":2,"distance":1080,"station_id":"MGB","i_lat":-6.149769,"time":2,"i_long":106.82482,"transit":false,"is_transit":false},{"is_transit":false,"transit":false,"station_name":"Sawah Besar","station_id":"SW","distance":906,"i_lat":-6.160725,"line":2,"i_long":106.827103,"time":2},{"station_id":"JUA","i_long":106.828284,"distance":1149,"i_lat":-6.166716,"transit":false,"time":2,"line":2,"station_name":"Juanda","is_transit":false},{"station_id":"GDD","i_long":106.832183,"line":2,"transit":false,"time":4,"distance":2015,"i_lat":-6.186295,"is_transit":false,"station_name":"Gondangdia"},{"station_name":"Cikini","station_id":"CKI","is_transit":false,"time":3,"line":2,"distance":1750,"transit":false,"i_lat":-6.198556,"i_long":106.840169},{"line":2,"time":4,"station_id":"MRI","transit":true,"station_name":"Manggarai","distance":1590,"i_lat":-6.209883,"i_long":106.84912,"is_transit":true},{"time":2,"distance":1275,"station_id":"MTR","transit":false,"is_transit":false,"i_lat":-6.212485,"i_long":106.858896,"station_name":"Matraman","line":1},{"station_name":"Jatinegara","i_long":106.86807400000001,"is_transit":false,"station_id":"JNG","line":1,"time":8,"distance":1377,"transit":false,"i_lat":-6.215091},{"line":1,"i_lat":-6.2135,"distance":3395,"transit":false,"is_transit":false,"time":3,"station_id":"KLD","station_name":"Klender","i_long":106.899548},{"station_name":"Buaran","i_long":106.922662,"transit":false,"station_id":"BUA","is_transit":false,"time":2,"i_lat":-6.215568,"line":1,"distance":3100},{"line":1,"station_id":"KLDB","i_long":106.939679,"distance":1305,"time":1,"is_transit":false,"station_name":"Klenderbaru","transit":false,"i_lat":-6.217455},{"distance":1385,"is_transit":false,"station_id":"CUK","transit":false,"i_lat":-6.219053,"i_long":106.951283,"station_name":"Cakung","time":8,"line":1}],[{"i_lat":-6.288927,"transit":false,"time":0,"line":6,"station_name":"Jurangmangu","is_transit":false,"distance":0,"station_id":"JMU","i_long":106.728916},{"i_long":106.74273,"transit":false,"distance":2179,"station_name":"Pondokranji","station_id":"PDJ","time":3,"is_transit":false,"i_lat":-6.276362,"line":6},{"distance":6218,"is_transit":false,"transit":false,"station_name":"Kebayoran","station_id":"KBY","i_long":106.780334,"i_lat":-6.237242,"line":6,"time":8},{"transit":false,"i_long":106.79689,"is_transit":false,"line":6,"station_name":"Palmerah","distance":3737,"i_lat":-6.207404,"time":7,"station_id":"PLM"},{"station_name":"Tanah Abang","station_id":"THB","i_lat":-6.185545,"transit":true,"time":6,"distance":3191,"i_long":106.811091,"is_transit":true,"line":1},{"line":1,"i_long":106.816351,"distance":2029,"station_id":"KAT","transit":false,"station_name":"Karet","is_transit":false,"i_lat":-6.20132,"time":5},{"transit":false,"i_lat":-6.201433,"is_transit":false,"i_long":106.819881,"station_id":"SUDB","time":1,"distance":471,"station_name":"Sudirman Baru","line":1},{"line":1,"transit":false,"time":1,"i_lat":-6.202263,"i_long":106.822649,"station_id":"SUD","is_transit":false,"distance":280,"station_name":"Sudirman"},{"line":2,"time":4,"i_long":106.84912,"transit":true,"station_id":"MRI","is_transit":true,"i_lat":-6.209883,"station_name":"Manggarai","distance":3186},{"is_transit":false,"time":4,"station_id":"CKI","distance":1590,"transit":false,"line":2,"station_name":"Cikini","i_lat":-6.198556,"i_long":106.840169},{"i_lat":-6.186295,"i_long":106.832183,"line":2,"station_name":"Gondangdia","station_id":"GDD","is_transit":false,"distance":1750,"transit":false,"time":3},{"distance":2015,"time":4,"i_long":106.828284,"transit":false,"station_id":"JUA","i_lat":-6.166716,"line":2,"is_transit":false,"station_name":"Juanda"},{"transit":false,"i_long":106.827103,"time":2,"distance":1149,"is_transit":false,"i_lat":-6.160725,"station_name":"Sawah Besar","station_id":"SW","line":2},{"station_name":"Manggabesar","station_id":"MGB","is_transit":false,"i_long":106.82482,"i_lat":-6.149769,"time":2,"line":2,"distance":906,"transit":false},{"time":2,"line":2,"distance":1080,"i_long":106.820901,"i_lat":-6.141205,"transit":false,"is_transit":false,"station_id":"JAY","station_name":"Jayakarta"},{"i_lat":-6.137569,"line":2,"station_name":"Jakarta Kota","distance":1264,"i_long":106.812439,"transit":true,"station_id":"JAKK","is_transit":true,"time":4},{"distance":1364,"station_name":"Kampung Bandan","time":3,"is_transit":true,"transit":true,"station_id":"KPB","line":4,"i_long":106.826365,"i_lat":-6.132549},{"transit":false,"station_name":"Rajawali","i_lat":-6.14505,"is_transit":false,"time":3,"distance":1444,"i_long":106.836569,"station_id":"RJW","line":11},{"station_name":"Kemayoran","time":5,"station_id":"KMO","transit":false,"is_transit":false,"distance":1901,"line":11,"i_lat":-6.161728,"i_long":106.839204},{"distance":1436,"i_long":106.84368,"station_id":"PSE","transit":false,"is_transit":false,"time":4,"line":11,"i_lat":-6.174784,"station_name":"Pasar Senen"},{"station_name":"Gang Sentiong","distance":1567,"station_id":"GST","line":11,"i_long":106.850107,"is_transit":false,"transit":false,"time":8,"i_lat":-6.185975},{"line":11,"i_lat":-6.193792,"time":1,"distance":973,"station_name":"Kramat","is_transit":false,"i_long":106.855437,"station_id":"KMT","transit":false},{"station_id":"POK","station_name":"Pondok Jati","i_long":106.861737,"i_lat":-6.209188,"time":2,"transit":false,"line":11,"is_transit":false,"distance":1829},{"i_long":106.86807400000001,"station_id":"JNG","time":9,"transit":true,"is_transit":true,"distance":1236,"station_name":"Jatinegara","i_lat":-6.215091,"line":1},{"transit":false,"station_name":"Klender","i_long":106.899548,"station_id":"KLD","i_lat":-6.2135,"line":1,"is_transit":false,"distance":3395,"time":3},{"station_id":"BUA","is_transit":false,"transit":false,"distance":3100,"time":2,"i_lat":-6.215568,"i_long":106.922662,"station_name":"Buaran","line":1},{"i_lat":-6.217455,"i_long":106.939679,"station_name":"Klenderbaru","is_transit":false,"time":1,"distance":1305,"line":1,"transit":false,"station_id":"KLDB"},{"i_lat":-6.219053,"distance":1385,"line":1,"i_long":106.951283,"station_name":"Cakung","station_id":"CUK","is_transit":false,"time":8,"transit":false}]]}