{"data":[[{"station_id":"JMU","time":0,"distance":0,"is_transit":false,"i_long":106.728916,"station_name":"Jurangmangu","transit":false,"line":6,"i_lat":-6.288927},{"i_lat":-6.276362,"transit":false,"line":6,"station_name":"Pondokranji","station_id":"PDJ","time":3,"i_long":106.74273,"distance":2179,"is_transit":false},{"i_long":106.780334,"transit":false,"i_lat":-6.237242,"is_transit":false,"distance":6218,"station_id":"KBY","line":6,"time":8,"station_name":"Kebayoran"},{"time":7,"station_id":"PLM","transit":false,"i_long":106.79689,"station_name":"Palmerah","is_transit":false,"distance":3737,"line":6,"i_lat":-6.207404},{"time":6,"line":1,"distance":3191,"station_id":"THB","is_transit":true,"transit":true,"i_lat":-6.185545,"i_long":106.811091,"station_name":"Tanah Abang"},{"station_id":"KAT","is_transit":false,"transit":false,"i_lat":-6.20132,"i_long":106.816351,"line":1,"distance":2029,"station_name":"Karet","time":5},{"time":1,"station_id":"SUDB","station_name":"Sudirman Baru","line":1,"distance":471,"transit":false,"is_transit":false,"i_lat":-6.201433,"i_long":106.819881},{"station_id":"SUD","transit":false,"i_lat":-6.202263,"station_name":"Sudirman","i_long":106.822649,"time":1,"distance":280,"line":1,"is_transit":false},{"line":2,"station_id":"MRI","transit":true,"i_long":106.84912,"time":4,"station_name":"Manggarai","is_transit":true,"i_lat":-6.209883,"distance":3186},{"station_id":"TEB","distance":2610,"transit":false,"time":4,"i_long":106.857948,"station_name":"Tebet","is_transit":false,"line":2,"i_lat":-6.226659},{"i_lat":-6.242512,"time":2,"station_id":"CW","i_long":106.856607,"station_name":"Cawang","is_transit":false,"transit":false,"line":2,"distance":1230},{"i_lat":-6.255332,"station_name":"Duren Kalibata","transit":false,"is_transit":false,"station_id":"DRN","line":2,"distance":1546,"i_long":106.85449,"time":3},{"distance":824,"line":2,"is_transit":false,"station_name":"Pasar Minggu Baru","transit":false,"i_lat":-6.263214,"time":2,"station_id":"PSMB","i_long":106.851577},{"station_id":"PSM","i_long":106.843999,"transit":false,"distance":2380,"is_transit":false,"station_name":"Pasar Minggu","i_lat":-6.2842400000000005,"time":2,"line":2},{"is_transit":false,"distance":2820,"station_id":"TNT","line":2,"time":4,"transit":false,"i_lat":-6.3080680000000005,"station_name":"Tanjung Barat","i_long":106.838896},{"time":3,"line":2,"distance":2671,"i_long":106.832616,"station_name":"Lenteng Agung","i_lat":-6.330363,"transit":false,"is_transit":false,"station_id":"LNA"},{"i_long":106.834175,"is_transit":false,"time":2,"station_name":"Univ. Pancasila","line":2,"i_lat":-6.339291,"distance":1029,"transit":false,"station_id":"UP"},{"time":3,"station_id":"UI","transit":false,"distance":2264,"line":2,"station_name":"Univ. Indonesia","i_long":106.831474,"is_transit":false,"i_lat":-6.360749},{"station_id":"POC","i_lat":-6.369073,"line":2,"is_transit":false,"i_long":106.831114,"transit":false,"distance":1109,"station_name":"Pondok Cina","time":2},{"is_transit":false,"i_lat":-6.391065,"time":4,"distance":2727,"station_id":"DPB","line":2,"i_long":106.819451,"transit":false,"station_name":"Depokbaru"}],[{"station_name":"Jurangmangu","line":6,"station_id":"JMU","i_lat":-6.288927,"is_transit":false,"time":0,"i_long":106.728916,"distance":0,"transit":false},{"time":3,"transit":false,"station_id":"PDJ","line":6,"station_name":"Pondokranji","distance":2179,"i_lat":-6.276362,"is_transit":false,"i_long":106.74273},{"i_long":106.780334,"line":6,"station_id":"KBY","i_lat":-6.237242,"station_name":"Kebayoran","time":8,"transit":false,"distance":6218,"is_transit":false},{"time":7,"station_name":"Palmerah","i_lat":-6.207404,"line":6,"station_id":"PLM","transit":false,"is_transit":false,"i_long":106.79689,"distance":3737},{"i_lat":-6.185545,"distance":3191,"station_id":"THB","is_transit":true,"line":1,"time":6,"station_name":"Tanah Abang","transit":true,"i_long":106.811091},{"time":8,"transit":false,"distance":3632,"station_id":"DU","station_name":"Duri","is_transit":false,"i_long":106.800832,"i_lat":-6.155215,"line":1},{"station_name":"Angke","is_transit":false,"i_lat":-6.144674,"time":4,"distance":1230,"i_long":106.79867,"transit":false,"station_id":"AK","line":1},{"line":4,"distance":4102,"station_name":"Kampung Bandan","is_transit":true,"i_long":106.826365,"transit":true,"time":9,"station_id":"KPB","i_lat":-6.132549},{"is_transit":true,"i_lat":-6.137569,"station_name":"Jakarta Kota","station_id":"JAKK","line":2,"time":3,"distance":1364,"i_long":106.812439,"transit":true},{"distance":1264,"time":4,"line":2,"i_lat":-6.141205,"station_name":"Jayakarta","transit":false,"station_id":"JAY","is_transit":false,"i_long":106.820901},{"line":2,"station_name":"Manggabesar","transit":false,"is_transit":false,"i_long":106.82482,"station_id":"MGB","distance":1080,"time":2,"i_lat":-6.149769},{"station_id":"SW","i_long":106.827103,"station_name":"Sawah Besar","is_transit":false,"distance":906,"line":2,"transit":false,"time":2,"i_lat":-6.160725},{"distance":1149,"time":2,"station_id":"JUA","transit":false,"station_name":"Juanda","i_lat":-6.166716,"is_transit":false,"i_long":106.828284,"line":2},{"transit":false,"station_name":"Gondangdia","distance":2015,"is_transit":false,"time":4,"station_id":"GDD","i_lat":-6.186295,"i_long":106.832183,"line":2},{"station_id":"CKI","is_transit":false,"line":2,"i_lat":-6.198556,"time":3,"station_name":"Cikini","transit":false,"distance":1750,"i_long":106.840169},{"i_long":106.84912,"time":4,"line":2,"station_name":"Manggarai","is_transit":false,"distance":1590,"transit":false,"station_id":"MRI","i_lat":-6.209883},{"station_name":"Tebet","station_id":"TEB","time":4,"is_transit":false,"distance":2610,"line":2,"transit":false,"i_lat":-6.226659,"i_long":106.857948},{"station_id":"CW","i_lat":-6.242512,"i_long":106.856607,"distance":1230,"station_name":"Cawang","is_transit":false,"line":2,"transit":false,"time":2},{"i_long":106.85449,"station_name":"Duren Kalibata","is_transit":false,"time":3,"station_id":"DRN","transit":false,"i_lat":-6.255332,"line":2,"distance":1546},{"transit":false,"line":2,"is_transit":false,"time":2,"station_id":"PSMB","i_long":106.851577,"distance":824,"i_lat":-6.263214,"station_name":"Pasar Minggu Baru"},{"i_long":106.843999,"station_name":"Pasar Minggu","distance":2380,"time":2,"transit":false,"is_transit":false,"i_lat":-6.2842400000000005,"line":2,"station_id":"PSM"},{"is_transit":false,"distance":2820,"i_long":106.838896,"line":2,"i_lat":-6.3080680000000005,"station_id":"TNT","time":4,"transit":false,"station_name":"Tanjung Barat"},{"is_transit":false,"i_long":106.832616,"distance":2671,"i_lat":-6.330363,"line":2,"transit":false,"station_id":"LNA","station_name":"Lenteng Agung","time":3},{"is_transit":false,"i_lat":-6.339291,"station_name":"Univ. Pancasila","distance":1029,"time":2,"line":2,"i_long":106.834175,"transit":false,"station_id":"UP"},{"i_long":106.831474,"i_lat":-6.360749,"line":2,"station_id":"UI","station_name":"Univ. Indonesia","transit":false,"time":3,"distance":2264,"is_transit":false},{"i_lat":-6.369073,"station_name":"Pondok Cina","time":2,"distance":1109,"is_transit":false,"i_long":106.831114,"line":2,"station_id":"POC","transit":false},{"time":4,"station_name":"Depokbaru","distance":2727,"station_id":"DPB","i_long":106.819451,"line":2,"i_lat":-6.391065,"is_transit":false,"transit":false}],[{"i_long":106.728916,"station_id":"JMU","station_name":"Jurangmangu","is_transit":false,"line":6,"distance":0,"transit":false,"i_lat":-6.288927,"time":0},{"i_lat":-6.276362,"line":6,"station_name":"Pondokranji","distance":2179,"is_transit":false,"station_id":"PDJ","i_long":106.74273,"time":3,"transit":false},{"is_transit":false,"transit":false,"time":8,"line":6,"station_id":"KBY","station_name":"Kebayoran","i_long":106.780334,"distance":6218,"i_lat":-6.237242},{"time":7,"station_name":"Palmerah","distance":3737,"station_id":"PLM","is_transit":false,"transit":false,"i_long":106.79689,"line":6,"i_lat":-6.207404},{"i_long":106.811091,"line":1,"distance":3191,"station_name":"Tanah Abang","is_transit":true,"station_id":"THB","transit":true,"time":6,"i_lat":-6.185545},{"station_id":"DU","i_long":106.800832,"is_transit":false,"transit":false,"time":8,"station_name":"Duri","distance":3632,"i_lat":-6.155215,"line":1},{"distance":1230,"line":1,"time":4,"station_id":"AK","is_transit":false,"transit":false,"i_lat":-6.144674,"i_long":106.79867,"station_name":"Angke"},{"station_name":"Kampung Bandan","line":4,"distance":4102,"is_transit":true,"i_lat":-6.132549,"station_id":"KPB","transit":true,"i_long":106.826365,"time":9},{"station_name":"Rajawali","is_transit":false,"distance":1444,"line":11,"i_long":106.836569,"i_lat":-6.14505,"transit":false,"station_id":"RJW","time":3},{"distance":1901,"station_id":"KMO","line":11,"transit":false,"is_transit":false,"i_lat":-6.161728,"i_long":106.839204,"time":5,"station_name":"Kemayoran"},{"time":4,"station_id":"PSE","distance":1436,"is_transit":false,"i_lat":-6.174784,"station_name":"Pasar Senen","line":11,"transit":false,"i_long":106.84368},{"line":11,"time":8,"station_id":"GST","distance":1567,"station_name":"Gang Sentiong","is_transit":false,"i_lat":-6.185975,"i_long":106.850107,"transit":false},{"distance":973,"i_lat":-6.193792,"i_long":106.855437,"time":1,"is_transit":false,"station_name":"Kramat","line":11,"station_id":"KMT","transit":false},{"distance":1829,"station_name":"Pondok Jati","time":2,"transit":false,"station_id":"POK","i_long":106.861737,"line":11,"is_transit":false,"i_lat":-6.209188},{"i_long":106.86807400000001,"transit":true,"i_lat":-6.215091,"distance":1236,"line":1,"is_transit":true,"time":9,"station_name":"Jatinegara","station_id":"JNG"},{"is_transit":false,"i_long":106.858896,"station_id":"MTR","line":1,"transit":false,"i_lat":-6.212485,"time":2,"distance":1377,"station_name":"Matraman"},{"station_id":"MRI","station_name":"Manggarai","is_transit":true,"transit":true,"line":2,"i_lat":-6.209883,"distance":1275,"time":2,"i_long":106.84912},{"station_id":"TEB","i_long":106.857948,"station_name":"Tebet","time":4,"transit":false,"i_lat":-6.226659,"line":2,"is_transit":false,"distance":2610},{"is_transit":false,"i_long":106.856607,"i_lat":-6.242512,"distance":1230,"line":2,"station_name":"Cawang","transit":false,"time":2,"station_id":"CW"},{"i_long":106.85449,"is_transit":false,"line":2,"station_name":"Duren Kalibata","station_id":"DRN","time":3,"i_lat":-6.255332,"transit":false,"distance":1546},{"time":2,"distance":824,"station_id":"PSMB","line":2,"transit":false,"station_name":"Pasar Minggu Baru","is_transit":false,"i_lat":-6.263214,"i_long":106.851577},{"is_transit":false,"i_lat":-6.2842400000000005,"i_long":106.843999,"station_id":"PSM","line":2,"time":2,"station_name":"Pasar Minggu","distance":2380,"transit":false},{"transit":false,"distance":2820,"station_name":"Tanjung Barat","is_transit":false,"time":4,"i_long":106.838896,"station_id":"TNT","line":2,"i_lat":-6.3080680000000005},{"i_lat":-6.330363,"line":2,"distance":2671,"time":3,"station_id":"LNA","is_transit":false,"station_name":"Lenteng Agung","i_long":106.832616,"transit":false},{"station_name":"Univ. Pancasila","station_id":"UP","is_transit":false,"transit":false,"time":2,"line":2,"distance":1029,"i_long":106.834175,"i_lat":-6.339291},{"is_transit":false,"time":3,"station_id":"UI","transit":false,"i_long":106.831474,"station_name":"Univ. Indonesia","distance":2264,"i_lat":-6.360749,"line":2},{"i_long":106.831114,"line":2,"transit":false,"time":2,"i_lat":-6.369073,"station_name":"Pondok Cina","is_transit":false,"station_id":"POC","distance":1109},{"i_long":106.819451,"distance":2727,"transit":false,"line":2,"is_transit":false,"station_name":"Depokbaru","time":4,"i_lat":-6.391065,"station_id":"DPB"}]]}