{"data":[[{"is_transit":false,"i_lat":-6.288927,"time":0,"distance":0,"transit":false,"station_id":"JMU","i_long":106.728916,"station_name":"Jurangmangu","line":6},{"distance":2179,"is_transit":false,"line":6,"station_name":"Pondokranji","i_lat":-6.276362,"i_long":106.74273,"time":3,"transit":false,"station_id":"PDJ"},{"transit":false,"distance":6218,"station_name":"Kebayoran","line":6,"time":8,"station_id":"KBY","is_transit":false,"i_long":106.780334,"i_lat":-6.237242},{"station_id":"PLM","transit":false,"time":7,"i_lat":-6.207404,"i_long":106.79689,"distance":3737,"is_transit":false,"station_name":"Palmerah","line":6},{"line":1,"transit":true,"station_id":"THB","time":6,"is_transit":true,"station_name":"Tanah Abang","i_long":106.811091,"i_lat":-6.185545,"distance":3191},{"transit":false,"station_id":"KAT","time":5,"i_lat":-6.20132,"station_name":"Karet","is_transit":false,"distance":2029,"i_long":106.816351,"line":1},{"station_name":"Sudirman Baru","time":1,"i_lat":-6.201433,"is_transit":false,"transit":false,"distance":471,"line":1,"station_id":"SUDB","i_long":106.819881},{"distance":280,"station_id":"SUD","time":1,"station_name":"Sudirman","line":1,"i_long":106.822649,"is_transit":false,"i_lat":-6.202263,"transit":false},{"is_transit":true,"i_long":106.84912,"station_id":"MRI","station_name":"Manggarai","transit":true,"time":4,"distance":3186,"i_lat":-6.209883,"line":2},{"is_transit":false,"line":2,"i_lat":-6.226659,"distance":2610,"i_long":106.857948,"station_name":"Tebet","time":4,"station_id":"TEB","transit":false},{"line":2,"station_id":"CW","station_name":"Cawang","is_transit":false,"distance":1230,"i_long":106.856607,"transit":false,"time":2,"i_lat":-6.242512},{"i_long":106.85449,"station_id":"DRN","station_name":"Duren Kalibata","i_lat":-6.255332,"line":2,"time":3,"distance":1546,"transit":false,"is_transit":false},{"line":2,"distance":824,"station_name":"Pasar Minggu Baru","i_long":106.851577,"station_id":"PSMB","time":2,"transit":false,"is_transit":false,"i_lat":-6.263214}],[{"i_lat":-6.288927,"transit":false,"is_transit":false,"line":6,"station_id":"JMU","i_long":106.728916,"distance":0,"station_name":"Jurangmangu","time":0},{"transit":false,"distance":2179,"station_name":"Pondokranji","is_transit":false,"i_lat":-6.276362,"line":6,"time":3,"station_id":"PDJ","i_long":106.74273},{"time":8,"station_id":"KBY","i_long":106.780334,"i_lat":-6.237242,"transit":false,"is_transit":false,"station_name":"Kebayoran","line":6,"distance":6218},{"distance":3737,"station_name":"Palmerah","time":7,"i_lat":-6.207404,"transit":false,"is_transit":false,"line":6,"station_id":"PLM","i_long":106.79689},{"distance":3191,"station_name":"Tanah Abang","time":6,"i_long":106.811091,"line":1,"i_lat":-6.185545,"is_transit":true,"transit":true,"station_id":"THB"},{"station_name":"Duri","transit":false,"i_long":106.800832,"i_lat":-6.155215,"time":8,"line":1,"distance":3632,"is_transit":false,"station_id":"DU"},{"i_lat":-6.144674,"line":1,"i_long":106.79867,"is_transit":false,"station_name":"Angke","transit":false,"distance":1230,"time":4,"station_id":"AK"},{"distance":4102,"station_id":"KPB","i_lat":-6.132549,"station_name":"Kampung Bandan","i_long":106.826365,"is_transit":true,"time":9,"line":4,"transit":true},{"is_transit":true,"transit":true,"station_name":"Jakarta Kota","i_lat":-6.137569,"time":3,"i_long":106.812439,"distance":1364,"line":2,"station_id":"JAKK"},{"transit":false,"time":4,"line":2,"station_name":"Jayakarta","is_transit":false,"station_id":"JAY","i_lat":-6.141205,"distance":1264,"i_long":106.820901},{"i_lat":-6.149769,"i_long":106.82482,"is_transit":false,"line":2,"transit":false,"distance":1080,"time":2,"station_id":"MGB","station_name":"Manggabesar"},{"is_transit":false,"i_lat":-6.160725,"line":2,"station_id":"SW","distance":906,"time":2,"transit":false,"station_name":"Sawah Besar","i_long":106.827103},{"transit":false,"is_transit":false,"time":2,"distance":1149,"station_id":"JUA","i_long":106.828284,"line":2,"station_name":"Juanda","i_lat":-6.166716},{"i_long":106.832183,"time":4,"station_id":"GDD","station_name":"Gondangdia","line":2,"distance":2015,"transit":false,"is_transit":false,"i_lat":-6.186295},{"station_id":"CKI","transit":false,"i_lat":-6.198556,"line":2,"i_long":106.840169,"station_name":"Cikini","time":3,"is_transit":false,"distance":1750},{"station_name":"Manggarai","time":4,"i_long":106.84912,"distance":1590,"i_lat":-6.209883,"line":2,"transit":false,"station_id":"MRI","is_transit":false},{"distance":2610,"line":2,"is_transit":false,"transit":false,"time":4,"station_id":"TEB","i_lat":-6.226659,"station_name":"Tebet","i_long":106.857948},{"i_lat":-6.242512,"time":2,"distance":1230,"station_id":"CW","i_long":106.856607,"transit":false,"is_transit":false,"line":2,"station_name":"Cawang"},{"station_id":"DRN","i_lat":-6.255332,"is_transit":false,"transit":false,"distance":1546,"time":3,"station_name":"Duren Kalibata","i_long":106.85449,"line":2},{"line":2,"station_id":"PSMB","transit":false,"time":2,"i_lat":-6.263214,"distance":824,"i_long":106.851577,"is_transit":false,"station_name":"Pasar Minggu Baru"}],[{"i_lat":-6.288927,"time":0,"is_transit":false,"station_id":"JMU","line":6,"transit":false,"station_name":"Jurangmangu","i_long":106.728916,"distance":0},{"distance":2179,"station_id":"PDJ","line":6,"i_long":106.74273,"transit":false,"is_transit":false,"station_name":"Pondokranji","time":3,"i_lat":-6.276362},{"distance":6218,"station_id":"KBY","line":6,"time":8,"transit":false,"is_transit":false,"i_lat":-6.237242,"station_name":"Kebayoran","i_long":106.780334},{"time":7,"station_id":"PLM","distance":3737,"i_lat":-6.207404,"transit":false,"i_long":106.79689,"station_name":"Palmerah","is_transit":false,"line":6},{"time":6,"distance":3191,"station_id":"THB","i_long":106.811091,"transit":true,"station_name":"Tanah Abang","is_transit":true,"i_lat":-6.185545,"line":1},{"time":8,"station_id":"DU","line":1,"distance":3632,"i_long":106.800832,"station_name":"Duri","transit":false,"is_transit":false,"i_lat":-6.155215},{"line":1,"is_transit":false,"station_id":"AK","time":4,"distance":1230,"station_name":"Angke","transit":false,"i_lat":-6.144674,"i_long":106.79867},{"time":9,"transit":true,"station_name":"Kampung Bandan","distance":4102,"line":4,"is_transit":true,"i_long":106.826365,"station_id":"KPB","i_lat":-6.132549},{"time":3,"is_transit":false,"station_id":"RJW","i_lat":-6.14505,"distance":1444,"station_name":"Rajawali","i_long":106.836569,"transit":false,"line":11},{"transit":false,"is_transit":false,"station_id":"KMO","i_lat":-6.161728,"distance":1901,"line":11,"time":5,"i_long":106.839204,"station_name":"Kemayoran"},{"station_id":"PSE","distance":1436,"time":4,"transit":false,"is_transit":false,"i_long":106.84368,"line":11,"station_name":"Pasar Senen","i_lat":-6.174784},{"station_id":"GST","station_name":"Gang Sentiong","distance":1567,"transit":false,"time":8,"i_long":106.850107,"is_transit":false,"i_lat":-6.185975,"line":11},{"distance":973,"i_long":106.855437,"line":11,"station_name":"Kramat","transit":false,"time":1,"is_transit":false,"station_id":"KMT","i_lat":-6.193792},{"distance":1829,"transit":false,"is_transit":false,"time":2,"station_id":"POK","station_name":"Pondok Jati","i_long":106.861737,"line":11,"i_lat":-6.209188},{"is_transit":true,"i_long":106.86807400000001,"line":1,"distance":1236,"transit":true,"station_id":"JNG","time":9,"i_lat":-6.215091,"station_name":"Jatinegara"},{"station_id":"MTR","transit":false,"distance":1377,"is_transit":false,"time":2,"i_long":106.858896,"i_lat":-6.212485,"line":1,"station_name":"Matraman"},{"transit":true,"time":2,"station_id":"MRI","i_long":106.84912,"distance":1275,"line":2,"station_name":"Manggarai","i_lat":-6.209883,"is_transit":true},{"station_id":"TEB","time":4,"is_transit":false,"i_long":106.857948,"station_name":"Tebet","transit":false,"distance":2610,"i_lat":-6.226659,"line":2},{"is_transit":false,"line":2,"transit":false,"station_id":"CW","station_name":"Cawang","distance":1230,"i_lat":-6.242512,"i_long":106.856607,"time":2},{"transit":false,"i_long":106.85449,"line":2,"time":3,"station_name":"Duren Kalibata","station_id":"DRN","distance":1546,"is_transit":false,"i_lat":-6.255332},{"is_transit":false,"distance":824,"station_name":"Pasar Minggu Baru","station_id":"PSMB","i_long":106.851577,"transit":false,"time":2,"i_lat":-6.263214,"line":2}]]}