{"data":[[{"transit":false,"line":6,"time":0,"station_name":"Jurangmangu","i_lat":-6.288927,"i_long":106.728916,"distance":0,"station_id":"JMU","is_transit":false},{"i_lat":-6.296963,"distance":1994,"line":6,"station_id":"SDM","i_long":106.712277,"is_transit":false,"time":4,"station_name":"Sudimara","transit":false},{"i_long":106.675475,"i_lat":-6.314823,"station_id":"RU","transit":false,"is_transit":false,"line":6,"time":6,"station_name":"Rawa Buntu","distance":4566},{"distance":2413,"line":6,"is_transit":false,"station_id":"SRP","station_name":"Serpong","time":4,"transit":false,"i_lat":-6.319871,"i_long":106.66566},{"i_lat":-6.32484,"line":3,"distance":1784,"time":4,"station_id":"CSK","i_long":106.640411,"transit":false,"station_name":"Cisauk","is_transit":false},{"transit":false,"station_id":"CC","time":4,"line":3,"i_long":106.617853,"station_name":"Cicayur","is_transit":false,"distance":2519,"i_lat":-6.329547},{"time":8,"station_name":"Parung Panjang","transit":false,"distance":5968,"line":6,"i_lat":-6.3441410000000005,"i_long":106.568863,"station_id":"PRP","is_transit":false},{"station_id":"CJT","i_lat":-6.354349,"line":3,"station_name":"Cilejit","is_transit":false,"distance":7025,"transit":false,"i_long":106.508482,"time":9},{"station_name":"Daru","station_id":"DAR","i_lat":-6.338021,"is_transit":false,"transit":false,"i_long":106.491338,"distance":2675,"line":0,"time":6},{"is_transit":false,"station_name":"Tenjo","i_long":106.460812,"transit":false,"distance":3902,"station_id":"TEJ","line":6,"time":5,"i_lat":-6.327251},{"i_long":106.425991,"is_transit":false,"transit":false,"i_lat":-6.328533,"line":6,"station_id":"TGS","time":5,"station_name":"Tigaraksa","distance":2974}]]}