{"data":[[{"station_id":"JMU","time":0,"line":6,"i_lat":-6.288927,"transit":false,"station_name":"Jurangmangu","is_transit":false,"distance":0,"i_long":106.728916},{"transit":false,"distance":2179,"i_long":106.74273,"line":6,"station_id":"PDJ","station_name":"Pondokranji","time":3,"i_lat":-6.276362,"is_transit":false},{"is_transit":false,"station_name":"Kebayoran","line":6,"station_id":"KBY","time":8,"distance":6218,"transit":false,"i_lat":-6.237242,"i_long":106.780334},{"is_transit":false,"distance":3737,"transit":false,"i_lat":-6.207404,"line":6,"station_name":"Palmerah","i_long":106.79689,"time":7,"station_id":"PLM"},{"is_transit":true,"time":6,"distance":3191,"station_name":"Tanah Abang","line":1,"i_long":106.811091,"i_lat":-6.185545,"station_id":"THB","transit":false}]]}