{"data":[[{"time":0,"transit":false,"i_lat":-6.288927,"distance":0,"station_name":"Jurangmangu","station_id":"JMU","is_transit":false,"i_long":106.728916,"line":6},{"i_long":106.74273,"line":6,"station_name":"Pondokranji","station_id":"PDJ","is_transit":false,"distance":2179,"transit":false,"time":3,"i_lat":-6.276362},{"is_transit":false,"distance":6218,"i_lat":-6.237242,"time":8,"station_name":"Kebayoran","transit":false,"i_long":106.780334,"station_id":"KBY","line":6},{"i_long":106.79689,"is_transit":false,"time":7,"line":6,"distance":3737,"transit":false,"i_lat":-6.207404,"station_name":"Palmerah","station_id":"PLM"},{"station_name":"Tanah Abang","time":6,"transit":true,"i_long":106.811091,"station_id":"THB","is_transit":true,"distance":3191,"i_lat":-6.185545,"line":1},{"distance":2029,"transit":false,"station_id":"KAT","line":1,"i_long":106.816351,"time":5,"is_transit":false,"station_name":"Karet","i_lat":-6.20132},{"i_lat":-6.201433,"line":1,"i_long":106.819881,"is_transit":false,"station_id":"SUDB","transit":false,"time":1,"distance":471,"station_name":"Sudirman Baru"},{"i_long":106.822649,"time":1,"line":1,"i_lat":-6.202263,"distance":280,"transit":false,"is_transit":false,"station_id":"SUD","station_name":"Sudirman"},{"line":2,"station_id":"MRI","is_transit":true,"transit":true,"time":4,"station_name":"Manggarai","i_lat":-6.209883,"i_long":106.84912,"distance":3186},{"transit":false,"time":4,"i_lat":-6.226659,"i_long":106.857948,"station_id":"TEB","distance":2610,"station_name":"Tebet","is_transit":false,"line":2},{"station_id":"CW","i_lat":-6.242512,"is_transit":false,"transit":false,"station_name":"Cawang","time":2,"i_long":106.856607,"distance":1230,"line":2}],[{"i_lat":-6.288927,"transit":false,"distance":0,"station_id":"JMU","time":0,"station_name":"Jurangmangu","line":6,"i_long":106.728916,"is_transit":false},{"i_long":106.74273,"line":6,"is_transit":false,"transit":false,"station_id":"PDJ","time":3,"distance":2179,"station_name":"Pondokranji","i_lat":-6.276362},{"is_transit":false,"i_long":106.780334,"line":6,"transit":false,"i_lat":-6.237242,"station_id":"KBY","distance":6218,"time":8,"station_name":"Kebayoran"},{"line":6,"station_id":"PLM","time":7,"transit":false,"distance":3737,"station_name":"Palmerah","is_transit":false,"i_lat":-6.207404,"i_long":106.79689},{"i_lat":-6.185545,"station_name":"Tanah Abang","i_long":106.811091,"time":6,"line":1,"station_id":"THB","distance":3191,"transit":true,"is_transit":true},{"transit":false,"is_transit":false,"station_name":"Duri","distance":3632,"i_lat":-6.155215,"i_long":106.800832,"line":1,"time":8,"station_id":"DU"},{"station_id":"AK","time":4,"line":1,"transit":false,"i_lat":-6.144674,"station_name":"Angke","i_long":106.79867,"is_transit":false,"distance":1230},{"i_lat":-6.132549,"time":9,"distance":4102,"station_id":"KPB","line":4,"is_transit":true,"transit":true,"station_name":"Kampung Bandan","i_long":106.826365},{"is_transit":true,"station_name":"Jakarta Kota","distance":1364,"station_id":"JAKK","time":3,"transit":true,"i_lat":-6.137569,"i_long":106.812439,"line":2},{"transit":false,"distance":1264,"station_name":"Jayakarta","i_long":106.820901,"time":4,"is_transit":false,"line":2,"station_id":"JAY","i_lat":-6.141205},{"distance":1080,"station_name":"Manggabesar","station_id":"MGB","transit":false,"i_long":106.82482,"line":2,"is_transit":false,"i_lat":-6.149769,"time":2},{"transit":false,"distance":906,"line":2,"station_name":"Sawah Besar","i_lat":-6.160725,"is_transit":false,"i_long":106.827103,"time":2,"station_id":"SW"},{"time":2,"station_id":"JUA","i_lat":-6.166716,"line":2,"transit":false,"distance":1149,"is_transit":false,"station_name":"Juanda","i_long":106.828284},{"i_lat":-6.186295,"time":4,"i_long":106.832183,"line":2,"station_id":"GDD","transit":false,"distance":2015,"station_name":"Gondangdia","is_transit":false},{"distance":1750,"line":2,"time":3,"is_transit":false,"transit":false,"station_name":"Cikini","i_long":106.840169,"station_id":"CKI","i_lat":-6.198556},{"distance":1590,"station_id":"MRI","station_name":"Manggarai","time":4,"i_lat":-6.209883,"transit":false,"i_long":106.84912,"is_transit":false,"line":2},{"transit":false,"i_lat":-6.226659,"time":4,"station_name":"Tebet","distance":2610,"station_id":"TEB","is_transit":false,"i_long":106.857948,"line":2},{"i_lat":-6.242512,"transit":false,"station_name":"Cawang","line":2,"time":2,"is_transit":false,"distance":1230,"i_long":106.856607,"station_id":"CW"}],[{"is_transit":false,"transit":false,"station_id":"JMU","distance":0,"line":6,"station_name":"Jurangmangu","time":0,"i_lat":-6.288927,"i_long":106.728916},{"transit":false,"station_id":"PDJ","time":3,"i_long":106.74273,"distance":2179,"i_lat":-6.276362,"is_transit":false,"line":6,"station_name":"Pondokranji"},{"station_name":"Kebayoran","time":8,"line":6,"transit":false,"station_id":"KBY","is_transit":false,"i_lat":-6.237242,"distance":6218,"i_long":106.780334},{"is_transit":false,"distance":3737,"time":7,"i_long":106.79689,"transit":false,"station_name":"Palmerah","station_id":"PLM","i_lat":-6.207404,"line":6},{"is_transit":true,"i_lat":-6.185545,"distance":3191,"i_long":106.811091,"line":1,"station_id":"THB","station_name":"Tanah Abang","transit":true,"time":6},{"time":8,"station_id":"DU","distance":3632,"i_long":106.800832,"station_name":"Duri","line":1,"i_lat":-6.155215,"is_transit":false,"transit":false},{"transit":false,"time":4,"line":1,"station_id":"AK","is_transit":false,"i_long":106.79867,"station_name":"Angke","i_lat":-6.144674,"distance":1230},{"time":9,"i_lat":-6.132549,"station_id":"KPB","distance":4102,"line":4,"transit":true,"is_transit":true,"station_name":"Kampung Bandan","i_long":106.826365},{"line":11,"time":3,"is_transit":false,"distance":1444,"i_long":106.836569,"transit":false,"station_name":"Rajawali","station_id":"RJW","i_lat":-6.14505},{"station_id":"KMO","time":5,"is_transit":false,"station_name":"Kemayoran","i_lat":-6.161728,"distance":1901,"i_long":106.839204,"line":11,"transit":false},{"station_id":"PSE","transit":false,"time":4,"station_name":"Pasar Senen","distance":1436,"line":11,"i_lat":-6.174784,"i_long":106.84368,"is_transit":false},{"station_name":"Gang Sentiong","i_lat":-6.185975,"is_transit":false,"distance":1567,"line":11,"transit":false,"time":8,"station_id":"GST","i_long":106.850107},{"station_name":"Kramat","transit":false,"time":1,"i_lat":-6.193792,"i_long":106.855437,"line":11,"distance":973,"is_transit":false,"station_id":"KMT"},{"distance":1829,"line":11,"station_id":"POK","transit":false,"station_name":"Pondok Jati","is_transit":false,"time":2,"i_lat":-6.209188,"i_long":106.861737},{"i_long":106.86807400000001,"i_lat":-6.215091,"is_transit":true,"line":1,"time":9,"station_id":"JNG","transit":true,"distance":1236,"station_name":"Jatinegara"},{"transit":false,"i_long":106.858896,"i_lat":-6.212485,"distance":1377,"time":2,"station_name":"Matraman","is_transit":false,"station_id":"MTR","line":1},{"i_long":106.84912,"transit":true,"is_transit":true,"time":2,"line":2,"station_id":"MRI","station_name":"Manggarai","distance":1275,"i_lat":-6.209883},{"time":4,"distance":2610,"is_transit":false,"i_long":106.857948,"transit":false,"station_id":"TEB","station_name":"Tebet","i_lat":-6.226659,"line":2},{"i_long":106.856607,"station_name":"Cawang","transit":false,"i_lat":-6.242512,"distance":1230,"station_id":"CW","time":2,"is_transit":false,"line":2}]]}