{"data":[[{"transit":false,"station_name":"Jurangmangu","i_long":106.728916,"distance":0,"is_transit":false,"station_id":"JMU","time":0,"line":6,"i_lat":-6.288927},{"station_id":"PDJ","line":6,"is_transit":false,"time":3,"transit":false,"i_lat":-6.276362,"station_name":"Pondokranji","distance":2179,"i_long":106.74273},{"transit":false,"line":6,"distance":6218,"i_long":106.780334,"station_id":"KBY","time":8,"is_transit":false,"station_name":"Kebayoran","i_lat":-6.237242},{"is_transit":false,"i_lat":-6.207404,"station_name":"Palmerah","station_id":"PLM","distance":3737,"line":6,"transit":false,"i_long":106.79689,"time":7},{"time":6,"i_long":106.811091,"station_name":"Tanah Abang","station_id":"THB","is_transit":true,"transit":true,"i_lat":-6.185545,"line":1,"distance":3191},{"distance":3632,"transit":true,"is_transit":true,"station_id":"DU","i_lat":-6.155215,"station_name":"Duri","time":8,"i_long":106.800832,"line":1},{"station_id":"GRG","station_name":"Grogol","transit":false,"i_long":106.788277,"line":5,"time":3,"i_lat":-6.162021,"is_transit":false,"distance":1700},{"transit":false,"station_id":"PSG","time":2,"i_long":106.771379,"station_name":"Pesing","is_transit":false,"i_lat":-6.161433,"line":5,"distance":2036},{"line":5,"i_lat":-6.1587309999999995,"time":2,"station_id":"TKO","transit":false,"is_transit":false,"distance":1614,"station_name":"Taman Kota","i_long":106.756522},{"transit":false,"station_name":"Bojongindah","i_long":106.737035,"time":2,"station_id":"BOI","distance":2334,"is_transit":false,"i_lat":-6.159876,"line":5},{"line":5,"time":4,"distance":1152,"station_name":"Rawa Buaya","i_lat":-6.162758,"is_transit":false,"station_id":"RW","i_long":106.723064,"transit":false},{"is_transit":false,"time":3,"transit":false,"station_name":"Kalideres","i_long":106.701612,"i_lat":-6.166068,"station_id":"KDS","distance":2504,"line":5},{"time":3,"distance":2548,"i_lat":-6.169933,"station_id":"PI","line":5,"is_transit":false,"i_long":106.679458,"transit":false,"station_name":"Poris"},{"distance":1834,"station_id":"BPR","line":5,"time":3,"is_transit":false,"i_lat":-6.171811,"i_long":106.665036,"station_name":"Batuceper","transit":false},{"station_id":"THI","i_lat":-6.17331,"i_long":106.64657,"station_name":"Tanah Tinggi","is_transit":false,"transit":false,"line":5,"distance":2028,"time":3},{"line":5,"station_id":"TNG","is_transit":false,"i_long":106.632761,"station_name":"Tangerang","time":3,"i_lat":-6.176583,"distance":1547,"transit":false}],[{"station_name":"Jurangmangu","time":0,"is_transit":false,"distance":0,"station_id":"JMU","transit":false,"i_lat":-6.288927,"line":6,"i_long":106.728916},{"time":3,"station_name":"Pondokranji","transit":false,"line":6,"is_transit":false,"i_lat":-6.276362,"i_long":106.74273,"distance":2179,"station_id":"PDJ"},{"transit":false,"i_long":106.780334,"is_transit":false,"line":6,"i_lat":-6.237242,"distance":6218,"station_id":"KBY","station_name":"Kebayoran","time":8},{"station_id":"PLM","transit":false,"i_long":106.79689,"is_transit":false,"distance":3737,"i_lat":-6.207404,"line":6,"station_name":"Palmerah","time":7},{"station_name":"Tanah Abang","transit":true,"line":1,"distance":3191,"station_id":"THB","time":6,"is_transit":true,"i_lat":-6.185545,"i_long":106.811091},{"station_id":"KAT","i_long":106.816351,"distance":2029,"transit":false,"i_lat":-6.20132,"station_name":"Karet","line":1,"time":5,"is_transit":false},{"transit":false,"line":1,"distance":471,"is_transit":false,"i_long":106.819881,"time":1,"i_lat":-6.201433,"station_id":"SUDB","station_name":"Sudirman Baru"},{"is_transit":false,"i_long":106.822649,"station_id":"SUD","time":1,"station_name":"Sudirman","distance":280,"i_lat":-6.202263,"transit":false,"line":1},{"station_name":"Manggarai","line":2,"transit":true,"time":4,"station_id":"MRI","distance":3186,"i_lat":-6.209883,"i_long":106.84912,"is_transit":true},{"line":2,"distance":1590,"station_name":"Cikini","station_id":"CKI","i_lat":-6.198556,"time":4,"is_transit":false,"transit":false,"i_long":106.840169},{"transit":false,"station_name":"Gondangdia","line":2,"distance":1750,"i_lat":-6.186295,"i_long":106.832183,"station_id":"GDD","is_transit":false,"time":3},{"transit":false,"i_long":106.828284,"i_lat":-6.166716,"is_transit":false,"time":4,"station_id":"JUA","station_name":"Juanda","line":2,"distance":2015},{"i_lat":-6.160725,"time":2,"transit":false,"station_name":"Sawah Besar","distance":1149,"station_id":"SW","is_transit":false,"line":2,"i_long":106.827103},{"time":2,"line":2,"station_id":"MGB","distance":906,"station_name":"Manggabesar","is_transit":false,"transit":false,"i_long":106.82482,"i_lat":-6.149769},{"station_name":"Jayakarta","i_long":106.820901,"distance":1080,"transit":false,"line":2,"station_id":"JAY","is_transit":false,"i_lat":-6.141205,"time":2},{"i_lat":-6.137569,"is_transit":true,"line":2,"station_id":"JAKK","time":4,"distance":1264,"i_long":106.812439,"station_name":"Jakarta Kota","transit":true},{"time":3,"is_transit":true,"transit":true,"i_lat":-6.132549,"line":4,"station_name":"Kampung Bandan","station_id":"KPB","i_long":106.826365,"distance":1364},{"station_name":"Angke","transit":false,"distance":4102,"is_transit":false,"station_id":"AK","i_lat":-6.144674,"i_long":106.79867,"line":1,"time":9},{"time":4,"i_lat":-6.155215,"transit":true,"i_long":106.800832,"station_id":"DU","line":1,"station_name":"Duri","distance":1230,"is_transit":true},{"time":3,"station_id":"GRG","station_name":"Grogol","line":5,"i_lat":-6.162021,"transit":false,"i_long":106.788277,"distance":1700,"is_transit":false},{"time":2,"is_transit":false,"distance":2036,"i_lat":-6.161433,"i_long":106.771379,"station_name":"Pesing","transit":false,"station_id":"PSG","line":5},{"i_lat":-6.1587309999999995,"distance":1614,"transit":false,"i_long":106.756522,"time":2,"is_transit":false,"station_id":"TKO","station_name":"Taman Kota","line":5},{"time":2,"line":5,"transit":false,"station_name":"Bojongindah","distance":2334,"i_lat":-6.159876,"station_id":"BOI","is_transit":false,"i_long":106.737035},{"station_name":"Rawa Buaya","time":4,"distance":1152,"i_long":106.723064,"line":5,"transit":false,"i_lat":-6.162758,"is_transit":false,"station_id":"RW"},{"i_long":106.701612,"time":3,"distance":2504,"station_name":"Kalideres","is_transit":false,"station_id":"KDS","line":5,"transit":false,"i_lat":-6.166068},{"distance":2548,"station_id":"PI","is_transit":false,"i_lat":-6.169933,"time":3,"i_long":106.679458,"transit":false,"line":5,"station_name":"Poris"},{"transit":false,"is_transit":false,"distance":1834,"station_name":"Batuceper","station_id":"BPR","i_long":106.665036,"time":3,"i_lat":-6.171811,"line":5},{"distance":2028,"i_long":106.64657,"transit":false,"station_name":"Tanah Tinggi","i_lat":-6.17331,"line":5,"is_transit":false,"time":3,"station_id":"THI"},{"transit":false,"time":3,"station_id":"TNG","is_transit":false,"i_long":106.632761,"station_name":"Tangerang","i_lat":-6.176583,"distance":1547,"line":5}],[{"transit":false,"is_transit":false,"time":0,"i_long":106.728916,"station_id":"JMU","station_name":"Jurangmangu","i_lat":-6.288927,"line":6,"distance":0},{"station_name":"Pondokranji","line":6,"is_transit":false,"station_id":"PDJ","i_lat":-6.276362,"i_long":106.74273,"distance":2179,"time":3,"transit":false},{"distance":6218,"line":6,"station_id":"KBY","is_transit":false,"time":8,"transit":false,"station_name":"Kebayoran","i_lat":-6.237242,"i_long":106.780334},{"i_long":106.79689,"line":6,"distance":3737,"transit":false,"station_id":"PLM","i_lat":-6.207404,"is_transit":false,"station_name":"Palmerah","time":7},{"i_long":106.811091,"line":1,"time":6,"is_transit":true,"transit":true,"distance":3191,"station_id":"THB","station_name":"Tanah Abang","i_lat":-6.185545},{"time":5,"i_long":106.816351,"transit":false,"i_lat":-6.20132,"station_name":"Karet","line":1,"station_id":"KAT","is_transit":false,"distance":2029},{"i_long":106.819881,"station_id":"SUDB","is_transit":false,"time":1,"transit":false,"distance":471,"station_name":"Sudirman Baru","i_lat":-6.201433,"line":1},{"distance":280,"transit":false,"line":1,"time":1,"station_name":"Sudirman","i_lat":-6.202263,"is_transit":false,"station_id":"SUD","i_long":106.822649},{"i_long":106.84912,"station_id":"MRI","is_transit":false,"line":2,"distance":3186,"i_lat":-6.209883,"transit":false,"station_name":"Manggarai","time":4},{"i_lat":-6.212485,"time":2,"i_long":106.858896,"distance":1275,"line":1,"is_transit":false,"station_name":"Matraman","transit":false,"station_id":"MTR"},{"station_id":"JNG","distance":1377,"time":8,"i_lat":-6.215091,"i_long":106.86807400000001,"transit":true,"line":1,"station_name":"Jatinegara","is_transit":true},{"station_id":"POK","station_name":"Pondok Jati","distance":1236,"transit":false,"i_lat":-6.209188,"is_transit":false,"line":11,"time":2,"i_long":106.861737},{"station_id":"KMT","i_long":106.855437,"transit":false,"is_transit":false,"line":11,"time":2,"i_lat":-6.193792,"distance":1829,"station_name":"Kramat"},{"i_long":106.850107,"is_transit":false,"line":11,"station_id":"GST","time":1,"transit":false,"i_lat":-6.185975,"distance":973,"station_name":"Gang Sentiong"},{"i_long":106.84368,"station_id":"PSE","is_transit":false,"time":8,"line":11,"station_name":"Pasar Senen","i_lat":-6.174784,"distance":1567,"transit":false},{"i_long":106.839204,"station_id":"KMO","i_lat":-6.161728,"transit":false,"distance":1436,"station_name":"Kemayoran","line":11,"is_transit":false,"time":4},{"transit":false,"distance":1901,"is_transit":false,"station_id":"RJW","line":11,"i_long":106.836569,"i_lat":-6.14505,"station_name":"Rajawali","time":5},{"station_name":"Kampung Bandan","i_long":106.826365,"station_id":"KPB","distance":1444,"transit":true,"line":4,"i_lat":-6.132549,"time":3,"is_transit":true},{"is_transit":false,"station_id":"AK","distance":4102,"transit":false,"i_lat":-6.144674,"line":1,"time":9,"i_long":106.79867,"station_name":"Angke"},{"i_lat":-6.155215,"line":1,"i_long":106.800832,"time":4,"transit":true,"is_transit":true,"station_id":"DU","distance":1230,"station_name":"Duri"},{"is_transit":false,"station_name":"Grogol","i_lat":-6.162021,"line":5,"distance":1700,"time":3,"transit":false,"i_long":106.788277,"station_id":"GRG"},{"is_transit":false,"station_id":"PSG","distance":2036,"time":2,"line":5,"transit":false,"i_lat":-6.161433,"station_name":"Pesing","i_long":106.771379},{"station_name":"Taman Kota","time":2,"i_lat":-6.1587309999999995,"line":5,"distance":1614,"is_transit":false,"station_id":"TKO","i_long":106.756522,"transit":false},{"i_lat":-6.159876,"time":2,"station_id":"BOI","is_transit":false,"station_name":"Bojongindah","transit":false,"i_long":106.737035,"line":5,"distance":2334},{"i_lat":-6.162758,"i_long":106.723064,"is_transit":false,"station_id":"RW","line":5,"time":4,"station_name":"Rawa Buaya","distance":1152,"transit":false},{"time":3,"i_lat":-6.166068,"is_transit":false,"distance":2504,"station_id":"KDS","transit":false,"i_long":106.701612,"line":5,"station_name":"Kalideres"},{"i_long":106.679458,"line":5,"distance":2548,"station_id":"PI","is_transit":false,"time":3,"i_lat":-6.169933,"transit":false,"station_name":"Poris"},{"station_name":"Batuceper","distance":1834,"transit":false,"i_long":106.665036,"i_lat":-6.171811,"line":5,"station_id":"BPR","time":3,"is_transit":false},{"i_lat":-6.17331,"is_transit":false,"time":3,"distance":2028,"station_name":"Tanah Tinggi","line":5,"station_id":"THI","transit":false,"i_long":106.64657},{"distance":1547,"i_lat":-6.176583,"is_transit":false,"station_id":"TNG","station_name":"Tangerang","line":5,"time":3,"transit":false,"i_long":106.632761}]]}