{"data":[[{"line":6,"station_id":"JMU","time":0,"station_name":"Jurangmangu","transit":false,"i_long":106.728916,"is_transit":false,"i_lat":-6.288927,"distance":0},{"station_name":"Pondokranji","station_id":"PDJ","transit":false,"i_long":106.74273,"time":3,"distance":2179,"is_transit":false,"i_lat":-6.276362,"line":6},{"line":6,"time":8,"is_transit":false,"i_long":106.780334,"distance":6218,"station_name":"Kebayoran","station_id":"KBY","transit":false,"i_lat":-6.237242},{"distance":3737,"station_id":"PLM","station_name":"Palmerah","is_transit":false,"time":7,"transit":false,"i_lat":-6.207404,"line":6,"i_long":106.79689},{"is_transit":true,"i_lat":-6.185545,"time":6,"station_id":"THB","transit":true,"distance":3191,"i_long":106.811091,"line":1,"station_name":"Tanah Abang"},{"is_transit":false,"distance":2029,"time":5,"i_long":106.816351,"station_name":"Karet","station_id":"KAT","line":1,"transit":false,"i_lat":-6.20132},{"line":1,"transit":false,"station_name":"Sudirman Baru","station_id":"SUDB","is_transit":false,"time":1,"i_lat":-6.201433,"i_long":106.819881,"distance":471},{"is_transit":false,"i_lat":-6.202263,"station_name":"Sudirman","i_long":106.822649,"line":1,"time":1,"distance":280,"transit":false,"station_id":"SUD"},{"i_long":106.84912,"i_lat":-6.209883,"transit":true,"line":2,"is_transit":true,"distance":3186,"station_id":"MRI","time":4,"station_name":"Manggarai"},{"time":4,"station_id":"TEB","station_name":"Tebet","distance":2610,"i_long":106.857948,"is_transit":false,"i_lat":-6.226659,"line":2,"transit":false},{"distance":1230,"is_transit":false,"i_lat":-6.242512,"transit":false,"station_name":"Cawang","i_long":106.856607,"line":2,"station_id":"CW","time":2},{"line":2,"i_lat":-6.255332,"distance":1546,"i_long":106.85449,"is_transit":false,"station_id":"DRN","time":3,"station_name":"Duren Kalibata","transit":false},{"station_name":"Pasar Minggu Baru","i_lat":-6.263214,"i_long":106.851577,"line":2,"is_transit":false,"station_id":"PSMB","time":2,"transit":false,"distance":824},{"time":2,"station_id":"PSM","distance":2380,"i_lat":-6.2842400000000005,"is_transit":false,"line":2,"i_long":106.843999,"station_name":"Pasar Minggu","transit":false},{"station_name":"Tanjung Barat","i_long":106.838896,"line":2,"transit":false,"i_lat":-6.3080680000000005,"time":4,"is_transit":false,"station_id":"TNT","distance":2820},{"transit":false,"time":3,"station_name":"Lenteng Agung","is_transit":false,"i_lat":-6.330363,"i_long":106.832616,"line":2,"distance":2671,"station_id":"LNA"},{"time":2,"distance":1029,"station_name":"Univ. Pancasila","is_transit":false,"station_id":"UP","i_long":106.834175,"i_lat":-6.339291,"transit":false,"line":2},{"station_name":"Univ. Indonesia","i_lat":-6.360749,"i_long":106.831474,"distance":2264,"is_transit":false,"line":2,"station_id":"UI","time":3,"transit":false},{"transit":false,"is_transit":false,"station_id":"POC","station_name":"Pondok Cina","line":2,"distance":1109,"i_lat":-6.369073,"time":2,"i_long":106.831114},{"station_name":"Depokbaru","time":4,"is_transit":false,"i_lat":-6.391065,"transit":false,"i_long":106.819451,"station_id":"DPB","distance":2727,"line":2},{"i_long":106.816926,"line":2,"station_name":"Depok","is_transit":false,"distance":1584,"station_id":"DP","i_lat":-6.405256,"transit":false,"time":3},{"line":2,"is_transit":false,"transit":false,"station_id":"CTA","station_name":"Citayam","i_long":106.800298,"i_lat":-6.448811,"distance":5084,"time":6},{"i_lat":-6.493243,"is_transit":false,"distance":5197,"time":5,"transit":false,"line":2,"station_name":"Bojonggede","station_id":"BJD","i_long":106.792719}],[{"station_id":"JMU","time":0,"transit":false,"line":6,"i_long":106.728916,"is_transit":false,"i_lat":-6.288927,"station_name":"Jurangmangu","distance":0},{"time":3,"station_name":"Pondokranji","station_id":"PDJ","transit":false,"is_transit":false,"distance":2179,"i_lat":-6.276362,"i_long":106.74273,"line":6},{"station_name":"Kebayoran","distance":6218,"is_transit":false,"line":6,"station_id":"KBY","i_lat":-6.237242,"time":8,"transit":false,"i_long":106.780334},{"time":7,"i_lat":-6.207404,"line":6,"station_id":"PLM","is_transit":false,"transit":false,"i_long":106.79689,"distance":3737,"station_name":"Palmerah"},{"station_id":"THB","line":1,"transit":true,"is_transit":true,"station_name":"Tanah Abang","i_lat":-6.185545,"i_long":106.811091,"time":6,"distance":3191},{"time":8,"station_id":"DU","transit":false,"station_name":"Duri","is_transit":false,"i_long":106.800832,"line":1,"i_lat":-6.155215,"distance":3632},{"time":4,"station_id":"AK","distance":1230,"transit":false,"i_long":106.79867,"i_lat":-6.144674,"line":1,"is_transit":false,"station_name":"Angke"},{"is_transit":true,"distance":4102,"time":9,"i_lat":-6.132549,"i_long":106.826365,"transit":true,"line":4,"station_name":"Kampung Bandan","station_id":"KPB"},{"station_id":"JAKK","transit":true,"station_name":"Jakarta Kota","i_lat":-6.137569,"distance":1364,"time":3,"i_long":106.812439,"line":2,"is_transit":true},{"i_lat":-6.141205,"station_name":"Jayakarta","time":4,"is_transit":false,"i_long":106.820901,"line":2,"station_id":"JAY","transit":false,"distance":1264},{"time":2,"transit":false,"line":2,"is_transit":false,"distance":1080,"station_name":"Manggabesar","i_lat":-6.149769,"station_id":"MGB","i_long":106.82482},{"time":2,"i_long":106.827103,"line":2,"is_transit":false,"i_lat":-6.160725,"station_id":"SW","transit":false,"station_name":"Sawah Besar","distance":906},{"time":2,"station_name":"Juanda","is_transit":false,"transit":false,"station_id":"JUA","distance":1149,"i_lat":-6.166716,"i_long":106.828284,"line":2},{"i_long":106.832183,"line":2,"station_name":"Gondangdia","time":4,"distance":2015,"is_transit":false,"i_lat":-6.186295,"station_id":"GDD","transit":false},{"station_name":"Cikini","is_transit":false,"distance":1750,"station_id":"CKI","i_lat":-6.198556,"line":2,"i_long":106.840169,"time":3,"transit":false},{"i_long":106.84912,"i_lat":-6.209883,"station_id":"MRI","is_transit":false,"line":2,"time":4,"station_name":"Manggarai","distance":1590,"transit":false},{"i_lat":-6.226659,"station_name":"Tebet","station_id":"TEB","distance":2610,"time":4,"is_transit":false,"i_long":106.857948,"transit":false,"line":2},{"is_transit":false,"i_lat":-6.242512,"station_name":"Cawang","i_long":106.856607,"distance":1230,"line":2,"station_id":"CW","transit":false,"time":2},{"i_long":106.85449,"is_transit":false,"distance":1546,"transit":false,"time":3,"line":2,"station_id":"DRN","station_name":"Duren Kalibata","i_lat":-6.255332},{"transit":false,"distance":824,"time":2,"station_name":"Pasar Minggu Baru","i_long":106.851577,"is_transit":false,"i_lat":-6.263214,"station_id":"PSMB","line":2},{"time":2,"i_lat":-6.2842400000000005,"station_name":"Pasar Minggu","line":2,"transit":false,"station_id":"PSM","is_transit":false,"distance":2380,"i_long":106.843999},{"station_name":"Tanjung Barat","distance":2820,"i_lat":-6.3080680000000005,"transit":false,"line":2,"time":4,"i_long":106.838896,"station_id":"TNT","is_transit":false},{"station_id":"LNA","line":2,"station_name":"Lenteng Agung","distance":2671,"transit":false,"i_lat":-6.330363,"time":3,"is_transit":false,"i_long":106.832616},{"distance":1029,"line":2,"is_transit":false,"time":2,"transit":false,"station_name":"Univ. Pancasila","station_id":"UP","i_long":106.834175,"i_lat":-6.339291},{"line":2,"transit":false,"time":3,"station_name":"Univ. Indonesia","station_id":"UI","is_transit":false,"distance":2264,"i_lat":-6.360749,"i_long":106.831474},{"time":2,"distance":1109,"is_transit":false,"i_lat":-6.369073,"station_id":"POC","transit":false,"line":2,"station_name":"Pondok Cina","i_long":106.831114},{"is_transit":false,"station_name":"Depokbaru","transit":false,"line":2,"time":4,"i_lat":-6.391065,"distance":2727,"i_long":106.819451,"station_id":"DPB"},{"i_long":106.816926,"line":2,"i_lat":-6.405256,"time":3,"station_id":"DP","distance":1584,"station_name":"Depok","is_transit":false,"transit":false},{"i_long":106.800298,"station_id":"CTA","transit":false,"station_name":"Citayam","distance":5084,"i_lat":-6.448811,"is_transit":false,"time":6,"line":2},{"distance":5197,"line":2,"station_name":"Bojonggede","station_id":"BJD","is_transit":false,"transit":false,"i_long":106.792719,"i_lat":-6.493243,"time":5}],[{"station_name":"Jurangmangu","i_lat":-6.288927,"distance":0,"time":0,"is_transit":false,"transit":false,"i_long":106.728916,"station_id":"JMU","line":6},{"time":3,"line":6,"station_id":"PDJ","transit":false,"i_long":106.74273,"i_lat":-6.276362,"station_name":"Pondokranji","is_transit":false,"distance":2179},{"i_lat":-6.237242,"i_long":106.780334,"transit":false,"time":8,"station_name":"Kebayoran","line":6,"is_transit":false,"station_id":"KBY","distance":6218},{"station_id":"PLM","transit":false,"line":6,"is_transit":false,"station_name":"Palmerah","i_long":106.79689,"time":7,"distance":3737,"i_lat":-6.207404},{"time":6,"station_name":"Tanah Abang","is_transit":true,"station_id":"THB","distance":3191,"i_lat":-6.185545,"transit":true,"line":1,"i_long":106.811091},{"station_id":"DU","distance":3632,"transit":false,"time":8,"station_name":"Duri","is_transit":false,"i_lat":-6.155215,"i_long":106.800832,"line":1},{"i_long":106.79867,"station_name":"Angke","transit":false,"station_id":"AK","distance":1230,"line":1,"i_lat":-6.144674,"is_transit":false,"time":4},{"distance":4102,"station_name":"Kampung Bandan","station_id":"KPB","transit":true,"i_lat":-6.132549,"is_transit":true,"i_long":106.826365,"line":4,"time":9},{"distance":1444,"line":11,"is_transit":false,"transit":false,"i_lat":-6.14505,"station_name":"Rajawali","i_long":106.836569,"station_id":"RJW","time":3},{"station_id":"KMO","transit":false,"distance":1901,"station_name":"Kemayoran","is_transit":false,"line":11,"time":5,"i_long":106.839204,"i_lat":-6.161728},{"i_long":106.84368,"i_lat":-6.174784,"station_name":"Pasar Senen","distance":1436,"line":11,"station_id":"PSE","is_transit":false,"time":4,"transit":false},{"station_name":"Gang Sentiong","time":8,"distance":1567,"line":11,"is_transit":false,"station_id":"GST","transit":false,"i_lat":-6.185975,"i_long":106.850107},{"time":1,"transit":false,"distance":973,"i_lat":-6.193792,"line":11,"station_id":"KMT","station_name":"Kramat","is_transit":false,"i_long":106.855437},{"line":11,"transit":false,"i_long":106.861737,"station_id":"POK","is_transit":false,"distance":1829,"time":2,"station_name":"Pondok Jati","i_lat":-6.209188},{"distance":1236,"i_long":106.86807400000001,"transit":true,"time":9,"i_lat":-6.215091,"line":1,"station_id":"JNG","is_transit":true,"station_name":"Jatinegara"},{"line":1,"time":2,"transit":false,"station_id":"MTR","distance":1377,"i_lat":-6.212485,"i_long":106.858896,"is_transit":false,"station_name":"Matraman"},{"transit":true,"is_transit":true,"station_id":"MRI","distance":1275,"line":2,"i_long":106.84912,"station_name":"Manggarai","time":2,"i_lat":-6.209883},{"time":4,"station_id":"TEB","transit":false,"i_lat":-6.226659,"i_long":106.857948,"is_transit":false,"line":2,"station_name":"Tebet","distance":2610},{"station_name":"Cawang","station_id":"CW","i_lat":-6.242512,"line":2,"transit":false,"is_transit":false,"time":2,"distance":1230,"i_long":106.856607},{"is_transit":false,"i_long":106.85449,"time":3,"line":2,"station_id":"DRN","transit":false,"station_name":"Duren Kalibata","distance":1546,"i_lat":-6.255332},{"i_long":106.851577,"distance":824,"station_id":"PSMB","transit":false,"i_lat":-6.263214,"line":2,"time":2,"is_transit":false,"station_name":"Pasar Minggu Baru"},{"i_long":106.843999,"is_transit":false,"line":2,"station_id":"PSM","station_name":"Pasar Minggu","i_lat":-6.2842400000000005,"time":2,"transit":false,"distance":2380},{"time":4,"is_transit":false,"i_lat":-6.3080680000000005,"transit":false,"station_name":"Tanjung Barat","station_id":"TNT","distance":2820,"i_long":106.838896,"line":2},{"station_name":"Lenteng Agung","transit":false,"i_lat":-6.330363,"line":2,"station_id":"LNA","is_transit":false,"time":3,"distance":2671,"i_long":106.832616},{"distance":1029,"station_id":"UP","transit":false,"station_name":"Univ. Pancasila","line":2,"is_transit":false,"i_lat":-6.339291,"time":2,"i_long":106.834175},{"distance":2264,"station_name":"Univ. Indonesia","i_long":106.831474,"line":2,"is_transit":false,"station_id":"UI","i_lat":-6.360749,"transit":false,"time":3},{"time":2,"i_long":106.831114,"i_lat":-6.369073,"station_name":"Pondok Cina","is_transit":false,"station_id":"POC","distance":1109,"transit":false,"line":2},{"i_lat":-6.391065,"i_long":106.819451,"station_name":"Depokbaru","station_id":"DPB","is_transit":false,"line":2,"time":4,"transit":false,"distance":2727},{"i_lat":-6.405256,"time":3,"transit":false,"distance":1584,"line":2,"station_id":"DP","station_name":"Depok","i_long":106.816926,"is_transit":false},{"i_long":106.800298,"is_transit":false,"line":2,"station_id":"CTA","distance":5084,"transit":false,"station_name":"Citayam","i_lat":-6.448811,"time":6},{"station_name":"Bojonggede","distance":5197,"i_lat":-6.493243,"station_id":"BJD","transit":false,"time":5,"i_long":106.792719,"is_transit":false,"line":2}]]}