{"data":[[{"station_name":"Jurangmangu","distance":0,"i_lat":-6.288927,"transit":false,"line":6,"i_long":106.728916,"station_id":"JMU","is_transit":false,"time":0},{"is_transit":false,"time":3,"station_id":"PDJ","distance":2179,"transit":false,"i_lat":-6.276362,"i_long":106.74273,"line":6,"station_name":"Pondokranji"},{"station_name":"Kebayoran","transit":false,"station_id":"KBY","time":8,"i_long":106.780334,"is_transit":false,"i_lat":-6.237242,"distance":6218,"line":6},{"i_long":106.79689,"distance":3737,"i_lat":-6.207404,"line":6,"station_id":"PLM","is_transit":false,"transit":false,"station_name":"Palmerah","time":7},{"station_name":"Tanah Abang","transit":true,"i_long":106.811091,"line":1,"station_id":"THB","time":6,"is_transit":true,"distance":3191,"i_lat":-6.185545},{"line":1,"i_long":106.816351,"is_transit":false,"station_id":"KAT","time":5,"distance":2029,"transit":false,"station_name":"Karet","i_lat":-6.20132},{"transit":false,"is_transit":false,"i_lat":-6.201433,"i_long":106.819881,"time":1,"line":1,"station_id":"SUDB","station_name":"Sudirman Baru","distance":471},{"transit":false,"distance":280,"is_transit":false,"i_lat":-6.202263,"line":1,"station_id":"SUD","time":1,"i_long":106.822649,"station_name":"Sudirman"},{"i_lat":-6.209883,"is_transit":true,"line":0,"distance":3186,"station_name":"Manggarai","i_long":106.84912,"transit":true,"time":4,"station_id":"MRI"},{"i_lat":-6.226659,"is_transit":false,"transit":false,"i_long":106.857948,"line":2,"station_id":"TEB","distance":2610,"station_name":"Tebet","time":4},{"is_transit":false,"station_id":"CW","time":2,"distance":1230,"line":0,"station_name":"Cawang","transit":false,"i_long":106.856607,"i_lat":-6.242512},{"station_name":"Duren Kalibata","station_id":"DRN","distance":1546,"i_long":106.85449,"is_transit":false,"transit":false,"time":3,"i_lat":-6.255332,"line":0},{"is_transit":false,"i_long":106.851577,"line":2,"transit":false,"station_id":"PSMB","time":2,"i_lat":-6.263214,"station_name":"Pasar Minggu Baru","distance":824},{"station_id":"PSM","i_long":106.843999,"time":2,"i_lat":-6.2842400000000005,"is_transit":false,"distance":2380,"transit":false,"line":2,"station_name":"Pasar Minggu"}],[{"transit":false,"i_lat":-6.288927,"is_transit":false,"distance":0,"time":0,"line":6,"station_name":"Jurangmangu","i_long":106.728916,"station_id":"JMU"},{"i_lat":-6.276362,"distance":2179,"time":3,"transit":false,"station_id":"PDJ","is_transit":false,"i_long":106.74273,"line":6,"station_name":"Pondokranji"},{"line":6,"distance":6218,"station_id":"KBY","station_name":"Kebayoran","is_transit":false,"i_lat":-6.237242,"i_long":106.780334,"time":8,"transit":false},{"is_transit":false,"station_name":"Palmerah","time":7,"transit":false,"distance":3737,"line":6,"station_id":"PLM","i_long":106.79689,"i_lat":-6.207404},{"time":6,"station_id":"THB","station_name":"Tanah Abang","distance":3191,"transit":true,"line":1,"is_transit":true,"i_lat":-6.185545,"i_long":106.811091},{"i_long":106.800832,"station_id":"DU","is_transit":true,"distance":3632,"transit":true,"i_lat":-6.155215,"time":8,"line":1,"station_name":"Duri"},{"station_name":"Angke","transit":false,"distance":1230,"i_lat":-6.144674,"line":0,"is_transit":false,"i_long":106.79867,"station_id":"AK","time":4},{"station_name":"Kampung Bandan","time":9,"is_transit":true,"station_id":"KPB","distance":4102,"transit":false,"i_lat":-6.132549,"i_long":106.826365,"line":0},{"time":3,"transit":true,"i_long":106.812439,"i_lat":-6.137569,"station_name":"Jakarta Kota","is_transit":true,"distance":1364,"line":0,"station_id":"JAKK"},{"transit":false,"i_long":106.820901,"station_id":"JAY","distance":1264,"station_name":"Jayakarta","i_lat":-6.141205,"is_transit":false,"line":7,"time":4},{"transit":false,"time":2,"station_id":"MGB","distance":1080,"i_long":106.82482,"i_lat":-6.149769,"station_name":"Manggabesar","line":2,"is_transit":false},{"station_name":"Sawah Besar","i_lat":-6.160725,"station_id":"SW","transit":false,"line":2,"is_transit":false,"i_long":106.827103,"distance":906,"time":2},{"is_transit":false,"i_long":106.828284,"station_name":"Juanda","time":2,"line":2,"transit":false,"i_lat":-6.166716,"distance":1149,"station_id":"JUA"},{"line":2,"is_transit":false,"i_lat":-6.186295,"station_name":"Gondangdia","time":4,"transit":false,"i_long":106.832183,"distance":2015,"station_id":"GDD"},{"station_id":"CKI","transit":false,"station_name":"Cikini","i_long":106.840169,"time":3,"i_lat":-6.198556,"line":0,"distance":1750,"is_transit":false},{"line":0,"is_transit":true,"station_name":"Manggarai","station_id":"MRI","distance":1590,"transit":true,"time":4,"i_long":106.84912,"i_lat":-6.209883},{"distance":2610,"i_long":106.857948,"i_lat":-6.226659,"station_id":"TEB","is_transit":false,"station_name":"Tebet","time":4,"transit":false,"line":2},{"time":2,"i_long":106.856607,"line":0,"i_lat":-6.242512,"is_transit":false,"station_id":"CW","distance":1230,"station_name":"Cawang","transit":false},{"i_lat":-6.255332,"station_id":"DRN","i_long":106.85449,"transit":false,"is_transit":false,"distance":1546,"station_name":"Duren Kalibata","time":3,"line":0},{"is_transit":false,"line":2,"station_id":"PSMB","i_long":106.851577,"station_name":"Pasar Minggu Baru","distance":824,"transit":false,"i_lat":-6.263214,"time":2},{"transit":false,"time":2,"distance":2380,"station_id":"PSM","i_lat":-6.2842400000000005,"i_long":106.843999,"line":2,"station_name":"Pasar Minggu","is_transit":false}],[{"i_long":106.728916,"line":6,"i_lat":-6.288927,"is_transit":false,"time":0,"transit":false,"station_id":"JMU","station_name":"Jurangmangu","distance":0},{"station_id":"PDJ","i_long":106.74273,"is_transit":false,"time":3,"i_lat":-6.276362,"station_name":"Pondokranji","distance":2179,"transit":false,"line":6},{"i_lat":-6.237242,"time":8,"distance":6218,"transit":false,"i_long":106.780334,"line":6,"station_id":"KBY","is_transit":false,"station_name":"Kebayoran"},{"station_name":"Palmerah","i_lat":-6.207404,"is_transit":false,"line":6,"station_id":"PLM","transit":false,"i_long":106.79689,"time":7,"distance":3737},{"is_transit":true,"distance":3191,"station_name":"Tanah Abang","time":6,"i_lat":-6.185545,"transit":true,"station_id":"THB","i_long":106.811091,"line":1},{"is_transit":true,"transit":true,"i_lat":-6.155215,"distance":3632,"station_id":"DU","i_long":106.800832,"line":1,"time":8,"station_name":"Duri"},{"is_transit":false,"i_long":106.79867,"station_name":"Angke","time":4,"i_lat":-6.144674,"transit":false,"station_id":"AK","line":0,"distance":1230},{"is_transit":true,"station_name":"Kampung Bandan","transit":true,"line":0,"time":9,"i_long":106.826365,"station_id":"KPB","distance":4102,"i_lat":-6.132549},{"line":11,"transit":false,"i_long":106.836569,"i_lat":-6.14505,"station_name":"Rajawali","is_transit":false,"time":3,"station_id":"RJW","distance":1444},{"distance":1901,"transit":false,"station_name":"Kemayoran","line":11,"is_transit":false,"station_id":"KMO","time":5,"i_long":106.839204,"i_lat":-6.161728},{"line":11,"distance":1436,"transit":false,"time":4,"station_name":"Pasar Senen","is_transit":false,"i_long":106.84368,"i_lat":-6.174784,"station_id":"PSE"},{"i_lat":-6.185975,"transit":false,"distance":1567,"station_id":"GST","line":11,"is_transit":false,"i_long":106.850107,"time":8,"station_name":"Gang Sentiong"},{"transit":false,"i_lat":-6.193792,"is_transit":false,"line":11,"time":1,"i_long":106.855437,"station_name":"Kramat","station_id":"KMT","distance":973},{"i_lat":-6.209188,"time":2,"line":11,"station_id":"POK","i_long":106.861737,"station_name":"Pondok Jati","is_transit":false,"distance":1829,"transit":false},{"transit":true,"i_long":106.86807400000001,"station_id":"JNG","i_lat":-6.215091,"line":0,"distance":1236,"station_name":"Jatinegara","is_transit":true,"time":9},{"transit":false,"i_lat":-6.212485,"i_long":106.858896,"time":2,"station_id":"MTR","is_transit":false,"line":1,"station_name":"Matraman","distance":1377},{"i_lat":-6.209883,"i_long":106.84912,"transit":true,"distance":1275,"line":0,"station_name":"Manggarai","station_id":"MRI","is_transit":true,"time":2},{"is_transit":false,"transit":false,"distance":2610,"line":2,"time":4,"i_long":106.857948,"station_id":"TEB","i_lat":-6.226659,"station_name":"Tebet"},{"distance":1230,"station_name":"Cawang","station_id":"CW","i_long":106.856607,"transit":false,"i_lat":-6.242512,"time":2,"is_transit":false,"line":0},{"distance":1546,"i_long":106.85449,"time":3,"i_lat":-6.255332,"station_name":"Duren Kalibata","is_transit":false,"line":0,"station_id":"DRN","transit":false},{"is_transit":false,"distance":824,"i_lat":-6.263214,"i_long":106.851577,"time":2,"line":2,"station_name":"Pasar Minggu Baru","station_id":"PSMB","transit":false},{"distance":2380,"is_transit":false,"station_name":"Pasar Minggu","station_id":"PSM","time":2,"i_lat":-6.2842400000000005,"transit":false,"i_long":106.843999,"line":2}]]}