{"data":[[{"distance":0,"transit":false,"i_lat":-6.288927,"station_id":"JMU","line":6,"is_transit":false,"i_long":106.728916,"station_name":"Jurangmangu","time":0},{"station_name":"Pondokranji","is_transit":false,"transit":false,"line":6,"time":3,"distance":2179,"i_lat":-6.276362,"i_long":106.74273,"station_id":"PDJ"},{"is_transit":false,"station_id":"KBY","station_name":"Kebayoran","line":6,"time":8,"transit":false,"i_lat":-6.237242,"i_long":106.780334,"distance":6218},{"station_name":"Palmerah","time":7,"transit":false,"i_long":106.79689,"distance":3737,"station_id":"PLM","i_lat":-6.207404,"is_transit":false,"line":6},{"time":6,"i_long":106.811091,"is_transit":true,"line":1,"station_id":"THB","transit":true,"distance":3191,"i_lat":-6.185545,"station_name":"Tanah Abang"},{"line":1,"station_name":"Duri","transit":false,"is_transit":false,"time":8,"station_id":"DU","i_lat":-6.155215,"distance":3632,"i_long":106.800832},{"is_transit":false,"transit":false,"i_lat":-6.144674,"i_long":106.79867,"station_id":"AK","distance":1230,"line":1,"station_name":"Angke","time":4}],[{"i_lat":-6.288927,"time":0,"station_name":"Jurangmangu","i_long":106.728916,"line":6,"station_id":"JMU","transit":false,"is_transit":false,"distance":0},{"line":6,"time":3,"distance":2179,"station_id":"PDJ","station_name":"Pondokranji","i_lat":-6.276362,"is_transit":false,"i_long":106.74273,"transit":false},{"station_name":"Kebayoran","is_transit":false,"time":8,"distance":6218,"station_id":"KBY","transit":false,"i_lat":-6.237242,"i_long":106.780334,"line":6},{"distance":3737,"station_id":"PLM","time":7,"transit":false,"station_name":"Palmerah","i_lat":-6.207404,"is_transit":false,"i_long":106.79689,"line":6},{"distance":3191,"station_id":"THB","station_name":"Tanah Abang","time":6,"is_transit":true,"line":1,"transit":true,"i_long":106.811091,"i_lat":-6.185545},{"distance":2029,"i_lat":-6.20132,"line":1,"station_id":"KAT","i_long":106.816351,"is_transit":false,"transit":false,"station_name":"Karet","time":5},{"time":1,"transit":false,"i_long":106.819881,"is_transit":false,"i_lat":-6.201433,"station_id":"SUDB","distance":471,"station_name":"Sudirman Baru","line":1},{"i_long":106.822649,"transit":false,"distance":280,"line":1,"station_id":"SUD","station_name":"Sudirman","time":1,"i_lat":-6.202263,"is_transit":false},{"i_long":106.84912,"is_transit":true,"i_lat":-6.209883,"station_name":"Manggarai","line":2,"time":4,"distance":3186,"station_id":"MRI","transit":true},{"i_lat":-6.198556,"line":2,"station_name":"Cikini","transit":false,"time":4,"distance":1590,"station_id":"CKI","i_long":106.840169,"is_transit":false},{"distance":1750,"is_transit":false,"station_id":"GDD","station_name":"Gondangdia","time":3,"i_lat":-6.186295,"i_long":106.832183,"transit":false,"line":2},{"distance":2015,"i_lat":-6.166716,"line":2,"station_id":"JUA","time":4,"station_name":"Juanda","is_transit":false,"i_long":106.828284,"transit":false},{"time":2,"is_transit":false,"transit":false,"i_lat":-6.160725,"i_long":106.827103,"distance":1149,"station_name":"Sawah Besar","line":2,"station_id":"SW"},{"distance":906,"time":2,"transit":false,"station_id":"MGB","station_name":"Manggabesar","i_lat":-6.149769,"is_transit":false,"line":2,"i_long":106.82482},{"distance":1080,"is_transit":false,"line":2,"time":2,"transit":false,"station_name":"Jayakarta","i_long":106.820901,"station_id":"JAY","i_lat":-6.141205},{"time":4,"is_transit":true,"distance":1264,"station_name":"Jakarta Kota","i_lat":-6.137569,"i_long":106.812439,"line":2,"station_id":"JAKK","transit":true},{"i_lat":-6.132549,"is_transit":true,"i_long":106.826365,"time":3,"line":4,"transit":true,"distance":1364,"station_id":"KPB","station_name":"Kampung Bandan"},{"is_transit":false,"station_name":"Angke","distance":4102,"line":1,"i_lat":-6.144674,"i_long":106.79867,"time":9,"station_id":"AK","transit":false}],[{"is_transit":false,"i_long":106.728916,"station_id":"JMU","i_lat":-6.288927,"transit":false,"line":6,"station_name":"Jurangmangu","distance":0,"time":0},{"distance":2179,"i_long":106.74273,"is_transit":false,"i_lat":-6.276362,"transit":false,"station_name":"Pondokranji","station_id":"PDJ","line":6,"time":3},{"station_name":"Kebayoran","distance":6218,"transit":false,"line":6,"time":8,"station_id":"KBY","is_transit":false,"i_lat":-6.237242,"i_long":106.780334},{"transit":false,"is_transit":false,"time":7,"station_name":"Palmerah","i_long":106.79689,"station_id":"PLM","i_lat":-6.207404,"line":6,"distance":3737},{"line":1,"station_name":"Tanah Abang","time":6,"transit":true,"station_id":"THB","distance":3191,"i_long":106.811091,"is_transit":true,"i_lat":-6.185545},{"time":5,"station_id":"KAT","i_lat":-6.20132,"distance":2029,"line":1,"is_transit":false,"i_long":106.816351,"transit":false,"station_name":"Karet"},{"i_long":106.819881,"time":1,"distance":471,"transit":false,"station_id":"SUDB","i_lat":-6.201433,"line":1,"is_transit":false,"station_name":"Sudirman Baru"},{"i_lat":-6.202263,"line":1,"is_transit":false,"transit":false,"time":1,"distance":280,"i_long":106.822649,"station_id":"SUD","station_name":"Sudirman"},{"i_long":106.84912,"is_transit":false,"transit":false,"time":4,"station_id":"MRI","distance":3186,"line":2,"i_lat":-6.209883,"station_name":"Manggarai"},{"station_name":"Matraman","line":1,"i_lat":-6.212485,"i_long":106.858896,"time":2,"transit":false,"station_id":"MTR","distance":1275,"is_transit":false},{"i_long":106.86807400000001,"i_lat":-6.215091,"distance":1377,"transit":true,"is_transit":true,"station_name":"Jatinegara","time":8,"line":1,"station_id":"JNG"},{"station_name":"Pondok Jati","is_transit":false,"transit":false,"line":11,"i_long":106.861737,"time":2,"station_id":"POK","i_lat":-6.209188,"distance":1236},{"line":11,"i_long":106.855437,"station_id":"KMT","station_name":"Kramat","time":2,"transit":false,"distance":1829,"is_transit":false,"i_lat":-6.193792},{"time":1,"transit":false,"station_id":"GST","is_transit":false,"i_lat":-6.185975,"line":11,"i_long":106.850107,"station_name":"Gang Sentiong","distance":973},{"is_transit":false,"time":8,"transit":false,"line":11,"i_lat":-6.174784,"station_id":"PSE","distance":1567,"station_name":"Pasar Senen","i_long":106.84368},{"station_id":"KMO","time":4,"distance":1436,"i_long":106.839204,"line":11,"transit":false,"station_name":"Kemayoran","i_lat":-6.161728,"is_transit":false},{"station_id":"RJW","is_transit":false,"distance":1901,"transit":false,"i_lat":-6.14505,"line":11,"station_name":"Rajawali","time":5,"i_long":106.836569},{"distance":1444,"line":4,"transit":true,"station_name":"Kampung Bandan","i_long":106.826365,"is_transit":true,"i_lat":-6.132549,"station_id":"KPB","time":3},{"station_id":"AK","line":1,"time":9,"is_transit":false,"transit":false,"station_name":"Angke","i_lat":-6.144674,"distance":4102,"i_long":106.79867}]]}