{"data":[[{"i_long":106.728916,"line":6,"time":0,"transit":false,"station_name":"Jurangmangu","station_id":"JMU","i_lat":-6.288927,"is_transit":false,"distance":0},{"station_name":"Pondokranji","i_long":106.74273,"i_lat":-6.276362,"station_id":"PDJ","transit":false,"is_transit":false,"distance":2179,"time":3,"line":6},{"time":8,"is_transit":false,"station_id":"KBY","i_long":106.780334,"line":6,"station_name":"Kebayoran","distance":6218,"i_lat":-6.237242,"transit":false},{"transit":false,"distance":3737,"time":7,"is_transit":false,"line":6,"i_lat":-6.207404,"station_id":"PLM","station_name":"Palmerah","i_long":106.79689},{"time":6,"distance":3191,"line":1,"station_id":"THB","transit":true,"i_lat":-6.185545,"i_long":106.811091,"is_transit":true,"station_name":"Tanah Abang"},{"is_transit":true,"distance":3632,"transit":true,"station_id":"DU","time":8,"station_name":"Duri","i_long":106.800832,"line":1,"i_lat":-6.155215},{"station_id":"GGL","line":5,"distance":1700,"i_long":106.788277,"is_transit":false,"station_name":"Grogol","time":3,"transit":false,"i_lat":-6.162021},{"i_lat":-6.161433,"line":5,"station_id":"PSG","distance":2036,"is_transit":false,"i_long":106.771379,"time":2,"transit":false,"station_name":"Pesing"},{"is_transit":false,"distance":1614,"i_lat":-6.1587309999999995,"station_id":"TKO","line":5,"station_name":"Taman Kota","i_long":106.756522,"time":2,"transit":false},{"is_transit":false,"station_id":"BOI","i_lat":-6.159876,"line":5,"station_name":"Bojongindah","time":2,"distance":2334,"transit":false,"i_long":106.737035},{"time":4,"is_transit":false,"transit":false,"distance":1152,"i_long":106.723064,"i_lat":-6.162758,"station_id":"RW","line":5,"station_name":"Rawa Buaya"},{"station_name":"Kalideres","time":3,"station_id":"KDS","i_lat":-6.166068,"i_long":106.701612,"is_transit":false,"transit":false,"distance":2504,"line":5},{"time":3,"distance":2548,"is_transit":false,"station_id":"PI","transit":false,"station_name":"Poris","i_lat":-6.169933,"line":5,"i_long":106.679458},{"transit":false,"line":5,"distance":1834,"time":3,"is_transit":false,"station_id":"BPR","i_lat":-6.171811,"i_long":106.665036,"station_name":"Batuceper"},{"station_id":"TTI","line":5,"i_lat":-6.17331,"i_long":106.64657,"time":3,"distance":2028,"transit":false,"is_transit":false,"station_name":"Tanah Tinggi"},{"station_name":"Tangerang","i_lat":-6.176583,"line":5,"is_transit":false,"i_long":106.632761,"transit":false,"station_id":"TNG","time":3,"distance":1547}],[{"distance":0,"time":0,"station_name":"Jurangmangu","i_lat":-6.288927,"station_id":"JMU","line":6,"is_transit":false,"transit":false,"i_long":106.728916},{"transit":false,"i_lat":-6.276362,"line":6,"station_name":"Pondokranji","i_long":106.74273,"is_transit":false,"station_id":"PDJ","time":3,"distance":2179},{"line":6,"i_lat":-6.237242,"transit":false,"time":8,"station_id":"KBY","is_transit":false,"i_long":106.780334,"station_name":"Kebayoran","distance":6218},{"station_name":"Palmerah","line":6,"station_id":"PLM","distance":3737,"transit":false,"time":7,"is_transit":false,"i_long":106.79689,"i_lat":-6.207404},{"station_id":"THB","i_long":106.811091,"is_transit":true,"line":1,"time":6,"transit":true,"i_lat":-6.185545,"distance":3191,"station_name":"Tanah Abang"},{"time":5,"distance":2029,"station_name":"Karet","i_lat":-6.20132,"line":1,"station_id":"KAT","transit":false,"is_transit":false,"i_long":106.816351},{"time":1,"transit":false,"is_transit":false,"i_lat":-6.201433,"station_name":"Sudirman Baru","distance":471,"station_id":"SUDB","i_long":106.819881,"line":1},{"i_lat":-6.202263,"station_id":"SUD","distance":280,"station_name":"Sudirman","line":1,"transit":false,"i_long":106.822649,"is_transit":false,"time":1},{"time":4,"station_name":"Manggarai","i_lat":-6.209883,"line":2,"distance":3186,"i_long":106.84912,"station_id":"MRI","transit":true,"is_transit":true},{"station_name":"Cikini","station_id":"CKI","time":4,"distance":1590,"transit":false,"is_transit":false,"i_lat":-6.198556,"i_long":106.840169,"line":2},{"station_name":"Gondangdia","is_transit":false,"i_long":106.832183,"time":3,"distance":1750,"line":2,"transit":false,"i_lat":-6.186295,"station_id":"GDD"},{"i_lat":-6.166716,"line":2,"i_long":106.828284,"transit":false,"station_id":"JUA","distance":2015,"is_transit":false,"time":4,"station_name":"Juanda"},{"time":2,"transit":false,"i_lat":-6.160725,"station_name":"Sawah Besar","line":2,"station_id":"SW","distance":1149,"is_transit":false,"i_long":106.827103},{"is_transit":false,"station_id":"MGB","station_name":"Manggabesar","i_long":106.82482,"distance":906,"line":2,"time":2,"i_lat":-6.149769,"transit":false},{"time":2,"line":2,"station_id":"JAY","transit":false,"station_name":"Jayakarta","distance":1080,"is_transit":false,"i_lat":-6.141205,"i_long":106.820901},{"is_transit":true,"i_long":106.812439,"distance":1264,"line":2,"time":4,"station_name":"Jakarta Kota","i_lat":-6.137569,"station_id":"JAKK","transit":true},{"station_name":"Kampung Bandan","station_id":"KPB","i_long":106.826365,"time":3,"transit":true,"is_transit":true,"i_lat":-6.132549,"distance":1364,"line":4},{"station_id":"AK","is_transit":false,"i_lat":-6.144674,"i_long":106.79867,"transit":false,"distance":4102,"line":1,"station_name":"Angke","time":9},{"time":4,"station_name":"Duri","is_transit":true,"line":1,"transit":true,"station_id":"DU","i_lat":-6.155215,"i_long":106.800832,"distance":1230},{"station_id":"GGL","line":5,"is_transit":false,"station_name":"Grogol","distance":1700,"i_lat":-6.162021,"time":3,"transit":false,"i_long":106.788277},{"line":5,"i_lat":-6.161433,"is_transit":false,"station_id":"PSG","distance":2036,"station_name":"Pesing","i_long":106.771379,"transit":false,"time":2},{"i_long":106.756522,"station_name":"Taman Kota","time":2,"station_id":"TKO","distance":1614,"transit":false,"i_lat":-6.1587309999999995,"is_transit":false,"line":5},{"transit":false,"station_id":"BOI","distance":2334,"time":2,"is_transit":false,"line":5,"station_name":"Bojongindah","i_lat":-6.159876,"i_long":106.737035},{"line":5,"is_transit":false,"distance":1152,"transit":false,"i_lat":-6.162758,"i_long":106.723064,"station_name":"Rawa Buaya","time":4,"station_id":"RW"},{"transit":false,"station_id":"KDS","i_lat":-6.166068,"line":5,"distance":2504,"is_transit":false,"station_name":"Kalideres","i_long":106.701612,"time":3},{"is_transit":false,"transit":false,"station_name":"Poris","time":3,"i_lat":-6.169933,"i_long":106.679458,"distance":2548,"station_id":"PI","line":5},{"line":5,"station_name":"Batuceper","station_id":"BPR","transit":false,"i_long":106.665036,"time":3,"is_transit":false,"distance":1834,"i_lat":-6.171811},{"i_lat":-6.17331,"i_long":106.64657,"line":5,"time":3,"transit":false,"station_name":"Tanah Tinggi","is_transit":false,"distance":2028,"station_id":"TTI"},{"distance":1547,"station_id":"TNG","time":3,"is_transit":false,"station_name":"Tangerang","i_lat":-6.176583,"i_long":106.632761,"line":5,"transit":false}],[{"distance":0,"station_id":"JMU","time":0,"transit":false,"i_long":106.728916,"i_lat":-6.288927,"is_transit":false,"line":6,"station_name":"Jurangmangu"},{"station_id":"PDJ","time":3,"station_name":"Pondokranji","i_lat":-6.276362,"transit":false,"line":6,"distance":2179,"is_transit":false,"i_long":106.74273},{"i_lat":-6.237242,"time":8,"transit":false,"is_transit":false,"station_name":"Kebayoran","i_long":106.780334,"station_id":"KBY","line":6,"distance":6218},{"time":7,"is_transit":false,"station_name":"Palmerah","distance":3737,"i_long":106.79689,"line":6,"transit":false,"i_lat":-6.207404,"station_id":"PLM"},{"i_long":106.811091,"line":1,"station_name":"Tanah Abang","time":6,"distance":3191,"station_id":"THB","i_lat":-6.185545,"transit":true,"is_transit":true},{"distance":2029,"line":1,"transit":false,"time":5,"station_id":"KAT","is_transit":false,"i_lat":-6.20132,"station_name":"Karet","i_long":106.816351},{"distance":471,"is_transit":false,"station_name":"Sudirman Baru","i_long":106.819881,"line":1,"time":1,"transit":false,"i_lat":-6.201433,"station_id":"SUDB"},{"station_id":"SUD","distance":280,"transit":false,"is_transit":false,"time":1,"line":1,"i_lat":-6.202263,"i_long":106.822649,"station_name":"Sudirman"},{"station_id":"MRI","transit":false,"i_lat":-6.209883,"time":4,"line":2,"is_transit":false,"distance":3186,"i_long":106.84912,"station_name":"Manggarai"},{"i_lat":-6.212485,"i_long":106.858896,"station_name":"Matraman","time":2,"distance":1275,"transit":false,"is_transit":false,"line":1,"station_id":"MTR"},{"station_name":"Jatinegara","time":8,"station_id":"JNG","line":1,"transit":true,"i_lat":-6.215091,"distance":1377,"i_long":106.86807400000001,"is_transit":true},{"is_transit":false,"transit":false,"i_lat":-6.209188,"station_name":"Pondok Jati","i_long":106.861737,"time":2,"distance":1236,"line":11,"station_id":"POK"},{"is_transit":false,"transit":false,"i_lat":-6.193792,"distance":1829,"station_name":"Kramat","station_id":"KMT","i_long":106.855437,"line":11,"time":2},{"station_name":"Gang Sentiong","station_id":"GST","is_transit":false,"i_long":106.850107,"distance":973,"time":1,"transit":false,"i_lat":-6.185975,"line":11},{"line":11,"distance":1567,"transit":false,"is_transit":false,"station_id":"PSE","i_lat":-6.174784,"station_name":"Pasar Senen","time":8,"i_long":106.84368},{"is_transit":false,"time":4,"transit":false,"distance":1436,"line":11,"station_id":"KMO","station_name":"Kemayoran","i_lat":-6.161728,"i_long":106.839204},{"transit":false,"i_long":106.836569,"distance":1901,"station_name":"Rajawali","time":5,"station_id":"RJW","is_transit":false,"i_lat":-6.14505,"line":11},{"time":3,"transit":true,"station_name":"Kampung Bandan","distance":1444,"station_id":"KPB","is_transit":true,"i_long":106.826365,"i_lat":-6.132549,"line":4},{"station_id":"AK","distance":4102,"is_transit":false,"line":1,"i_lat":-6.144674,"transit":false,"time":9,"i_long":106.79867,"station_name":"Angke"},{"station_name":"Duri","line":1,"time":4,"i_long":106.800832,"transit":true,"station_id":"DU","is_transit":true,"i_lat":-6.155215,"distance":1230},{"station_id":"GGL","station_name":"Grogol","i_long":106.788277,"time":3,"is_transit":false,"transit":false,"line":5,"distance":1700,"i_lat":-6.162021},{"line":5,"station_id":"PSG","is_transit":false,"time":2,"distance":2036,"transit":false,"station_name":"Pesing","i_lat":-6.161433,"i_long":106.771379},{"i_long":106.756522,"station_id":"TKO","time":2,"is_transit":false,"i_lat":-6.1587309999999995,"line":5,"station_name":"Taman Kota","distance":1614,"transit":false},{"is_transit":false,"transit":false,"i_long":106.737035,"i_lat":-6.159876,"time":2,"station_id":"BOI","station_name":"Bojongindah","line":5,"distance":2334},{"is_transit":false,"i_long":106.723064,"station_name":"Rawa Buaya","distance":1152,"i_lat":-6.162758,"line":5,"time":4,"station_id":"RW","transit":false},{"is_transit":false,"transit":false,"station_name":"Kalideres","time":3,"distance":2504,"i_lat":-6.166068,"i_long":106.701612,"station_id":"KDS","line":5},{"line":5,"transit":false,"station_name":"Poris","distance":2548,"station_id":"PI","time":3,"is_transit":false,"i_lat":-6.169933,"i_long":106.679458},{"i_lat":-6.171811,"i_long":106.665036,"is_transit":false,"station_id":"BPR","station_name":"Batuceper","distance":1834,"transit":false,"time":3,"line":5},{"station_id":"TTI","transit":false,"station_name":"Tanah Tinggi","time":3,"i_long":106.64657,"is_transit":false,"distance":2028,"i_lat":-6.17331,"line":5},{"station_id":"TNG","station_name":"Tangerang","i_long":106.632761,"line":5,"i_lat":-6.176583,"transit":false,"distance":1547,"time":3,"is_transit":false}]]}