{"data":[[{"distance":0,"time":0,"i_lat":-6.288927,"i_long":106.728916,"transit":false,"is_transit":false,"station_name":"Jurangmangu","line":6,"station_id":"JMU"},{"is_transit":false,"time":3,"station_name":"Pondokranji","transit":false,"i_long":106.74273,"i_lat":-6.276362,"station_id":"PDJ","distance":2179,"line":6},{"distance":6218,"transit":false,"i_lat":-6.237242,"i_long":106.780334,"is_transit":false,"time":8,"line":6,"station_name":"Kebayoran","station_id":"KBY"},{"is_transit":false,"time":7,"i_lat":-6.207404,"station_name":"Palmerah","transit":false,"station_id":"PLM","i_long":106.79689,"line":6,"distance":3737},{"distance":3191,"i_long":106.811091,"station_name":"Tanah Abang","station_id":"THB","i_lat":-6.185545,"time":6,"transit":true,"line":1,"is_transit":true},{"i_lat":-6.20132,"transit":false,"i_long":106.816351,"line":1,"station_id":"KAT","distance":2029,"station_name":"Karet","is_transit":false,"time":5},{"line":1,"i_lat":-6.201433,"station_name":"Sudirman Baru","time":1,"transit":false,"distance":471,"is_transit":false,"station_id":"SUDB","i_long":106.819881},{"transit":false,"distance":280,"i_lat":-6.202263,"station_id":"SUD","line":1,"station_name":"Sudirman","i_long":106.822649,"is_transit":false,"time":1},{"is_transit":true,"time":4,"station_name":"Manggarai","transit":true,"station_id":"MRI","i_lat":-6.209883,"i_long":106.84912,"line":2,"distance":3186},{"time":4,"is_transit":false,"distance":2610,"i_lat":-6.226659,"transit":false,"i_long":106.857948,"line":2,"station_id":"TEB","station_name":"Tebet"},{"time":2,"transit":false,"distance":1230,"station_name":"Cawang","is_transit":false,"i_lat":-6.242512,"i_long":106.856607,"line":2,"station_id":"CW"},{"station_id":"DRN","i_long":106.85449,"station_name":"Duren Kalibata","distance":1546,"transit":false,"i_lat":-6.255332,"line":2,"is_transit":false,"time":3},{"station_name":"Pasar Minggu Baru","i_lat":-6.263214,"time":2,"i_long":106.851577,"line":2,"transit":false,"is_transit":false,"distance":824,"station_id":"PSMB"},{"time":2,"i_long":106.843999,"line":2,"transit":false,"i_lat":-6.2842400000000005,"station_name":"Pasar Minggu","is_transit":false,"distance":2380,"station_id":"PSM"},{"transit":false,"station_id":"TNT","distance":2820,"i_long":106.838896,"station_name":"Tanjung Barat","is_transit":false,"time":4,"i_lat":-6.3080680000000005,"line":2},{"time":3,"line":2,"is_transit":false,"i_long":106.832616,"distance":2671,"station_id":"LNA","transit":false,"i_lat":-6.330363,"station_name":"Lenteng Agung"},{"time":2,"station_id":"UP","distance":1029,"i_long":106.834175,"line":2,"transit":false,"is_transit":false,"i_lat":-6.339291,"station_name":"Univ. Pancasila"},{"line":2,"transit":false,"station_name":"Univ. Indonesia","is_transit":false,"i_long":106.831474,"distance":2264,"time":3,"station_id":"UI","i_lat":-6.360749},{"station_id":"POC","time":2,"i_lat":-6.369073,"is_transit":false,"distance":1109,"line":2,"station_name":"Pondok Cina","transit":false,"i_long":106.831114},{"i_long":106.819451,"line":2,"distance":2727,"transit":false,"station_id":"DPB","time":4,"is_transit":false,"station_name":"Depokbaru","i_lat":-6.391065}],[{"transit":false,"distance":0,"station_id":"JMU","time":0,"line":6,"i_lat":-6.288927,"is_transit":false,"i_long":106.728916,"station_name":"Jurangmangu"},{"is_transit":false,"distance":2179,"line":6,"transit":false,"station_id":"PDJ","station_name":"Pondokranji","i_lat":-6.276362,"i_long":106.74273,"time":3},{"i_long":106.780334,"station_name":"Kebayoran","time":8,"is_transit":false,"station_id":"KBY","line":6,"distance":6218,"transit":false,"i_lat":-6.237242},{"station_name":"Palmerah","i_lat":-6.207404,"distance":3737,"i_long":106.79689,"is_transit":false,"line":6,"time":7,"station_id":"PLM","transit":false},{"station_name":"Tanah Abang","time":6,"station_id":"THB","i_lat":-6.185545,"line":1,"transit":true,"distance":3191,"is_transit":true,"i_long":106.811091},{"i_lat":-6.155215,"distance":3632,"is_transit":false,"station_id":"DU","i_long":106.800832,"station_name":"Duri","time":8,"transit":false,"line":1},{"time":4,"is_transit":false,"i_lat":-6.144674,"line":1,"station_name":"Angke","distance":1230,"i_long":106.79867,"transit":false,"station_id":"AK"},{"station_name":"Kampung Bandan","is_transit":true,"line":4,"transit":true,"i_lat":-6.132549,"distance":4102,"station_id":"KPB","time":9,"i_long":106.826365},{"line":2,"station_name":"Jakarta Kota","transit":true,"time":3,"distance":1364,"station_id":"JAKK","i_lat":-6.137569,"i_long":106.812439,"is_transit":true},{"is_transit":false,"station_name":"Jayakarta","distance":1264,"i_long":106.820901,"station_id":"JAY","line":2,"time":4,"transit":false,"i_lat":-6.141205},{"transit":false,"is_transit":false,"distance":1080,"station_id":"MGB","i_long":106.82482,"i_lat":-6.149769,"line":2,"time":2,"station_name":"Manggabesar"},{"i_long":106.827103,"transit":false,"i_lat":-6.160725,"time":2,"is_transit":false,"line":2,"station_id":"SW","station_name":"Sawah Besar","distance":906},{"station_id":"JUA","time":2,"line":2,"station_name":"Juanda","transit":false,"i_lat":-6.166716,"distance":1149,"is_transit":false,"i_long":106.828284},{"time":4,"is_transit":false,"distance":2015,"station_id":"GDD","transit":false,"line":2,"station_name":"Gondangdia","i_lat":-6.186295,"i_long":106.832183},{"line":2,"transit":false,"station_name":"Cikini","is_transit":false,"i_long":106.840169,"station_id":"CKI","time":3,"distance":1750,"i_lat":-6.198556},{"station_id":"MRI","i_lat":-6.209883,"time":4,"i_long":106.84912,"distance":1590,"is_transit":false,"line":2,"station_name":"Manggarai","transit":false},{"line":2,"is_transit":false,"i_lat":-6.226659,"transit":false,"time":4,"distance":2610,"station_id":"TEB","i_long":106.857948,"station_name":"Tebet"},{"is_transit":false,"transit":false,"distance":1230,"i_lat":-6.242512,"line":2,"station_id":"CW","station_name":"Cawang","time":2,"i_long":106.856607},{"station_id":"DRN","i_long":106.85449,"transit":false,"distance":1546,"station_name":"Duren Kalibata","time":3,"i_lat":-6.255332,"is_transit":false,"line":2},{"station_id":"PSMB","i_lat":-6.263214,"transit":false,"distance":824,"station_name":"Pasar Minggu Baru","i_long":106.851577,"line":2,"is_transit":false,"time":2},{"distance":2380,"station_id":"PSM","time":2,"i_lat":-6.2842400000000005,"is_transit":false,"i_long":106.843999,"line":2,"station_name":"Pasar Minggu","transit":false},{"transit":false,"is_transit":false,"station_id":"TNT","station_name":"Tanjung Barat","i_lat":-6.3080680000000005,"line":2,"distance":2820,"time":4,"i_long":106.838896},{"station_id":"LNA","is_transit":false,"i_long":106.832616,"station_name":"Lenteng Agung","distance":2671,"line":2,"i_lat":-6.330363,"time":3,"transit":false},{"distance":1029,"i_lat":-6.339291,"is_transit":false,"station_id":"UP","i_long":106.834175,"line":2,"station_name":"Univ. Pancasila","transit":false,"time":2},{"transit":false,"line":2,"is_transit":false,"time":3,"station_name":"Univ. Indonesia","i_long":106.831474,"i_lat":-6.360749,"station_id":"UI","distance":2264},{"line":2,"transit":false,"is_transit":false,"station_name":"Pondok Cina","time":2,"station_id":"POC","distance":1109,"i_lat":-6.369073,"i_long":106.831114},{"distance":2727,"time":4,"station_id":"DPB","is_transit":false,"i_long":106.819451,"i_lat":-6.391065,"line":2,"transit":false,"station_name":"Depokbaru"}],[{"is_transit":false,"transit":false,"time":0,"station_name":"Jurangmangu","i_long":106.728916,"station_id":"JMU","line":6,"i_lat":-6.288927,"distance":0},{"station_id":"PDJ","station_name":"Pondokranji","i_long":106.74273,"line":6,"is_transit":false,"transit":false,"i_lat":-6.276362,"time":3,"distance":2179},{"distance":6218,"station_id":"KBY","transit":false,"station_name":"Kebayoran","i_long":106.780334,"line":6,"is_transit":false,"i_lat":-6.237242,"time":8},{"distance":3737,"station_id":"PLM","time":7,"transit":false,"i_lat":-6.207404,"is_transit":false,"station_name":"Palmerah","line":6,"i_long":106.79689},{"transit":true,"i_lat":-6.185545,"station_id":"THB","time":6,"i_long":106.811091,"station_name":"Tanah Abang","is_transit":true,"line":1,"distance":3191},{"i_lat":-6.155215,"transit":false,"is_transit":false,"time":8,"distance":3632,"line":1,"station_id":"DU","station_name":"Duri","i_long":106.800832},{"i_long":106.79867,"line":1,"time":4,"station_id":"AK","is_transit":false,"i_lat":-6.144674,"transit":false,"station_name":"Angke","distance":1230},{"station_id":"KPB","station_name":"Kampung Bandan","i_lat":-6.132549,"i_long":106.826365,"line":4,"is_transit":true,"transit":true,"distance":4102,"time":9},{"distance":1444,"is_transit":false,"transit":false,"i_lat":-6.14505,"station_id":"RJW","i_long":106.836569,"time":3,"line":11,"station_name":"Rajawali"},{"i_long":106.839204,"distance":1901,"is_transit":false,"i_lat":-6.161728,"station_id":"KMO","station_name":"Kemayoran","transit":false,"time":5,"line":11},{"line":11,"time":4,"station_id":"PSE","is_transit":false,"station_name":"Pasar Senen","transit":false,"i_lat":-6.174784,"distance":1436,"i_long":106.84368},{"transit":false,"station_id":"GST","distance":1567,"i_lat":-6.185975,"line":11,"is_transit":false,"time":8,"i_long":106.850107,"station_name":"Gang Sentiong"},{"station_name":"Kramat","is_transit":false,"transit":false,"line":11,"distance":973,"station_id":"KMT","i_lat":-6.193792,"time":1,"i_long":106.855437},{"distance":1829,"i_long":106.861737,"station_name":"Pondok Jati","station_id":"POK","transit":false,"is_transit":false,"time":2,"i_lat":-6.209188,"line":11},{"time":9,"distance":1236,"station_id":"JNG","station_name":"Jatinegara","transit":true,"i_lat":-6.215091,"i_long":106.86807400000001,"line":1,"is_transit":true},{"station_id":"MTR","transit":false,"is_transit":false,"time":2,"station_name":"Matraman","i_lat":-6.212485,"i_long":106.858896,"distance":1377,"line":1},{"station_id":"MRI","time":2,"transit":true,"station_name":"Manggarai","line":2,"distance":1275,"i_lat":-6.209883,"i_long":106.84912,"is_transit":true},{"station_name":"Tebet","time":4,"transit":false,"station_id":"TEB","i_lat":-6.226659,"i_long":106.857948,"is_transit":false,"distance":2610,"line":2},{"time":2,"distance":1230,"station_id":"CW","transit":false,"i_lat":-6.242512,"i_long":106.856607,"station_name":"Cawang","is_transit":false,"line":2},{"station_name":"Duren Kalibata","is_transit":false,"distance":1546,"i_long":106.85449,"time":3,"line":2,"transit":false,"i_lat":-6.255332,"station_id":"DRN"},{"i_long":106.851577,"station_name":"Pasar Minggu Baru","time":2,"transit":false,"line":2,"i_lat":-6.263214,"distance":824,"is_transit":false,"station_id":"PSMB"},{"station_name":"Pasar Minggu","i_lat":-6.2842400000000005,"line":2,"i_long":106.843999,"distance":2380,"time":2,"station_id":"PSM","transit":false,"is_transit":false},{"distance":2820,"station_id":"TNT","time":4,"transit":false,"station_name":"Tanjung Barat","i_long":106.838896,"line":2,"i_lat":-6.3080680000000005,"is_transit":false},{"transit":false,"station_name":"Lenteng Agung","i_long":106.832616,"station_id":"LNA","time":3,"is_transit":false,"i_lat":-6.330363,"distance":2671,"line":2},{"transit":false,"distance":1029,"i_lat":-6.339291,"time":2,"station_name":"Univ. Pancasila","station_id":"UP","is_transit":false,"i_long":106.834175,"line":2},{"is_transit":false,"i_long":106.831474,"station_name":"Univ. Indonesia","time":3,"i_lat":-6.360749,"line":2,"station_id":"UI","transit":false,"distance":2264},{"station_id":"POC","station_name":"Pondok Cina","time":2,"i_lat":-6.369073,"line":2,"transit":false,"distance":1109,"i_long":106.831114,"is_transit":false},{"i_long":106.819451,"station_id":"DPB","station_name":"Depokbaru","time":4,"line":2,"transit":false,"i_lat":-6.391065,"is_transit":false,"distance":2727}]]}