{"data":[[{"distance":0,"i_lat":-6.288927,"i_long":106.728916,"line":6,"station_id":"JMU","station_name":"Jurangmangu","transit":false,"is_transit":false,"time":0},{"transit":false,"station_name":"Pondokranji","distance":2179,"i_lat":-6.276362,"station_id":"PDJ","line":6,"is_transit":false,"i_long":106.74273,"time":3},{"time":8,"is_transit":false,"i_lat":-6.237242,"i_long":106.780334,"distance":6218,"station_id":"KBY","transit":false,"line":6,"station_name":"Kebayoran"},{"i_lat":-6.207404,"time":7,"distance":3737,"station_id":"PLM","i_long":106.79689,"station_name":"Palmerah","is_transit":false,"transit":false,"line":6},{"time":6,"is_transit":true,"distance":3191,"transit":true,"i_lat":-6.185545,"station_id":"THB","station_name":"Tanah Abang","i_long":106.811091,"line":1},{"station_id":"DU","transit":true,"line":1,"i_lat":-6.155215,"is_transit":true,"time":8,"i_long":106.800832,"distance":3632,"station_name":"Duri"},{"station_name":"Angke","distance":1230,"transit":false,"i_long":106.79867,"i_lat":-6.144674,"is_transit":false,"station_id":"AK","line":0,"time":4},{"station_id":"KPB","line":0,"station_name":"Kampung Bandan","is_transit":true,"transit":false,"distance":4102,"i_lat":-6.132549,"time":9,"i_long":106.826365},{"station_name":"Ancol","is_transit":false,"line":0,"time":4,"distance":2185,"i_lat":-6.128023,"station_id":"AC","transit":false,"i_long":106.84464}],[{"station_id":"JMU","is_transit":false,"station_name":"Jurangmangu","time":0,"line":6,"i_lat":-6.288927,"transit":false,"distance":0,"i_long":106.728916},{"station_id":"PDJ","i_long":106.74273,"line":6,"transit":false,"i_lat":-6.276362,"time":3,"is_transit":false,"station_name":"Pondokranji","distance":2179},{"transit":false,"line":6,"is_transit":false,"station_name":"Kebayoran","distance":6218,"i_lat":-6.237242,"i_long":106.780334,"time":8,"station_id":"KBY"},{"line":6,"time":7,"station_id":"PLM","distance":3737,"i_lat":-6.207404,"transit":false,"i_long":106.79689,"station_name":"Palmerah","is_transit":false},{"transit":true,"time":6,"distance":3191,"is_transit":true,"i_lat":-6.185545,"line":1,"station_name":"Tanah Abang","i_long":106.811091,"station_id":"THB"},{"i_lat":-6.20132,"i_long":106.816351,"transit":false,"distance":2029,"is_transit":false,"station_id":"KAT","station_name":"Karet","time":5,"line":1},{"i_long":106.819881,"line":1,"station_id":"SUDB","transit":false,"distance":471,"i_lat":-6.201433,"time":1,"station_name":"Sudirman Baru","is_transit":false},{"i_long":106.822649,"distance":280,"station_id":"SUD","time":1,"transit":false,"i_lat":-6.202263,"station_name":"Sudirman","line":1,"is_transit":false},{"line":0,"station_name":"Manggarai","transit":true,"time":4,"i_lat":-6.209883,"i_long":106.84912,"is_transit":true,"distance":3186,"station_id":"MRI"},{"distance":1590,"i_lat":-6.198556,"station_name":"Cikini","time":4,"line":0,"i_long":106.840169,"transit":false,"station_id":"CKI","is_transit":false},{"i_lat":-6.186295,"transit":false,"station_name":"Gondangdia","line":2,"is_transit":false,"time":3,"station_id":"GDD","distance":1750,"i_long":106.832183},{"i_long":106.828284,"station_id":"JUA","is_transit":false,"i_lat":-6.166716,"line":2,"station_name":"Juanda","time":4,"transit":false,"distance":2015},{"is_transit":false,"station_name":"Sawah Besar","line":2,"station_id":"SW","i_long":106.827103,"time":2,"distance":1149,"transit":false,"i_lat":-6.160725},{"distance":906,"transit":false,"i_long":106.82482,"i_lat":-6.149769,"line":2,"station_name":"Manggabesar","time":2,"station_id":"MGB","is_transit":false},{"station_name":"Jayakarta","time":2,"station_id":"JAY","distance":1080,"i_lat":-6.141205,"transit":false,"is_transit":false,"i_long":106.820901,"line":7},{"i_long":106.812439,"i_lat":-6.137569,"distance":1264,"station_id":"JAKK","time":4,"line":0,"is_transit":true,"transit":true,"station_name":"Jakarta Kota"},{"station_name":"Kampung Bandan","time":3,"i_lat":-6.132549,"station_id":"KPB","transit":false,"is_transit":true,"i_long":106.826365,"line":0,"distance":1364},{"is_transit":false,"i_long":106.84464,"time":4,"station_name":"Ancol","distance":2185,"transit":false,"i_lat":-6.128023,"line":0,"station_id":"AC"}],[{"time":0,"is_transit":false,"distance":0,"station_name":"Jurangmangu","i_long":106.728916,"line":6,"transit":false,"i_lat":-6.288927,"station_id":"JMU"},{"station_id":"PDJ","is_transit":false,"i_lat":-6.276362,"station_name":"Pondokranji","transit":false,"line":6,"time":3,"distance":2179,"i_long":106.74273},{"line":6,"is_transit":false,"time":8,"i_long":106.780334,"station_id":"KBY","transit":false,"distance":6218,"station_name":"Kebayoran","i_lat":-6.237242},{"time":7,"line":6,"station_id":"PLM","transit":false,"i_long":106.79689,"station_name":"Palmerah","is_transit":false,"i_lat":-6.207404,"distance":3737},{"i_long":106.811091,"line":1,"time":6,"transit":true,"i_lat":-6.185545,"station_id":"THB","station_name":"Tanah Abang","distance":3191,"is_transit":true},{"is_transit":false,"station_name":"Karet","i_lat":-6.20132,"transit":false,"station_id":"KAT","distance":2029,"i_long":106.816351,"line":1,"time":5},{"station_name":"Sudirman Baru","time":1,"distance":471,"transit":false,"station_id":"SUDB","is_transit":false,"i_long":106.819881,"line":1,"i_lat":-6.201433},{"distance":280,"i_lat":-6.202263,"station_name":"Sudirman","i_long":106.822649,"transit":false,"line":1,"time":1,"is_transit":false,"station_id":"SUD"},{"transit":false,"time":4,"station_id":"MRI","i_long":106.84912,"station_name":"Manggarai","i_lat":-6.209883,"line":0,"is_transit":true,"distance":3186},{"transit":false,"distance":1275,"i_lat":-6.212485,"station_id":"MTR","is_transit":false,"i_long":106.858896,"time":2,"line":1,"station_name":"Matraman"},{"i_long":106.86807400000001,"station_id":"JNG","time":8,"line":0,"is_transit":true,"i_lat":-6.215091,"station_name":"Jatinegara","transit":true,"distance":1377},{"time":2,"station_id":"POK","distance":1236,"i_long":106.861737,"transit":false,"station_name":"Pondok Jati","is_transit":false,"line":11,"i_lat":-6.209188},{"time":2,"distance":1829,"station_name":"Kramat","i_long":106.855437,"transit":false,"station_id":"KMT","i_lat":-6.193792,"is_transit":false,"line":11},{"station_name":"Gang Sentiong","time":1,"line":11,"is_transit":false,"distance":973,"i_long":106.850107,"i_lat":-6.185975,"station_id":"GST","transit":false},{"station_id":"PSE","is_transit":false,"time":8,"i_long":106.84368,"distance":1567,"transit":false,"line":11,"station_name":"Pasar Senen","i_lat":-6.174784},{"i_lat":-6.161728,"i_long":106.839204,"line":11,"transit":false,"distance":1436,"station_name":"Kemayoran","station_id":"KMO","is_transit":false,"time":4},{"distance":1901,"i_lat":-6.14505,"is_transit":false,"line":11,"station_name":"Rajawali","i_long":106.836569,"time":5,"transit":false,"station_id":"RJW"},{"station_name":"Kampung Bandan","station_id":"KPB","i_lat":-6.132549,"is_transit":true,"time":3,"distance":1444,"i_long":106.826365,"line":0,"transit":true},{"is_transit":false,"station_id":"AC","distance":2185,"station_name":"Ancol","time":4,"i_lat":-6.128023,"i_long":106.84464,"line":0,"transit":false}]]}