{"data":[[{"station_id":"JMU","distance":0,"transit":false,"station_name":"Jurangmangu","i_lat":-6.288927,"i_long":106.728916,"time":0,"line":6,"is_transit":false},{"time":3,"line":6,"station_name":"Pondokranji","distance":2179,"is_transit":false,"station_id":"PDJ","i_long":106.74273,"i_lat":-6.276362,"transit":false},{"transit":false,"time":8,"line":6,"i_long":106.780334,"distance":6218,"station_id":"KBY","i_lat":-6.237242,"station_name":"Kebayoran","is_transit":false},{"distance":3737,"station_name":"Palmerah","line":6,"transit":false,"time":7,"is_transit":false,"i_lat":-6.207404,"i_long":106.79689,"station_id":"PLM"},{"time":6,"transit":true,"distance":3191,"i_long":106.811091,"station_name":"Tanah Abang","i_lat":-6.185545,"station_id":"THB","line":1,"is_transit":true},{"station_name":"Duri","time":8,"i_lat":-6.155215,"is_transit":true,"transit":true,"i_long":106.800832,"distance":3632,"station_id":"DU","line":1},{"line":5,"i_long":106.788277,"is_transit":false,"transit":false,"time":3,"station_name":"Grogol","distance":1700,"station_id":"GGL","i_lat":-6.162021},{"transit":false,"is_transit":false,"station_name":"Pesing","line":5,"time":2,"i_long":106.771379,"station_id":"PSG","i_lat":-6.161433,"distance":2036},{"is_transit":false,"station_id":"TKO","distance":1614,"transit":false,"station_name":"Taman Kota","time":2,"i_long":106.756522,"i_lat":-6.1587309999999995,"line":5},{"station_name":"Bojongindah","distance":2334,"transit":false,"is_transit":false,"i_lat":-6.159876,"i_long":106.737035,"line":5,"time":2,"station_id":"BOI"}],[{"i_lat":-6.288927,"i_long":106.728916,"distance":0,"station_name":"Jurangmangu","station_id":"JMU","line":6,"is_transit":false,"time":0,"transit":false},{"is_transit":false,"time":3,"distance":2179,"transit":false,"station_name":"Pondokranji","i_long":106.74273,"line":6,"station_id":"PDJ","i_lat":-6.276362},{"line":6,"i_long":106.780334,"distance":6218,"station_id":"KBY","is_transit":false,"i_lat":-6.237242,"transit":false,"time":8,"station_name":"Kebayoran"},{"is_transit":false,"station_name":"Palmerah","transit":false,"time":7,"distance":3737,"station_id":"PLM","i_lat":-6.207404,"line":6,"i_long":106.79689},{"transit":true,"station_id":"THB","i_lat":-6.185545,"i_long":106.811091,"distance":3191,"station_name":"Tanah Abang","is_transit":true,"time":6,"line":1},{"distance":2029,"line":1,"transit":false,"station_name":"Karet","is_transit":false,"i_lat":-6.20132,"i_long":106.816351,"time":5,"station_id":"KAT"},{"station_name":"Sudirman Baru","i_long":106.819881,"is_transit":false,"distance":471,"station_id":"SUDB","i_lat":-6.201433,"time":1,"line":1,"transit":false},{"transit":false,"station_id":"SUD","is_transit":false,"station_name":"Sudirman","time":1,"distance":280,"i_lat":-6.202263,"i_long":106.822649,"line":1},{"line":2,"i_lat":-6.209883,"station_id":"MRI","is_transit":true,"transit":true,"station_name":"Manggarai","distance":3186,"i_long":106.84912,"time":4},{"transit":false,"i_long":106.840169,"line":2,"time":4,"is_transit":false,"distance":1590,"station_name":"Cikini","station_id":"CKI","i_lat":-6.198556},{"station_id":"GDD","is_transit":false,"time":3,"line":2,"transit":false,"i_long":106.832183,"i_lat":-6.186295,"station_name":"Gondangdia","distance":1750},{"is_transit":false,"time":4,"station_name":"Juanda","transit":false,"i_lat":-6.166716,"line":2,"distance":2015,"station_id":"JUA","i_long":106.828284},{"distance":1149,"station_id":"SW","i_lat":-6.160725,"line":2,"station_name":"Sawah Besar","i_long":106.827103,"time":2,"is_transit":false,"transit":false},{"i_lat":-6.149769,"transit":false,"station_name":"Manggabesar","distance":906,"i_long":106.82482,"station_id":"MGB","line":2,"time":2,"is_transit":false},{"time":2,"i_long":106.820901,"distance":1080,"line":2,"i_lat":-6.141205,"transit":false,"is_transit":false,"station_name":"Jayakarta","station_id":"JAY"},{"station_name":"Jakarta Kota","i_lat":-6.137569,"i_long":106.812439,"line":2,"is_transit":true,"transit":true,"time":4,"distance":1264,"station_id":"JAKK"},{"is_transit":true,"station_name":"Kampung Bandan","transit":true,"station_id":"KPB","time":3,"i_long":106.826365,"line":4,"distance":1364,"i_lat":-6.132549},{"is_transit":false,"station_id":"AK","transit":false,"i_lat":-6.144674,"time":9,"station_name":"Angke","i_long":106.79867,"line":1,"distance":4102},{"is_transit":true,"i_long":106.800832,"station_id":"DU","line":1,"station_name":"Duri","time":4,"transit":true,"i_lat":-6.155215,"distance":1230},{"i_long":106.788277,"is_transit":false,"distance":1700,"time":3,"station_id":"GGL","i_lat":-6.162021,"station_name":"Grogol","line":5,"transit":false},{"station_name":"Pesing","transit":false,"station_id":"PSG","is_transit":false,"i_lat":-6.161433,"distance":2036,"time":2,"i_long":106.771379,"line":5},{"transit":false,"is_transit":false,"i_lat":-6.1587309999999995,"station_id":"TKO","line":5,"distance":1614,"station_name":"Taman Kota","i_long":106.756522,"time":2},{"station_id":"BOI","i_lat":-6.159876,"i_long":106.737035,"line":5,"distance":2334,"station_name":"Bojongindah","is_transit":false,"time":2,"transit":false}],[{"is_transit":false,"i_long":106.728916,"time":0,"transit":false,"station_id":"JMU","i_lat":-6.288927,"station_name":"Jurangmangu","distance":0,"line":6},{"is_transit":false,"time":3,"station_id":"PDJ","line":6,"transit":false,"i_long":106.74273,"i_lat":-6.276362,"station_name":"Pondokranji","distance":2179},{"station_name":"Kebayoran","distance":6218,"i_long":106.780334,"time":8,"is_transit":false,"station_id":"KBY","i_lat":-6.237242,"transit":false,"line":6},{"distance":3737,"station_name":"Palmerah","time":7,"transit":false,"line":6,"i_lat":-6.207404,"i_long":106.79689,"station_id":"PLM","is_transit":false},{"station_name":"Tanah Abang","transit":true,"distance":3191,"station_id":"THB","i_long":106.811091,"line":1,"time":6,"is_transit":true,"i_lat":-6.185545},{"station_name":"Karet","i_lat":-6.20132,"time":5,"line":1,"transit":false,"station_id":"KAT","is_transit":false,"distance":2029,"i_long":106.816351},{"station_name":"Sudirman Baru","i_long":106.819881,"i_lat":-6.201433,"distance":471,"time":1,"station_id":"SUDB","transit":false,"line":1,"is_transit":false},{"station_name":"Sudirman","distance":280,"line":1,"is_transit":false,"transit":false,"station_id":"SUD","time":1,"i_long":106.822649,"i_lat":-6.202263},{"i_long":106.84912,"distance":3186,"transit":false,"station_name":"Manggarai","is_transit":false,"line":2,"i_lat":-6.209883,"time":4,"station_id":"MRI"},{"station_id":"MTR","time":2,"station_name":"Matraman","i_long":106.858896,"distance":1275,"line":1,"is_transit":false,"transit":false,"i_lat":-6.212485},{"station_name":"Jatinegara","station_id":"JNG","i_long":106.86807400000001,"is_transit":true,"time":8,"line":1,"transit":true,"distance":1377,"i_lat":-6.215091},{"line":11,"i_lat":-6.209188,"station_id":"POK","transit":false,"i_long":106.861737,"is_transit":false,"time":2,"station_name":"Pondok Jati","distance":1236},{"is_transit":false,"station_name":"Kramat","time":2,"i_lat":-6.193792,"distance":1829,"line":11,"transit":false,"station_id":"KMT","i_long":106.855437},{"station_name":"Gang Sentiong","station_id":"GST","is_transit":false,"transit":false,"line":11,"i_lat":-6.185975,"time":1,"i_long":106.850107,"distance":973},{"distance":1567,"line":11,"i_long":106.84368,"is_transit":false,"station_name":"Pasar Senen","station_id":"PSE","transit":false,"i_lat":-6.174784,"time":8},{"is_transit":false,"transit":false,"line":11,"i_long":106.839204,"time":4,"station_id":"KMO","distance":1436,"station_name":"Kemayoran","i_lat":-6.161728},{"i_long":106.836569,"line":11,"time":5,"station_id":"RJW","station_name":"Rajawali","transit":false,"i_lat":-6.14505,"distance":1901,"is_transit":false},{"station_name":"Kampung Bandan","station_id":"KPB","i_lat":-6.132549,"is_transit":true,"i_long":106.826365,"line":4,"distance":1444,"time":3,"transit":true},{"distance":4102,"station_id":"AK","time":9,"i_long":106.79867,"is_transit":false,"line":1,"i_lat":-6.144674,"station_name":"Angke","transit":false},{"distance":1230,"time":4,"line":1,"i_long":106.800832,"i_lat":-6.155215,"transit":true,"station_id":"DU","is_transit":true,"station_name":"Duri"},{"i_long":106.788277,"time":3,"is_transit":false,"station_id":"GGL","transit":false,"station_name":"Grogol","i_lat":-6.162021,"distance":1700,"line":5},{"time":2,"station_id":"PSG","i_lat":-6.161433,"transit":false,"i_long":106.771379,"station_name":"Pesing","line":5,"is_transit":false,"distance":2036},{"line":5,"is_transit":false,"station_name":"Taman Kota","distance":1614,"i_lat":-6.1587309999999995,"i_long":106.756522,"transit":false,"time":2,"station_id":"TKO"},{"distance":2334,"is_transit":false,"i_long":106.737035,"station_id":"BOI","transit":false,"line":5,"time":2,"station_name":"Bojongindah","i_lat":-6.159876}]]}