{"data":[[{"line":6,"station_id":"JMU","station_name":"Jurangmangu","time":0,"transit":false,"distance":0,"i_lat":-6.288927,"i_long":106.728916,"is_transit":false},{"is_transit":false,"distance":2179,"station_id":"PDJ","station_name":"Pondokranji","time":3,"line":6,"i_lat":-6.276362,"i_long":106.74273,"transit":false},{"is_transit":false,"time":8,"i_lat":-6.237242,"distance":6218,"i_long":106.780334,"line":6,"station_name":"Kebayoran","transit":false,"station_id":"KBY"},{"i_long":106.79689,"time":7,"transit":false,"station_id":"PLM","station_name":"Palmerah","is_transit":false,"line":6,"i_lat":-6.207404,"distance":3737},{"station_name":"Tanah Abang","station_id":"THB","time":6,"is_transit":true,"transit":true,"i_long":106.811091,"line":1,"distance":3191,"i_lat":-6.185545},{"transit":true,"i_lat":-6.155215,"i_long":106.800832,"station_id":"DU","is_transit":true,"line":1,"station_name":"Duri","time":8,"distance":3632},{"transit":false,"distance":1700,"station_name":"Grogol","station_id":"GGL","is_transit":false,"time":3,"i_lat":-6.162021,"i_long":106.788277,"line":5},{"i_long":106.771379,"time":2,"i_lat":-6.161433,"station_name":"Pesing","line":5,"station_id":"PSG","distance":2036,"is_transit":false,"transit":false},{"i_lat":-6.1587309999999995,"is_transit":false,"line":5,"station_name":"Taman Kota","station_id":"TKO","distance":1614,"i_long":106.756522,"transit":false,"time":2},{"is_transit":false,"i_lat":-6.159876,"i_long":106.737035,"line":5,"station_id":"BOI","transit":false,"time":2,"distance":2334,"station_name":"Bojongindah"}],[{"i_long":106.728916,"is_transit":false,"station_name":"Jurangmangu","i_lat":-6.288927,"transit":false,"time":0,"station_id":"JMU","distance":0,"line":6},{"distance":2179,"transit":false,"i_long":106.74273,"time":3,"is_transit":false,"station_id":"PDJ","i_lat":-6.276362,"line":6,"station_name":"Pondokranji"},{"station_name":"Kebayoran","line":6,"distance":6218,"is_transit":false,"i_long":106.780334,"i_lat":-6.237242,"transit":false,"station_id":"KBY","time":8},{"transit":false,"station_name":"Palmerah","time":7,"line":6,"station_id":"PLM","is_transit":false,"i_lat":-6.207404,"i_long":106.79689,"distance":3737},{"i_lat":-6.185545,"time":6,"distance":3191,"transit":true,"station_name":"Tanah Abang","station_id":"THB","i_long":106.811091,"line":1,"is_transit":true},{"station_id":"KAT","is_transit":false,"time":5,"i_lat":-6.20132,"line":1,"i_long":106.816351,"transit":false,"distance":2029,"station_name":"Karet"},{"i_long":106.819881,"station_id":"SUDB","transit":false,"i_lat":-6.201433,"distance":471,"time":1,"line":1,"station_name":"Sudirman Baru","is_transit":false},{"transit":false,"station_name":"Sudirman","line":1,"distance":280,"station_id":"SUD","is_transit":false,"time":1,"i_lat":-6.202263,"i_long":106.822649},{"line":2,"station_id":"MRI","i_lat":-6.209883,"distance":3186,"is_transit":true,"transit":true,"i_long":106.84912,"station_name":"Manggarai","time":4},{"station_name":"Cikini","i_long":106.840169,"station_id":"CKI","distance":1590,"transit":false,"line":2,"i_lat":-6.198556,"is_transit":false,"time":4},{"i_long":106.832183,"line":2,"i_lat":-6.186295,"transit":false,"time":3,"station_name":"Gondangdia","station_id":"GDD","is_transit":false,"distance":1750},{"station_name":"Juanda","is_transit":false,"station_id":"JUA","time":4,"transit":false,"line":2,"distance":2015,"i_long":106.828284,"i_lat":-6.166716},{"time":2,"distance":1149,"transit":false,"station_id":"SW","station_name":"Sawah Besar","i_long":106.827103,"is_transit":false,"i_lat":-6.160725,"line":2},{"time":2,"station_name":"Manggabesar","is_transit":false,"i_long":106.82482,"line":2,"i_lat":-6.149769,"distance":906,"transit":false,"station_id":"MGB"},{"distance":1080,"time":2,"station_id":"JAY","station_name":"Jayakarta","line":2,"i_long":106.820901,"is_transit":false,"i_lat":-6.141205,"transit":false},{"station_id":"JAKK","time":4,"i_long":106.812439,"transit":true,"is_transit":true,"distance":1264,"station_name":"Jakarta Kota","line":2,"i_lat":-6.137569},{"distance":1364,"i_lat":-6.132549,"is_transit":true,"time":3,"transit":true,"station_name":"Kampung Bandan","i_long":106.826365,"line":4,"station_id":"KPB"},{"i_lat":-6.144674,"station_name":"Angke","line":1,"time":9,"station_id":"AK","is_transit":false,"distance":4102,"i_long":106.79867,"transit":false},{"transit":true,"time":4,"i_lat":-6.155215,"is_transit":true,"line":1,"station_id":"DU","station_name":"Duri","distance":1230,"i_long":106.800832},{"station_name":"Grogol","time":3,"station_id":"GGL","is_transit":false,"i_long":106.788277,"i_lat":-6.162021,"distance":1700,"transit":false,"line":5},{"time":2,"distance":2036,"is_transit":false,"station_name":"Pesing","i_long":106.771379,"transit":false,"station_id":"PSG","i_lat":-6.161433,"line":5},{"distance":1614,"transit":false,"station_name":"Taman Kota","i_long":106.756522,"station_id":"TKO","i_lat":-6.1587309999999995,"is_transit":false,"line":5,"time":2},{"station_name":"Bojongindah","is_transit":false,"i_lat":-6.159876,"station_id":"BOI","time":2,"distance":2334,"i_long":106.737035,"transit":false,"line":5}],[{"station_id":"JMU","i_lat":-6.288927,"is_transit":false,"time":0,"line":6,"transit":false,"distance":0,"i_long":106.728916,"station_name":"Jurangmangu"},{"i_long":106.74273,"transit":false,"station_name":"Pondokranji","i_lat":-6.276362,"station_id":"PDJ","time":3,"distance":2179,"line":6,"is_transit":false},{"i_lat":-6.237242,"distance":6218,"station_name":"Kebayoran","station_id":"KBY","is_transit":false,"line":6,"transit":false,"i_long":106.780334,"time":8},{"line":6,"transit":false,"is_transit":false,"station_id":"PLM","station_name":"Palmerah","time":7,"i_lat":-6.207404,"i_long":106.79689,"distance":3737},{"time":6,"transit":true,"station_name":"Tanah Abang","is_transit":true,"distance":3191,"i_long":106.811091,"station_id":"THB","i_lat":-6.185545,"line":1},{"is_transit":false,"i_lat":-6.20132,"station_id":"KAT","station_name":"Karet","transit":false,"time":5,"line":1,"i_long":106.816351,"distance":2029},{"station_id":"SUDB","station_name":"Sudirman Baru","transit":false,"distance":471,"line":1,"time":1,"i_lat":-6.201433,"i_long":106.819881,"is_transit":false},{"is_transit":false,"line":1,"i_lat":-6.202263,"transit":false,"station_name":"Sudirman","i_long":106.822649,"station_id":"SUD","time":1,"distance":280},{"distance":3186,"i_long":106.84912,"station_name":"Manggarai","is_transit":false,"i_lat":-6.209883,"time":4,"line":2,"transit":false,"station_id":"MRI"},{"line":1,"station_name":"Matraman","transit":false,"is_transit":false,"distance":1275,"i_lat":-6.212485,"i_long":106.858896,"time":2,"station_id":"MTR"},{"i_lat":-6.215091,"i_long":106.86807400000001,"transit":true,"is_transit":true,"line":1,"time":8,"distance":1377,"station_id":"JNG","station_name":"Jatinegara"},{"is_transit":false,"time":2,"station_name":"Pondok Jati","transit":false,"i_long":106.861737,"i_lat":-6.209188,"line":11,"distance":1236,"station_id":"POK"},{"i_long":106.855437,"transit":false,"station_id":"KMT","time":2,"distance":1829,"line":11,"station_name":"Kramat","is_transit":false,"i_lat":-6.193792},{"time":1,"i_lat":-6.185975,"i_long":106.850107,"line":11,"is_transit":false,"station_id":"GST","transit":false,"distance":973,"station_name":"Gang Sentiong"},{"time":8,"distance":1567,"line":11,"transit":false,"is_transit":false,"station_name":"Pasar Senen","station_id":"PSE","i_long":106.84368,"i_lat":-6.174784},{"station_id":"KMO","i_long":106.839204,"distance":1436,"station_name":"Kemayoran","transit":false,"line":11,"time":4,"is_transit":false,"i_lat":-6.161728},{"is_transit":false,"distance":1901,"time":5,"station_name":"Rajawali","transit":false,"i_long":106.836569,"station_id":"RJW","line":11,"i_lat":-6.14505},{"transit":true,"station_id":"KPB","i_lat":-6.132549,"station_name":"Kampung Bandan","distance":1444,"line":4,"time":3,"is_transit":true,"i_long":106.826365},{"i_lat":-6.144674,"i_long":106.79867,"station_id":"AK","transit":false,"station_name":"Angke","time":9,"distance":4102,"line":1,"is_transit":false},{"is_transit":true,"distance":1230,"i_long":106.800832,"time":4,"i_lat":-6.155215,"station_id":"DU","line":1,"transit":true,"station_name":"Duri"},{"station_id":"GGL","i_lat":-6.162021,"i_long":106.788277,"transit":false,"station_name":"Grogol","time":3,"line":5,"distance":1700,"is_transit":false},{"transit":false,"i_long":106.771379,"station_id":"PSG","distance":2036,"i_lat":-6.161433,"time":2,"is_transit":false,"station_name":"Pesing","line":5},{"time":2,"is_transit":false,"i_lat":-6.1587309999999995,"station_name":"Taman Kota","station_id":"TKO","transit":false,"distance":1614,"i_long":106.756522,"line":5},{"station_name":"Bojongindah","transit":false,"is_transit":false,"time":2,"distance":2334,"station_id":"BOI","i_long":106.737035,"i_lat":-6.159876,"line":5}]]}