{"data":[[{"station_name":"Jurangmangu","distance":0,"station_id":"JMU","time":0,"i_lat":-6.288927,"i_long":106.728916,"transit":false,"is_transit":false,"line":6},{"i_long":106.74273,"distance":2179,"station_name":"Pondokranji","station_id":"PDJ","transit":false,"is_transit":false,"i_lat":-6.276362,"time":3,"line":6},{"is_transit":false,"distance":6218,"transit":false,"station_name":"Kebayoran","i_long":106.780334,"line":6,"station_id":"KBY","time":8,"i_lat":-6.237242},{"is_transit":false,"time":7,"i_lat":-6.207404,"transit":false,"station_id":"PLM","distance":3737,"i_long":106.79689,"line":6,"station_name":"Palmerah"},{"is_transit":true,"time":6,"station_id":"THB","line":1,"transit":true,"i_long":106.811091,"distance":3191,"i_lat":-6.185545,"station_name":"Tanah Abang"},{"line":1,"transit":false,"distance":3632,"time":8,"station_id":"DU","is_transit":false,"i_lat":-6.155215,"station_name":"Duri","i_long":106.800832},{"i_lat":-6.144674,"station_id":"AK","transit":false,"distance":1230,"i_long":106.79867,"line":1,"station_name":"Angke","is_transit":false,"time":4}],[{"station_id":"JMU","line":6,"is_transit":false,"station_name":"Jurangmangu","time":0,"transit":false,"i_lat":-6.288927,"i_long":106.728916,"distance":0},{"i_long":106.74273,"is_transit":false,"station_name":"Pondokranji","station_id":"PDJ","time":3,"distance":2179,"i_lat":-6.276362,"line":6,"transit":false},{"station_id":"KBY","time":8,"station_name":"Kebayoran","line":6,"i_lat":-6.237242,"i_long":106.780334,"distance":6218,"is_transit":false,"transit":false},{"distance":3737,"station_name":"Palmerah","transit":false,"line":6,"station_id":"PLM","time":7,"i_long":106.79689,"is_transit":false,"i_lat":-6.207404},{"i_lat":-6.185545,"line":1,"i_long":106.811091,"station_id":"THB","time":6,"station_name":"Tanah Abang","is_transit":true,"distance":3191,"transit":true},{"transit":false,"time":5,"is_transit":false,"station_name":"Karet","distance":2029,"line":1,"i_long":106.816351,"i_lat":-6.20132,"station_id":"KAT"},{"transit":false,"station_name":"Sudirman Baru","i_lat":-6.201433,"i_long":106.819881,"line":1,"distance":471,"time":1,"is_transit":false,"station_id":"SUDB"},{"is_transit":false,"transit":false,"station_id":"SUD","i_long":106.822649,"line":1,"time":1,"station_name":"Sudirman","distance":280,"i_lat":-6.202263},{"i_long":106.84912,"transit":true,"distance":3186,"is_transit":true,"time":4,"station_name":"Manggarai","station_id":"MRI","i_lat":-6.209883,"line":2},{"is_transit":false,"station_id":"CKI","i_lat":-6.198556,"transit":false,"i_long":106.840169,"distance":1590,"time":4,"line":2,"station_name":"Cikini"},{"i_lat":-6.186295,"i_long":106.832183,"time":3,"transit":false,"is_transit":false,"distance":1750,"line":2,"station_name":"Gondangdia","station_id":"GDD"},{"is_transit":false,"i_long":106.828284,"i_lat":-6.166716,"station_name":"Juanda","time":4,"transit":false,"station_id":"JUA","distance":2015,"line":2},{"is_transit":false,"time":2,"distance":1149,"i_lat":-6.160725,"transit":false,"station_id":"SW","station_name":"Sawah Besar","i_long":106.827103,"line":2},{"time":2,"line":2,"station_name":"Manggabesar","transit":false,"station_id":"MGB","is_transit":false,"distance":906,"i_lat":-6.149769,"i_long":106.82482},{"station_id":"JAY","is_transit":false,"i_long":106.820901,"time":2,"station_name":"Jayakarta","line":2,"transit":false,"distance":1080,"i_lat":-6.141205},{"time":4,"line":2,"i_lat":-6.137569,"i_long":106.812439,"station_id":"JAKK","transit":true,"distance":1264,"station_name":"Jakarta Kota","is_transit":true},{"time":3,"i_lat":-6.132549,"station_name":"Kampung Bandan","station_id":"KPB","line":4,"is_transit":true,"distance":1364,"transit":true,"i_long":106.826365},{"is_transit":false,"line":1,"transit":false,"station_name":"Angke","time":9,"distance":4102,"i_long":106.79867,"station_id":"AK","i_lat":-6.144674}],[{"i_lat":-6.288927,"i_long":106.728916,"time":0,"is_transit":false,"station_id":"JMU","transit":false,"line":6,"distance":0,"station_name":"Jurangmangu"},{"i_long":106.74273,"distance":2179,"transit":false,"line":6,"station_name":"Pondokranji","is_transit":false,"station_id":"PDJ","time":3,"i_lat":-6.276362},{"time":8,"distance":6218,"i_lat":-6.237242,"i_long":106.780334,"station_name":"Kebayoran","line":6,"transit":false,"station_id":"KBY","is_transit":false},{"distance":3737,"time":7,"is_transit":false,"i_long":106.79689,"transit":false,"station_id":"PLM","line":6,"station_name":"Palmerah","i_lat":-6.207404},{"i_long":106.811091,"line":1,"distance":3191,"is_transit":true,"time":6,"station_id":"THB","station_name":"Tanah Abang","i_lat":-6.185545,"transit":true},{"line":1,"transit":false,"distance":2029,"i_lat":-6.20132,"i_long":106.816351,"is_transit":false,"time":5,"station_id":"KAT","station_name":"Karet"},{"transit":false,"station_name":"Sudirman Baru","station_id":"SUDB","time":1,"i_long":106.819881,"is_transit":false,"line":1,"i_lat":-6.201433,"distance":471},{"i_lat":-6.202263,"station_name":"Sudirman","transit":false,"line":1,"time":1,"is_transit":false,"distance":280,"station_id":"SUD","i_long":106.822649},{"is_transit":false,"i_lat":-6.209883,"line":2,"i_long":106.84912,"transit":false,"station_id":"MRI","time":4,"station_name":"Manggarai","distance":3186},{"i_long":106.858896,"i_lat":-6.212485,"time":2,"line":1,"is_transit":false,"station_name":"Matraman","transit":false,"station_id":"MTR","distance":1275},{"station_name":"Jatinegara","i_lat":-6.215091,"i_long":106.86807400000001,"line":1,"is_transit":true,"transit":true,"time":8,"distance":1377,"station_id":"JNG"},{"is_transit":false,"distance":1236,"i_lat":-6.209188,"transit":false,"time":2,"i_long":106.861737,"station_id":"POK","station_name":"Pondok Jati","line":11},{"distance":1829,"i_lat":-6.193792,"is_transit":false,"time":2,"i_long":106.855437,"transit":false,"station_name":"Kramat","line":11,"station_id":"KMT"},{"station_name":"Gang Sentiong","is_transit":false,"time":1,"station_id":"GST","line":11,"transit":false,"distance":973,"i_lat":-6.185975,"i_long":106.850107},{"i_long":106.84368,"line":11,"station_name":"Pasar Senen","transit":false,"time":8,"is_transit":false,"station_id":"PSE","distance":1567,"i_lat":-6.174784},{"distance":1436,"station_id":"KMO","transit":false,"i_long":106.839204,"i_lat":-6.161728,"is_transit":false,"time":4,"line":11,"station_name":"Kemayoran"},{"i_long":106.836569,"transit":false,"i_lat":-6.14505,"line":11,"distance":1901,"station_name":"Rajawali","is_transit":false,"station_id":"RJW","time":5},{"station_id":"KPB","station_name":"Kampung Bandan","time":3,"i_lat":-6.132549,"line":4,"transit":true,"is_transit":true,"distance":1444,"i_long":106.826365},{"i_lat":-6.144674,"line":1,"i_long":106.79867,"is_transit":false,"distance":4102,"time":9,"station_name":"Angke","transit":false,"station_id":"AK"}]]}