{"data":[[{"station_name":"Jurangmangu","time":0,"is_transit":false,"i_lat":-6.288927,"line":6,"distance":0,"i_long":106.728916,"station_id":"JMU","transit":false},{"transit":false,"distance":1994,"station_id":"SDM","is_transit":false,"i_lat":-6.296963,"line":6,"station_name":"Sudimara","time":4,"i_long":106.712277},{"distance":4566,"station_id":"RU","time":6,"station_name":"Rawa Buntu","is_transit":false,"transit":false,"line":6,"i_lat":-6.314823,"i_long":106.675475},{"station_id":"SRP","line":6,"station_name":"Serpong","is_transit":false,"time":4,"distance":2413,"transit":false,"i_lat":-6.319871,"i_long":106.66566},{"station_name":"Cisauk","station_id":"CSK","distance":1784,"is_transit":false,"i_long":106.640411,"line":3,"i_lat":-6.32484,"transit":false,"time":4},{"distance":2519,"i_long":106.617853,"is_transit":false,"i_lat":-6.329547,"time":4,"station_name":"Cicayur","station_id":"CC","line":3,"transit":false},{"transit":false,"is_transit":false,"line":6,"time":8,"station_id":"PRP","station_name":"Parung Panjang","distance":5968,"i_long":106.568863,"i_lat":-6.3441410000000005},{"i_lat":-6.354349,"distance":7025,"station_id":"CJT","transit":false,"is_transit":false,"station_name":"Cilejit","line":3,"i_long":106.508482,"time":9},{"station_id":"DAR","station_name":"Daru","transit":false,"is_transit":false,"i_lat":-6.338021,"i_long":106.491338,"distance":2675,"line":0,"time":6},{"station_id":"TEJ","i_lat":-6.327251,"i_long":106.460812,"transit":false,"time":5,"distance":3902,"is_transit":false,"station_name":"Tenjo","line":6},{"i_long":106.425991,"time":5,"is_transit":false,"transit":false,"station_id":"TGS","station_name":"Tigaraksa","distance":2974,"line":6,"i_lat":-6.328533}]]}