{"data":[[{"time":0,"station_name":"Jurangmangu","i_long":106.728916,"is_transit":false,"line":6,"station_id":"JMU","distance":0,"i_lat":-6.288927,"transit":false},{"distance":2179,"i_lat":-6.276362,"line":6,"i_long":106.74273,"time":3,"transit":false,"station_id":"PDJ","is_transit":false,"station_name":"Pondokranji"},{"station_name":"Kebayoran","line":6,"station_id":"KBY","time":8,"i_lat":-6.237242,"is_transit":false,"distance":6218,"transit":false,"i_long":106.780334},{"is_transit":false,"station_id":"PLM","distance":3737,"i_lat":-6.207404,"transit":false,"time":7,"station_name":"Palmerah","line":6,"i_long":106.79689},{"time":6,"is_transit":true,"line":1,"distance":3191,"station_name":"Tanah Abang","transit":true,"i_long":106.811091,"station_id":"THB","i_lat":-6.185545},{"time":5,"station_id":"KAT","transit":false,"distance":2029,"i_lat":-6.20132,"line":1,"i_long":106.816351,"is_transit":false,"station_name":"Karet"},{"station_id":"SUDB","is_transit":false,"i_long":106.819881,"time":1,"transit":false,"line":1,"station_name":"Sudirman Baru","i_lat":-6.201433,"distance":471},{"i_long":106.822649,"distance":280,"station_name":"Sudirman","station_id":"SUD","is_transit":false,"line":1,"time":1,"transit":false,"i_lat":-6.202263},{"is_transit":true,"station_name":"Manggarai","station_id":"MRI","distance":3186,"line":2,"i_lat":-6.209883,"transit":true,"i_long":106.84912,"time":4},{"transit":false,"line":2,"station_id":"TEB","i_long":106.857948,"i_lat":-6.226659,"distance":2610,"is_transit":false,"time":4,"station_name":"Tebet"},{"station_id":"CW","i_lat":-6.242512,"i_long":106.856607,"distance":1230,"is_transit":false,"station_name":"Cawang","line":2,"transit":false,"time":2},{"i_long":106.85449,"is_transit":false,"station_name":"Duren Kalibata","time":3,"station_id":"DRN","transit":false,"i_lat":-6.255332,"line":2,"distance":1546},{"transit":false,"line":2,"is_transit":false,"time":2,"station_id":"PSMB","i_long":106.851577,"distance":824,"i_lat":-6.263214,"station_name":"Pasar Minggu Baru"},{"i_long":106.843999,"station_name":"Pasar Minggu","distance":2380,"time":2,"transit":false,"is_transit":false,"i_lat":-6.2842400000000005,"line":2,"station_id":"PSM"}],[{"station_name":"Jurangmangu","distance":0,"i_long":106.728916,"line":6,"i_lat":-6.288927,"station_id":"JMU","time":0,"transit":false,"is_transit":false},{"station_id":"PDJ","i_long":106.74273,"distance":2179,"i_lat":-6.276362,"line":6,"transit":false,"is_transit":false,"station_name":"Pondokranji","time":3},{"is_transit":false,"i_lat":-6.237242,"station_name":"Kebayoran","distance":6218,"time":8,"line":6,"i_long":106.780334,"transit":false,"station_id":"KBY"},{"i_long":106.79689,"i_lat":-6.207404,"line":6,"station_id":"PLM","station_name":"Palmerah","transit":false,"distance":3737,"is_transit":false,"time":7},{"i_lat":-6.185545,"is_transit":true,"station_name":"Tanah Abang","distance":3191,"time":6,"i_long":106.811091,"line":1,"station_id":"THB","transit":true},{"station_name":"Duri","time":8,"distance":3632,"station_id":"DU","i_long":106.800832,"line":1,"i_lat":-6.155215,"is_transit":false,"transit":false},{"i_long":106.79867,"station_id":"AK","is_transit":false,"station_name":"Angke","line":1,"distance":1230,"transit":false,"i_lat":-6.144674,"time":4},{"i_lat":-6.132549,"line":4,"station_name":"Kampung Bandan","distance":4102,"is_transit":true,"station_id":"KPB","i_long":106.826365,"time":9,"transit":true},{"is_transit":true,"transit":true,"time":3,"line":2,"station_id":"JAKK","station_name":"Jakarta Kota","i_long":106.812439,"distance":1364,"i_lat":-6.137569},{"time":4,"station_name":"Jayakarta","is_transit":false,"distance":1264,"station_id":"JAY","transit":false,"i_long":106.820901,"line":2,"i_lat":-6.141205},{"i_long":106.82482,"line":2,"distance":1080,"station_name":"Manggabesar","is_transit":false,"station_id":"MGB","transit":false,"time":2,"i_lat":-6.149769},{"station_id":"SW","i_long":106.827103,"is_transit":false,"transit":false,"station_name":"Sawah Besar","time":2,"distance":906,"i_lat":-6.160725,"line":2},{"distance":1149,"line":2,"is_transit":false,"time":2,"station_id":"JUA","transit":false,"i_lat":-6.166716,"i_long":106.828284,"station_name":"Juanda"},{"station_name":"Gondangdia","line":2,"is_transit":false,"distance":2015,"i_lat":-6.186295,"station_id":"GDD","transit":false,"i_long":106.832183,"time":4},{"station_name":"Cikini","is_transit":false,"distance":1750,"line":2,"i_long":106.840169,"i_lat":-6.198556,"transit":false,"station_id":"CKI","time":3},{"distance":1590,"station_id":"MRI","line":2,"transit":false,"is_transit":false,"i_lat":-6.209883,"i_long":106.84912,"station_name":"Manggarai","time":4},{"is_transit":false,"time":4,"distance":2610,"station_id":"TEB","i_lat":-6.226659,"station_name":"Tebet","line":2,"transit":false,"i_long":106.857948},{"distance":1230,"station_name":"Cawang","time":2,"transit":false,"i_lat":-6.242512,"station_id":"CW","i_long":106.856607,"is_transit":false,"line":2},{"i_long":106.85449,"i_lat":-6.255332,"line":2,"is_transit":false,"time":3,"distance":1546,"station_id":"DRN","station_name":"Duren Kalibata","transit":false},{"station_id":"PSMB","transit":false,"station_name":"Pasar Minggu Baru","time":2,"is_transit":false,"i_long":106.851577,"line":2,"distance":824,"i_lat":-6.263214},{"i_lat":-6.2842400000000005,"station_name":"Pasar Minggu","distance":2380,"station_id":"PSM","i_long":106.843999,"line":2,"is_transit":false,"time":2,"transit":false}],[{"distance":0,"i_long":106.728916,"station_id":"JMU","station_name":"Jurangmangu","transit":false,"is_transit":false,"time":0,"i_lat":-6.288927,"line":6},{"station_name":"Pondokranji","line":6,"is_transit":false,"station_id":"PDJ","transit":false,"time":3,"i_lat":-6.276362,"i_long":106.74273,"distance":2179},{"station_id":"KBY","i_long":106.780334,"station_name":"Kebayoran","time":8,"transit":false,"i_lat":-6.237242,"line":6,"is_transit":false,"distance":6218},{"is_transit":false,"i_long":106.79689,"i_lat":-6.207404,"distance":3737,"line":6,"station_name":"Palmerah","transit":false,"time":7,"station_id":"PLM"},{"i_long":106.811091,"is_transit":true,"line":1,"station_name":"Tanah Abang","station_id":"THB","time":6,"i_lat":-6.185545,"transit":true,"distance":3191},{"time":8,"distance":3632,"station_id":"DU","line":1,"transit":false,"station_name":"Duri","is_transit":false,"i_lat":-6.155215,"i_long":106.800832},{"is_transit":false,"i_lat":-6.144674,"i_long":106.79867,"station_id":"AK","line":1,"station_name":"Angke","time":4,"distance":1230,"transit":false},{"transit":true,"distance":4102,"is_transit":true,"station_name":"Kampung Bandan","time":9,"i_long":106.826365,"station_id":"KPB","line":4,"i_lat":-6.132549},{"i_lat":-6.14505,"line":11,"distance":1444,"time":3,"station_id":"RJW","is_transit":false,"station_name":"Rajawali","i_long":106.836569,"transit":false},{"station_name":"Kemayoran","station_id":"KMO","is_transit":false,"transit":false,"time":5,"line":11,"distance":1901,"i_long":106.839204,"i_lat":-6.161728},{"is_transit":false,"time":4,"station_id":"PSE","transit":false,"i_long":106.84368,"station_name":"Pasar Senen","distance":1436,"i_lat":-6.174784,"line":11},{"i_long":106.850107,"line":11,"transit":false,"time":8,"i_lat":-6.185975,"station_name":"Gang Sentiong","is_transit":false,"station_id":"GST","distance":1567},{"i_long":106.855437,"distance":973,"transit":false,"line":11,"is_transit":false,"station_name":"Kramat","time":1,"i_lat":-6.193792,"station_id":"KMT"},{"i_long":106.861737,"distance":1829,"is_transit":false,"station_id":"POK","station_name":"Pondok Jati","i_lat":-6.209188,"time":2,"transit":false,"line":11},{"distance":1236,"station_id":"JNG","is_transit":true,"i_lat":-6.215091,"station_name":"Jatinegara","time":9,"transit":true,"i_long":106.86807400000001,"line":1},{"is_transit":false,"i_lat":-6.212485,"station_id":"MTR","time":2,"transit":false,"distance":1377,"i_long":106.858896,"station_name":"Matraman","line":1},{"distance":1275,"time":2,"station_name":"Manggarai","line":2,"transit":true,"i_lat":-6.209883,"station_id":"MRI","i_long":106.84912,"is_transit":true},{"distance":2610,"transit":false,"line":2,"station_name":"Tebet","i_lat":-6.226659,"time":4,"station_id":"TEB","i_long":106.857948,"is_transit":false},{"time":2,"transit":false,"i_lat":-6.242512,"is_transit":false,"i_long":106.856607,"line":2,"distance":1230,"station_id":"CW","station_name":"Cawang"},{"station_name":"Duren Kalibata","is_transit":false,"i_lat":-6.255332,"station_id":"DRN","transit":false,"line":2,"time":3,"distance":1546,"i_long":106.85449},{"is_transit":false,"station_id":"PSMB","time":2,"i_lat":-6.263214,"distance":824,"station_name":"Pasar Minggu Baru","i_long":106.851577,"line":2,"transit":false},{"station_id":"PSM","line":2,"is_transit":false,"distance":2380,"station_name":"Pasar Minggu","i_lat":-6.2842400000000005,"transit":false,"i_long":106.843999,"time":2}]]}