{"data":[[{"time":0,"station_name":"Jurangmangu","is_transit":false,"i_long":106.728916,"station_id":"JMU","transit":false,"i_lat":-6.288927,"distance":0,"line":6},{"is_transit":false,"station_id":"PDJ","i_long":106.74273,"distance":2179,"i_lat":-6.276362,"transit":false,"time":3,"station_name":"Pondokranji","line":6},{"i_long":106.780334,"distance":6218,"is_transit":false,"line":6,"time":8,"station_id":"KBY","transit":false,"station_name":"Kebayoran","i_lat":-6.237242},{"line":6,"station_id":"PLM","distance":3737,"is_transit":false,"time":7,"transit":false,"i_lat":-6.207404,"station_name":"Palmerah","i_long":106.79689},{"distance":3191,"i_lat":-6.185545,"i_long":106.811091,"line":1,"transit":true,"time":6,"station_id":"THB","station_name":"Tanah Abang","is_transit":true},{"station_name":"Duri","distance":3632,"time":8,"i_lat":-6.155215,"i_long":106.800832,"transit":false,"line":1,"station_id":"DU","is_transit":false},{"station_name":"Angke","time":4,"transit":false,"station_id":"AK","i_lat":-6.144674,"distance":1230,"is_transit":false,"line":1,"i_long":106.79867},{"time":9,"i_long":106.826365,"i_lat":-6.132549,"distance":4102,"station_name":"Kampung Bandan","line":4,"transit":true,"station_id":"KPB","is_transit":true},{"station_id":"RJW","is_transit":false,"distance":1444,"transit":false,"time":3,"i_lat":-6.14505,"i_long":106.836569,"station_name":"Rajawali","line":11},{"transit":false,"station_id":"KMO","is_transit":false,"distance":1901,"station_name":"Kemayoran","time":5,"line":11,"i_lat":-6.161728,"i_long":106.839204},{"i_long":106.84368,"station_id":"PSE","distance":1436,"time":4,"line":11,"is_transit":false,"i_lat":-6.174784,"station_name":"Pasar Senen","transit":false},{"is_transit":false,"line":11,"time":8,"i_lat":-6.185975,"station_id":"GST","distance":1567,"transit":false,"i_long":106.850107,"station_name":"Gang Sentiong"}],[{"is_transit":false,"line":6,"station_name":"Jurangmangu","i_long":106.728916,"i_lat":-6.288927,"time":0,"transit":false,"distance":0,"station_id":"JMU"},{"i_long":106.74273,"i_lat":-6.276362,"is_transit":false,"distance":2179,"station_name":"Pondokranji","transit":false,"time":3,"station_id":"PDJ","line":6},{"transit":false,"i_lat":-6.237242,"station_id":"KBY","is_transit":false,"i_long":106.780334,"line":6,"time":8,"distance":6218,"station_name":"Kebayoran"},{"i_long":106.79689,"line":6,"time":7,"is_transit":false,"station_id":"PLM","i_lat":-6.207404,"transit":false,"distance":3737,"station_name":"Palmerah"},{"distance":3191,"time":6,"transit":true,"i_long":106.811091,"station_id":"THB","station_name":"Tanah Abang","is_transit":true,"i_lat":-6.185545,"line":1},{"is_transit":false,"time":5,"station_name":"Karet","transit":false,"distance":2029,"i_long":106.816351,"i_lat":-6.20132,"station_id":"KAT","line":1},{"i_lat":-6.201433,"line":1,"distance":471,"transit":false,"is_transit":false,"i_long":106.819881,"station_name":"Sudirman Baru","time":1,"station_id":"SUDB"},{"line":1,"i_lat":-6.202263,"i_long":106.822649,"is_transit":false,"distance":280,"transit":false,"station_id":"SUD","time":1,"station_name":"Sudirman"},{"station_name":"Manggarai","distance":3186,"is_transit":false,"i_lat":-6.209883,"line":2,"i_long":106.84912,"time":4,"station_id":"MRI","transit":false},{"time":2,"i_lat":-6.212485,"station_name":"Matraman","station_id":"MTR","distance":1275,"transit":false,"line":1,"is_transit":false,"i_long":106.858896},{"is_transit":true,"transit":true,"station_name":"Jatinegara","line":1,"station_id":"JNG","i_lat":-6.215091,"i_long":106.86807400000001,"time":8,"distance":1377},{"line":11,"station_id":"POK","distance":1236,"station_name":"Pondok Jati","i_lat":-6.209188,"i_long":106.861737,"time":2,"is_transit":false,"transit":false},{"i_long":106.855437,"i_lat":-6.193792,"station_id":"KMT","is_transit":false,"time":2,"station_name":"Kramat","transit":false,"distance":1829,"line":11},{"is_transit":false,"i_long":106.850107,"transit":false,"time":1,"i_lat":-6.185975,"distance":973,"station_id":"GST","line":11,"station_name":"Gang Sentiong"}],[{"i_long":106.728916,"station_id":"JMU","is_transit":false,"i_lat":-6.288927,"line":6,"transit":false,"time":0,"station_name":"Jurangmangu","distance":0},{"i_long":106.74273,"distance":2179,"is_transit":false,"transit":false,"time":3,"i_lat":-6.276362,"station_name":"Pondokranji","line":6,"station_id":"PDJ"},{"is_transit":false,"line":6,"i_lat":-6.237242,"station_name":"Kebayoran","station_id":"KBY","transit":false,"i_long":106.780334,"distance":6218,"time":8},{"station_name":"Palmerah","is_transit":false,"station_id":"PLM","distance":3737,"i_lat":-6.207404,"time":7,"transit":false,"line":6,"i_long":106.79689},{"station_id":"THB","distance":3191,"station_name":"Tanah Abang","i_lat":-6.185545,"is_transit":true,"transit":true,"line":1,"i_long":106.811091,"time":6},{"is_transit":false,"i_long":106.800832,"time":8,"line":1,"station_name":"Duri","i_lat":-6.155215,"transit":false,"distance":3632,"station_id":"DU"},{"i_long":106.79867,"time":4,"distance":1230,"line":1,"transit":false,"is_transit":false,"i_lat":-6.144674,"station_id":"AK","station_name":"Angke"},{"distance":4102,"i_long":106.826365,"time":9,"transit":true,"is_transit":true,"station_name":"Kampung Bandan","station_id":"KPB","line":4,"i_lat":-6.132549},{"station_id":"JAKK","distance":1364,"i_long":106.812439,"i_lat":-6.137569,"time":3,"station_name":"Jakarta Kota","is_transit":true,"transit":true,"line":2},{"distance":1264,"station_id":"JAY","is_transit":false,"i_lat":-6.141205,"i_long":106.820901,"line":2,"time":4,"station_name":"Jayakarta","transit":false},{"i_long":106.82482,"is_transit":false,"i_lat":-6.149769,"station_name":"Manggabesar","transit":false,"line":2,"time":2,"distance":1080,"station_id":"MGB"},{"station_id":"SW","distance":906,"i_lat":-6.160725,"time":2,"station_name":"Sawah Besar","i_long":106.827103,"is_transit":false,"transit":false,"line":2},{"is_transit":false,"time":2,"transit":false,"i_long":106.828284,"line":2,"station_name":"Juanda","i_lat":-6.166716,"station_id":"JUA","distance":1149},{"transit":false,"distance":2015,"line":2,"station_id":"GDD","i_lat":-6.186295,"station_name":"Gondangdia","i_long":106.832183,"time":4,"is_transit":false},{"time":3,"line":2,"distance":1750,"station_id":"CKI","i_lat":-6.198556,"i_long":106.840169,"station_name":"Cikini","is_transit":false,"transit":false},{"distance":1590,"time":4,"station_name":"Manggarai","station_id":"MRI","line":2,"i_long":106.84912,"transit":true,"i_lat":-6.209883,"is_transit":true},{"line":1,"i_lat":-6.212485,"i_long":106.858896,"station_id":"MTR","distance":1275,"time":2,"station_name":"Matraman","is_transit":false,"transit":false},{"station_name":"Jatinegara","i_lat":-6.215091,"i_long":106.86807400000001,"transit":true,"is_transit":true,"line":1,"time":8,"distance":1377,"station_id":"JNG"},{"station_id":"POK","station_name":"Pondok Jati","transit":false,"line":11,"distance":1236,"time":2,"i_long":106.861737,"is_transit":false,"i_lat":-6.209188},{"line":11,"i_lat":-6.193792,"station_name":"Kramat","is_transit":false,"transit":false,"distance":1829,"i_long":106.855437,"station_id":"KMT","time":2},{"is_transit":false,"i_long":106.850107,"transit":false,"time":1,"distance":973,"i_lat":-6.185975,"station_id":"GST","line":11,"station_name":"Gang Sentiong"}],[{"line":6,"i_long":106.728916,"station_id":"JMU","distance":0,"transit":false,"i_lat":-6.288927,"station_name":"Jurangmangu","is_transit":false,"time":0},{"i_lat":-6.276362,"distance":2179,"station_id":"PDJ","station_name":"Pondokranji","transit":false,"time":3,"i_long":106.74273,"line":6,"is_transit":false},{"station_id":"KBY","i_lat":-6.237242,"station_name":"Kebayoran","i_long":106.780334,"time":8,"is_transit":false,"transit":false,"distance":6218,"line":6},{"time":7,"distance":3737,"line":6,"i_long":106.79689,"station_id":"PLM","is_transit":false,"i_lat":-6.207404,"transit":false,"station_name":"Palmerah"},{"station_name":"Tanah Abang","is_transit":true,"transit":true,"distance":3191,"i_lat":-6.185545,"time":6,"i_long":106.811091,"station_id":"THB","line":1},{"station_id":"KAT","i_long":106.816351,"line":1,"station_name":"Karet","i_lat":-6.20132,"transit":false,"is_transit":false,"time":5,"distance":2029},{"time":1,"transit":false,"i_long":106.819881,"is_transit":false,"line":1,"i_lat":-6.201433,"station_id":"SUDB","station_name":"Sudirman Baru","distance":471},{"i_lat":-6.202263,"station_name":"Sudirman","transit":false,"time":1,"i_long":106.822649,"distance":280,"line":1,"station_id":"SUD","is_transit":false},{"transit":true,"distance":3186,"i_lat":-6.209883,"time":4,"is_transit":true,"station_id":"MRI","station_name":"Manggarai","i_long":106.84912,"line":2},{"transit":false,"line":2,"i_lat":-6.198556,"time":4,"is_transit":false,"distance":1590,"station_id":"CKI","i_long":106.840169,"station_name":"Cikini"},{"distance":1750,"i_lat":-6.186295,"time":3,"station_name":"Gondangdia","is_transit":false,"line":2,"transit":false,"i_long":106.832183,"station_id":"GDD"},{"line":2,"transit":false,"distance":2015,"time":4,"i_lat":-6.166716,"i_long":106.828284,"station_id":"JUA","is_transit":false,"station_name":"Juanda"},{"station_name":"Sawah Besar","station_id":"SW","time":2,"transit":false,"is_transit":false,"i_long":106.827103,"line":2,"i_lat":-6.160725,"distance":1149},{"i_lat":-6.149769,"line":2,"transit":false,"time":2,"distance":906,"i_long":106.82482,"station_id":"MGB","station_name":"Manggabesar","is_transit":false},{"station_name":"Jayakarta","time":2,"line":2,"is_transit":false,"i_long":106.820901,"distance":1080,"i_lat":-6.141205,"station_id":"JAY","transit":false},{"time":4,"station_id":"JAKK","distance":1264,"i_long":106.812439,"transit":true,"station_name":"Jakarta Kota","i_lat":-6.137569,"is_transit":true,"line":2},{"time":3,"i_lat":-6.132549,"station_id":"KPB","is_transit":true,"i_long":106.826365,"transit":true,"station_name":"Kampung Bandan","distance":1364,"line":4},{"i_lat":-6.14505,"station_id":"RJW","time":3,"i_long":106.836569,"station_name":"Rajawali","line":11,"transit":false,"distance":1444,"is_transit":false},{"distance":1901,"station_id":"KMO","time":5,"i_lat":-6.161728,"station_name":"Kemayoran","transit":false,"line":11,"is_transit":false,"i_long":106.839204},{"station_name":"Pasar Senen","transit":false,"i_long":106.84368,"i_lat":-6.174784,"line":11,"time":4,"distance":1436,"is_transit":false,"station_id":"PSE"},{"is_transit":false,"i_lat":-6.185975,"distance":1567,"transit":false,"time":8,"line":11,"i_long":106.850107,"station_id":"GST","station_name":"Gang Sentiong"}]]}