{"data":[[{"distance":0,"transit":false,"station_name":"Jurangmangu","i_lat":-6.288927,"line":6,"time":0,"station_id":"JMU","is_transit":false,"i_long":106.728916},{"transit":false,"i_lat":-6.276362,"is_transit":false,"station_name":"Pondokranji","time":3,"distance":2179,"station_id":"PDJ","i_long":106.74273,"line":6},{"i_lat":-6.237242,"line":6,"distance":6218,"is_transit":false,"station_id":"KBY","station_name":"Kebayoran","i_long":106.780334,"transit":false,"time":8},{"is_transit":false,"distance":3737,"time":7,"line":6,"i_long":106.79689,"i_lat":-6.207404,"station_id":"PLM","station_name":"Palmerah","transit":false},{"i_lat":-6.185545,"line":1,"transit":true,"distance":3191,"station_name":"Tanah Abang","is_transit":true,"station_id":"THB","i_long":106.811091,"time":6},{"time":8,"distance":3632,"i_lat":-6.155215,"station_id":"DU","i_long":106.800832,"station_name":"Duri","transit":true,"is_transit":true,"line":1},{"station_id":"GGL","i_long":106.788277,"line":5,"is_transit":false,"time":3,"station_name":"Grogol","distance":1700,"transit":false,"i_lat":-6.162021},{"i_long":106.771379,"is_transit":false,"distance":2036,"time":2,"line":5,"station_id":"PSG","transit":false,"station_name":"Pesing","i_lat":-6.161433},{"transit":false,"distance":1614,"station_id":"TKO","i_lat":-6.1587309999999995,"i_long":106.756522,"time":2,"is_transit":false,"line":5,"station_name":"Taman Kota"},{"line":5,"is_transit":false,"transit":false,"i_long":106.737035,"station_name":"Bojongindah","station_id":"BOI","i_lat":-6.159876,"time":2,"distance":2334},{"distance":1152,"is_transit":false,"i_long":106.723064,"i_lat":-6.162758,"time":4,"station_id":"RW","transit":false,"station_name":"Rawa Buaya","line":5},{"is_transit":false,"line":5,"transit":false,"station_id":"KDS","i_long":106.701612,"station_name":"Kalideres","i_lat":-6.166068,"time":3,"distance":2504},{"line":5,"station_name":"Poris","is_transit":false,"station_id":"PI","transit":false,"distance":2548,"i_long":106.679458,"time":3,"i_lat":-6.169933},{"distance":1834,"transit":false,"i_long":106.665036,"i_lat":-6.171811,"is_transit":false,"line":5,"time":3,"station_name":"Batuceper","station_id":"BPR"},{"i_long":106.64657,"time":3,"line":5,"station_id":"TTI","is_transit":false,"station_name":"Tanah Tinggi","i_lat":-6.17331,"transit":false,"distance":2028},{"station_name":"Tangerang","i_long":106.632761,"is_transit":false,"i_lat":-6.176583,"transit":false,"time":3,"line":5,"distance":1547,"station_id":"TNG"}],[{"i_long":106.728916,"station_name":"Jurangmangu","is_transit":false,"station_id":"JMU","line":6,"time":0,"i_lat":-6.288927,"distance":0,"transit":false},{"time":3,"distance":2179,"line":6,"station_name":"Pondokranji","i_long":106.74273,"transit":false,"station_id":"PDJ","is_transit":false,"i_lat":-6.276362},{"time":8,"station_name":"Kebayoran","is_transit":false,"transit":false,"i_long":106.780334,"distance":6218,"station_id":"KBY","i_lat":-6.237242,"line":6},{"time":7,"i_lat":-6.207404,"is_transit":false,"station_id":"PLM","distance":3737,"line":6,"station_name":"Palmerah","transit":false,"i_long":106.79689},{"is_transit":true,"transit":true,"station_id":"THB","i_lat":-6.185545,"line":1,"time":6,"distance":3191,"i_long":106.811091,"station_name":"Tanah Abang"},{"distance":2029,"is_transit":false,"station_id":"KAT","i_lat":-6.20132,"i_long":106.816351,"transit":false,"line":1,"time":5,"station_name":"Karet"},{"station_name":"Sudirman Baru","distance":471,"transit":false,"line":1,"is_transit":false,"i_long":106.819881,"time":1,"i_lat":-6.201433,"station_id":"SUDB"},{"line":1,"station_id":"SUD","station_name":"Sudirman","distance":280,"i_lat":-6.202263,"i_long":106.822649,"transit":false,"is_transit":false,"time":1},{"line":2,"transit":true,"i_long":106.84912,"station_id":"MRI","station_name":"Manggarai","time":4,"is_transit":true,"i_lat":-6.209883,"distance":3186},{"i_long":106.840169,"station_name":"Cikini","is_transit":false,"i_lat":-6.198556,"line":2,"distance":1590,"time":4,"transit":false,"station_id":"CKI"},{"line":2,"station_name":"Gondangdia","is_transit":false,"station_id":"GDD","transit":false,"time":3,"i_lat":-6.186295,"distance":1750,"i_long":106.832183},{"distance":2015,"time":4,"line":2,"transit":false,"station_name":"Juanda","is_transit":false,"i_long":106.828284,"i_lat":-6.166716,"station_id":"JUA"},{"is_transit":false,"transit":false,"distance":1149,"time":2,"station_id":"SW","station_name":"Sawah Besar","i_long":106.827103,"i_lat":-6.160725,"line":2},{"time":2,"station_name":"Manggabesar","line":2,"station_id":"MGB","i_long":106.82482,"distance":906,"i_lat":-6.149769,"transit":false,"is_transit":false},{"i_long":106.820901,"transit":false,"station_id":"JAY","is_transit":false,"distance":1080,"i_lat":-6.141205,"station_name":"Jayakarta","time":2,"line":2},{"time":4,"distance":1264,"station_id":"JAKK","i_long":106.812439,"line":2,"transit":true,"is_transit":true,"station_name":"Jakarta Kota","i_lat":-6.137569},{"station_id":"KPB","transit":true,"i_lat":-6.132549,"distance":1364,"station_name":"Kampung Bandan","i_long":106.826365,"is_transit":true,"line":4,"time":3},{"transit":false,"i_lat":-6.144674,"i_long":106.79867,"distance":4102,"line":1,"station_name":"Angke","time":9,"is_transit":false,"station_id":"AK"},{"i_long":106.800832,"i_lat":-6.155215,"station_name":"Duri","transit":true,"line":1,"time":4,"distance":1230,"station_id":"DU","is_transit":true},{"i_long":106.788277,"time":3,"distance":1700,"is_transit":false,"station_name":"Grogol","station_id":"GGL","transit":false,"i_lat":-6.162021,"line":5},{"i_lat":-6.161433,"line":5,"is_transit":false,"distance":2036,"station_id":"PSG","i_long":106.771379,"station_name":"Pesing","time":2,"transit":false},{"transit":false,"station_id":"TKO","distance":1614,"time":2,"is_transit":false,"station_name":"Taman Kota","line":5,"i_long":106.756522,"i_lat":-6.1587309999999995},{"transit":false,"distance":2334,"station_id":"BOI","i_lat":-6.159876,"time":2,"station_name":"Bojongindah","is_transit":false,"i_long":106.737035,"line":5},{"distance":1152,"station_name":"Rawa Buaya","time":4,"i_long":106.723064,"is_transit":false,"transit":false,"station_id":"RW","line":5,"i_lat":-6.162758},{"station_name":"Kalideres","i_long":106.701612,"time":3,"is_transit":false,"distance":2504,"transit":false,"station_id":"KDS","i_lat":-6.166068,"line":5},{"i_long":106.679458,"station_id":"PI","distance":2548,"is_transit":false,"transit":false,"station_name":"Poris","line":5,"time":3,"i_lat":-6.169933},{"transit":false,"station_id":"BPR","i_lat":-6.171811,"station_name":"Batuceper","distance":1834,"time":3,"is_transit":false,"i_long":106.665036,"line":5},{"line":5,"is_transit":false,"station_name":"Tanah Tinggi","time":3,"transit":false,"i_lat":-6.17331,"i_long":106.64657,"distance":2028,"station_id":"TTI"},{"i_lat":-6.176583,"line":5,"transit":false,"station_name":"Tangerang","is_transit":false,"station_id":"TNG","i_long":106.632761,"time":3,"distance":1547}],[{"transit":false,"is_transit":false,"time":0,"station_name":"Jurangmangu","station_id":"JMU","i_long":106.728916,"i_lat":-6.288927,"line":6,"distance":0},{"station_name":"Pondokranji","is_transit":false,"i_long":106.74273,"transit":false,"line":6,"distance":2179,"time":3,"i_lat":-6.276362,"station_id":"PDJ"},{"transit":false,"station_name":"Kebayoran","i_long":106.780334,"station_id":"KBY","line":6,"i_lat":-6.237242,"time":8,"is_transit":false,"distance":6218},{"distance":3737,"transit":false,"time":7,"station_name":"Palmerah","i_lat":-6.207404,"line":6,"station_id":"PLM","is_transit":false,"i_long":106.79689},{"i_lat":-6.185545,"is_transit":true,"station_name":"Tanah Abang","distance":3191,"time":6,"station_id":"THB","transit":true,"line":1,"i_long":106.811091},{"station_name":"Karet","transit":false,"i_lat":-6.20132,"time":5,"i_long":106.816351,"line":1,"distance":2029,"is_transit":false,"station_id":"KAT"},{"time":1,"is_transit":false,"station_id":"SUDB","line":1,"station_name":"Sudirman Baru","transit":false,"i_long":106.819881,"i_lat":-6.201433,"distance":471},{"i_lat":-6.202263,"time":1,"distance":280,"transit":false,"is_transit":false,"i_long":106.822649,"station_id":"SUD","line":1,"station_name":"Sudirman"},{"i_lat":-6.209883,"station_name":"Manggarai","time":4,"station_id":"MRI","is_transit":false,"line":2,"transit":false,"distance":3186,"i_long":106.84912},{"i_long":106.858896,"line":1,"station_name":"Matraman","time":2,"distance":1275,"is_transit":false,"i_lat":-6.212485,"station_id":"MTR","transit":false},{"transit":true,"time":8,"is_transit":true,"i_lat":-6.215091,"station_name":"Jatinegara","distance":1377,"station_id":"JNG","i_long":106.86807400000001,"line":1},{"station_name":"Pondok Jati","time":2,"line":11,"is_transit":false,"distance":1236,"transit":false,"station_id":"POK","i_lat":-6.209188,"i_long":106.861737},{"is_transit":false,"transit":false,"station_id":"KMT","distance":1829,"i_long":106.855437,"station_name":"Kramat","time":2,"i_lat":-6.193792,"line":11},{"transit":false,"is_transit":false,"i_lat":-6.185975,"distance":973,"station_name":"Gang Sentiong","time":1,"station_id":"GST","i_long":106.850107,"line":11},{"transit":false,"i_lat":-6.174784,"is_transit":false,"i_long":106.84368,"time":8,"line":11,"distance":1567,"station_name":"Pasar Senen","station_id":"PSE"},{"i_long":106.839204,"station_name":"Kemayoran","transit":false,"i_lat":-6.161728,"distance":1436,"time":4,"is_transit":false,"station_id":"KMO","line":11},{"distance":1901,"station_name":"Rajawali","time":5,"transit":false,"is_transit":false,"station_id":"RJW","i_lat":-6.14505,"line":11,"i_long":106.836569},{"is_transit":true,"i_lat":-6.132549,"line":4,"i_long":106.826365,"station_name":"Kampung Bandan","station_id":"KPB","distance":1444,"transit":true,"time":3},{"station_id":"AK","distance":4102,"line":1,"is_transit":false,"transit":false,"station_name":"Angke","time":9,"i_lat":-6.144674,"i_long":106.79867},{"time":4,"transit":true,"station_id":"DU","is_transit":true,"i_lat":-6.155215,"i_long":106.800832,"line":1,"distance":1230,"station_name":"Duri"},{"i_long":106.788277,"transit":false,"time":3,"station_id":"GGL","line":5,"station_name":"Grogol","is_transit":false,"distance":1700,"i_lat":-6.162021},{"transit":false,"station_id":"PSG","distance":2036,"i_lat":-6.161433,"i_long":106.771379,"time":2,"line":5,"station_name":"Pesing","is_transit":false},{"station_name":"Taman Kota","is_transit":false,"transit":false,"distance":1614,"station_id":"TKO","i_lat":-6.1587309999999995,"line":5,"time":2,"i_long":106.756522},{"is_transit":false,"time":2,"i_long":106.737035,"line":5,"distance":2334,"transit":false,"station_name":"Bojongindah","i_lat":-6.159876,"station_id":"BOI"},{"time":4,"i_lat":-6.162758,"i_long":106.723064,"line":5,"transit":false,"station_id":"RW","is_transit":false,"station_name":"Rawa Buaya","distance":1152},{"transit":false,"is_transit":false,"station_name":"Kalideres","station_id":"KDS","distance":2504,"time":3,"i_lat":-6.166068,"i_long":106.701612,"line":5},{"is_transit":false,"transit":false,"line":5,"time":3,"station_id":"PI","distance":2548,"i_lat":-6.169933,"station_name":"Poris","i_long":106.679458},{"time":3,"distance":1834,"is_transit":false,"i_long":106.665036,"transit":false,"line":5,"station_name":"Batuceper","station_id":"BPR","i_lat":-6.171811},{"line":5,"transit":false,"is_transit":false,"time":3,"station_id":"TTI","distance":2028,"i_lat":-6.17331,"i_long":106.64657,"station_name":"Tanah Tinggi"},{"line":5,"distance":1547,"i_long":106.632761,"time":3,"station_name":"Tangerang","is_transit":false,"transit":false,"station_id":"TNG","i_lat":-6.176583}]]}