{"data":[[{"is_transit":false,"time":0,"transit":false,"station_name":"Jurangmangu","i_lat":-6.288927,"line":6,"i_long":106.728916,"distance":0,"station_id":"JMU"},{"transit":false,"station_name":"Sudimara","line":6,"time":4,"i_long":106.712277,"i_lat":-6.296963,"is_transit":false,"station_id":"SDM","distance":1994},{"distance":4566,"time":6,"transit":false,"i_lat":-6.314823,"i_long":106.675475,"is_transit":false,"station_id":"RU","line":6,"station_name":"Rawa Buntu"},{"is_transit":false,"time":4,"i_long":106.66566,"station_id":"SRP","transit":false,"station_name":"Serpong","line":6,"i_lat":-6.319871,"distance":2413},{"distance":1784,"is_transit":false,"transit":false,"i_lat":-6.32484,"station_id":"CSK","i_long":106.640411,"time":4,"station_name":"Cisauk","line":3},{"i_lat":-6.329547,"distance":2519,"is_transit":false,"i_long":106.617853,"station_id":"CC","station_name":"Cicayur","time":4,"transit":false,"line":3},{"station_name":"Parung Panjang","is_transit":false,"distance":5968,"station_id":"PRP","i_lat":-6.3441410000000005,"transit":false,"i_long":106.568863,"time":8,"line":6},{"is_transit":false,"i_long":106.508482,"line":3,"distance":7025,"transit":false,"station_name":"Cilejit","station_id":"CJT","time":9,"i_lat":-6.354349},{"i_lat":-6.338021,"transit":false,"line":0,"distance":2675,"is_transit":false,"station_id":"DAR","station_name":"Daru","i_long":106.491338,"time":6},{"time":5,"transit":false,"i_lat":-6.327251,"line":6,"station_name":"Tenjo","is_transit":false,"station_id":"TEJ","i_long":106.460812,"distance":3902},{"i_long":106.425991,"distance":2974,"time":5,"station_id":"TGS","transit":false,"is_transit":false,"i_lat":-6.328533,"line":6,"station_name":"Tigaraksa"},{"time":3,"i_long":106.411216,"is_transit":false,"station_id":"CKY","transit":false,"station_name":"Cikoya","i_lat":-6.33561,"line":3,"distance":2651},{"transit":false,"station_id":"MJ","distance":1853,"station_name":"Maja","time":4,"i_lat":-6.332307,"i_long":106.394373,"is_transit":false,"line":6},{"station_name":"Citeras","distance":7293,"time":10,"line":3,"i_lat":-6.334892,"station_id":"CTR","i_long":106.332092,"is_transit":false,"transit":false},{"i_lat":-6.352675,"is_transit":false,"transit":false,"distance":9847,"station_name":"Rangkasbitung","i_long":106.250396,"time":13,"line":3,"station_id":"RK"}]]}