{"data":[[{"i_lat":-6.288927,"time":0,"station_name":"Jurangmangu","transit":false,"line":6,"i_long":106.728916,"distance":0,"is_transit":false,"station_id":"JMU"},{"transit":false,"station_id":"PDJ","time":3,"i_long":106.74273,"distance":2179,"line":6,"is_transit":false,"i_lat":-6.276362,"station_name":"Pondokranji"},{"i_lat":-6.237242,"is_transit":false,"line":6,"station_id":"KBY","time":8,"i_long":106.780334,"transit":false,"station_name":"Kebayoran","distance":6218},{"time":7,"distance":3737,"is_transit":false,"station_id":"PLM","i_lat":-6.207404,"line":6,"transit":false,"i_long":106.79689,"station_name":"Palmerah"},{"is_transit":false,"transit":false,"i_long":106.811091,"distance":3191,"station_id":"THB","i_lat":-6.185545,"station_name":"Tanah Abang","time":6,"line":1}]]}