{"data":[[{"distance":0,"station_id":"JMU","transit":false,"i_lat":-6.288927,"line":6,"is_transit":false,"station_name":"Jurangmangu","time":0,"i_long":106.728916},{"station_id":"SDM","transit":false,"station_name":"Sudimara","i_lat":-6.296963,"line":6,"is_transit":false,"distance":1994,"i_long":106.712277,"time":4},{"i_long":106.675475,"station_name":"Rawa Buntu","station_id":"RU","i_lat":-6.314823,"is_transit":false,"distance":4566,"line":6,"time":6,"transit":false},{"i_lat":-6.319871,"i_long":106.66566,"station_id":"SRP","distance":2413,"line":6,"station_name":"Serpong","time":4,"is_transit":false,"transit":false},{"line":0,"i_long":106.640411,"station_id":"CSK","transit":false,"distance":1784,"station_name":"Cisauk","is_transit":false,"time":4,"i_lat":-6.32484},{"line":0,"is_transit":false,"station_id":"CC","station_name":"Cicayur","transit":false,"i_lat":-6.329547,"i_long":106.617853,"time":4,"distance":2519},{"station_name":"Parung Panjang","is_transit":false,"time":8,"i_lat":-6.3441410000000005,"distance":5968,"transit":false,"station_id":"PRP","i_long":106.568863,"line":6},{"is_transit":false,"transit":false,"time":9,"station_name":"Cilejit","distance":7025,"i_long":106.508482,"i_lat":-6.354349,"line":0,"station_id":"CJT"},{"time":6,"station_id":"DAR","transit":false,"station_name":"Daru","i_long":106.491338,"i_lat":-6.338021,"is_transit":false,"line":0,"distance":2675},{"i_lat":-6.327251,"line":6,"is_transit":false,"transit":false,"station_id":"TEJ","time":5,"distance":3902,"i_long":106.460812,"station_name":"Tenjo"},{"i_lat":-6.328533,"station_id":"TGS","transit":false,"distance":2974,"station_name":"Tigaraksa","i_long":106.425991,"is_transit":false,"time":5,"line":6},{"station_id":"CKY","is_transit":false,"distance":2651,"transit":false,"i_lat":-6.33561,"station_name":"Cikoya","i_long":106.411216,"line":0,"time":3}]]}