{"data":[[{"station_id":"JMU","station_name":"Jurangmangu","transit":false,"line":6,"time":0,"distance":0,"i_lat":-6.288927,"i_long":106.728916,"is_transit":false},{"is_transit":false,"time":3,"i_long":106.74273,"line":6,"distance":2179,"i_lat":-6.276362,"transit":false,"station_id":"PDJ","station_name":"Pondokranji"},{"is_transit":false,"i_lat":-6.237242,"line":6,"distance":6218,"time":8,"station_name":"Kebayoran","i_long":106.780334,"station_id":"KBY","transit":false},{"i_long":106.79689,"station_name":"Palmerah","distance":3737,"is_transit":false,"line":6,"transit":false,"time":7,"station_id":"PLM","i_lat":-6.207404},{"is_transit":false,"i_long":106.811091,"station_id":"THB","time":6,"i_lat":-6.185545,"transit":false,"line":1,"distance":3191,"station_name":"Tanah Abang"}]]}