{"data":[[{"line":6,"station_id":"JMU","station_name":"Jurangmangu","transit":false,"distance":0,"i_lat":-6.288927,"is_transit":false,"i_long":106.728916,"time":0},{"distance":2179,"i_lat":-6.276362,"line":6,"transit":false,"is_transit":false,"time":3,"station_name":"Pondokranji","i_long":106.74273,"station_id":"PDJ"},{"time":8,"station_id":"KBY","i_long":106.780334,"station_name":"Kebayoran","is_transit":false,"distance":6218,"i_lat":-6.237242,"line":6,"transit":false},{"station_id":"PLM","line":6,"distance":3737,"transit":false,"i_long":106.79689,"station_name":"Palmerah","is_transit":false,"time":7,"i_lat":-6.207404},{"station_id":"THB","station_name":"Tanah Abang","i_long":106.811091,"line":1,"is_transit":true,"time":6,"distance":3191,"transit":true,"i_lat":-6.185545},{"station_id":"DU","distance":3632,"i_lat":-6.155215,"transit":true,"is_transit":true,"time":8,"line":1,"i_long":106.800832,"station_name":"Duri"},{"is_transit":false,"i_long":106.788277,"station_name":"Grogol","transit":false,"station_id":"GGL","time":3,"distance":1700,"i_lat":-6.162021,"line":5},{"distance":2036,"time":2,"transit":false,"station_id":"PSG","station_name":"Pesing","i_long":106.771379,"line":5,"i_lat":-6.161433,"is_transit":false},{"station_id":"TKO","station_name":"Taman Kota","i_lat":-6.1587309999999995,"line":5,"time":2,"i_long":106.756522,"is_transit":false,"transit":false,"distance":1614},{"time":2,"i_lat":-6.159876,"station_name":"Bojongindah","distance":2334,"line":0,"transit":false,"i_long":106.737035,"is_transit":false,"station_id":"BOI"}],[{"line":6,"transit":false,"distance":0,"i_lat":-6.288927,"station_id":"JMU","is_transit":false,"station_name":"Jurangmangu","i_long":106.728916,"time":0},{"is_transit":false,"i_lat":-6.276362,"distance":2179,"station_id":"PDJ","transit":false,"i_long":106.74273,"station_name":"Pondokranji","line":6,"time":3},{"station_name":"Kebayoran","transit":false,"line":6,"is_transit":false,"i_long":106.780334,"i_lat":-6.237242,"station_id":"KBY","time":8,"distance":6218},{"is_transit":false,"distance":3737,"transit":false,"i_long":106.79689,"time":7,"line":6,"station_id":"PLM","station_name":"Palmerah","i_lat":-6.207404},{"line":1,"distance":3191,"i_long":106.811091,"time":6,"transit":true,"i_lat":-6.185545,"station_id":"THB","station_name":"Tanah Abang","is_transit":true},{"i_lat":-6.20132,"is_transit":false,"line":1,"time":5,"transit":false,"i_long":106.816351,"station_id":"KAT","station_name":"Karet","distance":2029},{"i_lat":-6.201433,"time":1,"station_id":"SUDB","distance":471,"line":1,"station_name":"Sudirman Baru","is_transit":false,"i_long":106.819881,"transit":false},{"is_transit":false,"transit":false,"time":1,"station_id":"SUD","distance":280,"i_lat":-6.202263,"line":1,"i_long":106.822649,"station_name":"Sudirman"},{"station_id":"MRI","line":0,"station_name":"Manggarai","distance":3186,"transit":true,"i_long":106.84912,"time":4,"is_transit":true,"i_lat":-6.209883},{"i_long":106.840169,"is_transit":false,"time":4,"line":0,"distance":1590,"station_id":"CKI","station_name":"Cikini","transit":false,"i_lat":-6.198556},{"distance":1750,"is_transit":false,"line":2,"station_id":"GDD","time":3,"transit":false,"station_name":"Gondangdia","i_lat":-6.186295,"i_long":106.832183},{"i_lat":-6.166716,"station_id":"JUA","is_transit":false,"time":4,"i_long":106.828284,"distance":2015,"line":2,"transit":false,"station_name":"Juanda"},{"time":2,"is_transit":false,"distance":1149,"i_lat":-6.160725,"station_id":"SW","line":2,"transit":false,"i_long":106.827103,"station_name":"Sawah Besar"},{"transit":false,"station_name":"Manggabesar","station_id":"MGB","is_transit":false,"distance":906,"i_lat":-6.149769,"i_long":106.82482,"line":2,"time":2},{"station_id":"JAY","distance":1080,"transit":false,"is_transit":false,"station_name":"Jayakarta","line":7,"time":2,"i_lat":-6.141205,"i_long":106.820901},{"station_id":"JAKK","i_long":106.812439,"distance":1264,"time":4,"transit":true,"station_name":"Jakarta Kota","line":0,"is_transit":true,"i_lat":-6.137569},{"is_transit":true,"time":3,"station_id":"KPB","transit":false,"i_lat":-6.132549,"i_long":106.826365,"line":0,"station_name":"Kampung Bandan","distance":1364},{"is_transit":false,"distance":4102,"line":0,"i_lat":-6.144674,"station_name":"Angke","time":9,"i_long":106.79867,"station_id":"AK","transit":false},{"station_name":"Duri","transit":true,"is_transit":true,"i_long":106.800832,"station_id":"DU","i_lat":-6.155215,"distance":1230,"line":1,"time":4},{"i_lat":-6.162021,"distance":1700,"station_name":"Grogol","i_long":106.788277,"line":5,"time":3,"is_transit":false,"station_id":"GGL","transit":false},{"time":2,"station_id":"PSG","transit":false,"i_long":106.771379,"is_transit":false,"line":5,"distance":2036,"i_lat":-6.161433,"station_name":"Pesing"},{"is_transit":false,"line":5,"transit":false,"station_name":"Taman Kota","time":2,"distance":1614,"i_lat":-6.1587309999999995,"i_long":106.756522,"station_id":"TKO"},{"distance":2334,"i_lat":-6.159876,"station_id":"BOI","i_long":106.737035,"time":2,"station_name":"Bojongindah","line":0,"transit":false,"is_transit":false}],[{"station_name":"Jurangmangu","i_lat":-6.288927,"is_transit":false,"line":6,"time":0,"distance":0,"transit":false,"i_long":106.728916,"station_id":"JMU"},{"i_long":106.74273,"is_transit":false,"distance":2179,"line":6,"station_id":"PDJ","transit":false,"time":3,"i_lat":-6.276362,"station_name":"Pondokranji"},{"time":8,"i_lat":-6.237242,"line":6,"i_long":106.780334,"station_name":"Kebayoran","station_id":"KBY","transit":false,"is_transit":false,"distance":6218},{"station_id":"PLM","distance":3737,"i_long":106.79689,"line":6,"station_name":"Palmerah","transit":false,"time":7,"is_transit":false,"i_lat":-6.207404},{"station_name":"Tanah Abang","time":6,"distance":3191,"i_lat":-6.185545,"line":1,"i_long":106.811091,"is_transit":true,"transit":true,"station_id":"THB"},{"station_id":"KAT","distance":2029,"is_transit":false,"station_name":"Karet","time":5,"i_lat":-6.20132,"transit":false,"i_long":106.816351,"line":1},{"station_name":"Sudirman Baru","time":1,"distance":471,"transit":false,"i_long":106.819881,"station_id":"SUDB","i_lat":-6.201433,"line":1,"is_transit":false},{"is_transit":false,"time":1,"station_id":"SUD","line":1,"station_name":"Sudirman","distance":280,"i_lat":-6.202263,"i_long":106.822649,"transit":false},{"line":0,"station_id":"MRI","station_name":"Manggarai","i_lat":-6.209883,"i_long":106.84912,"is_transit":true,"time":4,"transit":false,"distance":3186},{"is_transit":false,"time":2,"i_lat":-6.212485,"line":1,"station_name":"Matraman","i_long":106.858896,"transit":false,"distance":1275,"station_id":"MTR"},{"transit":true,"i_lat":-6.215091,"time":8,"i_long":106.86807400000001,"line":0,"station_id":"JNG","distance":1377,"station_name":"Jatinegara","is_transit":true},{"distance":1236,"station_name":"Pondok Jati","station_id":"POK","is_transit":false,"time":2,"i_lat":-6.209188,"line":11,"transit":false,"i_long":106.861737},{"i_lat":-6.193792,"i_long":106.855437,"time":2,"is_transit":false,"distance":1829,"station_name":"Kramat","station_id":"KMT","transit":false,"line":11},{"i_long":106.850107,"station_id":"GST","station_name":"Gang Sentiong","transit":false,"distance":973,"line":11,"is_transit":false,"i_lat":-6.185975,"time":1},{"station_id":"PSE","is_transit":false,"station_name":"Pasar Senen","time":8,"transit":false,"i_long":106.84368,"distance":1567,"line":11,"i_lat":-6.174784},{"distance":1436,"station_name":"Kemayoran","transit":false,"i_long":106.839204,"is_transit":false,"time":4,"station_id":"KMO","line":11,"i_lat":-6.161728},{"i_lat":-6.14505,"distance":1901,"transit":false,"i_long":106.836569,"station_id":"RJW","station_name":"Rajawali","time":5,"is_transit":false,"line":11},{"is_transit":true,"i_long":106.826365,"transit":true,"time":3,"station_name":"Kampung Bandan","i_lat":-6.132549,"station_id":"KPB","distance":1444,"line":0},{"distance":4102,"station_name":"Angke","transit":false,"station_id":"AK","is_transit":false,"i_lat":-6.144674,"line":0,"i_long":106.79867,"time":9},{"station_id":"DU","station_name":"Duri","i_long":106.800832,"is_transit":true,"i_lat":-6.155215,"time":4,"distance":1230,"transit":true,"line":1},{"time":3,"i_long":106.788277,"station_name":"Grogol","transit":false,"i_lat":-6.162021,"is_transit":false,"station_id":"GGL","line":5,"distance":1700},{"station_name":"Pesing","is_transit":false,"i_long":106.771379,"transit":false,"station_id":"PSG","time":2,"distance":2036,"i_lat":-6.161433,"line":5},{"station_name":"Taman Kota","is_transit":false,"distance":1614,"station_id":"TKO","time":2,"transit":false,"i_lat":-6.1587309999999995,"line":5,"i_long":106.756522},{"station_name":"Bojongindah","time":2,"line":0,"i_long":106.737035,"distance":2334,"transit":false,"station_id":"BOI","i_lat":-6.159876,"is_transit":false}]]}