{"data":[[{"station_name":"Jurangmangu","station_id":"JMU","i_lat":-6.288927,"is_transit":false,"transit":false,"i_long":106.728916,"time":0,"distance":0,"line":6},{"i_lat":-6.276362,"station_name":"Pondokranji","is_transit":false,"line":6,"station_id":"PDJ","transit":false,"distance":2179,"time":3,"i_long":106.74273},{"i_long":106.780334,"is_transit":false,"time":8,"station_name":"Kebayoran","transit":false,"station_id":"KBY","i_lat":-6.237242,"distance":6218,"line":6},{"i_lat":-6.207404,"i_long":106.79689,"transit":false,"distance":3737,"station_name":"Palmerah","station_id":"PLM","is_transit":false,"line":6,"time":7},{"time":6,"station_id":"THB","i_long":106.811091,"station_name":"Tanah Abang","line":1,"is_transit":true,"transit":true,"i_lat":-6.185545,"distance":3191},{"time":5,"station_name":"Karet","is_transit":false,"i_long":106.816351,"i_lat":-6.20132,"station_id":"KAT","transit":false,"distance":2029,"line":1},{"transit":false,"station_id":"SUDB","is_transit":false,"time":1,"station_name":"Sudirman Baru","i_lat":-6.201433,"line":1,"distance":471,"i_long":106.819881},{"line":1,"distance":280,"is_transit":false,"i_lat":-6.202263,"transit":false,"station_name":"Sudirman","time":1,"station_id":"SUD","i_long":106.822649},{"station_name":"Manggarai","is_transit":false,"line":2,"time":4,"distance":3186,"i_lat":-6.209883,"transit":false,"station_id":"MRI","i_long":106.84912},{"i_long":106.858896,"station_name":"Matraman","station_id":"MTR","i_lat":-6.212485,"transit":false,"line":1,"time":2,"is_transit":false,"distance":1275},{"is_transit":false,"i_long":106.86807400000001,"time":8,"i_lat":-6.215091,"station_name":"Jatinegara","distance":1377,"line":1,"station_id":"JNG","transit":false},{"i_long":106.899548,"station_name":"Klender","time":3,"distance":3395,"transit":false,"line":1,"station_id":"KLD","i_lat":-6.2135,"is_transit":false},{"station_name":"Buaran","time":2,"i_long":106.922662,"is_transit":false,"transit":false,"distance":3100,"line":1,"station_id":"BUA","i_lat":-6.215568},{"i_long":106.939679,"transit":false,"time":1,"i_lat":-6.217455,"station_name":"Klenderbaru","station_id":"KLDB","distance":1305,"is_transit":false,"line":1},{"i_lat":-6.219053,"i_long":106.951283,"line":1,"time":8,"station_id":"CUK","is_transit":false,"distance":1385,"station_name":"Cakung","transit":false}],[{"i_lat":-6.288927,"i_long":106.728916,"time":0,"distance":0,"is_transit":false,"line":6,"station_id":"JMU","station_name":"Jurangmangu","transit":false},{"time":3,"transit":false,"station_id":"PDJ","is_transit":false,"i_lat":-6.276362,"station_name":"Pondokranji","line":6,"distance":2179,"i_long":106.74273},{"time":8,"i_lat":-6.237242,"line":6,"distance":6218,"is_transit":false,"i_long":106.780334,"station_id":"KBY","transit":false,"station_name":"Kebayoran"},{"i_long":106.79689,"transit":false,"distance":3737,"i_lat":-6.207404,"time":7,"line":6,"is_transit":false,"station_id":"PLM","station_name":"Palmerah"},{"is_transit":true,"transit":true,"station_name":"Tanah Abang","distance":3191,"station_id":"THB","i_lat":-6.185545,"time":6,"line":1,"i_long":106.811091},{"i_long":106.800832,"line":1,"time":8,"distance":3632,"is_transit":false,"station_name":"Duri","transit":false,"i_lat":-6.155215,"station_id":"DU"},{"time":4,"i_lat":-6.144674,"line":1,"transit":false,"distance":1230,"station_id":"AK","station_name":"Angke","i_long":106.79867,"is_transit":false},{"is_transit":true,"line":4,"station_id":"KPB","distance":4102,"transit":true,"station_name":"Kampung Bandan","time":9,"i_lat":-6.132549,"i_long":106.826365},{"distance":1444,"i_lat":-6.14505,"station_id":"RJW","i_long":106.836569,"is_transit":false,"time":3,"station_name":"Rajawali","transit":false,"line":11},{"station_name":"Kemayoran","distance":1901,"is_transit":false,"i_long":106.839204,"i_lat":-6.161728,"transit":false,"time":5,"line":11,"station_id":"KMO"},{"station_name":"Pasar Senen","i_lat":-6.174784,"i_long":106.84368,"station_id":"PSE","transit":false,"distance":1436,"time":4,"line":11,"is_transit":false},{"time":8,"station_id":"GST","station_name":"Gang Sentiong","i_lat":-6.185975,"i_long":106.850107,"transit":false,"is_transit":false,"line":11,"distance":1567},{"transit":false,"station_id":"KMT","is_transit":false,"time":1,"station_name":"Kramat","distance":973,"i_lat":-6.193792,"i_long":106.855437,"line":11},{"i_lat":-6.209188,"station_id":"POK","i_long":106.861737,"is_transit":false,"transit":false,"time":2,"distance":1829,"station_name":"Pondok Jati","line":11},{"distance":1236,"line":1,"station_name":"Jatinegara","is_transit":true,"station_id":"JNG","transit":true,"time":9,"i_lat":-6.215091,"i_long":106.86807400000001},{"line":1,"i_long":106.899548,"station_id":"KLD","is_transit":false,"station_name":"Klender","transit":false,"i_lat":-6.2135,"time":3,"distance":3395},{"is_transit":false,"time":2,"station_id":"BUA","transit":false,"distance":3100,"station_name":"Buaran","i_lat":-6.215568,"line":1,"i_long":106.922662},{"is_transit":false,"station_name":"Klenderbaru","time":1,"transit":false,"station_id":"KLDB","i_lat":-6.217455,"i_long":106.939679,"line":1,"distance":1305},{"is_transit":false,"time":8,"distance":1385,"i_lat":-6.219053,"station_name":"Cakung","line":1,"transit":false,"i_long":106.951283,"station_id":"CUK"}],[{"station_name":"Jurangmangu","transit":false,"i_long":106.728916,"i_lat":-6.288927,"is_transit":false,"station_id":"JMU","time":0,"distance":0,"line":6},{"is_transit":false,"station_name":"Pondokranji","distance":2179,"line":6,"i_long":106.74273,"station_id":"PDJ","i_lat":-6.276362,"time":3,"transit":false},{"station_name":"Kebayoran","time":8,"i_lat":-6.237242,"station_id":"KBY","i_long":106.780334,"line":6,"is_transit":false,"distance":6218,"transit":false},{"distance":3737,"station_id":"PLM","i_lat":-6.207404,"station_name":"Palmerah","i_long":106.79689,"transit":false,"time":7,"line":6,"is_transit":false},{"i_long":106.811091,"station_id":"THB","transit":true,"station_name":"Tanah Abang","time":6,"distance":3191,"line":1,"is_transit":true,"i_lat":-6.185545},{"time":8,"transit":false,"distance":3632,"station_id":"DU","is_transit":false,"station_name":"Duri","line":1,"i_long":106.800832,"i_lat":-6.155215},{"distance":1230,"transit":false,"station_name":"Angke","time":4,"i_long":106.79867,"station_id":"AK","is_transit":false,"i_lat":-6.144674,"line":1},{"distance":4102,"is_transit":true,"transit":true,"time":9,"i_long":106.826365,"station_id":"KPB","station_name":"Kampung Bandan","i_lat":-6.132549,"line":4},{"i_long":106.812439,"line":2,"station_name":"Jakarta Kota","transit":true,"station_id":"JAKK","time":3,"is_transit":true,"i_lat":-6.137569,"distance":1364},{"i_lat":-6.141205,"line":2,"station_id":"JAY","is_transit":false,"distance":1264,"transit":false,"station_name":"Jayakarta","time":4,"i_long":106.820901},{"line":2,"station_id":"MGB","distance":1080,"station_name":"Manggabesar","i_long":106.82482,"transit":false,"time":2,"i_lat":-6.149769,"is_transit":false},{"transit":false,"distance":906,"time":2,"station_id":"SW","line":2,"is_transit":false,"i_lat":-6.160725,"station_name":"Sawah Besar","i_long":106.827103},{"i_lat":-6.166716,"station_id":"JUA","line":2,"distance":1149,"transit":false,"station_name":"Juanda","is_transit":false,"i_long":106.828284,"time":2},{"distance":2015,"is_transit":false,"station_id":"GDD","line":2,"time":4,"station_name":"Gondangdia","i_long":106.832183,"i_lat":-6.186295,"transit":false},{"station_name":"Cikini","distance":1750,"transit":false,"i_lat":-6.198556,"line":2,"i_long":106.840169,"time":3,"station_id":"CKI","is_transit":false},{"is_transit":true,"time":4,"distance":1590,"line":2,"transit":true,"station_name":"Manggarai","station_id":"MRI","i_long":106.84912,"i_lat":-6.209883},{"distance":1275,"station_name":"Matraman","transit":false,"station_id":"MTR","time":2,"i_lat":-6.212485,"i_long":106.858896,"line":1,"is_transit":false},{"i_lat":-6.215091,"station_name":"Jatinegara","time":8,"transit":false,"i_long":106.86807400000001,"station_id":"JNG","distance":1377,"is_transit":false,"line":1},{"station_id":"KLD","station_name":"Klender","distance":3395,"transit":false,"is_transit":false,"i_lat":-6.2135,"time":3,"line":1,"i_long":106.899548},{"station_id":"BUA","i_lat":-6.215568,"distance":3100,"i_long":106.922662,"transit":false,"is_transit":false,"station_name":"Buaran","time":2,"line":1},{"station_name":"Klenderbaru","transit":false,"i_long":106.939679,"distance":1305,"time":1,"station_id":"KLDB","i_lat":-6.217455,"is_transit":false,"line":1},{"station_name":"Cakung","line":1,"distance":1385,"transit":false,"station_id":"CUK","i_lat":-6.219053,"time":8,"is_transit":false,"i_long":106.951283}],[{"line":6,"i_long":106.728916,"transit":false,"station_id":"JMU","station_name":"Jurangmangu","time":0,"distance":0,"is_transit":false,"i_lat":-6.288927},{"transit":false,"distance":2179,"i_lat":-6.276362,"line":6,"i_long":106.74273,"station_id":"PDJ","station_name":"Pondokranji","is_transit":false,"time":3},{"transit":false,"distance":6218,"i_long":106.780334,"station_id":"KBY","station_name":"Kebayoran","line":6,"time":8,"i_lat":-6.237242,"is_transit":false},{"is_transit":false,"station_name":"Palmerah","time":7,"distance":3737,"line":6,"i_long":106.79689,"i_lat":-6.207404,"transit":false,"station_id":"PLM"},{"distance":3191,"i_lat":-6.185545,"line":1,"time":6,"transit":true,"i_long":106.811091,"station_name":"Tanah Abang","station_id":"THB","is_transit":true},{"line":1,"distance":2029,"station_name":"Karet","i_lat":-6.20132,"is_transit":false,"transit":false,"station_id":"KAT","time":5,"i_long":106.816351},{"station_id":"SUDB","distance":471,"time":1,"transit":false,"i_long":106.819881,"line":1,"station_name":"Sudirman Baru","i_lat":-6.201433,"is_transit":false},{"station_id":"SUD","station_name":"Sudirman","is_transit":false,"distance":280,"i_lat":-6.202263,"i_long":106.822649,"transit":false,"time":1,"line":1},{"i_lat":-6.209883,"is_transit":true,"distance":3186,"i_long":106.84912,"station_name":"Manggarai","time":4,"station_id":"MRI","line":2,"transit":true},{"i_lat":-6.198556,"time":4,"is_transit":false,"transit":false,"i_long":106.840169,"distance":1590,"station_id":"CKI","station_name":"Cikini","line":2},{"is_transit":false,"line":2,"distance":1750,"station_id":"GDD","i_long":106.832183,"station_name":"Gondangdia","transit":false,"i_lat":-6.186295,"time":3},{"i_lat":-6.166716,"is_transit":false,"time":4,"station_id":"JUA","station_name":"Juanda","transit":false,"distance":2015,"line":2,"i_long":106.828284},{"is_transit":false,"line":2,"i_lat":-6.160725,"transit":false,"station_id":"SW","i_long":106.827103,"time":2,"distance":1149,"station_name":"Sawah Besar"},{"distance":906,"time":2,"station_id":"MGB","is_transit":false,"transit":false,"i_long":106.82482,"station_name":"Manggabesar","line":2,"i_lat":-6.149769},{"is_transit":false,"distance":1080,"line":2,"transit":false,"i_lat":-6.141205,"time":2,"i_long":106.820901,"station_id":"JAY","station_name":"Jayakarta"},{"transit":true,"station_name":"Jakarta Kota","distance":1264,"station_id":"JAKK","is_transit":true,"time":4,"i_long":106.812439,"line":2,"i_lat":-6.137569},{"transit":true,"is_transit":true,"i_long":106.826365,"station_id":"KPB","station_name":"Kampung Bandan","distance":1364,"time":3,"i_lat":-6.132549,"line":4},{"distance":1444,"station_name":"Rajawali","i_lat":-6.14505,"time":3,"transit":false,"station_id":"RJW","is_transit":false,"i_long":106.836569,"line":11},{"station_id":"KMO","line":11,"i_long":106.839204,"i_lat":-6.161728,"time":5,"is_transit":false,"transit":false,"station_name":"Kemayoran","distance":1901},{"i_long":106.84368,"station_name":"Pasar Senen","is_transit":false,"i_lat":-6.174784,"time":4,"line":11,"station_id":"PSE","transit":false,"distance":1436},{"transit":false,"i_long":106.850107,"station_id":"GST","i_lat":-6.185975,"line":11,"station_name":"Gang Sentiong","distance":1567,"is_transit":false,"time":8},{"station_id":"KMT","i_lat":-6.193792,"distance":973,"is_transit":false,"time":1,"line":11,"transit":false,"station_name":"Kramat","i_long":106.855437},{"is_transit":false,"i_long":106.861737,"time":2,"station_id":"POK","line":11,"station_name":"Pondok Jati","transit":false,"i_lat":-6.209188,"distance":1829},{"station_name":"Jatinegara","transit":true,"time":9,"i_long":106.86807400000001,"station_id":"JNG","line":1,"distance":1236,"is_transit":true,"i_lat":-6.215091},{"line":1,"i_lat":-6.2135,"station_name":"Klender","is_transit":false,"distance":3395,"station_id":"KLD","time":3,"i_long":106.899548,"transit":false},{"i_lat":-6.215568,"distance":3100,"line":1,"is_transit":false,"station_id":"BUA","i_long":106.922662,"time":2,"transit":false,"station_name":"Buaran"},{"station_name":"Klenderbaru","distance":1305,"time":1,"i_long":106.939679,"i_lat":-6.217455,"station_id":"KLDB","transit":false,"line":1,"is_transit":false},{"i_long":106.951283,"line":1,"transit":false,"time":8,"is_transit":false,"distance":1385,"station_id":"CUK","station_name":"Cakung","i_lat":-6.219053}]]}