{"data":[[{"time":0,"is_transit":false,"station_id":"JMU","line":6,"distance":0,"transit":false,"i_lat":-6.288927,"station_name":"Jurangmangu","i_long":106.728916},{"transit":false,"i_lat":-6.276362,"time":3,"station_name":"Pondokranji","is_transit":false,"distance":2179,"station_id":"PDJ","i_long":106.74273,"line":6},{"is_transit":false,"distance":6218,"line":6,"station_id":"KBY","station_name":"Kebayoran","transit":false,"time":8,"i_lat":-6.237242,"i_long":106.780334},{"transit":false,"station_name":"Palmerah","station_id":"PLM","distance":3737,"i_long":106.79689,"is_transit":false,"time":7,"i_lat":-6.207404,"line":6},{"transit":true,"i_lat":-6.185545,"i_long":106.811091,"station_id":"THB","time":6,"line":1,"station_name":"Tanah Abang","is_transit":true,"distance":3191},{"station_id":"KAT","station_name":"Karet","time":5,"i_lat":-6.20132,"distance":2029,"i_long":106.816351,"line":1,"is_transit":false,"transit":false},{"station_id":"SUDB","i_long":106.819881,"distance":471,"i_lat":-6.201433,"transit":false,"is_transit":false,"time":1,"line":1,"station_name":"Sudirman Baru"},{"station_name":"Sudirman","time":1,"i_long":106.822649,"transit":false,"line":1,"station_id":"SUD","is_transit":false,"distance":280,"i_lat":-6.202263},{"station_name":"Manggarai","distance":3186,"i_lat":-6.209883,"is_transit":true,"transit":true,"i_long":106.84912,"line":2,"time":4,"station_id":"MRI"},{"i_lat":-6.226659,"station_name":"Tebet","is_transit":false,"transit":false,"line":2,"time":4,"i_long":106.857948,"station_id":"TEB","distance":2610},{"time":2,"line":2,"transit":false,"station_id":"CW","i_lat":-6.242512,"is_transit":false,"station_name":"Cawang","i_long":106.856607,"distance":1230}],[{"station_name":"Jurangmangu","distance":0,"station_id":"JMU","line":6,"is_transit":false,"time":0,"transit":false,"i_lat":-6.288927,"i_long":106.728916},{"i_lat":-6.276362,"is_transit":false,"line":6,"time":3,"station_name":"Pondokranji","i_long":106.74273,"transit":false,"distance":2179,"station_id":"PDJ"},{"is_transit":false,"transit":false,"station_id":"KBY","time":8,"line":6,"distance":6218,"i_lat":-6.237242,"station_name":"Kebayoran","i_long":106.780334},{"i_long":106.79689,"distance":3737,"i_lat":-6.207404,"transit":false,"line":6,"is_transit":false,"station_id":"PLM","station_name":"Palmerah","time":7},{"distance":3191,"time":6,"transit":true,"i_lat":-6.185545,"station_id":"THB","line":1,"i_long":106.811091,"is_transit":true,"station_name":"Tanah Abang"},{"station_name":"Duri","i_long":106.800832,"transit":false,"station_id":"DU","i_lat":-6.155215,"time":8,"is_transit":false,"distance":3632,"line":1},{"is_transit":false,"station_id":"AK","i_long":106.79867,"line":1,"station_name":"Angke","distance":1230,"time":4,"transit":false,"i_lat":-6.144674},{"distance":4102,"i_lat":-6.132549,"station_id":"KPB","transit":true,"i_long":106.826365,"is_transit":true,"time":9,"line":4,"station_name":"Kampung Bandan"},{"station_id":"JAKK","distance":1364,"i_lat":-6.137569,"station_name":"Jakarta Kota","transit":true,"line":2,"is_transit":true,"time":3,"i_long":106.812439},{"transit":false,"line":2,"is_transit":false,"time":4,"station_name":"Jayakarta","i_lat":-6.141205,"distance":1264,"i_long":106.820901,"station_id":"JAY"},{"station_name":"Manggabesar","i_long":106.82482,"distance":1080,"is_transit":false,"station_id":"MGB","time":2,"i_lat":-6.149769,"line":2,"transit":false},{"i_long":106.827103,"station_id":"SW","i_lat":-6.160725,"distance":906,"line":2,"is_transit":false,"time":2,"station_name":"Sawah Besar","transit":false},{"is_transit":false,"i_long":106.828284,"transit":false,"station_name":"Juanda","distance":1149,"time":2,"station_id":"JUA","line":2,"i_lat":-6.166716},{"distance":2015,"station_id":"GDD","line":2,"transit":false,"station_name":"Gondangdia","is_transit":false,"time":4,"i_lat":-6.186295,"i_long":106.832183},{"station_name":"Cikini","i_long":106.840169,"station_id":"CKI","distance":1750,"i_lat":-6.198556,"line":2,"transit":false,"is_transit":false,"time":3},{"station_name":"Manggarai","i_lat":-6.209883,"station_id":"MRI","line":2,"is_transit":false,"distance":1590,"i_long":106.84912,"time":4,"transit":false},{"distance":2610,"line":2,"is_transit":false,"i_lat":-6.226659,"station_name":"Tebet","transit":false,"station_id":"TEB","time":4,"i_long":106.857948},{"i_long":106.856607,"time":2,"i_lat":-6.242512,"line":2,"transit":false,"is_transit":false,"station_name":"Cawang","distance":1230,"station_id":"CW"}],[{"station_name":"Jurangmangu","i_lat":-6.288927,"station_id":"JMU","distance":0,"is_transit":false,"i_long":106.728916,"transit":false,"time":0,"line":6},{"i_long":106.74273,"time":3,"is_transit":false,"transit":false,"i_lat":-6.276362,"line":6,"station_name":"Pondokranji","distance":2179,"station_id":"PDJ"},{"line":6,"transit":false,"distance":6218,"i_lat":-6.237242,"time":8,"station_name":"Kebayoran","is_transit":false,"station_id":"KBY","i_long":106.780334},{"station_name":"Palmerah","station_id":"PLM","i_long":106.79689,"time":7,"is_transit":false,"transit":false,"i_lat":-6.207404,"distance":3737,"line":6},{"time":6,"station_name":"Tanah Abang","is_transit":true,"distance":3191,"line":1,"station_id":"THB","i_lat":-6.185545,"i_long":106.811091,"transit":true},{"transit":false,"i_long":106.800832,"distance":3632,"line":1,"station_id":"DU","station_name":"Duri","is_transit":false,"time":8,"i_lat":-6.155215},{"line":1,"time":4,"i_long":106.79867,"station_name":"Angke","is_transit":false,"transit":false,"distance":1230,"i_lat":-6.144674,"station_id":"AK"},{"is_transit":true,"station_id":"KPB","time":9,"i_lat":-6.132549,"i_long":106.826365,"line":4,"station_name":"Kampung Bandan","transit":true,"distance":4102},{"line":11,"i_long":106.836569,"transit":false,"station_name":"Rajawali","distance":1444,"i_lat":-6.14505,"station_id":"RJW","is_transit":false,"time":3},{"distance":1901,"transit":false,"time":5,"is_transit":false,"station_id":"KMO","i_lat":-6.161728,"i_long":106.839204,"line":11,"station_name":"Kemayoran"},{"transit":false,"is_transit":false,"distance":1436,"i_long":106.84368,"station_name":"Pasar Senen","time":4,"i_lat":-6.174784,"line":11,"station_id":"PSE"},{"station_name":"Gang Sentiong","time":8,"line":11,"is_transit":false,"station_id":"GST","i_lat":-6.185975,"distance":1567,"transit":false,"i_long":106.850107},{"distance":973,"is_transit":false,"i_lat":-6.193792,"transit":false,"i_long":106.855437,"line":11,"station_id":"KMT","station_name":"Kramat","time":1},{"i_lat":-6.209188,"line":11,"station_id":"POK","i_long":106.861737,"distance":1829,"is_transit":false,"station_name":"Pondok Jati","transit":false,"time":2},{"distance":1236,"i_lat":-6.215091,"station_id":"JNG","is_transit":true,"time":9,"i_long":106.86807400000001,"transit":true,"station_name":"Jatinegara","line":1},{"line":1,"transit":false,"station_name":"Matraman","station_id":"MTR","is_transit":false,"distance":1377,"time":2,"i_lat":-6.212485,"i_long":106.858896},{"line":2,"transit":true,"is_transit":true,"i_long":106.84912,"i_lat":-6.209883,"station_name":"Manggarai","distance":1275,"station_id":"MRI","time":2},{"line":2,"time":4,"distance":2610,"station_id":"TEB","station_name":"Tebet","transit":false,"i_lat":-6.226659,"i_long":106.857948,"is_transit":false},{"distance":1230,"is_transit":false,"transit":false,"i_lat":-6.242512,"station_name":"Cawang","station_id":"CW","line":2,"i_long":106.856607,"time":2}]]}