{"data":[[{"time":0,"station_name":"Jenar","i_lat":-7.801845,"distance":0,"station_id":"JN","line":0,"transit":false,"is_transit":false,"i_long":110.000548},{"distance":8393,"time":10,"line":7,"i_long":110.040449,"is_transit":false,"station_name":"Wojo","i_lat":-7.861626,"transit":false,"station_id":"WJ"},{"line":7,"distance":13652,"time":15,"is_transit":false,"transit":false,"station_name":"Wates","i_long":110.158003,"station_id":"WT","i_lat":-7.859237},{"distance":10145,"station_name":"Sentolo","i_lat":-7.832939,"time":25,"station_id":"STL","transit":false,"line":0,"is_transit":false,"i_long":110.220122},{"i_lat":-7.797702,"line":7,"is_transit":false,"i_long":110.279205,"distance":9041,"station_id":"RWL","station_name":"Rewulu","time":8,"transit":false},{"distance":4579,"i_lat":-7.790605,"line":7,"is_transit":false,"transit":false,"station_name":"Patukan","time":4,"station_id":"PTN","i_long":110.32542},{"station_name":"Yogyakarta","distance":4241,"i_lat":-7.788961,"i_long":110.36345,"station_id":"YK","time":5,"line":7,"is_transit":false,"transit":false},{"is_transit":false,"transit":false,"i_lat":-7.790018,"line":7,"station_name":"Lempuyangan","i_long":110.375434,"distance":1307,"time":6,"station_id":"LPN"},{"station_name":"Maguwo","distance":6799,"is_transit":false,"time":7,"transit":false,"i_long":110.436791,"station_id":"MGW","line":7,"i_lat":-7.784476},{"i_long":110.500451,"transit":false,"station_id":"BBN","time":8,"i_lat":-7.756284,"line":0,"station_name":"Brambanan","is_transit":false,"distance":7905}]]}