{"data":[[{"i_long":110.000548,"time":0,"transit":false,"i_lat":-7.801845,"line":0,"distance":0,"station_name":"Jenar","station_id":"JN","is_transit":false},{"i_lat":-7.861626,"time":10,"is_transit":false,"i_long":110.040449,"line":7,"distance":8393,"transit":false,"station_name":"Wojo","station_id":"WJ"},{"i_lat":-7.859237,"i_long":110.158003,"time":15,"station_name":"Wates","distance":13652,"station_id":"WT","is_transit":false,"transit":false,"line":7},{"distance":10145,"station_name":"Sentolo","station_id":"STL","line":0,"time":25,"is_transit":false,"transit":false,"i_long":110.220122,"i_lat":-7.832939},{"station_id":"RWL","i_long":110.279205,"distance":9041,"i_lat":-7.797702,"station_name":"Rewulu","is_transit":false,"line":7,"time":8,"transit":false},{"station_name":"Patukan","i_long":110.32542,"distance":4579,"is_transit":false,"station_id":"PTN","transit":false,"line":7,"i_lat":-7.790605,"time":4},{"station_id":"YK","i_lat":-7.788961,"time":5,"transit":false,"i_long":110.36345,"is_transit":false,"distance":4241,"line":7,"station_name":"Yogyakarta"},{"transit":false,"i_long":110.375434,"line":7,"distance":1307,"station_name":"Lempuyangan","is_transit":false,"time":6,"station_id":"LPN","i_lat":-7.790018},{"i_lat":-7.784476,"i_long":110.436791,"line":7,"transit":false,"time":7,"distance":6799,"station_id":"MGW","station_name":"Maguwo","is_transit":false},{"is_transit":false,"time":8,"transit":false,"station_id":"BBN","station_name":"Brambanan","line":0,"distance":7905,"i_lat":-7.756284,"i_long":110.500451}]]}