{"data":[[{"station_id":"JN","station_name":"Jenar","line":7,"transit":false,"distance":0,"i_lat":-7.801845,"i_long":110.000548,"time":0,"is_transit":false},{"distance":8393,"i_long":110.040449,"transit":false,"station_name":"Wojo","station_id":"WJ","i_lat":-7.861626,"time":10,"is_transit":false,"line":7},{"distance":13652,"i_long":110.158003,"transit":false,"time":15,"i_lat":-7.859237,"is_transit":false,"station_id":"WT","station_name":"Wates","line":7},{"time":25,"is_transit":false,"transit":false,"i_lat":-7.832939,"station_id":"STL","line":7,"station_name":"Sentolo","distance":10145,"i_long":110.220122},{"station_name":"Rewulu","is_transit":false,"i_long":110.279205,"station_id":"RWL","distance":9041,"time":8,"transit":false,"i_lat":-7.797702,"line":7},{"line":7,"distance":4579,"time":4,"is_transit":false,"i_lat":-7.790605,"i_long":110.32542,"station_id":"PTN","transit":false,"station_name":"Patukan"},{"transit":false,"time":5,"station_name":"Yogyakarta","is_transit":false,"distance":4241,"i_lat":-7.788961,"i_long":110.36345,"line":7,"station_id":"YK"},{"station_name":"Lempuyangan","i_lat":-7.790018,"i_long":110.375434,"station_id":"LPN","transit":false,"distance":1307,"time":6,"line":7,"is_transit":false},{"distance":6799,"line":7,"is_transit":false,"station_name":"Maguwo","transit":false,"i_long":110.436791,"time":7,"i_lat":-7.784476,"station_id":"MGW"},{"i_lat":-7.756284,"i_long":110.500451,"line":0,"is_transit":false,"transit":false,"station_name":"Brambanan","distance":7905,"time":8,"station_id":"BBN"}]]}