{"data":[[{"station_name":"Jenar","i_lat":-7.801845,"is_transit":false,"distance":0,"i_long":110.000548,"transit":false,"station_id":"JN","time":0,"line":0},{"line":7,"time":10,"distance":8393,"station_id":"WJ","transit":false,"station_name":"Wojo","i_lat":-7.861626,"i_long":110.040449,"is_transit":false},{"transit":false,"distance":13652,"i_lat":-7.859237,"time":15,"i_long":110.158003,"is_transit":false,"station_name":"Wates","line":7,"station_id":"WT"},{"station_id":"STL","i_lat":-7.832939,"is_transit":false,"i_long":110.220122,"line":0,"transit":false,"station_name":"Sentolo","time":25,"distance":10145},{"i_long":110.279205,"line":7,"time":8,"transit":false,"station_id":"RWL","station_name":"Rewulu","is_transit":false,"i_lat":-7.797702,"distance":9041},{"line":7,"station_id":"PTN","i_long":110.32542,"station_name":"Patukan","distance":4579,"i_lat":-7.790605,"is_transit":false,"time":4,"transit":false},{"distance":4241,"station_id":"YK","is_transit":false,"line":7,"station_name":"Yogyakarta","i_long":110.36345,"transit":false,"i_lat":-7.788961,"time":5},{"line":7,"time":6,"is_transit":false,"i_long":110.375434,"transit":false,"distance":1307,"i_lat":-7.790018,"station_id":"LPN","station_name":"Lempuyangan"},{"time":7,"i_long":110.436791,"station_name":"Maguwo","i_lat":-7.784476,"line":7,"station_id":"MGW","distance":6799,"transit":false,"is_transit":false},{"station_name":"Brambanan","time":8,"i_lat":-7.756284,"i_long":110.500451,"station_id":"BBN","line":0,"transit":false,"is_transit":false,"distance":7905}]]}