{"data":[[{"i_long":110.000548,"distance":0,"transit":false,"time":0,"line":0,"station_id":"JN","i_lat":-7.801845,"station_name":"Jenar"},{"i_long":110.040449,"distance":8393,"transit":false,"time":10,"line":7,"station_id":"WJ","i_lat":-7.861626,"station_name":"Wojo"},{"i_long":110.158003,"distance":13652,"transit":false,"time":15,"line":7,"station_id":"WT","i_lat":-7.859237,"station_name":"Wates"},{"i_long":110.220122,"distance":10145,"transit":false,"time":25,"line":0,"station_id":"STL","i_lat":-7.832939,"station_name":"Sentolo"},{"i_long":110.279205,"distance":9041,"transit":false,"time":8,"line":7,"station_id":"RWL","i_lat":-7.797702,"station_name":"Rewulu"},{"i_long":110.32542,"distance":4579,"transit":false,"time":4,"line":7,"station_id":"PTN","i_lat":-7.790605,"station_name":"Patukan"},{"i_long":110.36345,"distance":4241,"transit":false,"time":5,"line":7,"station_id":"YK","i_lat":-7.788961,"station_name":"Yogyakarta"},{"i_long":110.375434,"distance":1307,"transit":false,"time":6,"line":7,"station_id":"LPN","i_lat":-7.790018,"station_name":"Lempuyangan"},{"i_long":110.436791,"distance":6799,"transit":false,"time":7,"line":7,"station_id":"MGW","i_lat":-7.784476,"station_name":"Maguwo"},{"i_long":110.500451,"distance":7905,"transit":false,"time":8,"line":0,"station_id":"BBN","i_lat":-7.756284,"station_name":"Brambanan"}]]}