{"data":[[{"station_name":"Jenar","time":0,"transit":false,"i_lat":-7.801845,"line":0,"distance":0,"station_id":"JN","is_transit":false,"i_long":110.000548},{"time":10,"is_transit":false,"transit":false,"station_id":"WJ","station_name":"Wojo","i_long":110.040449,"line":7,"distance":8393,"i_lat":-7.861626},{"distance":13652,"line":7,"station_id":"WT","i_long":110.158003,"transit":false,"time":15,"station_name":"Wates","is_transit":false,"i_lat":-7.859237},{"i_lat":-7.832939,"distance":10145,"station_name":"Sentolo","station_id":"STL","transit":false,"line":0,"time":25,"is_transit":false,"i_long":110.220122},{"station_id":"RWL","is_transit":false,"distance":9041,"line":7,"i_long":110.279205,"i_lat":-7.797702,"time":8,"transit":false,"station_name":"Rewulu"},{"transit":false,"is_transit":false,"distance":4579,"station_name":"Patukan","line":7,"i_lat":-7.790605,"station_id":"PTN","i_long":110.32542,"time":4},{"station_name":"Yogyakarta","is_transit":false,"time":5,"distance":4241,"i_lat":-7.788961,"line":7,"transit":false,"station_id":"YK","i_long":110.36345},{"time":6,"transit":false,"is_transit":false,"line":7,"station_id":"LPN","distance":1307,"i_lat":-7.790018,"i_long":110.375434,"station_name":"Lempuyangan"},{"transit":false,"station_name":"Maguwo","time":7,"line":7,"i_lat":-7.784476,"i_long":110.436791,"is_transit":false,"station_id":"MGW","distance":6799},{"i_lat":-7.756284,"distance":7905,"station_name":"Brambanan","i_long":110.500451,"transit":false,"is_transit":false,"station_id":"BBN","time":8,"line":0},{"i_long":110.548972,"transit":false,"distance":5850,"i_lat":-7.74111,"is_transit":false,"station_name":"Srowot","station_id":"SWT","time":7,"line":7},{"line":7,"station_name":"Klaten","station_id":"KT","is_transit":false,"time":8,"distance":6738,"i_lat":-7.712087,"transit":false,"i_long":110.602981},{"transit":false,"is_transit":false,"i_lat":-7.668597,"time":9,"station_name":"Ceper","station_id":"CE","i_long":110.674861,"line":7,"distance":9279}]]}