{"data":[[{"transit":false,"station_name":"Jenar","time":0,"distance":0,"i_long":110.000548,"line":7,"is_transit":false,"station_id":"JN","i_lat":-7.801845},{"distance":8393,"transit":false,"i_lat":-7.861626,"station_id":"WJ","time":10,"i_long":110.040449,"station_name":"Wojo","line":7,"is_transit":false},{"distance":13652,"line":7,"station_name":"Wates","time":15,"i_lat":-7.859237,"transit":false,"is_transit":false,"i_long":110.158003,"station_id":"WT"},{"line":7,"station_id":"STL","is_transit":false,"i_lat":-7.832939,"i_long":110.220122,"distance":10145,"time":25,"transit":false,"station_name":"Sentolo"},{"station_id":"RWL","transit":false,"time":8,"distance":9041,"is_transit":false,"station_name":"Rewulu","i_lat":-7.797702,"line":7,"i_long":110.279205},{"time":4,"i_lat":-7.790605,"distance":4579,"station_id":"PTN","station_name":"Patukan","is_transit":false,"transit":false,"i_long":110.32542,"line":7},{"distance":4241,"transit":false,"time":5,"i_lat":-7.788961,"is_transit":false,"i_long":110.36345,"station_id":"YK","line":7,"station_name":"Yogyakarta"},{"station_id":"LPN","transit":false,"line":7,"station_name":"Lempuyangan","distance":1307,"time":6,"is_transit":false,"i_lat":-7.790018,"i_long":110.375434},{"time":7,"i_lat":-7.784476,"station_id":"MGW","station_name":"Maguwo","transit":false,"distance":6799,"i_long":110.436791,"is_transit":false,"line":7},{"station_id":"BBN","transit":false,"is_transit":false,"line":0,"time":8,"distance":7905,"i_lat":-7.756284,"station_name":"Brambanan","i_long":110.500451},{"transit":false,"i_lat":-7.74111,"station_name":"Srowot","is_transit":false,"line":7,"i_long":110.548972,"time":7,"distance":5850,"station_id":"SWT"},{"is_transit":false,"time":8,"i_lat":-7.712087,"distance":6738,"station_id":"KT","line":7,"station_name":"Klaten","i_long":110.602981,"transit":false},{"line":0,"station_id":"CE","time":9,"i_long":110.674861,"station_name":"Ceper","distance":9279,"is_transit":false,"i_lat":-7.668597,"transit":false}]]}