{"data":[[{"line":0,"is_transit":false,"time":0,"transit":false,"i_long":110.000548,"i_lat":-7.801845,"station_id":"JN","station_name":"Jenar","distance":0},{"transit":false,"i_long":110.040449,"time":10,"line":7,"distance":8393,"station_id":"WJ","is_transit":false,"i_lat":-7.861626,"station_name":"Wojo"},{"i_long":110.158003,"distance":13652,"transit":false,"is_transit":false,"station_name":"Wates","line":7,"time":15,"i_lat":-7.859237,"station_id":"WT"},{"line":0,"i_long":110.220122,"station_id":"STL","time":25,"transit":false,"is_transit":false,"station_name":"Sentolo","i_lat":-7.832939,"distance":10145},{"line":7,"transit":false,"distance":9041,"i_lat":-7.797702,"i_long":110.279205,"is_transit":false,"station_name":"Rewulu","station_id":"RWL","time":8},{"i_lat":-7.790605,"transit":false,"station_id":"PTN","time":4,"i_long":110.32542,"is_transit":false,"line":7,"distance":4579,"station_name":"Patukan"},{"line":7,"station_id":"YK","is_transit":false,"station_name":"Yogyakarta","i_long":110.36345,"distance":4241,"transit":false,"i_lat":-7.788961,"time":5},{"distance":1307,"i_lat":-7.790018,"is_transit":false,"station_name":"Lempuyangan","line":7,"station_id":"LPN","time":6,"transit":false,"i_long":110.375434},{"i_lat":-7.784476,"i_long":110.436791,"station_name":"Maguwo","line":7,"is_transit":false,"time":7,"station_id":"MGW","distance":6799,"transit":false},{"is_transit":false,"transit":false,"time":8,"station_name":"Brambanan","i_lat":-7.756284,"station_id":"BBN","line":0,"i_long":110.500451,"distance":7905},{"time":7,"is_transit":false,"i_long":110.548972,"station_name":"Srowot","i_lat":-7.74111,"transit":false,"line":7,"distance":5850,"station_id":"SWT"},{"i_lat":-7.712087,"distance":6738,"is_transit":false,"transit":false,"line":7,"i_long":110.602981,"station_name":"Klaten","time":8,"station_id":"KT"},{"station_name":"Ceper","is_transit":false,"station_id":"CE","transit":false,"i_lat":-7.668597,"i_long":110.674861,"distance":9279,"line":7,"time":9}]]}