{"data":[[{"i_lat":-7.801845,"is_transit":false,"line":0,"station_id":"JN","distance":0,"station_name":"Jenar","time":0,"transit":false,"i_long":110.000548},{"station_name":"Wojo","i_long":110.040449,"time":10,"i_lat":-7.861626,"transit":false,"distance":8393,"is_transit":false,"station_id":"WJ","line":7},{"station_id":"WT","station_name":"Wates","is_transit":false,"line":7,"distance":13652,"time":15,"transit":false,"i_long":110.158003,"i_lat":-7.859237},{"line":0,"transit":false,"i_lat":-7.832939,"station_id":"STL","station_name":"Sentolo","i_long":110.220122,"distance":10145,"is_transit":false,"time":25},{"is_transit":false,"station_name":"Rewulu","transit":false,"line":7,"i_long":110.279205,"station_id":"RWL","distance":9041,"time":8,"i_lat":-7.797702},{"i_long":110.32542,"i_lat":-7.790605,"station_id":"PTN","transit":false,"line":7,"time":4,"distance":4579,"is_transit":false,"station_name":"Patukan"},{"distance":4241,"i_lat":-7.788961,"station_name":"Yogyakarta","is_transit":false,"time":5,"transit":false,"line":7,"station_id":"YK","i_long":110.36345},{"is_transit":false,"station_id":"LPN","distance":1307,"time":6,"i_long":110.375434,"line":7,"station_name":"Lempuyangan","transit":false,"i_lat":-7.790018},{"distance":6799,"time":7,"transit":false,"station_name":"Maguwo","i_long":110.436791,"i_lat":-7.784476,"station_id":"MGW","line":7,"is_transit":false},{"i_lat":-7.756284,"distance":7905,"station_name":"Brambanan","transit":false,"station_id":"BBN","line":0,"is_transit":false,"i_long":110.500451,"time":8},{"i_long":110.548972,"line":7,"distance":5850,"transit":false,"station_name":"Srowot","station_id":"SWT","time":7,"is_transit":false,"i_lat":-7.74111},{"transit":false,"i_lat":-7.712087,"station_id":"KT","is_transit":false,"station_name":"Klaten","distance":6738,"line":7,"i_long":110.602981,"time":8},{"station_id":"CE","station_name":"Ceper","is_transit":false,"i_lat":-7.668597,"i_long":110.674861,"distance":9279,"line":7,"time":9,"transit":false}]]}