{"data":[[{"i_lat":-6.215091,"distance":0,"time":0,"i_long":106.86807400000001,"is_transit":false,"transit":false,"station_id":"JNG","station_name":"Jatinegara","line":1},{"transit":false,"time":2,"station_id":"MTR","is_transit":false,"i_long":106.858896,"distance":1377,"i_lat":-6.212485,"line":1,"station_name":"Matraman"},{"i_long":106.84912,"station_id":"MRI","line":2,"is_transit":true,"distance":1275,"i_lat":-6.209883,"station_name":"Manggarai","time":2,"transit":true},{"is_transit":false,"i_long":106.840169,"station_id":"CKI","transit":false,"i_lat":-6.198556,"distance":1590,"time":4,"line":2,"station_name":"Cikini"},{"is_transit":false,"i_long":106.832183,"station_name":"Gondangdia","line":2,"station_id":"GDD","time":3,"transit":false,"i_lat":-6.186295,"distance":1750}],[{"is_transit":false,"distance":0,"station_id":"JNG","time":0,"transit":false,"station_name":"Jatinegara","i_long":106.86807400000001,"i_lat":-6.215091,"line":1},{"station_name":"Pondok Jati","i_lat":-6.209188,"i_long":106.861737,"time":2,"line":11,"distance":1236,"station_id":"POK","transit":false,"is_transit":false},{"distance":1829,"i_lat":-6.193792,"line":11,"is_transit":false,"time":2,"station_name":"Kramat","station_id":"KMT","transit":false,"i_long":106.855437},{"transit":false,"station_id":"GST","station_name":"Gang Sentiong","distance":973,"line":11,"i_long":106.850107,"i_lat":-6.185975,"is_transit":false,"time":1},{"time":8,"i_long":106.84368,"station_id":"PSE","i_lat":-6.174784,"transit":false,"line":11,"station_name":"Pasar Senen","is_transit":false,"distance":1567},{"station_id":"KMO","distance":1436,"station_name":"Kemayoran","transit":false,"i_long":106.839204,"is_transit":false,"time":4,"i_lat":-6.161728,"line":11},{"station_name":"Rajawali","distance":1901,"is_transit":false,"time":5,"transit":false,"i_long":106.836569,"station_id":"RJW","i_lat":-6.14505,"line":11},{"is_transit":true,"time":3,"i_long":106.826365,"distance":1444,"i_lat":-6.132549,"line":4,"station_id":"KPB","transit":true,"station_name":"Kampung Bandan"},{"is_transit":true,"i_long":106.812439,"i_lat":-6.137569,"station_id":"JAKK","station_name":"Jakarta Kota","distance":1364,"line":2,"transit":true,"time":3},{"station_id":"JAY","is_transit":false,"distance":1264,"transit":false,"i_lat":-6.141205,"time":4,"station_name":"Jayakarta","i_long":106.820901,"line":2},{"distance":1080,"station_id":"MGB","time":2,"i_long":106.82482,"station_name":"Manggabesar","transit":false,"is_transit":false,"i_lat":-6.149769,"line":2},{"transit":false,"line":2,"station_id":"SW","station_name":"Sawah Besar","i_lat":-6.160725,"is_transit":false,"time":2,"i_long":106.827103,"distance":906},{"i_long":106.828284,"is_transit":false,"station_name":"Juanda","distance":1149,"station_id":"JUA","time":2,"i_lat":-6.166716,"transit":false,"line":2},{"is_transit":false,"line":2,"distance":2015,"time":4,"i_lat":-6.186295,"station_name":"Gondangdia","transit":false,"i_long":106.832183,"station_id":"GDD"}],[{"i_lat":-6.215091,"distance":0,"transit":false,"is_transit":false,"i_long":106.86807400000001,"time":0,"line":1,"station_name":"Jatinegara","station_id":"JNG"},{"is_transit":false,"distance":1377,"station_name":"Matraman","station_id":"MTR","time":2,"i_long":106.858896,"line":1,"i_lat":-6.212485,"transit":false},{"i_lat":-6.209883,"transit":false,"line":2,"distance":1275,"station_id":"MRI","station_name":"Manggarai","i_long":106.84912,"is_transit":false,"time":2},{"station_name":"Sudirman","distance":3186,"is_transit":false,"i_lat":-6.202263,"station_id":"SUD","time":4,"i_long":106.822649,"transit":false,"line":1},{"transit":false,"station_name":"Sudirman Baru","station_id":"SUDB","i_long":106.819881,"distance":280,"time":1,"i_lat":-6.201433,"line":1,"is_transit":false},{"line":1,"distance":471,"i_lat":-6.20132,"transit":false,"station_name":"Karet","i_long":106.816351,"is_transit":false,"station_id":"KAT","time":1},{"station_id":"THB","transit":false,"line":1,"is_transit":false,"station_name":"Tanah Abang","time":5,"distance":2029,"i_lat":-6.185545,"i_long":106.811091},{"line":1,"is_transit":false,"time":8,"transit":false,"i_long":106.800832,"station_id":"DU","station_name":"Duri","distance":3632,"i_lat":-6.155215},{"i_long":106.79867,"line":1,"time":4,"i_lat":-6.144674,"is_transit":false,"station_name":"Angke","station_id":"AK","distance":1230,"transit":false},{"distance":4102,"transit":true,"i_long":106.826365,"station_name":"Kampung Bandan","line":4,"time":9,"is_transit":true,"station_id":"KPB","i_lat":-6.132549},{"line":2,"station_id":"JAKK","transit":true,"time":3,"distance":1364,"i_lat":-6.137569,"i_long":106.812439,"station_name":"Jakarta Kota","is_transit":true},{"time":4,"station_id":"JAY","line":2,"distance":1264,"i_lat":-6.141205,"station_name":"Jayakarta","transit":false,"is_transit":false,"i_long":106.820901},{"line":2,"distance":1080,"station_id":"MGB","i_lat":-6.149769,"is_transit":false,"station_name":"Manggabesar","time":2,"transit":false,"i_long":106.82482},{"i_lat":-6.160725,"line":2,"is_transit":false,"station_id":"SW","time":2,"transit":false,"i_long":106.827103,"station_name":"Sawah Besar","distance":906},{"station_id":"JUA","transit":false,"i_lat":-6.166716,"i_long":106.828284,"time":2,"station_name":"Juanda","is_transit":false,"distance":1149,"line":2},{"i_long":106.832183,"line":2,"distance":2015,"time":4,"transit":false,"is_transit":false,"station_name":"Gondangdia","station_id":"GDD","i_lat":-6.186295}],[{"station_id":"JNG","transit":false,"station_name":"Jatinegara","time":0,"i_lat":-6.215091,"i_long":106.86807400000001,"line":1,"distance":0,"is_transit":false},{"i_long":106.861737,"transit":false,"line":11,"time":2,"station_name":"Pondok Jati","is_transit":false,"distance":1236,"station_id":"POK","i_lat":-6.209188},{"i_lat":-6.193792,"distance":1829,"station_id":"KMT","transit":false,"line":11,"i_long":106.855437,"is_transit":false,"station_name":"Kramat","time":2},{"distance":973,"station_id":"GST","line":11,"is_transit":false,"i_long":106.850107,"station_name":"Gang Sentiong","time":1,"transit":false,"i_lat":-6.185975},{"i_lat":-6.174784,"station_id":"PSE","station_name":"Pasar Senen","is_transit":false,"distance":1567,"time":8,"transit":false,"i_long":106.84368,"line":11},{"station_name":"Kemayoran","transit":false,"i_long":106.839204,"is_transit":false,"i_lat":-6.161728,"station_id":"KMO","time":4,"distance":1436,"line":11},{"transit":false,"distance":1901,"station_name":"Rajawali","station_id":"RJW","i_lat":-6.14505,"i_long":106.836569,"time":5,"is_transit":false,"line":11},{"i_lat":-6.132549,"is_transit":true,"i_long":106.826365,"transit":true,"station_id":"KPB","time":3,"station_name":"Kampung Bandan","line":4,"distance":1444},{"distance":4102,"line":1,"is_transit":false,"station_name":"Angke","station_id":"AK","time":9,"i_lat":-6.144674,"i_long":106.79867,"transit":false},{"is_transit":false,"distance":1230,"station_id":"DU","time":4,"i_lat":-6.155215,"line":1,"transit":false,"station_name":"Duri","i_long":106.800832},{"is_transit":false,"distance":3632,"station_name":"Tanah Abang","time":8,"station_id":"THB","transit":false,"i_lat":-6.185545,"line":1,"i_long":106.811091},{"transit":false,"i_long":106.816351,"station_name":"Karet","line":1,"distance":2029,"i_lat":-6.20132,"is_transit":false,"time":5,"station_id":"KAT"},{"i_lat":-6.201433,"time":1,"distance":471,"is_transit":false,"line":1,"station_id":"SUDB","i_long":106.819881,"station_name":"Sudirman Baru","transit":false},{"time":1,"transit":false,"i_long":106.822649,"station_name":"Sudirman","station_id":"SUD","i_lat":-6.202263,"line":1,"is_transit":false,"distance":280},{"station_id":"MRI","line":2,"is_transit":true,"station_name":"Manggarai","distance":3186,"transit":true,"i_lat":-6.209883,"i_long":106.84912,"time":4},{"line":2,"station_id":"CKI","station_name":"Cikini","distance":1590,"time":4,"transit":false,"i_lat":-6.198556,"is_transit":false,"i_long":106.840169},{"is_transit":false,"i_long":106.832183,"time":3,"station_name":"Gondangdia","station_id":"GDD","distance":1750,"i_lat":-6.186295,"line":2,"transit":false}]]}