{"data":[[{"station_name":"Jatinegara","line":1,"is_transit":false,"i_lat":-6.215091,"time":0,"transit":false,"distance":0,"station_id":"JNG","i_long":106.86807400000001},{"station_id":"KLD","is_transit":false,"transit":false,"time":3,"distance":3395,"i_lat":-6.2135,"line":1,"station_name":"Klender","i_long":106.899548},{"time":2,"i_long":106.922662,"i_lat":-6.215568,"transit":false,"is_transit":false,"station_id":"BUA","station_name":"Buaran","line":1,"distance":3100},{"i_long":106.939679,"station_name":"Klenderbaru","is_transit":false,"station_id":"KLDB","transit":false,"line":1,"i_lat":-6.217455,"time":1,"distance":1305},{"station_id":"CUK","i_lat":-6.219053,"is_transit":false,"time":8,"transit":false,"i_long":106.951283,"station_name":"Cakung","distance":1385,"line":1},{"time":3,"distance":3097,"station_name":"Kranji","station_id":"KRI","i_lat":-6.224515,"line":1,"transit":false,"is_transit":false,"i_long":106.977657},{"is_transit":false,"line":1,"distance":2520,"time":4,"station_name":"Bekasi","station_id":"BKS","i_lat":-6.236616,"transit":false,"i_long":106.997013},{"transit":false,"i_long":107.016735,"time":2,"i_lat":-6.248029,"station_name":"Bekasi Timur","distance":2368,"is_transit":false,"station_id":"BKST","line":1},{"transit":false,"is_transit":false,"line":1,"time":7,"i_lat":-6.258864,"station_id":"TB","distance":4460,"station_name":"Tambun","i_long":107.055722},{"line":1,"transit":false,"is_transit":false,"distance":3420,"i_lat":-6.261877,"time":3,"i_long":107.083084,"station_name":"Cibitung","station_id":"CIT"},{"is_transit":false,"transit":false,"station_name":"Metland Telaga Murni","station_id":"TLM","i_lat":-6.262938,"i_long":107.093313,"time":2,"distance":2800,"line":1}]]}