{"data":[[{"station_id":"JNG","transit":false,"is_transit":false,"station_name":"Jatinegara","distance":0,"i_lat":-6.215091,"line":1,"i_long":106.86807400000001,"time":0},{"is_transit":false,"transit":false,"i_lat":-6.212485,"time":2,"line":1,"station_id":"MTR","i_long":106.858896,"station_name":"Matraman","distance":1377},{"i_lat":-6.209883,"i_long":106.84912,"is_transit":false,"station_name":"Manggarai","time":2,"station_id":"MRI","distance":1275,"line":2,"transit":false},{"station_name":"Sudirman","time":4,"i_long":106.822649,"station_id":"SUD","distance":3186,"i_lat":-6.202263,"is_transit":false,"transit":false,"line":1},{"is_transit":false,"line":1,"distance":280,"station_name":"Sudirman Baru","transit":false,"i_lat":-6.201433,"i_long":106.819881,"station_id":"SUDB","time":1},{"i_long":106.816351,"station_id":"KAT","line":1,"time":1,"station_name":"Karet","transit":false,"is_transit":false,"distance":471,"i_lat":-6.20132},{"station_id":"THB","i_lat":-6.185545,"station_name":"Tanah Abang","line":1,"i_long":106.811091,"is_transit":true,"distance":2029,"transit":true,"time":5},{"transit":false,"i_lat":-6.207404,"i_long":106.79689,"is_transit":false,"time":6,"distance":3191,"station_id":"PLM","station_name":"Palmerah","line":6},{"station_id":"KBY","i_long":106.780334,"time":7,"i_lat":-6.237242,"line":6,"is_transit":false,"station_name":"Kebayoran","transit":false,"distance":3737},{"station_name":"Pondokranji","is_transit":false,"i_lat":-6.276362,"time":8,"line":6,"distance":6218,"station_id":"PDJ","transit":false,"i_long":106.74273},{"i_lat":-6.288927,"is_transit":false,"i_long":106.728916,"station_id":"JMU","line":6,"transit":false,"station_name":"Jurangmangu","time":3,"distance":2179},{"i_long":106.712277,"is_transit":false,"station_name":"Sudimara","station_id":"SDM","distance":1994,"time":4,"i_lat":-6.296963,"transit":false,"line":6},{"distance":4566,"line":6,"station_id":"RU","is_transit":false,"time":6,"i_long":106.675475,"transit":false,"station_name":"Rawa Buntu","i_lat":-6.314823},{"i_lat":-6.319871,"time":4,"transit":false,"i_long":106.66566,"is_transit":false,"line":6,"distance":2413,"station_id":"SRP","station_name":"Serpong"},{"time":4,"line":3,"transit":false,"distance":1784,"is_transit":false,"station_id":"CSK","i_lat":-6.32484,"station_name":"Cisauk","i_long":106.640411},{"station_name":"Cicayur","distance":2519,"i_lat":-6.329547,"line":3,"transit":false,"time":4,"is_transit":false,"i_long":106.617853,"station_id":"CC"},{"distance":5968,"i_lat":-6.3441410000000005,"time":8,"i_long":106.568863,"is_transit":false,"line":6,"transit":false,"station_id":"PRP","station_name":"Parung Panjang"},{"i_long":106.508482,"line":3,"station_id":"CJT","time":9,"distance":7025,"is_transit":false,"station_name":"Cilejit","transit":false,"i_lat":-6.354349},{"station_id":"DAR","distance":2675,"is_transit":false,"i_long":106.491338,"station_name":"Daru","time":6,"i_lat":-6.338021,"line":0,"transit":false},{"transit":false,"i_lat":-6.327251,"distance":3902,"station_id":"TEJ","is_transit":false,"i_long":106.460812,"line":6,"station_name":"Tenjo","time":5},{"line":6,"station_id":"TGS","station_name":"Tigaraksa","time":5,"distance":2974,"i_lat":-6.328533,"transit":false,"i_long":106.425991,"is_transit":false},{"distance":2651,"i_long":106.411216,"time":3,"i_lat":-6.33561,"is_transit":false,"station_id":"CKY","station_name":"Cikoya","transit":false,"line":3},{"transit":false,"distance":1853,"time":4,"line":6,"station_name":"Maja","i_lat":-6.332307,"i_long":106.394373,"station_id":"MJ","is_transit":false},{"station_id":"CTR","time":10,"is_transit":false,"distance":7293,"station_name":"Citeras","i_long":106.332092,"transit":false,"i_lat":-6.334892,"line":3}],[{"station_id":"JNG","i_lat":-6.215091,"is_transit":false,"i_long":106.86807400000001,"station_name":"Jatinegara","line":1,"transit":false,"distance":0,"time":0},{"time":2,"distance":1236,"i_long":106.861737,"line":11,"station_name":"Pondok Jati","station_id":"POK","transit":false,"is_transit":false,"i_lat":-6.209188},{"line":11,"i_lat":-6.193792,"time":2,"station_id":"KMT","is_transit":false,"station_name":"Kramat","distance":1829,"transit":false,"i_long":106.855437},{"line":11,"i_lat":-6.185975,"station_name":"Gang Sentiong","is_transit":false,"station_id":"GST","transit":false,"distance":973,"i_long":106.850107,"time":1},{"station_id":"PSE","station_name":"Pasar Senen","is_transit":false,"transit":false,"time":8,"i_lat":-6.174784,"distance":1567,"i_long":106.84368,"line":11},{"transit":false,"station_name":"Kemayoran","time":4,"i_lat":-6.161728,"distance":1436,"station_id":"KMO","i_long":106.839204,"is_transit":false,"line":11},{"is_transit":false,"i_lat":-6.14505,"i_long":106.836569,"station_id":"RJW","time":5,"line":11,"transit":false,"distance":1901,"station_name":"Rajawali"},{"distance":1444,"is_transit":true,"line":4,"i_lat":-6.132549,"time":3,"station_name":"Kampung Bandan","transit":true,"station_id":"KPB","i_long":106.826365},{"station_id":"AK","i_lat":-6.144674,"i_long":106.79867,"distance":4102,"transit":false,"is_transit":false,"station_name":"Angke","line":1,"time":9},{"i_lat":-6.155215,"is_transit":false,"time":4,"station_name":"Duri","line":1,"distance":1230,"i_long":106.800832,"station_id":"DU","transit":false},{"is_transit":true,"time":8,"transit":true,"i_long":106.811091,"station_name":"Tanah Abang","station_id":"THB","i_lat":-6.185545,"line":1,"distance":3632},{"time":6,"station_name":"Palmerah","is_transit":false,"i_long":106.79689,"line":6,"i_lat":-6.207404,"station_id":"PLM","transit":false,"distance":3191},{"distance":3737,"line":6,"is_transit":false,"transit":false,"i_lat":-6.237242,"time":7,"i_long":106.780334,"station_name":"Kebayoran","station_id":"KBY"},{"i_lat":-6.276362,"transit":false,"station_id":"PDJ","i_long":106.74273,"line":6,"is_transit":false,"station_name":"Pondokranji","distance":6218,"time":8},{"transit":false,"distance":2179,"i_lat":-6.288927,"station_id":"JMU","is_transit":false,"i_long":106.728916,"time":3,"line":6,"station_name":"Jurangmangu"},{"station_id":"SDM","distance":1994,"i_lat":-6.296963,"transit":false,"is_transit":false,"i_long":106.712277,"station_name":"Sudimara","time":4,"line":6},{"i_lat":-6.314823,"station_id":"RU","time":6,"is_transit":false,"transit":false,"i_long":106.675475,"line":6,"station_name":"Rawa Buntu","distance":4566},{"i_lat":-6.319871,"time":4,"distance":2413,"transit":false,"is_transit":false,"station_id":"SRP","station_name":"Serpong","i_long":106.66566,"line":6},{"station_name":"Cisauk","transit":false,"station_id":"CSK","line":3,"i_lat":-6.32484,"time":4,"distance":1784,"i_long":106.640411,"is_transit":false},{"time":4,"distance":2519,"line":3,"station_name":"Cicayur","i_lat":-6.329547,"station_id":"CC","transit":false,"i_long":106.617853,"is_transit":false},{"is_transit":false,"distance":5968,"transit":false,"i_long":106.568863,"i_lat":-6.3441410000000005,"line":6,"station_id":"PRP","time":8,"station_name":"Parung Panjang"},{"station_name":"Cilejit","time":9,"line":3,"is_transit":false,"i_long":106.508482,"distance":7025,"transit":false,"i_lat":-6.354349,"station_id":"CJT"},{"station_name":"Daru","time":6,"station_id":"DAR","distance":2675,"is_transit":false,"i_lat":-6.338021,"transit":false,"line":0,"i_long":106.491338},{"i_long":106.460812,"station_id":"TEJ","is_transit":false,"i_lat":-6.327251,"transit":false,"distance":3902,"line":6,"time":5,"station_name":"Tenjo"},{"is_transit":false,"i_long":106.425991,"line":6,"station_id":"TGS","station_name":"Tigaraksa","transit":false,"distance":2974,"i_lat":-6.328533,"time":5},{"distance":2651,"station_id":"CKY","transit":false,"time":3,"line":3,"i_lat":-6.33561,"is_transit":false,"station_name":"Cikoya","i_long":106.411216},{"is_transit":false,"station_name":"Maja","transit":false,"i_lat":-6.332307,"i_long":106.394373,"line":6,"station_id":"MJ","time":4,"distance":1853},{"distance":7293,"station_id":"CTR","time":10,"line":3,"is_transit":false,"transit":false,"i_lat":-6.334892,"station_name":"Citeras","i_long":106.332092}],[{"station_name":"Jatinegara","station_id":"JNG","transit":false,"distance":0,"time":0,"is_transit":false,"i_lat":-6.215091,"i_long":106.86807400000001,"line":1},{"time":2,"station_id":"MTR","is_transit":false,"transit":false,"i_lat":-6.212485,"distance":1377,"station_name":"Matraman","line":1,"i_long":106.858896},{"transit":true,"line":2,"is_transit":true,"station_name":"Manggarai","i_long":106.84912,"time":2,"station_id":"MRI","i_lat":-6.209883,"distance":1275},{"i_long":106.840169,"line":2,"distance":1590,"i_lat":-6.198556,"time":4,"station_id":"CKI","transit":false,"is_transit":false,"station_name":"Cikini"},{"is_transit":false,"station_id":"GDD","time":3,"distance":1750,"i_lat":-6.186295,"transit":false,"i_long":106.832183,"station_name":"Gondangdia","line":2},{"station_name":"Juanda","i_long":106.828284,"transit":false,"distance":2015,"is_transit":false,"i_lat":-6.166716,"line":2,"time":4,"station_id":"JUA"},{"distance":1149,"i_lat":-6.160725,"station_name":"Sawah Besar","station_id":"SW","time":2,"transit":false,"i_long":106.827103,"is_transit":false,"line":2},{"i_lat":-6.149769,"line":2,"station_id":"MGB","time":2,"i_long":106.82482,"distance":906,"transit":false,"station_name":"Manggabesar","is_transit":false},{"i_long":106.820901,"transit":false,"distance":1080,"station_id":"JAY","i_lat":-6.141205,"is_transit":false,"time":2,"line":2,"station_name":"Jayakarta"},{"transit":true,"time":4,"distance":1264,"is_transit":true,"station_name":"Jakarta Kota","station_id":"JAKK","i_long":106.812439,"i_lat":-6.137569,"line":2},{"is_transit":true,"distance":1364,"time":3,"station_id":"KPB","transit":true,"line":4,"station_name":"Kampung Bandan","i_long":106.826365,"i_lat":-6.132549},{"is_transit":false,"transit":false,"i_long":106.79867,"distance":4102,"station_id":"AK","time":9,"i_lat":-6.144674,"line":1,"station_name":"Angke"},{"is_transit":false,"distance":1230,"i_long":106.800832,"transit":false,"station_name":"Duri","time":4,"station_id":"DU","i_lat":-6.155215,"line":1},{"station_id":"THB","distance":3632,"is_transit":true,"transit":true,"i_long":106.811091,"i_lat":-6.185545,"time":8,"line":1,"station_name":"Tanah Abang"},{"station_id":"PLM","station_name":"Palmerah","transit":false,"distance":3191,"i_lat":-6.207404,"line":6,"is_transit":false,"time":6,"i_long":106.79689},{"i_lat":-6.237242,"station_name":"Kebayoran","station_id":"KBY","time":7,"distance":3737,"line":6,"i_long":106.780334,"is_transit":false,"transit":false},{"i_long":106.74273,"is_transit":false,"transit":false,"time":8,"line":6,"i_lat":-6.276362,"station_name":"Pondokranji","station_id":"PDJ","distance":6218},{"i_long":106.728916,"is_transit":false,"station_id":"JMU","transit":false,"i_lat":-6.288927,"time":3,"distance":2179,"line":6,"station_name":"Jurangmangu"},{"line":6,"station_name":"Sudimara","is_transit":false,"transit":false,"station_id":"SDM","distance":1994,"i_long":106.712277,"time":4,"i_lat":-6.296963},{"distance":4566,"i_long":106.675475,"transit":false,"is_transit":false,"station_name":"Rawa Buntu","i_lat":-6.314823,"line":6,"time":6,"station_id":"RU"},{"i_lat":-6.319871,"transit":false,"is_transit":false,"time":4,"distance":2413,"line":6,"station_name":"Serpong","i_long":106.66566,"station_id":"SRP"},{"line":3,"is_transit":false,"transit":false,"station_name":"Cisauk","distance":1784,"i_long":106.640411,"i_lat":-6.32484,"time":4,"station_id":"CSK"},{"i_lat":-6.329547,"is_transit":false,"station_name":"Cicayur","station_id":"CC","distance":2519,"time":4,"line":3,"transit":false,"i_long":106.617853},{"transit":false,"time":8,"station_name":"Parung Panjang","line":6,"station_id":"PRP","i_long":106.568863,"distance":5968,"is_transit":false,"i_lat":-6.3441410000000005},{"time":9,"line":3,"i_lat":-6.354349,"transit":false,"distance":7025,"station_name":"Cilejit","station_id":"CJT","is_transit":false,"i_long":106.508482},{"time":6,"line":0,"distance":2675,"i_lat":-6.338021,"transit":false,"is_transit":false,"i_long":106.491338,"station_name":"Daru","station_id":"DAR"},{"station_id":"TEJ","time":5,"i_long":106.460812,"i_lat":-6.327251,"station_name":"Tenjo","is_transit":false,"distance":3902,"transit":false,"line":6},{"station_id":"TGS","i_long":106.425991,"distance":2974,"is_transit":false,"station_name":"Tigaraksa","time":5,"line":6,"transit":false,"i_lat":-6.328533},{"station_name":"Cikoya","transit":false,"distance":2651,"is_transit":false,"station_id":"CKY","i_long":106.411216,"time":3,"i_lat":-6.33561,"line":3},{"i_lat":-6.332307,"station_id":"MJ","line":6,"is_transit":false,"station_name":"Maja","transit":false,"distance":1853,"i_long":106.394373,"time":4},{"distance":7293,"line":3,"station_name":"Citeras","station_id":"CTR","i_lat":-6.334892,"i_long":106.332092,"transit":false,"is_transit":false,"time":10}],[{"is_transit":false,"distance":0,"station_id":"JNG","i_long":106.86807400000001,"i_lat":-6.215091,"line":1,"station_name":"Jatinegara","time":0,"transit":false},{"transit":false,"is_transit":false,"distance":1236,"line":11,"station_name":"Pondok Jati","i_lat":-6.209188,"station_id":"POK","time":2,"i_long":106.861737},{"station_name":"Kramat","line":11,"time":2,"i_long":106.855437,"transit":false,"i_lat":-6.193792,"is_transit":false,"station_id":"KMT","distance":1829},{"station_name":"Gang Sentiong","station_id":"GST","distance":973,"i_long":106.850107,"time":1,"is_transit":false,"transit":false,"line":11,"i_lat":-6.185975},{"station_name":"Pasar Senen","transit":false,"distance":1567,"i_lat":-6.174784,"line":11,"station_id":"PSE","is_transit":false,"i_long":106.84368,"time":8},{"station_name":"Kemayoran","i_long":106.839204,"station_id":"KMO","transit":false,"line":11,"distance":1436,"i_lat":-6.161728,"is_transit":false,"time":4},{"i_long":106.836569,"station_name":"Rajawali","distance":1901,"station_id":"RJW","line":11,"transit":false,"time":5,"is_transit":false,"i_lat":-6.14505},{"station_id":"KPB","time":3,"distance":1444,"station_name":"Kampung Bandan","is_transit":true,"i_long":106.826365,"line":4,"i_lat":-6.132549,"transit":true},{"transit":true,"station_name":"Jakarta Kota","is_transit":true,"line":2,"time":3,"station_id":"JAKK","i_long":106.812439,"distance":1364,"i_lat":-6.137569},{"i_lat":-6.141205,"transit":false,"distance":1264,"line":2,"time":4,"station_name":"Jayakarta","is_transit":false,"i_long":106.820901,"station_id":"JAY"},{"time":2,"is_transit":false,"i_long":106.82482,"line":2,"i_lat":-6.149769,"station_name":"Manggabesar","transit":false,"station_id":"MGB","distance":1080},{"is_transit":false,"station_name":"Sawah Besar","line":2,"transit":false,"i_lat":-6.160725,"time":2,"i_long":106.827103,"station_id":"SW","distance":906},{"is_transit":false,"time":2,"station_id":"JUA","i_lat":-6.166716,"distance":1149,"transit":false,"i_long":106.828284,"line":2,"station_name":"Juanda"},{"i_lat":-6.186295,"station_id":"GDD","line":2,"transit":false,"i_long":106.832183,"station_name":"Gondangdia","distance":2015,"is_transit":false,"time":4},{"station_id":"CKI","line":2,"time":3,"i_lat":-6.198556,"i_long":106.840169,"transit":false,"distance":1750,"is_transit":false,"station_name":"Cikini"},{"station_id":"MRI","transit":true,"time":4,"distance":1590,"i_lat":-6.209883,"line":2,"i_long":106.84912,"station_name":"Manggarai","is_transit":true},{"time":4,"station_id":"SUD","i_long":106.822649,"is_transit":false,"i_lat":-6.202263,"transit":false,"line":1,"station_name":"Sudirman","distance":3186},{"line":1,"is_transit":false,"station_name":"Sudirman Baru","i_lat":-6.201433,"station_id":"SUDB","transit":false,"time":1,"distance":280,"i_long":106.819881},{"line":1,"station_name":"Karet","transit":false,"i_long":106.816351,"time":1,"is_transit":false,"station_id":"KAT","distance":471,"i_lat":-6.20132},{"station_name":"Tanah Abang","is_transit":true,"station_id":"THB","time":5,"line":1,"distance":2029,"i_lat":-6.185545,"transit":true,"i_long":106.811091},{"station_id":"PLM","time":6,"i_long":106.79689,"i_lat":-6.207404,"transit":false,"is_transit":false,"distance":3191,"station_name":"Palmerah","line":6},{"i_lat":-6.237242,"line":6,"distance":3737,"transit":false,"station_id":"KBY","i_long":106.780334,"is_transit":false,"time":7,"station_name":"Kebayoran"},{"transit":false,"distance":6218,"is_transit":false,"i_long":106.74273,"station_id":"PDJ","time":8,"station_name":"Pondokranji","i_lat":-6.276362,"line":6},{"station_name":"Jurangmangu","i_long":106.728916,"is_transit":false,"distance":2179,"transit":false,"line":6,"station_id":"JMU","time":3,"i_lat":-6.288927},{"station_id":"SDM","time":4,"i_lat":-6.296963,"is_transit":false,"station_name":"Sudimara","transit":false,"distance":1994,"i_long":106.712277,"line":6},{"is_transit":false,"line":6,"transit":false,"station_id":"RU","i_long":106.675475,"distance":4566,"i_lat":-6.314823,"station_name":"Rawa Buntu","time":6},{"line":6,"i_lat":-6.319871,"station_name":"Serpong","transit":false,"is_transit":false,"time":4,"distance":2413,"station_id":"SRP","i_long":106.66566},{"station_id":"CSK","i_lat":-6.32484,"is_transit":false,"distance":1784,"i_long":106.640411,"line":3,"transit":false,"station_name":"Cisauk","time":4},{"transit":false,"i_long":106.617853,"time":4,"station_name":"Cicayur","is_transit":false,"distance":2519,"i_lat":-6.329547,"line":3,"station_id":"CC"},{"station_name":"Parung Panjang","distance":5968,"i_long":106.568863,"time":8,"line":6,"i_lat":-6.3441410000000005,"is_transit":false,"transit":false,"station_id":"PRP"},{"is_transit":false,"transit":false,"i_lat":-6.354349,"time":9,"distance":7025,"station_name":"Cilejit","station_id":"CJT","line":3,"i_long":106.508482},{"is_transit":false,"time":6,"i_lat":-6.338021,"station_name":"Daru","line":0,"transit":false,"station_id":"DAR","distance":2675,"i_long":106.491338},{"is_transit":false,"time":5,"line":6,"station_id":"TEJ","transit":false,"station_name":"Tenjo","distance":3902,"i_lat":-6.327251,"i_long":106.460812},{"station_id":"TGS","station_name":"Tigaraksa","transit":false,"line":6,"distance":2974,"time":5,"i_lat":-6.328533,"i_long":106.425991,"is_transit":false},{"distance":2651,"i_lat":-6.33561,"line":3,"is_transit":false,"station_id":"CKY","time":3,"station_name":"Cikoya","i_long":106.411216,"transit":false},{"i_lat":-6.332307,"transit":false,"i_long":106.394373,"station_id":"MJ","time":4,"line":6,"station_name":"Maja","distance":1853,"is_transit":false},{"i_long":106.332092,"distance":7293,"station_name":"Citeras","transit":false,"i_lat":-6.334892,"line":3,"is_transit":false,"time":10,"station_id":"CTR"}]]}