{"data":[[{"line":0,"distance":0,"is_transit":true,"station_id":"JNG","transit":false,"i_lat":-6.215091,"time":0,"station_name":"Jatinegara","i_long":106.86807400000001},{"station_name":"Matraman","transit":false,"time":2,"station_id":"MTR","distance":1377,"i_lat":-6.212485,"i_long":106.858896,"is_transit":false,"line":1},{"distance":1275,"station_name":"Manggarai","station_id":"MRI","time":2,"transit":false,"line":0,"i_long":106.84912,"i_lat":-6.209883,"is_transit":true}],[{"i_lat":-6.215091,"i_long":106.86807400000001,"station_name":"Jatinegara","line":0,"is_transit":true,"time":0,"transit":false,"distance":0,"station_id":"JNG"},{"station_id":"POK","distance":1236,"is_transit":false,"i_lat":-6.209188,"station_name":"Pondok Jati","line":11,"transit":false,"time":2,"i_long":106.861737},{"distance":1829,"is_transit":false,"station_id":"KMT","i_lat":-6.193792,"i_long":106.855437,"station_name":"Kramat","line":11,"time":2,"transit":false},{"is_transit":false,"station_name":"Gang Sentiong","station_id":"GST","i_long":106.850107,"time":1,"line":11,"transit":false,"distance":973,"i_lat":-6.185975},{"time":8,"i_lat":-6.174784,"i_long":106.84368,"distance":1567,"station_name":"Pasar Senen","is_transit":false,"station_id":"PSE","transit":false,"line":11},{"i_lat":-6.161728,"i_long":106.839204,"distance":1436,"station_id":"KMO","line":11,"is_transit":false,"transit":false,"station_name":"Kemayoran","time":4},{"line":11,"station_id":"RJW","station_name":"Rajawali","is_transit":false,"transit":false,"time":5,"distance":1901,"i_long":106.836569,"i_lat":-6.14505},{"station_name":"Kampung Bandan","station_id":"KPB","transit":true,"i_lat":-6.132549,"time":3,"i_long":106.826365,"distance":1444,"line":0,"is_transit":true},{"i_long":106.79867,"is_transit":false,"i_lat":-6.144674,"distance":4102,"transit":false,"time":9,"station_name":"Angke","station_id":"AK","line":0},{"transit":true,"i_long":106.800832,"station_name":"Duri","distance":1230,"i_lat":-6.155215,"line":1,"time":4,"station_id":"DU","is_transit":true},{"station_id":"THB","time":8,"line":1,"i_lat":-6.185545,"station_name":"Tanah Abang","is_transit":true,"distance":3632,"transit":false,"i_long":106.811091},{"is_transit":false,"i_lat":-6.20132,"i_long":106.816351,"line":1,"distance":2029,"station_id":"KAT","time":5,"transit":false,"station_name":"Karet"},{"line":1,"station_id":"SUDB","transit":false,"i_lat":-6.201433,"station_name":"Sudirman Baru","i_long":106.819881,"is_transit":false,"time":1,"distance":471},{"is_transit":false,"i_lat":-6.202263,"distance":280,"i_long":106.822649,"line":1,"station_id":"SUD","station_name":"Sudirman","time":1,"transit":false},{"distance":3186,"transit":false,"line":0,"station_name":"Manggarai","is_transit":true,"i_long":106.84912,"i_lat":-6.209883,"station_id":"MRI","time":4}],[{"time":0,"i_lat":-6.215091,"transit":false,"line":0,"station_id":"JNG","is_transit":true,"distance":0,"station_name":"Jatinegara","i_long":106.86807400000001},{"station_id":"POK","distance":1236,"transit":false,"i_long":106.861737,"is_transit":false,"i_lat":-6.209188,"line":11,"time":2,"station_name":"Pondok Jati"},{"distance":1829,"i_lat":-6.193792,"is_transit":false,"time":2,"station_name":"Kramat","i_long":106.855437,"station_id":"KMT","transit":false,"line":11},{"line":11,"station_name":"Gang Sentiong","distance":973,"time":1,"i_long":106.850107,"transit":false,"station_id":"GST","i_lat":-6.185975,"is_transit":false},{"i_long":106.84368,"i_lat":-6.174784,"station_name":"Pasar Senen","time":8,"station_id":"PSE","transit":false,"is_transit":false,"line":11,"distance":1567},{"is_transit":false,"i_lat":-6.161728,"station_id":"KMO","i_long":106.839204,"distance":1436,"line":11,"station_name":"Kemayoran","time":4,"transit":false},{"station_id":"RJW","transit":false,"distance":1901,"line":11,"is_transit":false,"station_name":"Rajawali","time":5,"i_lat":-6.14505,"i_long":106.836569},{"i_long":106.826365,"station_name":"Kampung Bandan","is_transit":true,"time":3,"i_lat":-6.132549,"line":0,"station_id":"KPB","distance":1444,"transit":true},{"is_transit":true,"distance":1364,"station_id":"JAKK","transit":true,"i_lat":-6.137569,"i_long":106.812439,"line":0,"time":3,"station_name":"Jakarta Kota"},{"i_long":106.820901,"time":4,"distance":1264,"station_id":"JAY","line":7,"i_lat":-6.141205,"is_transit":false,"station_name":"Jayakarta","transit":false},{"is_transit":false,"time":2,"distance":1080,"transit":false,"i_lat":-6.149769,"station_name":"Manggabesar","line":2,"station_id":"MGB","i_long":106.82482},{"transit":false,"i_lat":-6.160725,"station_id":"SW","time":2,"distance":906,"i_long":106.827103,"line":2,"station_name":"Sawah Besar","is_transit":false},{"station_id":"JUA","distance":1149,"i_lat":-6.166716,"is_transit":false,"transit":false,"line":2,"i_long":106.828284,"time":2,"station_name":"Juanda"},{"transit":false,"station_id":"GDD","station_name":"Gondangdia","i_lat":-6.186295,"time":4,"i_long":106.832183,"distance":2015,"line":2,"is_transit":false},{"i_lat":-6.198556,"station_name":"Cikini","time":3,"transit":false,"station_id":"CKI","is_transit":false,"distance":1750,"i_long":106.840169,"line":0},{"station_name":"Manggarai","transit":false,"i_lat":-6.209883,"station_id":"MRI","is_transit":true,"distance":1590,"i_long":106.84912,"line":0,"time":4}]]}