{"data":[[{"i_lat":-6.215091,"station_id":"JNG","is_transit":true,"distance":0,"station_name":"Jatinegara","i_long":106.86807400000001,"line":0,"time":0,"transit":false},{"time":2,"is_transit":false,"i_long":106.858896,"distance":1377,"station_name":"Matraman","i_lat":-6.212485,"line":1,"transit":false,"station_id":"MTR"},{"time":2,"station_id":"MRI","is_transit":true,"distance":1275,"i_lat":-6.209883,"station_name":"Manggarai","i_long":106.84912,"transit":false,"line":0},{"is_transit":false,"i_long":106.822649,"time":4,"distance":3186,"station_name":"Sudirman","i_lat":-6.202263,"line":1,"transit":false,"station_id":"SUD"},{"distance":280,"i_lat":-6.201433,"i_long":106.819881,"station_id":"SUDB","station_name":"Sudirman Baru","time":1,"line":1,"transit":false,"is_transit":false},{"station_name":"Karet","is_transit":false,"station_id":"KAT","i_long":106.816351,"distance":471,"i_lat":-6.20132,"line":1,"time":1,"transit":false},{"distance":2029,"transit":true,"i_long":106.811091,"line":1,"station_id":"THB","is_transit":true,"time":5,"station_name":"Tanah Abang","i_lat":-6.185545},{"line":6,"transit":false,"i_long":106.79689,"distance":3191,"is_transit":false,"station_name":"Palmerah","station_id":"PLM","i_lat":-6.207404,"time":6},{"i_lat":-6.237242,"transit":false,"i_long":106.780334,"line":6,"station_id":"KBY","time":7,"station_name":"Kebayoran","distance":3737,"is_transit":false},{"station_id":"PDJ","transit":false,"i_lat":-6.276362,"i_long":106.74273,"time":8,"distance":6218,"is_transit":false,"station_name":"Pondokranji","line":6},{"line":6,"transit":false,"i_long":106.728916,"station_name":"Jurangmangu","i_lat":-6.288927,"station_id":"JMU","time":3,"is_transit":false,"distance":2179},{"i_lat":-6.296963,"line":6,"distance":1994,"time":4,"is_transit":false,"transit":false,"station_id":"SDM","station_name":"Sudimara","i_long":106.712277},{"transit":false,"distance":4566,"i_lat":-6.314823,"line":6,"i_long":106.675475,"station_id":"RU","time":6,"station_name":"Rawa Buntu","is_transit":false},{"is_transit":false,"station_name":"Serpong","station_id":"SRP","i_lat":-6.319871,"line":6,"transit":false,"distance":2413,"i_long":106.66566,"time":4},{"is_transit":false,"distance":1784,"i_lat":-6.32484,"station_id":"CSK","time":4,"line":0,"station_name":"Cisauk","transit":false,"i_long":106.640411},{"is_transit":false,"distance":2519,"transit":false,"time":4,"station_name":"Cicayur","i_lat":-6.329547,"station_id":"CC","i_long":106.617853,"line":0},{"transit":false,"i_long":106.568863,"line":6,"station_id":"PRP","is_transit":false,"distance":5968,"i_lat":-6.3441410000000005,"station_name":"Parung Panjang","time":8},{"station_name":"Cilejit","distance":7025,"transit":false,"i_long":106.508482,"station_id":"CJT","is_transit":false,"line":0,"time":9,"i_lat":-6.354349},{"i_long":106.491338,"is_transit":false,"i_lat":-6.338021,"time":6,"station_id":"DAR","station_name":"Daru","distance":2675,"transit":false,"line":0}],[{"station_id":"JNG","is_transit":true,"distance":0,"station_name":"Jatinegara","i_lat":-6.215091,"i_long":106.86807400000001,"transit":false,"time":0,"line":0},{"transit":false,"distance":1236,"is_transit":false,"line":11,"station_name":"Pondok Jati","time":2,"station_id":"POK","i_lat":-6.209188,"i_long":106.861737},{"time":2,"line":11,"station_name":"Kramat","transit":false,"i_lat":-6.193792,"station_id":"KMT","i_long":106.855437,"is_transit":false,"distance":1829},{"station_name":"Gang Sentiong","line":11,"i_lat":-6.185975,"time":1,"station_id":"GST","distance":973,"i_long":106.850107,"transit":false,"is_transit":false},{"transit":false,"time":8,"i_lat":-6.174784,"i_long":106.84368,"line":11,"station_name":"Pasar Senen","distance":1567,"station_id":"PSE","is_transit":false},{"transit":false,"station_id":"KMO","station_name":"Kemayoran","time":4,"i_long":106.839204,"is_transit":false,"line":11,"i_lat":-6.161728,"distance":1436},{"line":11,"i_lat":-6.14505,"time":5,"is_transit":false,"station_id":"RJW","distance":1901,"transit":false,"i_long":106.836569,"station_name":"Rajawali"},{"i_lat":-6.132549,"distance":1444,"transit":true,"i_long":106.826365,"station_id":"KPB","is_transit":true,"time":3,"line":0,"station_name":"Kampung Bandan"},{"line":0,"station_id":"AK","i_lat":-6.144674,"i_long":106.79867,"transit":false,"time":9,"distance":4102,"station_name":"Angke","is_transit":false},{"line":1,"station_name":"Duri","time":4,"station_id":"DU","distance":1230,"is_transit":true,"transit":true,"i_lat":-6.155215,"i_long":106.800832},{"is_transit":true,"i_long":106.811091,"station_id":"THB","time":8,"distance":3632,"station_name":"Tanah Abang","transit":true,"line":1,"i_lat":-6.185545},{"station_name":"Palmerah","i_lat":-6.207404,"time":6,"station_id":"PLM","distance":3191,"is_transit":false,"transit":false,"i_long":106.79689,"line":6},{"i_lat":-6.237242,"is_transit":false,"i_long":106.780334,"line":6,"station_name":"Kebayoran","station_id":"KBY","time":7,"transit":false,"distance":3737},{"i_lat":-6.276362,"line":6,"station_name":"Pondokranji","i_long":106.74273,"is_transit":false,"transit":false,"distance":6218,"time":8,"station_id":"PDJ"},{"i_lat":-6.288927,"station_id":"JMU","is_transit":false,"transit":false,"line":6,"i_long":106.728916,"distance":2179,"time":3,"station_name":"Jurangmangu"},{"i_lat":-6.296963,"station_id":"SDM","time":4,"is_transit":false,"station_name":"Sudimara","distance":1994,"transit":false,"i_long":106.712277,"line":6},{"is_transit":false,"i_lat":-6.314823,"station_id":"RU","transit":false,"station_name":"Rawa Buntu","line":6,"time":6,"distance":4566,"i_long":106.675475},{"transit":false,"i_long":106.66566,"i_lat":-6.319871,"station_id":"SRP","is_transit":false,"station_name":"Serpong","line":6,"distance":2413,"time":4},{"station_name":"Cisauk","time":4,"distance":1784,"line":0,"is_transit":false,"i_long":106.640411,"i_lat":-6.32484,"station_id":"CSK","transit":false},{"station_id":"CC","station_name":"Cicayur","time":4,"transit":false,"i_lat":-6.329547,"is_transit":false,"distance":2519,"i_long":106.617853,"line":0},{"i_long":106.568863,"line":6,"station_id":"PRP","distance":5968,"is_transit":false,"transit":false,"time":8,"station_name":"Parung Panjang","i_lat":-6.3441410000000005},{"i_long":106.508482,"transit":false,"station_name":"Cilejit","distance":7025,"station_id":"CJT","is_transit":false,"line":0,"time":9,"i_lat":-6.354349},{"distance":2675,"i_lat":-6.338021,"time":6,"station_name":"Daru","i_long":106.491338,"station_id":"DAR","is_transit":false,"transit":false,"line":0}],[{"time":0,"station_name":"Jatinegara","is_transit":true,"transit":false,"i_long":106.86807400000001,"station_id":"JNG","distance":0,"i_lat":-6.215091,"line":0},{"i_long":106.858896,"time":2,"station_name":"Matraman","distance":1377,"i_lat":-6.212485,"line":1,"station_id":"MTR","transit":false,"is_transit":false},{"station_id":"MRI","distance":1275,"time":2,"station_name":"Manggarai","line":0,"i_lat":-6.209883,"is_transit":true,"transit":true,"i_long":106.84912},{"i_long":106.840169,"line":0,"i_lat":-6.198556,"distance":1590,"station_name":"Cikini","is_transit":false,"station_id":"CKI","time":4,"transit":false},{"i_lat":-6.186295,"is_transit":false,"distance":1750,"station_name":"Gondangdia","transit":false,"line":2,"station_id":"GDD","i_long":106.832183,"time":3},{"station_id":"JUA","station_name":"Juanda","distance":2015,"transit":false,"i_long":106.828284,"i_lat":-6.166716,"time":4,"is_transit":false,"line":2},{"i_lat":-6.160725,"is_transit":false,"i_long":106.827103,"transit":false,"distance":1149,"time":2,"line":2,"station_id":"SW","station_name":"Sawah Besar"},{"station_id":"MGB","transit":false,"station_name":"Manggabesar","i_long":106.82482,"line":2,"distance":906,"time":2,"is_transit":false,"i_lat":-6.149769},{"station_id":"JAY","is_transit":false,"line":7,"i_lat":-6.141205,"station_name":"Jayakarta","i_long":106.820901,"distance":1080,"transit":false,"time":2},{"transit":true,"station_id":"JAKK","time":4,"i_long":106.812439,"distance":1264,"i_lat":-6.137569,"is_transit":true,"station_name":"Jakarta Kota","line":0},{"i_long":106.826365,"i_lat":-6.132549,"is_transit":true,"transit":false,"time":3,"station_id":"KPB","line":0,"station_name":"Kampung Bandan","distance":1364},{"i_lat":-6.144674,"line":0,"station_id":"AK","i_long":106.79867,"distance":4102,"is_transit":false,"time":9,"station_name":"Angke","transit":false},{"line":1,"i_long":106.800832,"is_transit":true,"time":4,"station_id":"DU","station_name":"Duri","distance":1230,"transit":true,"i_lat":-6.155215},{"time":8,"transit":true,"station_id":"THB","is_transit":true,"distance":3632,"i_lat":-6.185545,"i_long":106.811091,"line":1,"station_name":"Tanah Abang"},{"line":6,"distance":3191,"transit":false,"time":6,"i_long":106.79689,"is_transit":false,"station_name":"Palmerah","station_id":"PLM","i_lat":-6.207404},{"i_long":106.780334,"line":6,"station_id":"KBY","transit":false,"distance":3737,"time":7,"is_transit":false,"station_name":"Kebayoran","i_lat":-6.237242},{"transit":false,"station_id":"PDJ","time":8,"station_name":"Pondokranji","i_long":106.74273,"line":6,"distance":6218,"i_lat":-6.276362,"is_transit":false},{"transit":false,"station_name":"Jurangmangu","line":6,"is_transit":false,"i_long":106.728916,"distance":2179,"i_lat":-6.288927,"station_id":"JMU","time":3},{"time":4,"station_id":"SDM","is_transit":false,"i_lat":-6.296963,"i_long":106.712277,"transit":false,"distance":1994,"line":6,"station_name":"Sudimara"},{"i_lat":-6.314823,"station_id":"RU","station_name":"Rawa Buntu","i_long":106.675475,"transit":false,"time":6,"is_transit":false,"distance":4566,"line":6},{"is_transit":false,"time":4,"station_id":"SRP","station_name":"Serpong","transit":false,"i_lat":-6.319871,"i_long":106.66566,"distance":2413,"line":6},{"transit":false,"line":0,"is_transit":false,"time":4,"station_name":"Cisauk","i_lat":-6.32484,"distance":1784,"i_long":106.640411,"station_id":"CSK"},{"i_long":106.617853,"line":0,"is_transit":false,"distance":2519,"station_name":"Cicayur","station_id":"CC","transit":false,"i_lat":-6.329547,"time":4},{"transit":false,"is_transit":false,"distance":5968,"i_long":106.568863,"line":6,"time":8,"i_lat":-6.3441410000000005,"station_id":"PRP","station_name":"Parung Panjang"},{"distance":7025,"station_name":"Cilejit","i_lat":-6.354349,"is_transit":false,"station_id":"CJT","i_long":106.508482,"line":0,"time":9,"transit":false},{"i_lat":-6.338021,"time":6,"station_id":"DAR","distance":2675,"i_long":106.491338,"line":0,"transit":false,"station_name":"Daru","is_transit":false}],[{"is_transit":true,"station_name":"Jatinegara","i_lat":-6.215091,"line":0,"time":0,"transit":false,"i_long":106.86807400000001,"station_id":"JNG","distance":0},{"time":2,"station_name":"Pondok Jati","i_long":106.861737,"is_transit":false,"distance":1236,"transit":false,"line":11,"station_id":"POK","i_lat":-6.209188},{"transit":false,"distance":1829,"station_name":"Kramat","i_long":106.855437,"line":11,"is_transit":false,"i_lat":-6.193792,"time":2,"station_id":"KMT"},{"time":1,"transit":false,"is_transit":false,"station_name":"Gang Sentiong","i_lat":-6.185975,"distance":973,"i_long":106.850107,"line":11,"station_id":"GST"},{"is_transit":false,"i_lat":-6.174784,"i_long":106.84368,"time":8,"distance":1567,"station_name":"Pasar Senen","station_id":"PSE","transit":false,"line":11},{"station_id":"KMO","station_name":"Kemayoran","distance":1436,"i_lat":-6.161728,"transit":false,"i_long":106.839204,"line":11,"time":4,"is_transit":false},{"station_name":"Rajawali","i_long":106.836569,"transit":false,"station_id":"RJW","is_transit":false,"time":5,"distance":1901,"i_lat":-6.14505,"line":11},{"line":0,"station_id":"KPB","station_name":"Kampung Bandan","transit":true,"i_lat":-6.132549,"time":3,"i_long":106.826365,"distance":1444,"is_transit":true},{"distance":1364,"i_lat":-6.137569,"station_name":"Jakarta Kota","line":0,"time":3,"i_long":106.812439,"station_id":"JAKK","is_transit":true,"transit":true},{"is_transit":false,"time":4,"station_name":"Jayakarta","transit":false,"distance":1264,"line":7,"i_long":106.820901,"station_id":"JAY","i_lat":-6.141205},{"transit":false,"time":2,"i_lat":-6.149769,"station_id":"MGB","line":2,"station_name":"Manggabesar","distance":1080,"i_long":106.82482,"is_transit":false},{"station_name":"Sawah Besar","station_id":"SW","distance":906,"i_lat":-6.160725,"time":2,"transit":false,"is_transit":false,"i_long":106.827103,"line":2},{"is_transit":false,"line":2,"station_name":"Juanda","i_lat":-6.166716,"i_long":106.828284,"time":2,"station_id":"JUA","distance":1149,"transit":false},{"station_name":"Gondangdia","i_long":106.832183,"is_transit":false,"i_lat":-6.186295,"station_id":"GDD","transit":false,"line":2,"time":4,"distance":2015},{"station_name":"Cikini","distance":1750,"is_transit":false,"i_lat":-6.198556,"transit":false,"line":0,"i_long":106.840169,"time":3,"station_id":"CKI"},{"line":0,"is_transit":true,"i_lat":-6.209883,"station_name":"Manggarai","transit":true,"i_long":106.84912,"station_id":"MRI","distance":1590,"time":4},{"is_transit":false,"i_lat":-6.202263,"line":1,"station_id":"SUD","station_name":"Sudirman","distance":3186,"i_long":106.822649,"time":4,"transit":false},{"transit":false,"line":1,"time":1,"station_name":"Sudirman Baru","station_id":"SUDB","distance":280,"i_lat":-6.201433,"is_transit":false,"i_long":106.819881},{"time":1,"line":1,"i_long":106.816351,"is_transit":false,"station_name":"Karet","distance":471,"station_id":"KAT","transit":false,"i_lat":-6.20132},{"line":1,"time":5,"i_long":106.811091,"is_transit":true,"transit":true,"station_id":"THB","i_lat":-6.185545,"distance":2029,"station_name":"Tanah Abang"},{"distance":3191,"is_transit":false,"i_lat":-6.207404,"i_long":106.79689,"station_name":"Palmerah","time":6,"station_id":"PLM","transit":false,"line":6},{"station_name":"Kebayoran","distance":3737,"i_lat":-6.237242,"station_id":"KBY","i_long":106.780334,"time":7,"line":6,"is_transit":false,"transit":false},{"transit":false,"station_id":"PDJ","distance":6218,"station_name":"Pondokranji","time":8,"i_lat":-6.276362,"i_long":106.74273,"is_transit":false,"line":6},{"station_id":"JMU","transit":false,"time":3,"distance":2179,"is_transit":false,"station_name":"Jurangmangu","i_lat":-6.288927,"i_long":106.728916,"line":6},{"line":6,"station_id":"SDM","time":4,"distance":1994,"station_name":"Sudimara","is_transit":false,"transit":false,"i_lat":-6.296963,"i_long":106.712277},{"transit":false,"i_long":106.675475,"line":6,"i_lat":-6.314823,"station_id":"RU","time":6,"is_transit":false,"distance":4566,"station_name":"Rawa Buntu"},{"distance":2413,"line":6,"station_name":"Serpong","time":4,"is_transit":false,"i_long":106.66566,"transit":false,"i_lat":-6.319871,"station_id":"SRP"},{"i_lat":-6.32484,"station_id":"CSK","is_transit":false,"distance":1784,"station_name":"Cisauk","i_long":106.640411,"time":4,"transit":false,"line":0},{"i_long":106.617853,"time":4,"station_id":"CC","distance":2519,"transit":false,"i_lat":-6.329547,"station_name":"Cicayur","line":0,"is_transit":false},{"i_long":106.568863,"station_name":"Parung Panjang","is_transit":false,"time":8,"distance":5968,"station_id":"PRP","transit":false,"line":6,"i_lat":-6.3441410000000005},{"time":9,"station_name":"Cilejit","station_id":"CJT","i_long":106.508482,"i_lat":-6.354349,"transit":false,"is_transit":false,"distance":7025,"line":0},{"transit":false,"line":0,"i_lat":-6.338021,"is_transit":false,"i_long":106.491338,"station_id":"DAR","station_name":"Daru","distance":2675,"time":6}]]}