{"data":[[{"station_id":"JNG","distance":0,"line":1,"is_transit":false,"transit":false,"time":0,"station_name":"Jatinegara","i_long":106.86807400000001,"i_lat":-6.215091},{"is_transit":false,"i_lat":-6.212485,"distance":1377,"line":1,"time":2,"station_name":"Matraman","station_id":"MTR","transit":false,"i_long":106.858896},{"i_long":106.84912,"distance":1275,"is_transit":false,"i_lat":-6.209883,"time":2,"transit":false,"station_id":"MRI","station_name":"Manggarai","line":2},{"is_transit":false,"time":4,"transit":false,"line":1,"station_id":"SUD","station_name":"Sudirman","i_lat":-6.202263,"distance":3186,"i_long":106.822649},{"time":1,"station_id":"SUDB","is_transit":false,"transit":false,"i_long":106.819881,"i_lat":-6.201433,"line":1,"distance":280,"station_name":"Sudirman Baru"},{"station_name":"Karet","line":1,"i_long":106.816351,"station_id":"KAT","time":1,"transit":false,"distance":471,"is_transit":false,"i_lat":-6.20132},{"is_transit":false,"transit":false,"i_long":106.811091,"distance":2029,"i_lat":-6.185545,"station_name":"Tanah Abang","station_id":"THB","line":1,"time":5},{"i_lat":-6.155215,"time":8,"station_id":"DU","is_transit":true,"line":1,"transit":true,"station_name":"Duri","distance":3632,"i_long":106.800832},{"i_lat":-6.162021,"i_long":106.788277,"line":5,"distance":1700,"time":3,"station_id":"GGL","station_name":"Grogol","transit":false,"is_transit":false},{"station_name":"Pesing","is_transit":false,"distance":2036,"transit":false,"time":2,"line":5,"station_id":"PSG","i_long":106.771379,"i_lat":-6.161433},{"station_name":"Taman Kota","station_id":"TKO","i_lat":-6.1587309999999995,"line":5,"i_long":106.756522,"distance":1614,"time":2,"is_transit":false,"transit":false},{"line":5,"transit":false,"i_lat":-6.159876,"distance":2334,"i_long":106.737035,"station_id":"BOI","station_name":"Bojongindah","time":2,"is_transit":false},{"station_id":"RW","distance":1152,"is_transit":false,"i_long":106.723064,"line":5,"i_lat":-6.162758,"transit":false,"station_name":"Rawa Buaya","time":4},{"station_name":"Kalideres","time":3,"i_long":106.701612,"distance":2504,"station_id":"KDS","transit":false,"i_lat":-6.166068,"line":5,"is_transit":false},{"station_name":"Poris","distance":2548,"station_id":"PI","is_transit":false,"transit":false,"time":3,"i_lat":-6.169933,"i_long":106.679458,"line":5},{"time":3,"distance":1834,"station_name":"Batuceper","is_transit":false,"transit":false,"i_lat":-6.171811,"i_long":106.665036,"line":5,"station_id":"BPR"}],[{"time":0,"distance":0,"station_id":"JNG","transit":false,"i_long":106.86807400000001,"station_name":"Jatinegara","line":1,"i_lat":-6.215091,"is_transit":false},{"station_name":"Pondok Jati","is_transit":false,"time":2,"station_id":"POK","distance":1236,"transit":false,"i_lat":-6.209188,"line":11,"i_long":106.861737},{"distance":1829,"time":2,"i_lat":-6.193792,"station_id":"KMT","line":11,"i_long":106.855437,"is_transit":false,"station_name":"Kramat","transit":false},{"distance":973,"station_id":"GST","i_lat":-6.185975,"transit":false,"station_name":"Gang Sentiong","time":1,"is_transit":false,"i_long":106.850107,"line":11},{"i_lat":-6.174784,"line":11,"i_long":106.84368,"time":8,"is_transit":false,"station_id":"PSE","station_name":"Pasar Senen","distance":1567,"transit":false},{"line":11,"station_id":"KMO","distance":1436,"i_long":106.839204,"is_transit":false,"station_name":"Kemayoran","i_lat":-6.161728,"time":4,"transit":false},{"distance":1901,"station_id":"RJW","i_lat":-6.14505,"time":5,"is_transit":false,"line":11,"i_long":106.836569,"station_name":"Rajawali","transit":false},{"time":3,"transit":true,"i_lat":-6.132549,"is_transit":true,"i_long":106.826365,"distance":1444,"station_id":"KPB","station_name":"Kampung Bandan","line":4},{"time":9,"station_name":"Angke","transit":false,"is_transit":false,"i_lat":-6.144674,"station_id":"AK","line":1,"distance":4102,"i_long":106.79867},{"time":4,"is_transit":true,"station_name":"Duri","station_id":"DU","i_long":106.800832,"line":1,"distance":1230,"transit":true,"i_lat":-6.155215},{"i_lat":-6.162021,"line":5,"station_id":"GGL","is_transit":false,"transit":false,"i_long":106.788277,"time":3,"distance":1700,"station_name":"Grogol"},{"time":2,"transit":false,"distance":2036,"i_lat":-6.161433,"is_transit":false,"station_id":"PSG","station_name":"Pesing","i_long":106.771379,"line":5},{"transit":false,"station_name":"Taman Kota","is_transit":false,"i_long":106.756522,"distance":1614,"time":2,"station_id":"TKO","i_lat":-6.1587309999999995,"line":5},{"station_id":"BOI","time":2,"transit":false,"i_lat":-6.159876,"i_long":106.737035,"is_transit":false,"distance":2334,"station_name":"Bojongindah","line":5},{"i_lat":-6.162758,"distance":1152,"station_id":"RW","line":5,"station_name":"Rawa Buaya","is_transit":false,"transit":false,"i_long":106.723064,"time":4},{"station_name":"Kalideres","time":3,"distance":2504,"is_transit":false,"i_lat":-6.166068,"i_long":106.701612,"line":5,"transit":false,"station_id":"KDS"},{"is_transit":false,"transit":false,"station_name":"Poris","i_long":106.679458,"station_id":"PI","i_lat":-6.169933,"line":5,"time":3,"distance":2548},{"i_long":106.665036,"station_name":"Batuceper","distance":1834,"is_transit":false,"time":3,"i_lat":-6.171811,"line":5,"transit":false,"station_id":"BPR"}],[{"station_name":"Jatinegara","transit":false,"station_id":"JNG","distance":0,"i_long":106.86807400000001,"is_transit":false,"time":0,"line":1,"i_lat":-6.215091},{"line":1,"station_id":"MTR","station_name":"Matraman","distance":1377,"i_lat":-6.212485,"i_long":106.858896,"is_transit":false,"transit":false,"time":2},{"i_long":106.84912,"time":2,"is_transit":true,"station_name":"Manggarai","distance":1275,"transit":true,"station_id":"MRI","line":2,"i_lat":-6.209883},{"line":2,"i_lat":-6.198556,"distance":1590,"transit":false,"i_long":106.840169,"station_name":"Cikini","station_id":"CKI","is_transit":false,"time":4},{"i_lat":-6.186295,"transit":false,"line":2,"is_transit":false,"time":3,"distance":1750,"station_name":"Gondangdia","i_long":106.832183,"station_id":"GDD"},{"station_id":"JUA","station_name":"Juanda","line":2,"transit":false,"is_transit":false,"i_long":106.828284,"time":4,"distance":2015,"i_lat":-6.166716},{"is_transit":false,"distance":1149,"transit":false,"line":2,"time":2,"station_id":"SW","i_long":106.827103,"station_name":"Sawah Besar","i_lat":-6.160725},{"transit":false,"distance":906,"line":2,"i_long":106.82482,"is_transit":false,"time":2,"i_lat":-6.149769,"station_id":"MGB","station_name":"Manggabesar"},{"is_transit":false,"transit":false,"station_id":"JAY","time":2,"distance":1080,"i_lat":-6.141205,"station_name":"Jayakarta","line":2,"i_long":106.820901},{"transit":true,"station_id":"JAKK","i_lat":-6.137569,"i_long":106.812439,"line":2,"is_transit":true,"distance":1264,"station_name":"Jakarta Kota","time":4},{"distance":1364,"transit":true,"station_name":"Kampung Bandan","line":4,"station_id":"KPB","i_long":106.826365,"is_transit":true,"time":3,"i_lat":-6.132549},{"transit":false,"station_id":"AK","station_name":"Angke","time":9,"distance":4102,"i_lat":-6.144674,"is_transit":false,"line":1,"i_long":106.79867},{"station_id":"DU","station_name":"Duri","time":4,"line":1,"i_lat":-6.155215,"i_long":106.800832,"is_transit":true,"distance":1230,"transit":true},{"is_transit":false,"i_long":106.788277,"station_name":"Grogol","time":3,"i_lat":-6.162021,"distance":1700,"transit":false,"line":5,"station_id":"GGL"},{"i_long":106.771379,"transit":false,"line":5,"i_lat":-6.161433,"station_id":"PSG","time":2,"distance":2036,"is_transit":false,"station_name":"Pesing"},{"station_name":"Taman Kota","i_lat":-6.1587309999999995,"transit":false,"station_id":"TKO","time":2,"line":5,"is_transit":false,"distance":1614,"i_long":106.756522},{"transit":false,"line":5,"is_transit":false,"distance":2334,"station_id":"BOI","station_name":"Bojongindah","i_long":106.737035,"time":2,"i_lat":-6.159876},{"time":4,"i_lat":-6.162758,"transit":false,"is_transit":false,"i_long":106.723064,"line":5,"station_id":"RW","station_name":"Rawa Buaya","distance":1152},{"station_name":"Kalideres","station_id":"KDS","time":3,"i_lat":-6.166068,"distance":2504,"is_transit":false,"transit":false,"i_long":106.701612,"line":5},{"distance":2548,"transit":false,"station_name":"Poris","line":5,"time":3,"i_long":106.679458,"i_lat":-6.169933,"station_id":"PI","is_transit":false},{"transit":false,"is_transit":false,"i_lat":-6.171811,"time":3,"line":5,"station_name":"Batuceper","distance":1834,"i_long":106.665036,"station_id":"BPR"}],[{"line":1,"i_long":106.86807400000001,"station_id":"JNG","is_transit":false,"station_name":"Jatinegara","i_lat":-6.215091,"transit":false,"distance":0,"time":0},{"transit":false,"i_lat":-6.209188,"line":11,"station_id":"POK","station_name":"Pondok Jati","distance":1236,"i_long":106.861737,"time":2,"is_transit":false},{"time":2,"station_id":"KMT","is_transit":false,"distance":1829,"i_long":106.855437,"station_name":"Kramat","i_lat":-6.193792,"transit":false,"line":11},{"station_id":"GST","line":11,"is_transit":false,"i_long":106.850107,"time":1,"i_lat":-6.185975,"transit":false,"station_name":"Gang Sentiong","distance":973},{"i_lat":-6.174784,"transit":false,"i_long":106.84368,"is_transit":false,"station_id":"PSE","line":11,"distance":1567,"station_name":"Pasar Senen","time":8},{"station_id":"KMO","transit":false,"distance":1436,"station_name":"Kemayoran","i_lat":-6.161728,"i_long":106.839204,"line":11,"time":4,"is_transit":false},{"is_transit":false,"transit":false,"i_long":106.836569,"station_id":"RJW","station_name":"Rajawali","time":5,"line":11,"i_lat":-6.14505,"distance":1901},{"station_name":"Kampung Bandan","is_transit":true,"transit":true,"distance":1444,"time":3,"i_lat":-6.132549,"station_id":"KPB","i_long":106.826365,"line":4},{"i_lat":-6.137569,"time":3,"line":2,"station_id":"JAKK","transit":true,"is_transit":true,"station_name":"Jakarta Kota","distance":1364,"i_long":106.812439},{"transit":false,"station_name":"Jayakarta","time":4,"line":2,"i_lat":-6.141205,"is_transit":false,"station_id":"JAY","distance":1264,"i_long":106.820901},{"station_id":"MGB","station_name":"Manggabesar","distance":1080,"i_lat":-6.149769,"time":2,"i_long":106.82482,"transit":false,"line":2,"is_transit":false},{"station_name":"Sawah Besar","is_transit":false,"time":2,"i_long":106.827103,"station_id":"SW","distance":906,"line":2,"transit":false,"i_lat":-6.160725},{"station_name":"Juanda","transit":false,"time":2,"i_lat":-6.166716,"line":2,"station_id":"JUA","distance":1149,"is_transit":false,"i_long":106.828284},{"station_name":"Gondangdia","distance":2015,"i_long":106.832183,"line":2,"i_lat":-6.186295,"time":4,"transit":false,"is_transit":false,"station_id":"GDD"},{"station_id":"CKI","line":2,"station_name":"Cikini","distance":1750,"is_transit":false,"i_lat":-6.198556,"i_long":106.840169,"transit":false,"time":3},{"distance":1590,"i_long":106.84912,"station_id":"MRI","time":4,"line":2,"is_transit":true,"station_name":"Manggarai","transit":true,"i_lat":-6.209883},{"station_name":"Sudirman","i_long":106.822649,"line":1,"transit":false,"time":4,"distance":3186,"is_transit":false,"i_lat":-6.202263,"station_id":"SUD"},{"i_long":106.819881,"line":1,"station_id":"SUDB","transit":false,"time":1,"distance":280,"station_name":"Sudirman Baru","is_transit":false,"i_lat":-6.201433},{"i_long":106.816351,"i_lat":-6.20132,"station_id":"KAT","transit":false,"station_name":"Karet","time":1,"line":1,"is_transit":false,"distance":471},{"line":1,"station_name":"Tanah Abang","station_id":"THB","is_transit":false,"i_long":106.811091,"distance":2029,"i_lat":-6.185545,"transit":false,"time":5},{"i_long":106.800832,"station_name":"Duri","station_id":"DU","i_lat":-6.155215,"is_transit":true,"distance":3632,"transit":true,"time":8,"line":1},{"station_id":"GGL","distance":1700,"i_lat":-6.162021,"is_transit":false,"time":3,"i_long":106.788277,"line":5,"station_name":"Grogol","transit":false},{"time":2,"station_name":"Pesing","line":5,"station_id":"PSG","distance":2036,"i_long":106.771379,"is_transit":false,"transit":false,"i_lat":-6.161433},{"station_id":"TKO","distance":1614,"station_name":"Taman Kota","i_lat":-6.1587309999999995,"transit":false,"line":5,"is_transit":false,"time":2,"i_long":106.756522},{"transit":false,"is_transit":false,"time":2,"line":5,"station_name":"Bojongindah","station_id":"BOI","i_lat":-6.159876,"i_long":106.737035,"distance":2334},{"station_name":"Rawa Buaya","time":4,"i_lat":-6.162758,"station_id":"RW","transit":false,"is_transit":false,"i_long":106.723064,"distance":1152,"line":5},{"i_lat":-6.166068,"line":5,"station_name":"Kalideres","distance":2504,"is_transit":false,"i_long":106.701612,"time":3,"transit":false,"station_id":"KDS"},{"i_long":106.679458,"station_id":"PI","distance":2548,"transit":false,"station_name":"Poris","line":5,"i_lat":-6.169933,"time":3,"is_transit":false},{"line":5,"station_id":"BPR","station_name":"Batuceper","i_lat":-6.171811,"transit":false,"is_transit":false,"distance":1834,"time":3,"i_long":106.665036}]]}