{"data":[[{"is_transit":false,"line":1,"i_long":106.86807400000001,"station_name":"Jatinegara","distance":0,"i_lat":-6.215091,"time":0,"transit":false,"station_id":"JNG"},{"line":1,"time":2,"is_transit":false,"station_id":"MTR","transit":false,"station_name":"Matraman","i_long":106.858896,"distance":1377,"i_lat":-6.212485},{"distance":1275,"station_name":"Manggarai","line":2,"station_id":"MRI","transit":false,"i_lat":-6.209883,"is_transit":false,"i_long":106.84912,"time":2},{"i_long":106.822649,"station_name":"Sudirman","transit":false,"i_lat":-6.202263,"station_id":"SUD","time":4,"distance":3186,"line":1,"is_transit":false},{"i_long":106.819881,"station_id":"SUDB","transit":false,"distance":280,"line":1,"is_transit":false,"time":1,"station_name":"Sudirman Baru","i_lat":-6.201433},{"i_long":106.816351,"transit":false,"line":1,"station_id":"KAT","is_transit":false,"station_name":"Karet","i_lat":-6.20132,"distance":471,"time":1},{"transit":true,"i_lat":-6.185545,"i_long":106.811091,"time":5,"distance":2029,"station_id":"THB","station_name":"Tanah Abang","is_transit":true,"line":1},{"station_name":"Palmerah","distance":3191,"i_lat":-6.207404,"station_id":"PLM","is_transit":false,"line":6,"time":6,"transit":false,"i_long":106.79689}],[{"distance":0,"transit":false,"i_lat":-6.215091,"station_name":"Jatinegara","time":0,"line":1,"i_long":106.86807400000001,"station_id":"JNG","is_transit":false},{"line":11,"transit":false,"station_name":"Pondok Jati","i_long":106.861737,"time":2,"station_id":"POK","i_lat":-6.209188,"is_transit":false,"distance":1236},{"time":2,"transit":false,"i_lat":-6.193792,"station_id":"KMT","station_name":"Kramat","i_long":106.855437,"is_transit":false,"distance":1829,"line":11},{"time":1,"distance":973,"transit":false,"station_name":"Gang Sentiong","i_long":106.850107,"station_id":"GST","is_transit":false,"i_lat":-6.185975,"line":11},{"distance":1567,"transit":false,"station_name":"Pasar Senen","i_lat":-6.174784,"is_transit":false,"time":8,"station_id":"PSE","line":11,"i_long":106.84368},{"station_name":"Kemayoran","i_lat":-6.161728,"i_long":106.839204,"distance":1436,"line":11,"station_id":"KMO","is_transit":false,"transit":false,"time":4},{"transit":false,"i_lat":-6.14505,"time":5,"station_name":"Rajawali","line":11,"station_id":"RJW","is_transit":false,"i_long":106.836569,"distance":1901},{"distance":1444,"i_lat":-6.132549,"station_id":"KPB","transit":true,"is_transit":true,"line":4,"station_name":"Kampung Bandan","time":3,"i_long":106.826365},{"line":1,"transit":false,"station_name":"Angke","i_long":106.79867,"time":9,"distance":4102,"station_id":"AK","i_lat":-6.144674,"is_transit":false},{"station_id":"DU","i_lat":-6.155215,"station_name":"Duri","time":4,"transit":false,"i_long":106.800832,"distance":1230,"is_transit":false,"line":1},{"line":1,"transit":true,"distance":3632,"station_name":"Tanah Abang","station_id":"THB","is_transit":true,"time":8,"i_long":106.811091,"i_lat":-6.185545},{"i_long":106.79689,"station_name":"Palmerah","transit":false,"station_id":"PLM","line":6,"is_transit":false,"i_lat":-6.207404,"time":6,"distance":3191}],[{"station_id":"JNG","i_lat":-6.215091,"distance":0,"time":0,"transit":false,"is_transit":false,"i_long":106.86807400000001,"line":1,"station_name":"Jatinegara"},{"station_id":"MTR","is_transit":false,"i_lat":-6.212485,"transit":false,"i_long":106.858896,"time":2,"line":1,"distance":1377,"station_name":"Matraman"},{"time":2,"distance":1275,"i_lat":-6.209883,"is_transit":true,"line":2,"i_long":106.84912,"station_name":"Manggarai","station_id":"MRI","transit":true},{"time":4,"is_transit":false,"distance":1590,"station_name":"Cikini","transit":false,"i_lat":-6.198556,"station_id":"CKI","i_long":106.840169,"line":2},{"distance":1750,"is_transit":false,"i_lat":-6.186295,"i_long":106.832183,"line":2,"station_id":"GDD","time":3,"station_name":"Gondangdia","transit":false},{"distance":2015,"time":4,"station_name":"Juanda","transit":false,"i_lat":-6.166716,"i_long":106.828284,"is_transit":false,"line":2,"station_id":"JUA"},{"time":2,"station_name":"Sawah Besar","distance":1149,"line":2,"i_lat":-6.160725,"is_transit":false,"station_id":"SW","transit":false,"i_long":106.827103},{"station_id":"MGB","i_long":106.82482,"time":2,"transit":false,"is_transit":false,"station_name":"Manggabesar","i_lat":-6.149769,"line":2,"distance":906},{"is_transit":false,"transit":false,"distance":1080,"i_lat":-6.141205,"i_long":106.820901,"time":2,"station_name":"Jayakarta","line":2,"station_id":"JAY"},{"transit":true,"distance":1264,"station_name":"Jakarta Kota","i_lat":-6.137569,"line":2,"i_long":106.812439,"is_transit":true,"time":4,"station_id":"JAKK"},{"station_id":"KPB","i_lat":-6.132549,"line":4,"is_transit":true,"transit":true,"station_name":"Kampung Bandan","time":3,"distance":1364,"i_long":106.826365},{"i_long":106.79867,"is_transit":false,"distance":4102,"time":9,"line":1,"transit":false,"station_id":"AK","i_lat":-6.144674,"station_name":"Angke"},{"i_lat":-6.155215,"transit":false,"time":4,"station_id":"DU","is_transit":false,"line":1,"i_long":106.800832,"distance":1230,"station_name":"Duri"},{"distance":3632,"transit":true,"i_long":106.811091,"station_name":"Tanah Abang","i_lat":-6.185545,"station_id":"THB","line":1,"is_transit":true,"time":8},{"is_transit":false,"station_name":"Palmerah","station_id":"PLM","distance":3191,"time":6,"line":6,"i_lat":-6.207404,"transit":false,"i_long":106.79689}],[{"distance":0,"time":0,"is_transit":false,"i_long":106.86807400000001,"station_name":"Jatinegara","i_lat":-6.215091,"station_id":"JNG","transit":false,"line":1},{"i_long":106.861737,"is_transit":false,"i_lat":-6.209188,"time":2,"distance":1236,"line":11,"transit":false,"station_name":"Pondok Jati","station_id":"POK"},{"time":2,"i_lat":-6.193792,"is_transit":false,"i_long":106.855437,"line":11,"station_id":"KMT","station_name":"Kramat","distance":1829,"transit":false},{"station_name":"Gang Sentiong","distance":973,"transit":false,"is_transit":false,"line":11,"i_lat":-6.185975,"i_long":106.850107,"time":1,"station_id":"GST"},{"line":11,"station_name":"Pasar Senen","is_transit":false,"distance":1567,"transit":false,"station_id":"PSE","i_long":106.84368,"time":8,"i_lat":-6.174784},{"i_lat":-6.161728,"station_id":"KMO","distance":1436,"line":11,"time":4,"is_transit":false,"transit":false,"i_long":106.839204,"station_name":"Kemayoran"},{"is_transit":false,"station_id":"RJW","transit":false,"i_lat":-6.14505,"line":11,"distance":1901,"station_name":"Rajawali","time":5,"i_long":106.836569},{"station_id":"KPB","is_transit":true,"distance":1444,"transit":true,"i_long":106.826365,"time":3,"i_lat":-6.132549,"line":4,"station_name":"Kampung Bandan"},{"i_long":106.812439,"time":3,"is_transit":true,"i_lat":-6.137569,"transit":true,"station_name":"Jakarta Kota","line":2,"distance":1364,"station_id":"JAKK"},{"distance":1264,"i_lat":-6.141205,"station_id":"JAY","time":4,"line":2,"i_long":106.820901,"station_name":"Jayakarta","is_transit":false,"transit":false},{"is_transit":false,"i_lat":-6.149769,"i_long":106.82482,"transit":false,"station_name":"Manggabesar","distance":1080,"station_id":"MGB","time":2,"line":2},{"station_name":"Sawah Besar","station_id":"SW","line":2,"i_long":106.827103,"time":2,"i_lat":-6.160725,"distance":906,"is_transit":false,"transit":false},{"transit":false,"time":2,"i_lat":-6.166716,"distance":1149,"line":2,"station_name":"Juanda","station_id":"JUA","i_long":106.828284,"is_transit":false},{"i_long":106.832183,"is_transit":false,"time":4,"station_name":"Gondangdia","transit":false,"i_lat":-6.186295,"station_id":"GDD","line":2,"distance":2015},{"station_id":"CKI","is_transit":false,"i_long":106.840169,"i_lat":-6.198556,"line":2,"transit":false,"time":3,"station_name":"Cikini","distance":1750},{"transit":true,"i_long":106.84912,"is_transit":true,"i_lat":-6.209883,"station_id":"MRI","station_name":"Manggarai","line":2,"distance":1590,"time":4},{"i_long":106.822649,"line":1,"distance":3186,"station_name":"Sudirman","i_lat":-6.202263,"is_transit":false,"time":4,"station_id":"SUD","transit":false},{"distance":280,"line":1,"transit":false,"station_name":"Sudirman Baru","station_id":"SUDB","is_transit":false,"time":1,"i_lat":-6.201433,"i_long":106.819881},{"distance":471,"i_long":106.816351,"line":1,"station_id":"KAT","is_transit":false,"time":1,"station_name":"Karet","transit":false,"i_lat":-6.20132},{"is_transit":true,"station_id":"THB","station_name":"Tanah Abang","i_long":106.811091,"transit":true,"line":1,"distance":2029,"i_lat":-6.185545,"time":5},{"is_transit":false,"distance":3191,"i_lat":-6.207404,"line":6,"i_long":106.79689,"station_name":"Palmerah","time":6,"station_id":"PLM","transit":false}]]}