{"data":[[{"transit":false,"line":1,"station_id":"JNG","distance":0,"station_name":"Jatinegara","i_lat":-6.215091,"i_long":106.86807400000001,"time":0,"is_transit":false},{"distance":1377,"transit":false,"is_transit":false,"station_name":"Matraman","time":2,"station_id":"MTR","i_lat":-6.212485,"i_long":106.858896,"line":1},{"time":2,"i_long":106.84912,"is_transit":false,"distance":1275,"i_lat":-6.209883,"line":2,"transit":false,"station_id":"MRI","station_name":"Manggarai"},{"time":4,"station_name":"Sudirman","i_long":106.822649,"is_transit":false,"transit":false,"distance":3186,"i_lat":-6.202263,"line":1,"station_id":"SUD"},{"distance":280,"transit":false,"station_id":"SUDB","i_lat":-6.201433,"line":1,"time":1,"station_name":"Sudirman Baru","is_transit":false,"i_long":106.819881},{"is_transit":false,"station_id":"KAT","station_name":"Karet","i_lat":-6.20132,"line":1,"transit":false,"distance":471,"i_long":106.816351,"time":1},{"station_id":"THB","distance":2029,"time":5,"i_long":106.811091,"station_name":"Tanah Abang","transit":false,"is_transit":false,"i_lat":-6.185545,"line":1},{"station_name":"Duri","distance":3632,"i_lat":-6.155215,"is_transit":true,"transit":true,"station_id":"DU","time":8,"i_long":106.800832,"line":1},{"transit":false,"station_name":"Grogol","time":3,"line":5,"i_long":106.788277,"station_id":"GGL","i_lat":-6.162021,"is_transit":false,"distance":1700},{"i_lat":-6.161433,"station_name":"Pesing","station_id":"PSG","is_transit":false,"time":2,"transit":false,"distance":2036,"i_long":106.771379,"line":5},{"station_id":"TKO","distance":1614,"line":5,"transit":false,"time":2,"i_long":106.756522,"is_transit":false,"i_lat":-6.1587309999999995,"station_name":"Taman Kota"},{"station_name":"Bojongindah","time":2,"transit":false,"i_long":106.737035,"station_id":"BOI","line":5,"distance":2334,"i_lat":-6.159876,"is_transit":false},{"transit":false,"station_name":"Rawa Buaya","i_long":106.723064,"distance":1152,"is_transit":false,"time":4,"i_lat":-6.162758,"station_id":"RW","line":5},{"line":5,"is_transit":false,"i_lat":-6.166068,"i_long":106.701612,"station_id":"KDS","transit":false,"station_name":"Kalideres","time":3,"distance":2504},{"transit":false,"i_long":106.679458,"station_name":"Poris","station_id":"PI","distance":2548,"i_lat":-6.169933,"line":5,"is_transit":false,"time":3},{"distance":1834,"transit":false,"i_lat":-6.171811,"i_long":106.665036,"is_transit":false,"time":3,"line":5,"station_id":"BPR","station_name":"Batuceper"}],[{"distance":0,"is_transit":false,"i_long":106.86807400000001,"line":1,"station_name":"Jatinegara","i_lat":-6.215091,"transit":false,"time":0,"station_id":"JNG"},{"line":11,"station_name":"Pondok Jati","time":2,"station_id":"POK","distance":1236,"i_lat":-6.209188,"i_long":106.861737,"transit":false,"is_transit":false},{"is_transit":false,"station_id":"KMT","distance":1829,"time":2,"i_lat":-6.193792,"i_long":106.855437,"station_name":"Kramat","transit":false,"line":11},{"is_transit":false,"station_id":"GST","station_name":"Gang Sentiong","distance":973,"time":1,"i_lat":-6.185975,"i_long":106.850107,"transit":false,"line":11},{"station_name":"Pasar Senen","station_id":"PSE","i_long":106.84368,"time":8,"distance":1567,"i_lat":-6.174784,"is_transit":false,"line":11,"transit":false},{"distance":1436,"i_long":106.839204,"time":4,"line":11,"station_name":"Kemayoran","is_transit":false,"transit":false,"station_id":"KMO","i_lat":-6.161728},{"line":11,"time":5,"distance":1901,"station_name":"Rajawali","transit":false,"is_transit":false,"i_lat":-6.14505,"i_long":106.836569,"station_id":"RJW"},{"station_name":"Kampung Bandan","time":3,"line":4,"transit":true,"distance":1444,"i_lat":-6.132549,"is_transit":true,"i_long":106.826365,"station_id":"KPB"},{"i_lat":-6.144674,"distance":4102,"transit":false,"i_long":106.79867,"time":9,"station_id":"AK","station_name":"Angke","line":1,"is_transit":false},{"i_long":106.800832,"time":4,"distance":1230,"is_transit":true,"station_name":"Duri","i_lat":-6.155215,"transit":true,"station_id":"DU","line":1},{"station_id":"GGL","i_lat":-6.162021,"line":5,"distance":1700,"i_long":106.788277,"is_transit":false,"station_name":"Grogol","transit":false,"time":3},{"i_lat":-6.161433,"line":5,"distance":2036,"i_long":106.771379,"is_transit":false,"station_name":"Pesing","station_id":"PSG","time":2,"transit":false},{"i_lat":-6.1587309999999995,"transit":false,"station_id":"TKO","time":2,"distance":1614,"station_name":"Taman Kota","i_long":106.756522,"line":5,"is_transit":false},{"station_name":"Bojongindah","is_transit":false,"station_id":"BOI","distance":2334,"line":5,"i_lat":-6.159876,"transit":false,"time":2,"i_long":106.737035},{"time":4,"is_transit":false,"i_long":106.723064,"transit":false,"line":5,"distance":1152,"station_id":"RW","station_name":"Rawa Buaya","i_lat":-6.162758},{"i_lat":-6.166068,"is_transit":false,"line":5,"station_name":"Kalideres","time":3,"transit":false,"station_id":"KDS","i_long":106.701612,"distance":2504},{"time":3,"transit":false,"station_name":"Poris","station_id":"PI","line":5,"is_transit":false,"i_long":106.679458,"distance":2548,"i_lat":-6.169933},{"time":3,"distance":1834,"i_lat":-6.171811,"i_long":106.665036,"transit":false,"station_id":"BPR","line":5,"is_transit":false,"station_name":"Batuceper"}],[{"i_lat":-6.215091,"is_transit":false,"station_name":"Jatinegara","time":0,"station_id":"JNG","distance":0,"transit":false,"i_long":106.86807400000001,"line":1},{"is_transit":false,"station_name":"Matraman","time":2,"line":1,"distance":1377,"station_id":"MTR","i_lat":-6.212485,"i_long":106.858896,"transit":false},{"distance":1275,"is_transit":true,"i_lat":-6.209883,"station_name":"Manggarai","line":2,"station_id":"MRI","i_long":106.84912,"time":2,"transit":true},{"station_name":"Cikini","time":4,"station_id":"CKI","is_transit":false,"distance":1590,"i_lat":-6.198556,"i_long":106.840169,"line":2,"transit":false},{"transit":false,"distance":1750,"i_lat":-6.186295,"time":3,"is_transit":false,"i_long":106.832183,"station_name":"Gondangdia","station_id":"GDD","line":2},{"i_lat":-6.166716,"distance":2015,"is_transit":false,"i_long":106.828284,"line":2,"station_id":"JUA","station_name":"Juanda","transit":false,"time":4},{"time":2,"station_id":"SW","i_lat":-6.160725,"distance":1149,"is_transit":false,"line":2,"i_long":106.827103,"transit":false,"station_name":"Sawah Besar"},{"i_long":106.82482,"distance":906,"line":2,"i_lat":-6.149769,"transit":false,"station_name":"Manggabesar","is_transit":false,"station_id":"MGB","time":2},{"time":2,"station_name":"Jayakarta","i_lat":-6.141205,"station_id":"JAY","is_transit":false,"transit":false,"distance":1080,"line":2,"i_long":106.820901},{"line":2,"time":4,"i_lat":-6.137569,"i_long":106.812439,"station_id":"JAKK","distance":1264,"station_name":"Jakarta Kota","is_transit":true,"transit":true},{"time":3,"i_long":106.826365,"distance":1364,"station_name":"Kampung Bandan","line":4,"is_transit":true,"transit":true,"station_id":"KPB","i_lat":-6.132549},{"station_id":"AK","i_lat":-6.144674,"line":1,"i_long":106.79867,"time":9,"station_name":"Angke","distance":4102,"transit":false,"is_transit":false},{"time":4,"is_transit":true,"station_name":"Duri","station_id":"DU","distance":1230,"i_lat":-6.155215,"transit":true,"line":1,"i_long":106.800832},{"i_long":106.788277,"station_id":"GGL","transit":false,"station_name":"Grogol","distance":1700,"time":3,"i_lat":-6.162021,"line":5,"is_transit":false},{"is_transit":false,"transit":false,"i_lat":-6.161433,"station_name":"Pesing","i_long":106.771379,"distance":2036,"station_id":"PSG","time":2,"line":5},{"station_name":"Taman Kota","station_id":"TKO","distance":1614,"line":5,"time":2,"transit":false,"i_lat":-6.1587309999999995,"i_long":106.756522,"is_transit":false},{"distance":2334,"is_transit":false,"time":2,"line":5,"i_long":106.737035,"transit":false,"i_lat":-6.159876,"station_name":"Bojongindah","station_id":"BOI"},{"is_transit":false,"station_name":"Rawa Buaya","i_lat":-6.162758,"i_long":106.723064,"transit":false,"station_id":"RW","distance":1152,"line":5,"time":4},{"i_lat":-6.166068,"transit":false,"station_name":"Kalideres","station_id":"KDS","distance":2504,"is_transit":false,"time":3,"i_long":106.701612,"line":5},{"is_transit":false,"i_long":106.679458,"station_id":"PI","i_lat":-6.169933,"station_name":"Poris","time":3,"transit":false,"distance":2548,"line":5},{"distance":1834,"i_long":106.665036,"line":5,"time":3,"station_id":"BPR","station_name":"Batuceper","transit":false,"is_transit":false,"i_lat":-6.171811}],[{"is_transit":false,"station_name":"Jatinegara","time":0,"distance":0,"i_long":106.86807400000001,"station_id":"JNG","transit":false,"i_lat":-6.215091,"line":1},{"time":2,"distance":1236,"i_long":106.861737,"is_transit":false,"i_lat":-6.209188,"transit":false,"line":11,"station_name":"Pondok Jati","station_id":"POK"},{"station_name":"Kramat","time":2,"i_long":106.855437,"line":11,"is_transit":false,"transit":false,"station_id":"KMT","i_lat":-6.193792,"distance":1829},{"station_id":"GST","i_lat":-6.185975,"line":11,"is_transit":false,"transit":false,"station_name":"Gang Sentiong","time":1,"i_long":106.850107,"distance":973},{"i_lat":-6.174784,"transit":false,"station_id":"PSE","time":8,"line":11,"i_long":106.84368,"station_name":"Pasar Senen","is_transit":false,"distance":1567},{"station_id":"KMO","i_lat":-6.161728,"line":11,"i_long":106.839204,"distance":1436,"time":4,"is_transit":false,"transit":false,"station_name":"Kemayoran"},{"i_lat":-6.14505,"line":11,"is_transit":false,"station_name":"Rajawali","distance":1901,"time":5,"transit":false,"station_id":"RJW","i_long":106.836569},{"distance":1444,"i_lat":-6.132549,"is_transit":true,"i_long":106.826365,"station_id":"KPB","station_name":"Kampung Bandan","time":3,"transit":true,"line":4},{"transit":true,"i_lat":-6.137569,"line":2,"time":3,"station_id":"JAKK","station_name":"Jakarta Kota","distance":1364,"is_transit":true,"i_long":106.812439},{"time":4,"i_long":106.820901,"line":2,"i_lat":-6.141205,"is_transit":false,"station_id":"JAY","distance":1264,"transit":false,"station_name":"Jayakarta"},{"time":2,"station_name":"Manggabesar","line":2,"transit":false,"distance":1080,"is_transit":false,"station_id":"MGB","i_long":106.82482,"i_lat":-6.149769},{"time":2,"i_long":106.827103,"station_id":"SW","distance":906,"i_lat":-6.160725,"line":2,"station_name":"Sawah Besar","is_transit":false,"transit":false},{"station_name":"Juanda","distance":1149,"transit":false,"line":2,"i_lat":-6.166716,"time":2,"i_long":106.828284,"station_id":"JUA","is_transit":false},{"i_long":106.832183,"station_id":"GDD","line":2,"station_name":"Gondangdia","transit":false,"distance":2015,"i_lat":-6.186295,"is_transit":false,"time":4},{"station_name":"Cikini","station_id":"CKI","i_lat":-6.198556,"time":3,"transit":false,"distance":1750,"i_long":106.840169,"line":2,"is_transit":false},{"distance":1590,"i_long":106.84912,"line":2,"transit":true,"is_transit":true,"station_id":"MRI","time":4,"i_lat":-6.209883,"station_name":"Manggarai"},{"i_lat":-6.202263,"line":1,"is_transit":false,"transit":false,"distance":3186,"i_long":106.822649,"station_name":"Sudirman","time":4,"station_id":"SUD"},{"distance":280,"i_long":106.819881,"line":1,"time":1,"transit":false,"is_transit":false,"station_id":"SUDB","i_lat":-6.201433,"station_name":"Sudirman Baru"},{"is_transit":false,"station_name":"Karet","transit":false,"i_lat":-6.20132,"station_id":"KAT","i_long":106.816351,"line":1,"time":1,"distance":471},{"i_long":106.811091,"i_lat":-6.185545,"station_name":"Tanah Abang","is_transit":false,"time":5,"station_id":"THB","line":1,"distance":2029,"transit":false},{"time":8,"station_name":"Duri","transit":true,"station_id":"DU","distance":3632,"i_lat":-6.155215,"i_long":106.800832,"is_transit":true,"line":1},{"station_name":"Grogol","transit":false,"is_transit":false,"time":3,"station_id":"GGL","distance":1700,"line":5,"i_lat":-6.162021,"i_long":106.788277},{"i_lat":-6.161433,"i_long":106.771379,"line":5,"time":2,"transit":false,"station_name":"Pesing","distance":2036,"is_transit":false,"station_id":"PSG"},{"i_long":106.756522,"transit":false,"time":2,"is_transit":false,"distance":1614,"i_lat":-6.1587309999999995,"station_id":"TKO","line":5,"station_name":"Taman Kota"},{"line":5,"station_id":"BOI","station_name":"Bojongindah","is_transit":false,"time":2,"distance":2334,"i_lat":-6.159876,"i_long":106.737035,"transit":false},{"station_id":"RW","station_name":"Rawa Buaya","distance":1152,"is_transit":false,"i_long":106.723064,"transit":false,"time":4,"i_lat":-6.162758,"line":5},{"time":3,"station_name":"Kalideres","is_transit":false,"i_lat":-6.166068,"station_id":"KDS","distance":2504,"line":5,"i_long":106.701612,"transit":false},{"station_id":"PI","distance":2548,"transit":false,"i_lat":-6.169933,"line":5,"i_long":106.679458,"station_name":"Poris","is_transit":false,"time":3},{"station_id":"BPR","distance":1834,"i_long":106.665036,"is_transit":false,"i_lat":-6.171811,"station_name":"Batuceper","line":5,"time":3,"transit":false}]]}