{"data":[[{"is_transit":true,"station_name":"Jatinegara","i_lat":-6.215091,"station_id":"JNG","transit":false,"i_long":106.86807400000001,"distance":0,"time":0,"line":0},{"station_id":"MTR","time":2,"line":1,"i_long":106.858896,"station_name":"Matraman","distance":1377,"transit":false,"i_lat":-6.212485,"is_transit":false},{"is_transit":true,"station_name":"Manggarai","time":2,"distance":1275,"transit":false,"i_long":106.84912,"line":0,"i_lat":-6.209883,"station_id":"MRI"},{"transit":false,"station_id":"SUD","time":4,"distance":3186,"i_lat":-6.202263,"station_name":"Sudirman","i_long":106.822649,"line":1,"is_transit":false},{"line":1,"i_long":106.819881,"station_id":"SUDB","distance":280,"transit":false,"i_lat":-6.201433,"is_transit":false,"time":1,"station_name":"Sudirman Baru"},{"station_name":"Karet","transit":false,"i_lat":-6.20132,"is_transit":false,"distance":471,"line":1,"i_long":106.816351,"station_id":"KAT","time":1},{"i_long":106.811091,"station_id":"THB","transit":true,"line":1,"time":5,"is_transit":true,"distance":2029,"station_name":"Tanah Abang","i_lat":-6.185545},{"i_long":106.79689,"line":6,"time":6,"i_lat":-6.207404,"is_transit":false,"station_id":"PLM","transit":false,"distance":3191,"station_name":"Palmerah"},{"station_id":"KBY","line":6,"station_name":"Kebayoran","i_long":106.780334,"time":7,"distance":3737,"is_transit":false,"transit":false,"i_lat":-6.237242},{"i_long":106.74273,"line":6,"time":8,"station_id":"PDJ","transit":false,"is_transit":false,"station_name":"Pondokranji","distance":6218,"i_lat":-6.276362},{"line":6,"station_id":"JMU","is_transit":false,"distance":2179,"time":3,"station_name":"Jurangmangu","i_lat":-6.288927,"transit":false,"i_long":106.728916},{"line":6,"distance":1994,"i_long":106.712277,"station_name":"Sudimara","is_transit":false,"time":4,"transit":false,"station_id":"SDM","i_lat":-6.296963},{"station_name":"Rawa Buntu","time":6,"station_id":"RU","is_transit":false,"line":6,"distance":4566,"transit":false,"i_lat":-6.314823,"i_long":106.675475},{"distance":2413,"time":4,"station_name":"Serpong","i_lat":-6.319871,"i_long":106.66566,"is_transit":false,"line":6,"station_id":"SRP","transit":false},{"i_lat":-6.32484,"i_long":106.640411,"line":0,"station_id":"CSK","distance":1784,"transit":false,"is_transit":false,"time":4,"station_name":"Cisauk"}],[{"i_lat":-6.215091,"i_long":106.86807400000001,"station_id":"JNG","time":0,"distance":0,"station_name":"Jatinegara","line":0,"is_transit":true,"transit":false},{"time":2,"i_long":106.861737,"station_name":"Pondok Jati","is_transit":false,"transit":false,"i_lat":-6.209188,"line":11,"distance":1236,"station_id":"POK"},{"line":11,"station_id":"KMT","is_transit":false,"distance":1829,"time":2,"station_name":"Kramat","transit":false,"i_lat":-6.193792,"i_long":106.855437},{"i_long":106.850107,"time":1,"distance":973,"station_name":"Gang Sentiong","is_transit":false,"line":11,"transit":false,"station_id":"GST","i_lat":-6.185975},{"station_id":"PSE","is_transit":false,"time":8,"transit":false,"station_name":"Pasar Senen","i_long":106.84368,"distance":1567,"i_lat":-6.174784,"line":11},{"transit":false,"i_long":106.839204,"distance":1436,"i_lat":-6.161728,"station_id":"KMO","line":11,"station_name":"Kemayoran","time":4,"is_transit":false},{"transit":false,"i_lat":-6.14505,"time":5,"distance":1901,"station_name":"Rajawali","station_id":"RJW","is_transit":false,"i_long":106.836569,"line":11},{"time":3,"transit":true,"line":0,"i_lat":-6.132549,"i_long":106.826365,"distance":1444,"is_transit":true,"station_id":"KPB","station_name":"Kampung Bandan"},{"i_lat":-6.144674,"transit":false,"time":9,"line":0,"i_long":106.79867,"station_name":"Angke","is_transit":false,"distance":4102,"station_id":"AK"},{"station_name":"Duri","distance":1230,"time":4,"transit":true,"i_long":106.800832,"line":1,"is_transit":true,"station_id":"DU","i_lat":-6.155215},{"transit":true,"station_id":"THB","line":1,"distance":3632,"i_lat":-6.185545,"is_transit":true,"time":8,"station_name":"Tanah Abang","i_long":106.811091},{"station_name":"Palmerah","transit":false,"i_long":106.79689,"distance":3191,"station_id":"PLM","i_lat":-6.207404,"time":6,"line":6,"is_transit":false},{"line":6,"time":7,"i_lat":-6.237242,"i_long":106.780334,"is_transit":false,"station_name":"Kebayoran","transit":false,"station_id":"KBY","distance":3737},{"is_transit":false,"time":8,"distance":6218,"station_name":"Pondokranji","i_lat":-6.276362,"transit":false,"line":6,"station_id":"PDJ","i_long":106.74273},{"is_transit":false,"time":3,"transit":false,"i_lat":-6.288927,"i_long":106.728916,"line":6,"station_id":"JMU","distance":2179,"station_name":"Jurangmangu"},{"station_id":"SDM","distance":1994,"i_lat":-6.296963,"is_transit":false,"station_name":"Sudimara","time":4,"transit":false,"i_long":106.712277,"line":6},{"i_long":106.675475,"station_name":"Rawa Buntu","line":6,"station_id":"RU","i_lat":-6.314823,"transit":false,"distance":4566,"is_transit":false,"time":6},{"i_lat":-6.319871,"distance":2413,"line":6,"station_id":"SRP","is_transit":false,"time":4,"station_name":"Serpong","i_long":106.66566,"transit":false},{"i_lat":-6.32484,"is_transit":false,"time":4,"distance":1784,"line":0,"transit":false,"i_long":106.640411,"station_id":"CSK","station_name":"Cisauk"}],[{"station_id":"JNG","station_name":"Jatinegara","i_long":106.86807400000001,"is_transit":true,"transit":false,"line":0,"time":0,"distance":0,"i_lat":-6.215091},{"time":2,"i_long":106.858896,"line":1,"distance":1377,"station_id":"MTR","i_lat":-6.212485,"transit":false,"is_transit":false,"station_name":"Matraman"},{"line":0,"i_long":106.84912,"time":2,"distance":1275,"i_lat":-6.209883,"is_transit":true,"transit":true,"station_id":"MRI","station_name":"Manggarai"},{"station_id":"CKI","transit":false,"time":4,"station_name":"Cikini","is_transit":false,"i_lat":-6.198556,"distance":1590,"i_long":106.840169,"line":0},{"line":2,"transit":false,"time":3,"station_name":"Gondangdia","i_long":106.832183,"distance":1750,"station_id":"GDD","i_lat":-6.186295,"is_transit":false},{"time":4,"distance":2015,"station_name":"Juanda","line":2,"i_lat":-6.166716,"station_id":"JUA","transit":false,"is_transit":false,"i_long":106.828284},{"i_lat":-6.160725,"station_id":"SW","transit":false,"station_name":"Sawah Besar","distance":1149,"time":2,"line":2,"is_transit":false,"i_long":106.827103},{"line":2,"station_id":"MGB","transit":false,"i_long":106.82482,"time":2,"is_transit":false,"distance":906,"i_lat":-6.149769,"station_name":"Manggabesar"},{"is_transit":false,"distance":1080,"transit":false,"i_lat":-6.141205,"i_long":106.820901,"time":2,"station_name":"Jayakarta","station_id":"JAY","line":7},{"line":0,"station_id":"JAKK","i_long":106.812439,"is_transit":true,"time":4,"transit":true,"station_name":"Jakarta Kota","distance":1264,"i_lat":-6.137569},{"station_name":"Kampung Bandan","distance":1364,"is_transit":true,"transit":false,"line":0,"station_id":"KPB","i_long":106.826365,"time":3,"i_lat":-6.132549},{"time":9,"i_long":106.79867,"line":0,"distance":4102,"station_id":"AK","station_name":"Angke","i_lat":-6.144674,"is_transit":false,"transit":false},{"station_name":"Duri","time":4,"i_long":106.800832,"distance":1230,"line":1,"transit":true,"is_transit":true,"i_lat":-6.155215,"station_id":"DU"},{"station_id":"THB","time":8,"distance":3632,"i_long":106.811091,"station_name":"Tanah Abang","is_transit":true,"transit":true,"line":1,"i_lat":-6.185545},{"time":6,"is_transit":false,"i_long":106.79689,"i_lat":-6.207404,"line":6,"station_id":"PLM","distance":3191,"station_name":"Palmerah","transit":false},{"station_id":"KBY","is_transit":false,"i_long":106.780334,"i_lat":-6.237242,"time":7,"distance":3737,"station_name":"Kebayoran","line":6,"transit":false},{"line":6,"i_long":106.74273,"time":8,"i_lat":-6.276362,"station_id":"PDJ","is_transit":false,"station_name":"Pondokranji","distance":6218,"transit":false},{"is_transit":false,"i_long":106.728916,"time":3,"line":6,"transit":false,"i_lat":-6.288927,"distance":2179,"station_name":"Jurangmangu","station_id":"JMU"},{"i_long":106.712277,"line":6,"station_name":"Sudimara","transit":false,"is_transit":false,"station_id":"SDM","time":4,"distance":1994,"i_lat":-6.296963},{"distance":4566,"station_name":"Rawa Buntu","is_transit":false,"line":6,"i_long":106.675475,"station_id":"RU","time":6,"transit":false,"i_lat":-6.314823},{"station_id":"SRP","is_transit":false,"time":4,"station_name":"Serpong","distance":2413,"i_lat":-6.319871,"i_long":106.66566,"transit":false,"line":6},{"time":4,"i_lat":-6.32484,"i_long":106.640411,"line":0,"is_transit":false,"station_name":"Cisauk","station_id":"CSK","distance":1784,"transit":false}],[{"station_name":"Jatinegara","i_lat":-6.215091,"distance":0,"line":0,"time":0,"i_long":106.86807400000001,"is_transit":true,"transit":false,"station_id":"JNG"},{"is_transit":false,"distance":1236,"time":2,"i_lat":-6.209188,"line":11,"transit":false,"station_id":"POK","i_long":106.861737,"station_name":"Pondok Jati"},{"i_lat":-6.193792,"time":2,"station_name":"Kramat","transit":false,"distance":1829,"line":11,"i_long":106.855437,"is_transit":false,"station_id":"KMT"},{"is_transit":false,"station_name":"Gang Sentiong","distance":973,"i_lat":-6.185975,"station_id":"GST","line":11,"transit":false,"i_long":106.850107,"time":1},{"transit":false,"station_name":"Pasar Senen","i_lat":-6.174784,"i_long":106.84368,"is_transit":false,"station_id":"PSE","time":8,"line":11,"distance":1567},{"is_transit":false,"line":11,"i_long":106.839204,"distance":1436,"time":4,"transit":false,"station_id":"KMO","i_lat":-6.161728,"station_name":"Kemayoran"},{"is_transit":false,"station_id":"RJW","station_name":"Rajawali","transit":false,"i_long":106.836569,"distance":1901,"line":11,"i_lat":-6.14505,"time":5},{"station_id":"KPB","transit":true,"i_lat":-6.132549,"line":0,"time":3,"distance":1444,"station_name":"Kampung Bandan","is_transit":true,"i_long":106.826365},{"station_name":"Jakarta Kota","transit":true,"station_id":"JAKK","time":3,"distance":1364,"i_lat":-6.137569,"i_long":106.812439,"line":0,"is_transit":true},{"station_name":"Jayakarta","i_long":106.820901,"transit":false,"station_id":"JAY","is_transit":false,"line":7,"i_lat":-6.141205,"distance":1264,"time":4},{"i_long":106.82482,"is_transit":false,"time":2,"station_name":"Manggabesar","station_id":"MGB","transit":false,"i_lat":-6.149769,"line":2,"distance":1080},{"distance":906,"i_lat":-6.160725,"time":2,"transit":false,"line":2,"i_long":106.827103,"station_id":"SW","is_transit":false,"station_name":"Sawah Besar"},{"transit":false,"i_long":106.828284,"distance":1149,"line":2,"is_transit":false,"station_name":"Juanda","station_id":"JUA","time":2,"i_lat":-6.166716},{"i_lat":-6.186295,"distance":2015,"time":4,"line":2,"i_long":106.832183,"station_name":"Gondangdia","station_id":"GDD","is_transit":false,"transit":false},{"i_lat":-6.198556,"transit":false,"time":3,"line":0,"i_long":106.840169,"station_id":"CKI","station_name":"Cikini","is_transit":false,"distance":1750},{"station_id":"MRI","distance":1590,"i_lat":-6.209883,"is_transit":true,"transit":true,"i_long":106.84912,"time":4,"line":0,"station_name":"Manggarai"},{"is_transit":false,"station_name":"Sudirman","station_id":"SUD","i_lat":-6.202263,"distance":3186,"transit":false,"i_long":106.822649,"time":4,"line":1},{"distance":280,"i_long":106.819881,"line":1,"i_lat":-6.201433,"is_transit":false,"station_name":"Sudirman Baru","time":1,"station_id":"SUDB","transit":false},{"distance":471,"is_transit":false,"line":1,"station_id":"KAT","transit":false,"i_long":106.816351,"i_lat":-6.20132,"station_name":"Karet","time":1},{"i_lat":-6.185545,"i_long":106.811091,"line":1,"station_name":"Tanah Abang","station_id":"THB","distance":2029,"is_transit":true,"transit":true,"time":5},{"is_transit":false,"distance":3191,"station_name":"Palmerah","line":6,"time":6,"station_id":"PLM","transit":false,"i_long":106.79689,"i_lat":-6.207404},{"i_long":106.780334,"transit":false,"station_id":"KBY","station_name":"Kebayoran","time":7,"i_lat":-6.237242,"distance":3737,"line":6,"is_transit":false},{"i_long":106.74273,"transit":false,"is_transit":false,"station_id":"PDJ","station_name":"Pondokranji","time":8,"line":6,"distance":6218,"i_lat":-6.276362},{"distance":2179,"is_transit":false,"station_id":"JMU","station_name":"Jurangmangu","time":3,"i_lat":-6.288927,"transit":false,"i_long":106.728916,"line":6},{"is_transit":false,"time":4,"distance":1994,"transit":false,"station_id":"SDM","i_lat":-6.296963,"line":6,"i_long":106.712277,"station_name":"Sudimara"},{"time":6,"transit":false,"i_lat":-6.314823,"station_name":"Rawa Buntu","i_long":106.675475,"distance":4566,"line":6,"is_transit":false,"station_id":"RU"},{"distance":2413,"line":6,"time":4,"station_id":"SRP","is_transit":false,"transit":false,"i_lat":-6.319871,"i_long":106.66566,"station_name":"Serpong"},{"line":0,"station_id":"CSK","i_long":106.640411,"station_name":"Cisauk","is_transit":false,"i_lat":-6.32484,"transit":false,"distance":1784,"time":4}]]}