{"data":[[{"i_lat":-6.215091,"distance":0,"station_id":"JNG","i_long":106.86807400000001,"line":0,"station_name":"Jatinegara","is_transit":true,"time":0,"transit":false},{"distance":3395,"i_long":106.899548,"station_id":"KLD","i_lat":-6.2135,"station_name":"Klender","line":1,"time":3,"is_transit":false,"transit":false},{"transit":false,"time":2,"station_name":"Buaran","i_lat":-6.215568,"is_transit":false,"line":0,"station_id":"BUA","distance":3100,"i_long":106.922662},{"i_lat":-6.217455,"i_long":106.939679,"line":1,"station_id":"KLDB","distance":1305,"station_name":"Klenderbaru","is_transit":false,"time":1,"transit":false},{"time":8,"transit":false,"distance":1385,"station_id":"CUK","i_lat":-6.219053,"i_long":106.951283,"line":0,"is_transit":false,"station_name":"Cakung"},{"is_transit":false,"time":3,"line":1,"distance":3097,"transit":false,"station_name":"Kranji","i_lat":-6.224515,"station_id":"KRI","i_long":106.977657},{"i_long":106.997013,"time":4,"line":0,"transit":false,"distance":2520,"station_name":"Bekasi","i_lat":-6.236616,"station_id":"BKS","is_transit":false},{"transit":false,"distance":2368,"is_transit":false,"line":0,"i_lat":-6.248029,"station_name":"Bekasi Timur","station_id":"BKST","i_long":107.016735,"time":2},{"time":7,"i_long":107.055722,"distance":4460,"line":1,"transit":false,"station_id":"TB","station_name":"Tambun","is_transit":false,"i_lat":-6.258864},{"i_long":107.083084,"transit":false,"distance":3420,"time":3,"i_lat":-6.261877,"line":0,"station_id":"CIT","station_name":"Cibitung","is_transit":false},{"i_long":107.093313,"time":2,"transit":false,"station_id":"TLM","line":1,"i_lat":-6.262938,"station_name":"Metland Telaga Murni","distance":2800,"is_transit":false}]]}