{"data":[[{"time":0,"transit":false,"i_lat":-6.215091,"station_id":"JNG","line":1,"i_long":106.86807400000001,"is_transit":false,"station_name":"Jatinegara","distance":0},{"station_name":"Matraman","i_lat":-6.212485,"line":1,"time":2,"i_long":106.858896,"transit":false,"station_id":"MTR","distance":1377,"is_transit":false},{"station_name":"Manggarai","is_transit":true,"station_id":"MRI","i_lat":-6.209883,"line":2,"i_long":106.84912,"time":2,"distance":1275,"transit":true},{"station_name":"Tebet","time":4,"i_long":106.857948,"transit":false,"station_id":"TEB","line":2,"is_transit":false,"distance":2610,"i_lat":-6.226659},{"station_name":"Cawang","time":2,"transit":false,"distance":1230,"station_id":"CW","i_long":106.856607,"line":2,"is_transit":false,"i_lat":-6.242512},{"station_id":"DRN","line":2,"station_name":"Duren Kalibata","is_transit":false,"i_lat":-6.255332,"i_long":106.85449,"transit":false,"distance":1546,"time":3},{"transit":false,"time":2,"station_name":"Pasar Minggu Baru","distance":824,"station_id":"PSMB","line":2,"i_long":106.851577,"is_transit":false,"i_lat":-6.263214},{"i_lat":-6.2842400000000005,"is_transit":false,"i_long":106.843999,"station_name":"Pasar Minggu","line":2,"distance":2380,"time":2,"transit":false,"station_id":"PSM"},{"is_transit":false,"transit":false,"i_long":106.838896,"station_name":"Tanjung Barat","time":4,"distance":2820,"station_id":"TNT","i_lat":-6.3080680000000005,"line":2},{"distance":2671,"is_transit":false,"time":3,"station_name":"Lenteng Agung","transit":false,"i_lat":-6.330363,"i_long":106.832616,"line":2,"station_id":"LNA"},{"station_name":"Univ. Pancasila","time":2,"line":2,"transit":false,"is_transit":false,"distance":1029,"station_id":"UP","i_lat":-6.339291,"i_long":106.834175},{"i_lat":-6.360749,"is_transit":false,"station_id":"UI","i_long":106.831474,"time":3,"station_name":"Univ. Indonesia","distance":2264,"transit":false,"line":2}],[{"time":0,"station_name":"Jatinegara","line":1,"is_transit":false,"transit":false,"station_id":"JNG","i_long":106.86807400000001,"distance":0,"i_lat":-6.215091},{"distance":1236,"i_long":106.861737,"station_id":"POK","line":11,"transit":false,"time":2,"station_name":"Pondok Jati","i_lat":-6.209188,"is_transit":false},{"line":11,"station_name":"Kramat","time":2,"is_transit":false,"i_long":106.855437,"i_lat":-6.193792,"station_id":"KMT","distance":1829,"transit":false},{"is_transit":false,"distance":973,"time":1,"line":11,"station_name":"Gang Sentiong","transit":false,"station_id":"GST","i_lat":-6.185975,"i_long":106.850107},{"i_long":106.84368,"line":11,"transit":false,"is_transit":false,"distance":1567,"station_name":"Pasar Senen","time":8,"i_lat":-6.174784,"station_id":"PSE"},{"transit":false,"time":4,"line":11,"distance":1436,"station_name":"Kemayoran","i_lat":-6.161728,"is_transit":false,"station_id":"KMO","i_long":106.839204},{"time":5,"station_name":"Rajawali","distance":1901,"station_id":"RJW","transit":false,"is_transit":false,"i_lat":-6.14505,"i_long":106.836569,"line":11},{"station_name":"Kampung Bandan","transit":true,"time":3,"station_id":"KPB","distance":1444,"line":4,"i_long":106.826365,"is_transit":true,"i_lat":-6.132549},{"i_lat":-6.144674,"station_name":"Angke","i_long":106.79867,"transit":false,"time":9,"station_id":"AK","distance":4102,"is_transit":false,"line":1},{"transit":false,"distance":1230,"i_lat":-6.155215,"line":1,"station_id":"DU","i_long":106.800832,"station_name":"Duri","is_transit":false,"time":4},{"time":8,"station_id":"THB","line":1,"transit":false,"i_long":106.811091,"station_name":"Tanah Abang","distance":3632,"i_lat":-6.185545,"is_transit":false},{"i_long":106.816351,"is_transit":false,"station_name":"Karet","distance":2029,"station_id":"KAT","i_lat":-6.20132,"line":1,"transit":false,"time":5},{"station_id":"SUDB","is_transit":false,"station_name":"Sudirman Baru","i_long":106.819881,"line":1,"i_lat":-6.201433,"transit":false,"distance":471,"time":1},{"i_lat":-6.202263,"station_name":"Sudirman","is_transit":false,"i_long":106.822649,"station_id":"SUD","time":1,"transit":false,"distance":280,"line":1},{"distance":3186,"station_id":"MRI","time":4,"i_lat":-6.209883,"station_name":"Manggarai","is_transit":true,"transit":true,"i_long":106.84912,"line":2},{"transit":false,"time":4,"is_transit":false,"station_id":"TEB","distance":2610,"i_long":106.857948,"i_lat":-6.226659,"line":2,"station_name":"Tebet"},{"station_id":"CW","transit":false,"line":2,"time":2,"i_lat":-6.242512,"station_name":"Cawang","is_transit":false,"distance":1230,"i_long":106.856607},{"i_lat":-6.255332,"i_long":106.85449,"line":2,"distance":1546,"station_id":"DRN","transit":false,"time":3,"is_transit":false,"station_name":"Duren Kalibata"},{"line":2,"i_lat":-6.263214,"time":2,"is_transit":false,"station_id":"PSMB","i_long":106.851577,"station_name":"Pasar Minggu Baru","distance":824,"transit":false},{"station_id":"PSM","i_lat":-6.2842400000000005,"time":2,"distance":2380,"station_name":"Pasar Minggu","is_transit":false,"i_long":106.843999,"line":2,"transit":false},{"i_long":106.838896,"station_name":"Tanjung Barat","transit":false,"is_transit":false,"line":2,"i_lat":-6.3080680000000005,"time":4,"station_id":"TNT","distance":2820},{"station_name":"Lenteng Agung","transit":false,"i_long":106.832616,"i_lat":-6.330363,"line":2,"station_id":"LNA","is_transit":false,"time":3,"distance":2671},{"time":2,"distance":1029,"station_id":"UP","i_lat":-6.339291,"i_long":106.834175,"line":2,"transit":false,"station_name":"Univ. Pancasila","is_transit":false},{"time":3,"station_id":"UI","line":2,"transit":false,"is_transit":false,"distance":2264,"i_lat":-6.360749,"station_name":"Univ. Indonesia","i_long":106.831474}],[{"station_name":"Jatinegara","transit":false,"i_long":106.86807400000001,"time":0,"is_transit":false,"station_id":"JNG","line":1,"i_lat":-6.215091,"distance":0},{"i_lat":-6.209188,"transit":false,"station_id":"POK","time":2,"is_transit":false,"distance":1236,"station_name":"Pondok Jati","i_long":106.861737,"line":11},{"i_lat":-6.193792,"line":11,"transit":false,"station_name":"Kramat","distance":1829,"is_transit":false,"i_long":106.855437,"time":2,"station_id":"KMT"},{"is_transit":false,"station_name":"Gang Sentiong","line":11,"station_id":"GST","i_lat":-6.185975,"i_long":106.850107,"distance":973,"time":1,"transit":false},{"i_lat":-6.174784,"distance":1567,"station_name":"Pasar Senen","time":8,"transit":false,"station_id":"PSE","i_long":106.84368,"is_transit":false,"line":11},{"transit":false,"i_long":106.839204,"line":11,"distance":1436,"station_id":"KMO","station_name":"Kemayoran","i_lat":-6.161728,"time":4,"is_transit":false},{"time":5,"is_transit":false,"station_id":"RJW","transit":false,"station_name":"Rajawali","i_long":106.836569,"i_lat":-6.14505,"distance":1901,"line":11},{"time":3,"transit":true,"line":4,"i_long":106.826365,"station_name":"Kampung Bandan","station_id":"KPB","i_lat":-6.132549,"distance":1444,"is_transit":true},{"i_lat":-6.137569,"is_transit":true,"i_long":106.812439,"distance":1364,"transit":true,"line":2,"station_name":"Jakarta Kota","station_id":"JAKK","time":3},{"i_long":106.820901,"station_id":"JAY","distance":1264,"is_transit":false,"i_lat":-6.141205,"time":4,"transit":false,"line":2,"station_name":"Jayakarta"},{"i_long":106.82482,"is_transit":false,"line":2,"distance":1080,"transit":false,"i_lat":-6.149769,"station_id":"MGB","time":2,"station_name":"Manggabesar"},{"station_id":"SW","distance":906,"station_name":"Sawah Besar","transit":false,"is_transit":false,"i_lat":-6.160725,"i_long":106.827103,"time":2,"line":2},{"time":2,"distance":1149,"transit":false,"station_name":"Juanda","station_id":"JUA","is_transit":false,"i_lat":-6.166716,"line":2,"i_long":106.828284},{"station_name":"Gondangdia","distance":2015,"i_long":106.832183,"line":2,"is_transit":false,"station_id":"GDD","transit":false,"i_lat":-6.186295,"time":4},{"station_id":"CKI","distance":1750,"transit":false,"i_lat":-6.198556,"is_transit":false,"time":3,"station_name":"Cikini","i_long":106.840169,"line":2},{"time":4,"i_long":106.84912,"distance":1590,"station_name":"Manggarai","transit":false,"line":2,"station_id":"MRI","i_lat":-6.209883,"is_transit":false},{"line":2,"distance":2610,"time":4,"transit":false,"station_id":"TEB","i_lat":-6.226659,"is_transit":false,"i_long":106.857948,"station_name":"Tebet"},{"distance":1230,"i_lat":-6.242512,"station_name":"Cawang","i_long":106.856607,"line":2,"station_id":"CW","time":2,"is_transit":false,"transit":false},{"station_name":"Duren Kalibata","distance":1546,"is_transit":false,"time":3,"station_id":"DRN","i_long":106.85449,"line":2,"transit":false,"i_lat":-6.255332},{"is_transit":false,"line":2,"station_name":"Pasar Minggu Baru","transit":false,"time":2,"distance":824,"i_lat":-6.263214,"station_id":"PSMB","i_long":106.851577},{"station_name":"Pasar Minggu","distance":2380,"station_id":"PSM","i_lat":-6.2842400000000005,"line":2,"time":2,"is_transit":false,"transit":false,"i_long":106.843999},{"i_lat":-6.3080680000000005,"transit":false,"i_long":106.838896,"distance":2820,"line":2,"station_name":"Tanjung Barat","time":4,"station_id":"TNT","is_transit":false},{"time":3,"i_lat":-6.330363,"i_long":106.832616,"station_id":"LNA","is_transit":false,"distance":2671,"transit":false,"line":2,"station_name":"Lenteng Agung"},{"i_long":106.834175,"time":2,"transit":false,"i_lat":-6.339291,"station_name":"Univ. Pancasila","line":2,"station_id":"UP","is_transit":false,"distance":1029},{"i_long":106.831474,"time":3,"station_id":"UI","transit":false,"is_transit":false,"distance":2264,"i_lat":-6.360749,"line":2,"station_name":"Univ. Indonesia"}]]}