{"data":[[{"station_id":"JNG","transit":false,"i_long":106.86807400000001,"station_name":"Jatinegara","distance":0,"line":0,"is_transit":true,"time":0,"i_lat":-6.215091},{"time":2,"i_long":106.858896,"i_lat":-6.212485,"distance":1377,"transit":false,"station_name":"Matraman","station_id":"MTR","is_transit":false,"line":1},{"station_name":"Manggarai","distance":1275,"is_transit":true,"transit":false,"i_lat":-6.209883,"i_long":106.84912,"station_id":"MRI","line":0,"time":2},{"time":4,"transit":false,"line":1,"station_name":"Sudirman","i_lat":-6.202263,"i_long":106.822649,"station_id":"SUD","is_transit":false,"distance":3186},{"is_transit":false,"time":1,"i_long":106.819881,"line":1,"station_id":"SUDB","distance":280,"station_name":"Sudirman Baru","i_lat":-6.201433,"transit":false},{"transit":false,"distance":471,"time":1,"station_id":"KAT","station_name":"Karet","i_lat":-6.20132,"is_transit":false,"i_long":106.816351,"line":1},{"i_long":106.811091,"is_transit":true,"distance":2029,"i_lat":-6.185545,"time":5,"line":1,"station_id":"THB","station_name":"Tanah Abang","transit":true},{"i_lat":-6.207404,"station_name":"Palmerah","distance":3191,"line":6,"transit":false,"is_transit":false,"i_long":106.79689,"station_id":"PLM","time":6}],[{"i_lat":-6.215091,"station_name":"Jatinegara","station_id":"JNG","line":0,"is_transit":true,"i_long":106.86807400000001,"time":0,"distance":0,"transit":false},{"station_name":"Pondok Jati","time":2,"i_long":106.861737,"line":11,"station_id":"POK","i_lat":-6.209188,"distance":1236,"is_transit":false,"transit":false},{"time":2,"station_name":"Kramat","transit":false,"i_lat":-6.193792,"distance":1829,"station_id":"KMT","line":11,"i_long":106.855437,"is_transit":false},{"i_lat":-6.185975,"i_long":106.850107,"station_name":"Gang Sentiong","line":11,"transit":false,"station_id":"GST","time":1,"distance":973,"is_transit":false},{"transit":false,"i_lat":-6.174784,"line":11,"i_long":106.84368,"distance":1567,"station_name":"Pasar Senen","station_id":"PSE","is_transit":false,"time":8},{"line":11,"distance":1436,"i_long":106.839204,"station_id":"KMO","i_lat":-6.161728,"is_transit":false,"transit":false,"time":4,"station_name":"Kemayoran"},{"is_transit":false,"transit":false,"station_name":"Rajawali","station_id":"RJW","distance":1901,"i_lat":-6.14505,"line":11,"i_long":106.836569,"time":5},{"station_name":"Kampung Bandan","i_lat":-6.132549,"transit":true,"distance":1444,"i_long":106.826365,"station_id":"KPB","line":0,"is_transit":true,"time":3},{"is_transit":false,"line":0,"time":9,"station_name":"Angke","distance":4102,"transit":false,"station_id":"AK","i_lat":-6.144674,"i_long":106.79867},{"station_id":"DU","time":4,"distance":1230,"is_transit":true,"i_lat":-6.155215,"i_long":106.800832,"line":1,"station_name":"Duri","transit":true},{"station_id":"THB","is_transit":true,"station_name":"Tanah Abang","time":8,"distance":3632,"i_lat":-6.185545,"line":1,"transit":true,"i_long":106.811091},{"distance":3191,"station_name":"Palmerah","time":6,"transit":false,"i_lat":-6.207404,"i_long":106.79689,"station_id":"PLM","line":6,"is_transit":false}],[{"station_id":"JNG","transit":false,"distance":0,"i_lat":-6.215091,"station_name":"Jatinegara","is_transit":true,"i_long":106.86807400000001,"line":0,"time":0},{"station_name":"Matraman","station_id":"MTR","i_lat":-6.212485,"line":1,"i_long":106.858896,"transit":false,"distance":1377,"time":2,"is_transit":false},{"i_lat":-6.209883,"transit":true,"line":0,"is_transit":true,"station_name":"Manggarai","time":2,"i_long":106.84912,"station_id":"MRI","distance":1275},{"transit":false,"station_id":"CKI","time":4,"i_long":106.840169,"station_name":"Cikini","distance":1590,"line":0,"i_lat":-6.198556,"is_transit":false},{"distance":1750,"station_name":"Gondangdia","i_long":106.832183,"time":3,"is_transit":false,"transit":false,"i_lat":-6.186295,"line":2,"station_id":"GDD"},{"i_long":106.828284,"line":2,"transit":false,"station_id":"JUA","time":4,"distance":2015,"station_name":"Juanda","i_lat":-6.166716,"is_transit":false},{"transit":false,"i_lat":-6.160725,"station_id":"SW","distance":1149,"station_name":"Sawah Besar","time":2,"line":2,"is_transit":false,"i_long":106.827103},{"line":2,"distance":906,"transit":false,"i_lat":-6.149769,"i_long":106.82482,"station_name":"Manggabesar","station_id":"MGB","is_transit":false,"time":2},{"distance":1080,"i_lat":-6.141205,"i_long":106.820901,"time":2,"station_name":"Jayakarta","is_transit":false,"station_id":"JAY","transit":false,"line":7},{"time":4,"station_name":"Jakarta Kota","i_lat":-6.137569,"station_id":"JAKK","is_transit":true,"transit":true,"i_long":106.812439,"line":0,"distance":1264},{"station_id":"KPB","transit":false,"i_lat":-6.132549,"station_name":"Kampung Bandan","line":0,"time":3,"i_long":106.826365,"distance":1364,"is_transit":true},{"distance":4102,"station_name":"Angke","transit":false,"i_lat":-6.144674,"time":9,"i_long":106.79867,"line":0,"is_transit":false,"station_id":"AK"},{"time":4,"distance":1230,"i_long":106.800832,"transit":true,"i_lat":-6.155215,"line":1,"station_id":"DU","station_name":"Duri","is_transit":true},{"transit":true,"time":8,"line":1,"is_transit":true,"i_lat":-6.185545,"distance":3632,"i_long":106.811091,"station_id":"THB","station_name":"Tanah Abang"},{"station_name":"Palmerah","time":6,"distance":3191,"transit":false,"line":6,"i_long":106.79689,"is_transit":false,"station_id":"PLM","i_lat":-6.207404}],[{"distance":0,"station_id":"JNG","transit":false,"i_lat":-6.215091,"is_transit":true,"line":0,"i_long":106.86807400000001,"station_name":"Jatinegara","time":0},{"station_id":"POK","distance":1236,"is_transit":false,"station_name":"Pondok Jati","transit":false,"i_lat":-6.209188,"i_long":106.861737,"line":11,"time":2},{"transit":false,"time":2,"station_id":"KMT","distance":1829,"station_name":"Kramat","is_transit":false,"i_long":106.855437,"line":11,"i_lat":-6.193792},{"i_long":106.850107,"line":11,"station_id":"GST","transit":false,"distance":973,"time":1,"station_name":"Gang Sentiong","i_lat":-6.185975,"is_transit":false},{"i_lat":-6.174784,"line":11,"time":8,"distance":1567,"i_long":106.84368,"station_name":"Pasar Senen","is_transit":false,"transit":false,"station_id":"PSE"},{"time":4,"transit":false,"i_long":106.839204,"line":11,"distance":1436,"station_name":"Kemayoran","is_transit":false,"i_lat":-6.161728,"station_id":"KMO"},{"station_id":"RJW","i_long":106.836569,"distance":1901,"time":5,"line":11,"transit":false,"is_transit":false,"i_lat":-6.14505,"station_name":"Rajawali"},{"station_name":"Kampung Bandan","is_transit":true,"time":3,"line":0,"station_id":"KPB","transit":true,"i_lat":-6.132549,"distance":1444,"i_long":106.826365},{"station_name":"Jakarta Kota","time":3,"distance":1364,"transit":true,"i_lat":-6.137569,"line":0,"i_long":106.812439,"is_transit":true,"station_id":"JAKK"},{"line":7,"i_long":106.820901,"i_lat":-6.141205,"time":4,"transit":false,"station_name":"Jayakarta","is_transit":false,"station_id":"JAY","distance":1264},{"station_name":"Manggabesar","line":2,"station_id":"MGB","i_lat":-6.149769,"i_long":106.82482,"distance":1080,"is_transit":false,"transit":false,"time":2},{"transit":false,"i_long":106.827103,"is_transit":false,"i_lat":-6.160725,"time":2,"station_id":"SW","distance":906,"line":2,"station_name":"Sawah Besar"},{"distance":1149,"station_id":"JUA","is_transit":false,"i_lat":-6.166716,"i_long":106.828284,"time":2,"station_name":"Juanda","transit":false,"line":2},{"station_id":"GDD","is_transit":false,"transit":false,"line":2,"i_long":106.832183,"station_name":"Gondangdia","distance":2015,"time":4,"i_lat":-6.186295},{"station_id":"CKI","distance":1750,"line":0,"transit":false,"time":3,"station_name":"Cikini","is_transit":false,"i_lat":-6.198556,"i_long":106.840169},{"station_name":"Manggarai","is_transit":true,"i_lat":-6.209883,"station_id":"MRI","time":4,"transit":true,"i_long":106.84912,"distance":1590,"line":0},{"station_id":"SUD","distance":3186,"i_long":106.822649,"transit":false,"is_transit":false,"station_name":"Sudirman","line":1,"i_lat":-6.202263,"time":4},{"station_id":"SUDB","distance":280,"i_lat":-6.201433,"transit":false,"line":1,"is_transit":false,"station_name":"Sudirman Baru","time":1,"i_long":106.819881},{"station_id":"KAT","station_name":"Karet","i_long":106.816351,"is_transit":false,"transit":false,"line":1,"time":1,"distance":471,"i_lat":-6.20132},{"line":1,"i_long":106.811091,"i_lat":-6.185545,"station_name":"Tanah Abang","is_transit":true,"transit":true,"distance":2029,"station_id":"THB","time":5},{"station_id":"PLM","distance":3191,"transit":false,"i_lat":-6.207404,"line":6,"time":6,"is_transit":false,"i_long":106.79689,"station_name":"Palmerah"}]]}