{"data":[[{"i_long":106.86807400000001,"station_id":"JNG","is_transit":false,"transit":false,"station_name":"Jatinegara","time":0,"line":1,"distance":0,"i_lat":-6.215091},{"i_lat":-6.212485,"line":1,"station_name":"Matraman","transit":false,"distance":1377,"i_long":106.858896,"time":2,"is_transit":false,"station_id":"MTR"},{"station_name":"Manggarai","line":2,"transit":false,"station_id":"MRI","is_transit":false,"i_lat":-6.209883,"distance":1275,"time":2,"i_long":106.84912},{"i_long":106.822649,"station_id":"SUD","line":1,"distance":3186,"station_name":"Sudirman","i_lat":-6.202263,"time":4,"is_transit":false,"transit":false},{"i_lat":-6.201433,"station_id":"SUDB","is_transit":false,"station_name":"Sudirman Baru","transit":false,"i_long":106.819881,"time":1,"line":1,"distance":280},{"is_transit":false,"transit":false,"station_id":"KAT","i_long":106.816351,"i_lat":-6.20132,"distance":471,"time":1,"station_name":"Karet","line":1},{"time":5,"i_lat":-6.185545,"line":1,"distance":2029,"i_long":106.811091,"station_id":"THB","station_name":"Tanah Abang","is_transit":true,"transit":true},{"transit":false,"i_long":106.79689,"distance":3191,"i_lat":-6.207404,"time":6,"station_name":"Palmerah","station_id":"PLM","is_transit":false,"line":6},{"station_name":"Kebayoran","distance":3737,"time":7,"is_transit":false,"station_id":"KBY","line":6,"i_lat":-6.237242,"i_long":106.780334,"transit":false},{"time":8,"station_name":"Pondokranji","i_long":106.74273,"station_id":"PDJ","distance":6218,"is_transit":false,"transit":false,"line":6,"i_lat":-6.276362},{"line":6,"i_long":106.728916,"station_name":"Jurangmangu","distance":2179,"time":3,"station_id":"JMU","is_transit":false,"transit":false,"i_lat":-6.288927}],[{"i_lat":-6.215091,"station_name":"Jatinegara","i_long":106.86807400000001,"line":1,"station_id":"JNG","distance":0,"time":0,"is_transit":false,"transit":false},{"i_long":106.861737,"is_transit":false,"distance":1236,"station_name":"Pondok Jati","i_lat":-6.209188,"time":2,"station_id":"POK","transit":false,"line":11},{"i_lat":-6.193792,"station_id":"KMT","station_name":"Kramat","i_long":106.855437,"time":2,"line":11,"transit":false,"distance":1829,"is_transit":false},{"i_lat":-6.185975,"distance":973,"line":11,"time":1,"transit":false,"i_long":106.850107,"is_transit":false,"station_id":"GST","station_name":"Gang Sentiong"},{"time":8,"distance":1567,"i_lat":-6.174784,"i_long":106.84368,"transit":false,"station_id":"PSE","line":11,"station_name":"Pasar Senen","is_transit":false},{"i_lat":-6.161728,"is_transit":false,"time":4,"station_name":"Kemayoran","station_id":"KMO","distance":1436,"transit":false,"i_long":106.839204,"line":11},{"station_name":"Rajawali","time":5,"is_transit":false,"line":11,"distance":1901,"station_id":"RJW","i_lat":-6.14505,"i_long":106.836569,"transit":false},{"time":3,"is_transit":true,"i_lat":-6.132549,"station_name":"Kampung Bandan","line":4,"station_id":"KPB","i_long":106.826365,"transit":true,"distance":1444},{"station_name":"Angke","time":9,"distance":4102,"station_id":"AK","is_transit":false,"i_lat":-6.144674,"i_long":106.79867,"line":1,"transit":false},{"distance":1230,"transit":false,"i_lat":-6.155215,"time":4,"is_transit":false,"i_long":106.800832,"station_name":"Duri","station_id":"DU","line":1},{"i_lat":-6.185545,"distance":3632,"is_transit":true,"i_long":106.811091,"line":1,"station_id":"THB","station_name":"Tanah Abang","transit":true,"time":8},{"time":6,"station_id":"PLM","i_lat":-6.207404,"distance":3191,"is_transit":false,"line":6,"i_long":106.79689,"transit":false,"station_name":"Palmerah"},{"i_long":106.780334,"distance":3737,"line":6,"i_lat":-6.237242,"transit":false,"station_name":"Kebayoran","is_transit":false,"station_id":"KBY","time":7},{"time":8,"station_name":"Pondokranji","i_lat":-6.276362,"station_id":"PDJ","is_transit":false,"transit":false,"distance":6218,"line":6,"i_long":106.74273},{"line":6,"time":3,"i_lat":-6.288927,"i_long":106.728916,"distance":2179,"station_id":"JMU","station_name":"Jurangmangu","is_transit":false,"transit":false}],[{"time":0,"i_long":106.86807400000001,"distance":0,"station_name":"Jatinegara","line":1,"station_id":"JNG","transit":false,"is_transit":false,"i_lat":-6.215091},{"station_id":"MTR","i_lat":-6.212485,"line":1,"i_long":106.858896,"time":2,"station_name":"Matraman","distance":1377,"transit":false,"is_transit":false},{"time":2,"is_transit":true,"distance":1275,"station_name":"Manggarai","station_id":"MRI","i_lat":-6.209883,"transit":true,"line":2,"i_long":106.84912},{"i_long":106.840169,"station_id":"CKI","transit":false,"station_name":"Cikini","distance":1590,"time":4,"i_lat":-6.198556,"line":2,"is_transit":false},{"is_transit":false,"transit":false,"i_lat":-6.186295,"station_name":"Gondangdia","i_long":106.832183,"distance":1750,"station_id":"GDD","time":3,"line":2},{"station_name":"Juanda","distance":2015,"is_transit":false,"line":2,"transit":false,"time":4,"i_lat":-6.166716,"i_long":106.828284,"station_id":"JUA"},{"distance":1149,"time":2,"is_transit":false,"line":2,"i_long":106.827103,"transit":false,"i_lat":-6.160725,"station_name":"Sawah Besar","station_id":"SW"},{"is_transit":false,"i_long":106.82482,"station_name":"Manggabesar","transit":false,"time":2,"station_id":"MGB","line":2,"distance":906,"i_lat":-6.149769},{"is_transit":false,"distance":1080,"i_long":106.820901,"station_name":"Jayakarta","line":2,"transit":false,"i_lat":-6.141205,"station_id":"JAY","time":2},{"station_name":"Jakarta Kota","distance":1264,"line":2,"i_long":106.812439,"time":4,"is_transit":true,"i_lat":-6.137569,"transit":true,"station_id":"JAKK"},{"time":3,"distance":1364,"line":4,"station_id":"KPB","station_name":"Kampung Bandan","i_long":106.826365,"i_lat":-6.132549,"is_transit":true,"transit":true},{"i_long":106.79867,"line":1,"time":9,"station_id":"AK","station_name":"Angke","transit":false,"distance":4102,"is_transit":false,"i_lat":-6.144674},{"transit":false,"time":4,"distance":1230,"i_lat":-6.155215,"station_name":"Duri","is_transit":false,"station_id":"DU","i_long":106.800832,"line":1},{"station_name":"Tanah Abang","i_long":106.811091,"distance":3632,"is_transit":true,"transit":true,"time":8,"line":1,"i_lat":-6.185545,"station_id":"THB"},{"is_transit":false,"station_id":"PLM","time":6,"transit":false,"station_name":"Palmerah","i_long":106.79689,"i_lat":-6.207404,"distance":3191,"line":6},{"i_lat":-6.237242,"distance":3737,"station_id":"KBY","station_name":"Kebayoran","is_transit":false,"time":7,"line":6,"i_long":106.780334,"transit":false},{"station_name":"Pondokranji","distance":6218,"i_lat":-6.276362,"station_id":"PDJ","transit":false,"time":8,"i_long":106.74273,"is_transit":false,"line":6},{"i_lat":-6.288927,"line":6,"is_transit":false,"station_name":"Jurangmangu","distance":2179,"time":3,"transit":false,"station_id":"JMU","i_long":106.728916}],[{"distance":0,"i_lat":-6.215091,"is_transit":false,"i_long":106.86807400000001,"station_id":"JNG","time":0,"station_name":"Jatinegara","transit":false,"line":1},{"transit":false,"i_lat":-6.209188,"line":11,"time":2,"station_id":"POK","distance":1236,"station_name":"Pondok Jati","is_transit":false,"i_long":106.861737},{"time":2,"i_long":106.855437,"line":11,"i_lat":-6.193792,"station_id":"KMT","distance":1829,"is_transit":false,"transit":false,"station_name":"Kramat"},{"time":1,"station_name":"Gang Sentiong","line":11,"transit":false,"distance":973,"is_transit":false,"station_id":"GST","i_long":106.850107,"i_lat":-6.185975},{"time":8,"i_long":106.84368,"station_id":"PSE","distance":1567,"i_lat":-6.174784,"line":11,"station_name":"Pasar Senen","is_transit":false,"transit":false},{"station_name":"Kemayoran","distance":1436,"transit":false,"line":11,"i_lat":-6.161728,"time":4,"i_long":106.839204,"station_id":"KMO","is_transit":false},{"i_long":106.836569,"station_id":"RJW","line":11,"station_name":"Rajawali","transit":false,"distance":1901,"i_lat":-6.14505,"is_transit":false,"time":5},{"station_name":"Kampung Bandan","station_id":"KPB","i_lat":-6.132549,"time":3,"distance":1444,"transit":true,"i_long":106.826365,"line":4,"is_transit":true},{"station_name":"Jakarta Kota","i_long":106.812439,"line":2,"transit":true,"station_id":"JAKK","is_transit":true,"time":3,"i_lat":-6.137569,"distance":1364},{"i_lat":-6.141205,"line":2,"is_transit":false,"distance":1264,"transit":false,"i_long":106.820901,"station_name":"Jayakarta","time":4,"station_id":"JAY"},{"i_lat":-6.149769,"line":2,"station_id":"MGB","is_transit":false,"transit":false,"i_long":106.82482,"station_name":"Manggabesar","distance":1080,"time":2},{"station_name":"Sawah Besar","transit":false,"line":2,"is_transit":false,"i_long":106.827103,"time":2,"station_id":"SW","i_lat":-6.160725,"distance":906},{"station_name":"Juanda","is_transit":false,"i_long":106.828284,"transit":false,"line":2,"i_lat":-6.166716,"time":2,"distance":1149,"station_id":"JUA"},{"line":2,"station_name":"Gondangdia","time":4,"is_transit":false,"distance":2015,"station_id":"GDD","i_long":106.832183,"transit":false,"i_lat":-6.186295},{"station_name":"Cikini","station_id":"CKI","transit":false,"is_transit":false,"i_lat":-6.198556,"line":2,"i_long":106.840169,"distance":1750,"time":3},{"transit":true,"distance":1590,"station_id":"MRI","i_long":106.84912,"station_name":"Manggarai","is_transit":true,"line":2,"time":4,"i_lat":-6.209883},{"i_long":106.822649,"distance":3186,"station_name":"Sudirman","transit":false,"is_transit":false,"time":4,"line":1,"station_id":"SUD","i_lat":-6.202263},{"line":1,"station_id":"SUDB","station_name":"Sudirman Baru","distance":280,"time":1,"is_transit":false,"i_lat":-6.201433,"i_long":106.819881,"transit":false},{"station_id":"KAT","distance":471,"station_name":"Karet","is_transit":false,"i_long":106.816351,"transit":false,"time":1,"i_lat":-6.20132,"line":1},{"time":5,"station_name":"Tanah Abang","is_transit":true,"i_lat":-6.185545,"station_id":"THB","distance":2029,"line":1,"i_long":106.811091,"transit":true},{"distance":3191,"is_transit":false,"transit":false,"i_lat":-6.207404,"line":6,"i_long":106.79689,"station_name":"Palmerah","time":6,"station_id":"PLM"},{"time":7,"station_id":"KBY","i_long":106.780334,"is_transit":false,"i_lat":-6.237242,"station_name":"Kebayoran","line":6,"distance":3737,"transit":false},{"i_lat":-6.276362,"distance":6218,"station_name":"Pondokranji","i_long":106.74273,"station_id":"PDJ","line":6,"is_transit":false,"transit":false,"time":8},{"time":3,"station_id":"JMU","transit":false,"i_lat":-6.288927,"i_long":106.728916,"is_transit":false,"distance":2179,"line":6,"station_name":"Jurangmangu"}]]}