{"data":[[{"station_name":"Jatinegara","i_long":106.86807400000001,"i_lat":-6.215091,"time":0,"distance":0,"transit":false,"line":1,"is_transit":false,"station_id":"JNG"},{"transit":false,"station_name":"Matraman","distance":1377,"i_lat":-6.212485,"station_id":"MTR","time":2,"i_long":106.858896,"line":1,"is_transit":false},{"distance":1275,"station_name":"Manggarai","station_id":"MRI","i_lat":-6.209883,"is_transit":false,"i_long":106.84912,"time":2,"line":2,"transit":false},{"i_lat":-6.202263,"line":1,"distance":3186,"is_transit":false,"i_long":106.822649,"station_name":"Sudirman","transit":false,"time":4,"station_id":"SUD"},{"station_id":"SUDB","time":1,"distance":280,"is_transit":false,"i_lat":-6.201433,"transit":false,"station_name":"Sudirman Baru","line":1,"i_long":106.819881},{"transit":false,"i_lat":-6.20132,"station_name":"Karet","station_id":"KAT","time":1,"line":1,"is_transit":false,"i_long":106.816351,"distance":471},{"time":5,"station_id":"THB","station_name":"Tanah Abang","i_long":106.811091,"i_lat":-6.185545,"is_transit":false,"transit":false,"distance":2029,"line":1},{"station_name":"Duri","transit":true,"time":8,"distance":3632,"station_id":"DU","i_long":106.800832,"line":1,"is_transit":true,"i_lat":-6.155215},{"is_transit":false,"i_lat":-6.162021,"line":5,"station_name":"Grogol","station_id":"GGL","i_long":106.788277,"time":3,"transit":false,"distance":1700},{"i_long":106.771379,"station_name":"Pesing","distance":2036,"is_transit":false,"time":2,"i_lat":-6.161433,"station_id":"PSG","line":5,"transit":false},{"i_long":106.756522,"line":5,"station_name":"Taman Kota","is_transit":false,"station_id":"TKO","i_lat":-6.1587309999999995,"transit":false,"time":2,"distance":1614},{"distance":2334,"i_long":106.737035,"station_name":"Bojongindah","line":5,"transit":false,"is_transit":false,"time":2,"i_lat":-6.159876,"station_id":"BOI"},{"transit":false,"distance":1152,"station_id":"RW","i_long":106.723064,"station_name":"Rawa Buaya","line":5,"is_transit":false,"i_lat":-6.162758,"time":4},{"line":5,"station_name":"Kalideres","is_transit":false,"distance":2504,"i_lat":-6.166068,"time":3,"i_long":106.701612,"transit":false,"station_id":"KDS"},{"time":3,"station_name":"Poris","is_transit":false,"station_id":"PI","i_long":106.679458,"distance":2548,"transit":false,"i_lat":-6.169933,"line":5},{"station_name":"Batuceper","transit":false,"time":3,"distance":1834,"i_long":106.665036,"i_lat":-6.171811,"station_id":"BPR","line":5,"is_transit":false},{"transit":false,"i_lat":-6.17331,"station_name":"Tanah Tinggi","time":3,"distance":2028,"station_id":"TTI","i_long":106.64657,"line":5,"is_transit":false}],[{"transit":false,"station_name":"Jatinegara","i_long":106.86807400000001,"is_transit":false,"distance":0,"time":0,"station_id":"JNG","i_lat":-6.215091,"line":1},{"i_lat":-6.209188,"station_name":"Pondok Jati","time":2,"transit":false,"distance":1236,"is_transit":false,"station_id":"POK","i_long":106.861737,"line":11},{"transit":false,"i_lat":-6.193792,"i_long":106.855437,"station_id":"KMT","distance":1829,"station_name":"Kramat","time":2,"line":11,"is_transit":false},{"is_transit":false,"station_id":"GST","i_long":106.850107,"transit":false,"station_name":"Gang Sentiong","distance":973,"time":1,"i_lat":-6.185975,"line":11},{"transit":false,"is_transit":false,"station_id":"PSE","distance":1567,"station_name":"Pasar Senen","i_lat":-6.174784,"line":11,"i_long":106.84368,"time":8},{"station_name":"Kemayoran","i_long":106.839204,"line":11,"time":4,"is_transit":false,"station_id":"KMO","transit":false,"distance":1436,"i_lat":-6.161728},{"i_lat":-6.14505,"time":5,"distance":1901,"station_id":"RJW","station_name":"Rajawali","transit":false,"is_transit":false,"i_long":106.836569,"line":11},{"i_long":106.826365,"station_name":"Kampung Bandan","time":3,"transit":true,"is_transit":true,"station_id":"KPB","i_lat":-6.132549,"distance":1444,"line":4},{"distance":4102,"i_lat":-6.144674,"transit":false,"station_name":"Angke","time":9,"i_long":106.79867,"line":1,"station_id":"AK","is_transit":false},{"station_id":"DU","distance":1230,"i_lat":-6.155215,"station_name":"Duri","line":1,"time":4,"transit":true,"is_transit":true,"i_long":106.800832},{"time":3,"i_long":106.788277,"transit":false,"i_lat":-6.162021,"line":5,"station_name":"Grogol","station_id":"GGL","distance":1700,"is_transit":false},{"i_lat":-6.161433,"line":5,"time":2,"transit":false,"distance":2036,"is_transit":false,"station_name":"Pesing","station_id":"PSG","i_long":106.771379},{"distance":1614,"i_lat":-6.1587309999999995,"station_name":"Taman Kota","time":2,"station_id":"TKO","line":5,"i_long":106.756522,"transit":false,"is_transit":false},{"transit":false,"i_long":106.737035,"distance":2334,"station_name":"Bojongindah","i_lat":-6.159876,"station_id":"BOI","line":5,"time":2,"is_transit":false},{"i_long":106.723064,"station_id":"RW","distance":1152,"is_transit":false,"transit":false,"line":5,"i_lat":-6.162758,"station_name":"Rawa Buaya","time":4},{"transit":false,"distance":2504,"station_name":"Kalideres","is_transit":false,"station_id":"KDS","i_long":106.701612,"line":5,"i_lat":-6.166068,"time":3},{"distance":2548,"is_transit":false,"i_lat":-6.169933,"i_long":106.679458,"time":3,"transit":false,"station_id":"PI","line":5,"station_name":"Poris"},{"i_lat":-6.171811,"line":5,"station_id":"BPR","distance":1834,"station_name":"Batuceper","transit":false,"is_transit":false,"time":3,"i_long":106.665036},{"is_transit":false,"line":5,"station_name":"Tanah Tinggi","transit":false,"station_id":"TTI","distance":2028,"i_lat":-6.17331,"i_long":106.64657,"time":3}],[{"is_transit":false,"line":1,"i_long":106.86807400000001,"station_name":"Jatinegara","transit":false,"time":0,"i_lat":-6.215091,"station_id":"JNG","distance":0},{"time":2,"i_long":106.858896,"line":1,"is_transit":false,"station_name":"Matraman","station_id":"MTR","i_lat":-6.212485,"distance":1377,"transit":false},{"station_id":"MRI","distance":1275,"line":2,"transit":true,"time":2,"i_lat":-6.209883,"station_name":"Manggarai","i_long":106.84912,"is_transit":true},{"i_lat":-6.198556,"transit":false,"station_name":"Cikini","is_transit":false,"station_id":"CKI","time":4,"distance":1590,"line":2,"i_long":106.840169},{"station_name":"Gondangdia","time":3,"line":2,"i_lat":-6.186295,"transit":false,"i_long":106.832183,"is_transit":false,"station_id":"GDD","distance":1750},{"transit":false,"i_long":106.828284,"line":2,"is_transit":false,"i_lat":-6.166716,"station_id":"JUA","distance":2015,"station_name":"Juanda","time":4},{"time":2,"i_long":106.827103,"is_transit":false,"i_lat":-6.160725,"transit":false,"station_id":"SW","station_name":"Sawah Besar","distance":1149,"line":2},{"line":2,"station_id":"MGB","transit":false,"distance":906,"i_long":106.82482,"station_name":"Manggabesar","i_lat":-6.149769,"is_transit":false,"time":2},{"station_id":"JAY","transit":false,"line":2,"i_long":106.820901,"distance":1080,"station_name":"Jayakarta","is_transit":false,"i_lat":-6.141205,"time":2},{"line":2,"i_long":106.812439,"transit":true,"is_transit":true,"station_id":"JAKK","station_name":"Jakarta Kota","distance":1264,"time":4,"i_lat":-6.137569},{"distance":1364,"station_id":"KPB","i_lat":-6.132549,"time":3,"transit":true,"is_transit":true,"line":4,"station_name":"Kampung Bandan","i_long":106.826365},{"i_lat":-6.144674,"station_id":"AK","transit":false,"time":9,"is_transit":false,"station_name":"Angke","distance":4102,"i_long":106.79867,"line":1},{"i_long":106.800832,"station_name":"Duri","time":4,"station_id":"DU","transit":true,"is_transit":true,"distance":1230,"i_lat":-6.155215,"line":1},{"station_name":"Grogol","station_id":"GGL","time":3,"i_long":106.788277,"transit":false,"line":5,"is_transit":false,"distance":1700,"i_lat":-6.162021},{"i_long":106.771379,"station_name":"Pesing","line":5,"transit":false,"distance":2036,"station_id":"PSG","i_lat":-6.161433,"time":2,"is_transit":false},{"station_id":"TKO","transit":false,"time":2,"station_name":"Taman Kota","is_transit":false,"i_lat":-6.1587309999999995,"line":5,"distance":1614,"i_long":106.756522},{"station_name":"Bojongindah","station_id":"BOI","distance":2334,"i_long":106.737035,"line":5,"is_transit":false,"i_lat":-6.159876,"time":2,"transit":false},{"distance":1152,"time":4,"i_lat":-6.162758,"i_long":106.723064,"line":5,"transit":false,"station_name":"Rawa Buaya","is_transit":false,"station_id":"RW"},{"is_transit":false,"station_id":"KDS","distance":2504,"i_long":106.701612,"i_lat":-6.166068,"time":3,"transit":false,"line":5,"station_name":"Kalideres"},{"distance":2548,"transit":false,"line":5,"time":3,"station_name":"Poris","i_long":106.679458,"station_id":"PI","is_transit":false,"i_lat":-6.169933},{"distance":1834,"i_lat":-6.171811,"time":3,"station_name":"Batuceper","line":5,"is_transit":false,"transit":false,"station_id":"BPR","i_long":106.665036},{"transit":false,"i_lat":-6.17331,"line":5,"distance":2028,"station_name":"Tanah Tinggi","time":3,"is_transit":false,"i_long":106.64657,"station_id":"TTI"}],[{"station_id":"JNG","i_long":106.86807400000001,"i_lat":-6.215091,"transit":false,"is_transit":false,"time":0,"distance":0,"line":1,"station_name":"Jatinegara"},{"station_id":"POK","i_long":106.861737,"time":2,"transit":false,"i_lat":-6.209188,"is_transit":false,"line":11,"distance":1236,"station_name":"Pondok Jati"},{"distance":1829,"is_transit":false,"time":2,"transit":false,"i_long":106.855437,"station_id":"KMT","station_name":"Kramat","i_lat":-6.193792,"line":11},{"transit":false,"time":1,"station_name":"Gang Sentiong","is_transit":false,"distance":973,"station_id":"GST","i_lat":-6.185975,"line":11,"i_long":106.850107},{"transit":false,"time":8,"i_lat":-6.174784,"station_id":"PSE","is_transit":false,"station_name":"Pasar Senen","i_long":106.84368,"line":11,"distance":1567},{"station_name":"Kemayoran","i_lat":-6.161728,"is_transit":false,"distance":1436,"line":11,"transit":false,"station_id":"KMO","time":4,"i_long":106.839204},{"distance":1901,"is_transit":false,"line":11,"station_name":"Rajawali","station_id":"RJW","transit":false,"i_long":106.836569,"time":5,"i_lat":-6.14505},{"is_transit":true,"i_long":106.826365,"distance":1444,"i_lat":-6.132549,"station_name":"Kampung Bandan","line":4,"time":3,"station_id":"KPB","transit":true},{"station_id":"JAKK","i_long":106.812439,"line":2,"is_transit":true,"station_name":"Jakarta Kota","transit":true,"time":3,"distance":1364,"i_lat":-6.137569},{"station_name":"Jayakarta","distance":1264,"i_long":106.820901,"transit":false,"is_transit":false,"time":4,"line":2,"station_id":"JAY","i_lat":-6.141205},{"distance":1080,"line":2,"transit":false,"i_lat":-6.149769,"station_id":"MGB","is_transit":false,"i_long":106.82482,"station_name":"Manggabesar","time":2},{"i_long":106.827103,"station_id":"SW","is_transit":false,"time":2,"i_lat":-6.160725,"line":2,"station_name":"Sawah Besar","distance":906,"transit":false},{"station_name":"Juanda","station_id":"JUA","distance":1149,"i_lat":-6.166716,"line":2,"transit":false,"time":2,"i_long":106.828284,"is_transit":false},{"station_name":"Gondangdia","i_lat":-6.186295,"station_id":"GDD","transit":false,"time":4,"is_transit":false,"distance":2015,"i_long":106.832183,"line":2},{"i_lat":-6.198556,"station_name":"Cikini","station_id":"CKI","transit":false,"is_transit":false,"distance":1750,"i_long":106.840169,"line":2,"time":3},{"station_name":"Manggarai","is_transit":true,"transit":true,"i_long":106.84912,"time":4,"distance":1590,"i_lat":-6.209883,"station_id":"MRI","line":2},{"distance":3186,"station_id":"SUD","station_name":"Sudirman","transit":false,"time":4,"i_long":106.822649,"i_lat":-6.202263,"is_transit":false,"line":1},{"station_id":"SUDB","station_name":"Sudirman Baru","is_transit":false,"time":1,"line":1,"distance":280,"transit":false,"i_lat":-6.201433,"i_long":106.819881},{"i_long":106.816351,"station_name":"Karet","i_lat":-6.20132,"transit":false,"time":1,"line":1,"is_transit":false,"distance":471,"station_id":"KAT"},{"distance":2029,"transit":false,"station_id":"THB","i_long":106.811091,"i_lat":-6.185545,"line":1,"is_transit":false,"station_name":"Tanah Abang","time":5},{"station_name":"Duri","transit":true,"line":1,"distance":3632,"is_transit":true,"i_lat":-6.155215,"station_id":"DU","time":8,"i_long":106.800832},{"is_transit":false,"station_name":"Grogol","time":3,"i_lat":-6.162021,"line":5,"station_id":"GGL","transit":false,"i_long":106.788277,"distance":1700},{"transit":false,"i_lat":-6.161433,"distance":2036,"station_name":"Pesing","time":2,"i_long":106.771379,"is_transit":false,"station_id":"PSG","line":5},{"station_name":"Taman Kota","distance":1614,"line":5,"is_transit":false,"station_id":"TKO","time":2,"i_lat":-6.1587309999999995,"transit":false,"i_long":106.756522},{"distance":2334,"station_id":"BOI","time":2,"line":5,"i_lat":-6.159876,"transit":false,"i_long":106.737035,"station_name":"Bojongindah","is_transit":false},{"station_name":"Rawa Buaya","time":4,"line":5,"station_id":"RW","i_lat":-6.162758,"i_long":106.723064,"transit":false,"is_transit":false,"distance":1152},{"is_transit":false,"i_long":106.701612,"distance":2504,"i_lat":-6.166068,"transit":false,"station_id":"KDS","station_name":"Kalideres","time":3,"line":5},{"distance":2548,"is_transit":false,"transit":false,"i_lat":-6.169933,"time":3,"station_name":"Poris","station_id":"PI","i_long":106.679458,"line":5},{"distance":1834,"transit":false,"line":5,"time":3,"is_transit":false,"i_lat":-6.171811,"station_name":"Batuceper","station_id":"BPR","i_long":106.665036},{"station_id":"TTI","time":3,"distance":2028,"i_long":106.64657,"is_transit":false,"transit":false,"line":5,"station_name":"Tanah Tinggi","i_lat":-6.17331}]]}