{"data":[[{"is_transit":true,"station_id":"JNG","line":0,"time":0,"i_lat":-6.215091,"transit":false,"distance":0,"station_name":"Jatinegara","i_long":106.86807400000001},{"transit":false,"station_id":"KLD","i_lat":-6.2135,"i_long":106.899548,"distance":3395,"time":3,"is_transit":false,"station_name":"Klender","line":1},{"i_lat":-6.215568,"i_long":106.922662,"distance":3100,"station_id":"BUA","transit":false,"station_name":"Buaran","line":0,"time":2,"is_transit":false},{"station_name":"Klenderbaru","is_transit":false,"i_long":106.939679,"line":1,"transit":false,"i_lat":-6.217455,"distance":1305,"time":1,"station_id":"KLDB"},{"line":0,"time":8,"station_name":"Cakung","station_id":"CUK","is_transit":false,"distance":1385,"i_lat":-6.219053,"i_long":106.951283,"transit":false},{"station_id":"KRI","time":3,"is_transit":false,"i_lat":-6.224515,"transit":false,"line":1,"distance":3097,"station_name":"Kranji","i_long":106.977657},{"transit":false,"line":0,"time":4,"station_name":"Bekasi","i_long":106.997013,"i_lat":-6.236616,"is_transit":false,"station_id":"BKS","distance":2520},{"is_transit":false,"line":0,"time":2,"distance":2368,"i_lat":-6.248029,"station_id":"BKST","station_name":"Bekasi Timur","transit":false,"i_long":107.016735},{"distance":4460,"station_name":"Tambun","is_transit":false,"station_id":"TB","line":1,"i_long":107.055722,"transit":false,"time":7,"i_lat":-6.258864},{"transit":false,"i_long":107.083084,"station_name":"Cibitung","distance":3420,"is_transit":false,"i_lat":-6.261877,"line":0,"station_id":"CIT","time":3},{"distance":2800,"station_id":"TLM","i_long":107.093313,"line":1,"station_name":"Metland Telaga Murni","is_transit":false,"i_lat":-6.262938,"transit":false,"time":2},{"station_id":"CKR","distance":3689,"i_lat":-6.2553149999999995,"time":4,"i_long":107.144613,"line":0,"transit":false,"station_name":"Cikarang","is_transit":false}]]}