{"data":[[{"is_transit":false,"distance":0,"i_lat":-6.215091,"i_long":106.86807400000001,"line":1,"station_id":"JNG","time":0,"transit":false,"station_name":"Jatinegara"},{"is_transit":false,"transit":false,"distance":1377,"i_long":106.858896,"line":1,"station_name":"Matraman","time":2,"i_lat":-6.212485,"station_id":"MTR"},{"is_transit":true,"time":2,"transit":true,"i_lat":-6.209883,"i_long":106.84912,"distance":1275,"line":2,"station_id":"MRI","station_name":"Manggarai"},{"station_name":"Tebet","distance":2610,"transit":false,"line":2,"i_long":106.857948,"i_lat":-6.226659,"station_id":"TEB","is_transit":false,"time":4},{"line":2,"is_transit":false,"time":2,"distance":1230,"station_id":"CW","i_lat":-6.242512,"i_long":106.856607,"station_name":"Cawang","transit":false},{"is_transit":false,"station_name":"Duren Kalibata","i_long":106.85449,"line":2,"transit":false,"i_lat":-6.255332,"time":3,"distance":1546,"station_id":"DRN"},{"station_name":"Pasar Minggu Baru","line":2,"time":2,"station_id":"PSMB","transit":false,"is_transit":false,"distance":824,"i_lat":-6.263214,"i_long":106.851577},{"i_long":106.843999,"distance":2380,"transit":false,"time":2,"station_id":"PSM","i_lat":-6.2842400000000005,"line":2,"station_name":"Pasar Minggu","is_transit":false},{"line":2,"is_transit":false,"time":4,"station_name":"Tanjung Barat","i_long":106.838896,"transit":false,"i_lat":-6.3080680000000005,"station_id":"TNT","distance":2820},{"is_transit":false,"station_id":"LNA","time":3,"distance":2671,"transit":false,"line":2,"i_lat":-6.330363,"i_long":106.832616,"station_name":"Lenteng Agung"},{"i_lat":-6.339291,"transit":false,"i_long":106.834175,"line":2,"is_transit":false,"station_name":"Univ. Pancasila","station_id":"UP","time":2,"distance":1029},{"is_transit":false,"distance":2264,"i_long":106.831474,"station_id":"UI","line":2,"station_name":"Univ. Indonesia","i_lat":-6.360749,"time":3,"transit":false},{"i_lat":-6.369073,"transit":false,"time":2,"distance":1109,"line":2,"station_name":"Pondok Cina","i_long":106.831114,"is_transit":false,"station_id":"POC"}],[{"station_name":"Jatinegara","line":1,"time":0,"i_long":106.86807400000001,"i_lat":-6.215091,"distance":0,"station_id":"JNG","is_transit":false,"transit":false},{"i_long":106.861737,"transit":false,"line":11,"i_lat":-6.209188,"is_transit":false,"station_id":"POK","time":2,"station_name":"Pondok Jati","distance":1236},{"station_id":"KMT","line":11,"time":2,"distance":1829,"station_name":"Kramat","transit":false,"is_transit":false,"i_long":106.855437,"i_lat":-6.193792},{"distance":973,"i_lat":-6.185975,"line":11,"transit":false,"station_id":"GST","time":1,"station_name":"Gang Sentiong","i_long":106.850107,"is_transit":false},{"i_long":106.84368,"i_lat":-6.174784,"station_id":"PSE","station_name":"Pasar Senen","distance":1567,"is_transit":false,"transit":false,"line":11,"time":8},{"time":4,"station_id":"KMO","transit":false,"line":11,"i_long":106.839204,"i_lat":-6.161728,"is_transit":false,"station_name":"Kemayoran","distance":1436},{"transit":false,"station_name":"Rajawali","distance":1901,"i_lat":-6.14505,"time":5,"station_id":"RJW","i_long":106.836569,"line":11,"is_transit":false},{"is_transit":true,"station_name":"Kampung Bandan","i_long":106.826365,"i_lat":-6.132549,"distance":1444,"line":4,"station_id":"KPB","transit":true,"time":3},{"station_name":"Angke","station_id":"AK","i_lat":-6.144674,"is_transit":false,"i_long":106.79867,"line":1,"transit":false,"time":9,"distance":4102},{"distance":1230,"time":4,"i_lat":-6.155215,"line":1,"i_long":106.800832,"transit":false,"is_transit":false,"station_name":"Duri","station_id":"DU"},{"i_lat":-6.185545,"is_transit":false,"line":1,"time":8,"transit":false,"station_id":"THB","station_name":"Tanah Abang","i_long":106.811091,"distance":3632},{"time":5,"line":1,"i_long":106.816351,"distance":2029,"i_lat":-6.20132,"station_id":"KAT","transit":false,"is_transit":false,"station_name":"Karet"},{"distance":471,"i_long":106.819881,"is_transit":false,"time":1,"i_lat":-6.201433,"line":1,"transit":false,"station_name":"Sudirman Baru","station_id":"SUDB"},{"station_name":"Sudirman","is_transit":false,"i_lat":-6.202263,"station_id":"SUD","transit":false,"i_long":106.822649,"line":1,"distance":280,"time":1},{"is_transit":true,"station_id":"MRI","distance":3186,"station_name":"Manggarai","transit":true,"time":4,"i_lat":-6.209883,"i_long":106.84912,"line":2},{"distance":2610,"transit":false,"i_long":106.857948,"station_name":"Tebet","is_transit":false,"time":4,"station_id":"TEB","i_lat":-6.226659,"line":2},{"i_lat":-6.242512,"i_long":106.856607,"line":2,"station_name":"Cawang","transit":false,"is_transit":false,"time":2,"distance":1230,"station_id":"CW"},{"i_lat":-6.255332,"line":2,"i_long":106.85449,"time":3,"station_name":"Duren Kalibata","transit":false,"distance":1546,"is_transit":false,"station_id":"DRN"},{"station_name":"Pasar Minggu Baru","distance":824,"i_long":106.851577,"line":2,"transit":false,"is_transit":false,"station_id":"PSMB","i_lat":-6.263214,"time":2},{"transit":false,"i_long":106.843999,"line":2,"station_name":"Pasar Minggu","i_lat":-6.2842400000000005,"distance":2380,"time":2,"is_transit":false,"station_id":"PSM"},{"time":4,"transit":false,"station_id":"TNT","distance":2820,"station_name":"Tanjung Barat","i_long":106.838896,"line":2,"is_transit":false,"i_lat":-6.3080680000000005},{"distance":2671,"time":3,"is_transit":false,"i_long":106.832616,"transit":false,"station_id":"LNA","station_name":"Lenteng Agung","i_lat":-6.330363,"line":2},{"is_transit":false,"station_name":"Univ. Pancasila","time":2,"distance":1029,"line":2,"i_long":106.834175,"transit":false,"i_lat":-6.339291,"station_id":"UP"},{"distance":2264,"station_name":"Univ. Indonesia","is_transit":false,"i_lat":-6.360749,"line":2,"i_long":106.831474,"station_id":"UI","transit":false,"time":3},{"station_id":"POC","distance":1109,"station_name":"Pondok Cina","is_transit":false,"i_lat":-6.369073,"time":2,"line":2,"i_long":106.831114,"transit":false}],[{"station_name":"Jatinegara","i_long":106.86807400000001,"distance":0,"i_lat":-6.215091,"line":1,"transit":false,"station_id":"JNG","time":0,"is_transit":false},{"distance":1236,"time":2,"transit":false,"station_name":"Pondok Jati","station_id":"POK","line":11,"is_transit":false,"i_long":106.861737,"i_lat":-6.209188},{"transit":false,"station_name":"Kramat","i_long":106.855437,"is_transit":false,"i_lat":-6.193792,"line":11,"distance":1829,"time":2,"station_id":"KMT"},{"distance":973,"station_id":"GST","i_long":106.850107,"station_name":"Gang Sentiong","transit":false,"time":1,"i_lat":-6.185975,"line":11,"is_transit":false},{"i_lat":-6.174784,"transit":false,"station_name":"Pasar Senen","is_transit":false,"time":8,"line":11,"distance":1567,"station_id":"PSE","i_long":106.84368},{"i_long":106.839204,"i_lat":-6.161728,"transit":false,"is_transit":false,"distance":1436,"line":11,"time":4,"station_id":"KMO","station_name":"Kemayoran"},{"i_long":106.836569,"transit":false,"station_id":"RJW","station_name":"Rajawali","is_transit":false,"i_lat":-6.14505,"line":11,"distance":1901,"time":5},{"is_transit":true,"station_id":"KPB","i_lat":-6.132549,"time":3,"station_name":"Kampung Bandan","transit":true,"i_long":106.826365,"distance":1444,"line":4},{"distance":1364,"time":3,"station_id":"JAKK","is_transit":true,"line":2,"transit":true,"i_lat":-6.137569,"i_long":106.812439,"station_name":"Jakarta Kota"},{"i_long":106.820901,"distance":1264,"i_lat":-6.141205,"transit":false,"station_name":"Jayakarta","station_id":"JAY","time":4,"line":2,"is_transit":false},{"i_lat":-6.149769,"station_name":"Manggabesar","is_transit":false,"i_long":106.82482,"distance":1080,"line":2,"transit":false,"time":2,"station_id":"MGB"},{"i_long":106.827103,"line":2,"time":2,"i_lat":-6.160725,"station_id":"SW","distance":906,"is_transit":false,"station_name":"Sawah Besar","transit":false},{"station_id":"JUA","is_transit":false,"line":2,"distance":1149,"i_long":106.828284,"time":2,"i_lat":-6.166716,"station_name":"Juanda","transit":false},{"is_transit":false,"time":4,"distance":2015,"transit":false,"station_id":"GDD","i_lat":-6.186295,"i_long":106.832183,"station_name":"Gondangdia","line":2},{"line":2,"i_long":106.840169,"transit":false,"distance":1750,"station_id":"CKI","i_lat":-6.198556,"station_name":"Cikini","is_transit":false,"time":3},{"is_transit":false,"i_lat":-6.209883,"transit":false,"distance":1590,"station_id":"MRI","time":4,"i_long":106.84912,"station_name":"Manggarai","line":2},{"station_id":"TEB","i_lat":-6.226659,"is_transit":false,"time":4,"line":2,"distance":2610,"transit":false,"station_name":"Tebet","i_long":106.857948},{"station_name":"Cawang","transit":false,"is_transit":false,"i_long":106.856607,"time":2,"i_lat":-6.242512,"line":2,"distance":1230,"station_id":"CW"},{"transit":false,"distance":1546,"i_long":106.85449,"station_id":"DRN","is_transit":false,"line":2,"station_name":"Duren Kalibata","i_lat":-6.255332,"time":3},{"station_id":"PSMB","transit":false,"i_lat":-6.263214,"line":2,"time":2,"station_name":"Pasar Minggu Baru","is_transit":false,"i_long":106.851577,"distance":824},{"distance":2380,"i_lat":-6.2842400000000005,"line":2,"transit":false,"time":2,"station_name":"Pasar Minggu","is_transit":false,"i_long":106.843999,"station_id":"PSM"},{"line":2,"station_id":"TNT","is_transit":false,"distance":2820,"station_name":"Tanjung Barat","time":4,"transit":false,"i_lat":-6.3080680000000005,"i_long":106.838896},{"time":3,"station_name":"Lenteng Agung","i_lat":-6.330363,"station_id":"LNA","distance":2671,"transit":false,"is_transit":false,"line":2,"i_long":106.832616},{"i_long":106.834175,"distance":1029,"i_lat":-6.339291,"transit":false,"station_id":"UP","time":2,"station_name":"Univ. Pancasila","is_transit":false,"line":2},{"is_transit":false,"time":3,"line":2,"i_long":106.831474,"station_name":"Univ. Indonesia","station_id":"UI","distance":2264,"transit":false,"i_lat":-6.360749},{"station_name":"Pondok Cina","time":2,"station_id":"POC","distance":1109,"i_lat":-6.369073,"i_long":106.831114,"line":2,"transit":false,"is_transit":false}]]}