{"data":[[{"time":0,"station_name":"Jatinegara","is_transit":false,"transit":false,"line":1,"i_long":106.86807400000001,"distance":0,"station_id":"JNG","i_lat":-6.215091},{"i_lat":-6.212485,"i_long":106.858896,"station_name":"Matraman","station_id":"MTR","time":2,"line":1,"transit":false,"distance":1377,"is_transit":false},{"station_id":"MRI","is_transit":false,"station_name":"Manggarai","time":2,"i_lat":-6.209883,"i_long":106.84912,"line":2,"transit":false,"distance":1275},{"i_lat":-6.202263,"time":4,"distance":3186,"is_transit":false,"station_name":"Sudirman","transit":false,"station_id":"SUD","i_long":106.822649,"line":1},{"distance":280,"station_name":"Sudirman Baru","transit":false,"line":1,"i_long":106.819881,"is_transit":false,"time":1,"station_id":"SUDB","i_lat":-6.201433},{"i_lat":-6.20132,"station_name":"Karet","line":1,"is_transit":false,"station_id":"KAT","i_long":106.816351,"transit":false,"time":1,"distance":471},{"station_name":"Tanah Abang","station_id":"THB","transit":true,"i_lat":-6.185545,"i_long":106.811091,"is_transit":true,"line":1,"time":5,"distance":2029},{"line":6,"transit":false,"distance":3191,"i_long":106.79689,"station_name":"Palmerah","is_transit":false,"i_lat":-6.207404,"time":6,"station_id":"PLM"},{"transit":false,"i_lat":-6.237242,"distance":3737,"i_long":106.780334,"is_transit":false,"line":6,"station_id":"KBY","time":7,"station_name":"Kebayoran"},{"distance":6218,"station_id":"PDJ","i_long":106.74273,"time":8,"line":6,"is_transit":false,"transit":false,"i_lat":-6.276362,"station_name":"Pondokranji"},{"distance":2179,"station_id":"JMU","line":6,"i_long":106.728916,"is_transit":false,"transit":false,"station_name":"Jurangmangu","time":3,"i_lat":-6.288927},{"station_id":"SDM","transit":false,"i_lat":-6.296963,"time":4,"distance":1994,"line":6,"i_long":106.712277,"is_transit":false,"station_name":"Sudimara"},{"time":6,"transit":false,"line":6,"station_name":"Rawa Buntu","is_transit":false,"station_id":"RU","i_long":106.675475,"i_lat":-6.314823,"distance":4566},{"distance":2413,"line":6,"i_lat":-6.319871,"station_id":"SRP","time":4,"station_name":"Serpong","is_transit":false,"transit":false,"i_long":106.66566},{"distance":1784,"i_lat":-6.32484,"transit":false,"i_long":106.640411,"is_transit":false,"line":3,"station_name":"Cisauk","station_id":"CSK","time":4}],[{"i_lat":-6.215091,"station_name":"Jatinegara","is_transit":false,"i_long":106.86807400000001,"line":1,"transit":false,"distance":0,"time":0,"station_id":"JNG"},{"station_name":"Pondok Jati","i_long":106.861737,"line":11,"distance":1236,"transit":false,"is_transit":false,"station_id":"POK","i_lat":-6.209188,"time":2},{"transit":false,"time":2,"station_id":"KMT","i_long":106.855437,"line":11,"is_transit":false,"i_lat":-6.193792,"station_name":"Kramat","distance":1829},{"station_name":"Gang Sentiong","transit":false,"i_lat":-6.185975,"i_long":106.850107,"line":11,"station_id":"GST","is_transit":false,"distance":973,"time":1},{"i_lat":-6.174784,"is_transit":false,"line":11,"i_long":106.84368,"station_id":"PSE","distance":1567,"transit":false,"time":8,"station_name":"Pasar Senen"},{"is_transit":false,"time":4,"distance":1436,"transit":false,"line":11,"station_name":"Kemayoran","station_id":"KMO","i_lat":-6.161728,"i_long":106.839204},{"time":5,"i_long":106.836569,"is_transit":false,"distance":1901,"station_name":"Rajawali","station_id":"RJW","line":11,"i_lat":-6.14505,"transit":false},{"station_id":"KPB","time":3,"transit":true,"line":4,"distance":1444,"station_name":"Kampung Bandan","i_lat":-6.132549,"i_long":106.826365,"is_transit":true},{"transit":false,"station_id":"AK","distance":4102,"time":9,"line":1,"i_lat":-6.144674,"is_transit":false,"station_name":"Angke","i_long":106.79867},{"station_name":"Duri","i_lat":-6.155215,"line":1,"i_long":106.800832,"time":4,"distance":1230,"is_transit":false,"station_id":"DU","transit":false},{"time":8,"i_long":106.811091,"i_lat":-6.185545,"station_name":"Tanah Abang","transit":true,"distance":3632,"is_transit":true,"line":1,"station_id":"THB"},{"line":6,"i_lat":-6.207404,"i_long":106.79689,"time":6,"station_name":"Palmerah","distance":3191,"transit":false,"is_transit":false,"station_id":"PLM"},{"i_long":106.780334,"time":7,"station_id":"KBY","station_name":"Kebayoran","is_transit":false,"transit":false,"line":6,"i_lat":-6.237242,"distance":3737},{"station_name":"Pondokranji","distance":6218,"is_transit":false,"i_lat":-6.276362,"transit":false,"time":8,"station_id":"PDJ","line":6,"i_long":106.74273},{"i_lat":-6.288927,"distance":2179,"time":3,"station_id":"JMU","i_long":106.728916,"line":6,"is_transit":false,"station_name":"Jurangmangu","transit":false},{"line":6,"is_transit":false,"station_name":"Sudimara","distance":1994,"i_lat":-6.296963,"i_long":106.712277,"station_id":"SDM","time":4,"transit":false},{"line":6,"i_lat":-6.314823,"transit":false,"station_name":"Rawa Buntu","station_id":"RU","time":6,"i_long":106.675475,"is_transit":false,"distance":4566},{"time":4,"distance":2413,"station_name":"Serpong","is_transit":false,"line":6,"i_lat":-6.319871,"station_id":"SRP","i_long":106.66566,"transit":false},{"line":3,"is_transit":false,"station_id":"CSK","distance":1784,"time":4,"transit":false,"i_lat":-6.32484,"station_name":"Cisauk","i_long":106.640411}],[{"distance":0,"i_lat":-6.215091,"station_id":"JNG","time":0,"i_long":106.86807400000001,"transit":false,"station_name":"Jatinegara","is_transit":false,"line":1},{"is_transit":false,"transit":false,"i_lat":-6.212485,"line":1,"station_id":"MTR","distance":1377,"station_name":"Matraman","i_long":106.858896,"time":2},{"i_lat":-6.209883,"is_transit":true,"i_long":106.84912,"time":2,"distance":1275,"station_id":"MRI","station_name":"Manggarai","transit":true,"line":2},{"transit":false,"station_name":"Cikini","distance":1590,"is_transit":false,"i_lat":-6.198556,"station_id":"CKI","time":4,"i_long":106.840169,"line":2},{"station_name":"Gondangdia","line":2,"station_id":"GDD","transit":false,"is_transit":false,"i_lat":-6.186295,"time":3,"distance":1750,"i_long":106.832183},{"time":4,"distance":2015,"i_long":106.828284,"is_transit":false,"line":2,"station_name":"Juanda","transit":false,"station_id":"JUA","i_lat":-6.166716},{"i_long":106.827103,"station_id":"SW","is_transit":false,"i_lat":-6.160725,"line":2,"time":2,"distance":1149,"station_name":"Sawah Besar","transit":false},{"distance":906,"station_name":"Manggabesar","is_transit":false,"transit":false,"time":2,"i_lat":-6.149769,"line":2,"station_id":"MGB","i_long":106.82482},{"distance":1080,"i_lat":-6.141205,"line":2,"time":2,"station_name":"Jayakarta","station_id":"JAY","transit":false,"i_long":106.820901,"is_transit":false},{"distance":1264,"transit":true,"station_id":"JAKK","line":2,"i_long":106.812439,"time":4,"station_name":"Jakarta Kota","is_transit":true,"i_lat":-6.137569},{"time":3,"i_long":106.826365,"transit":true,"line":4,"station_name":"Kampung Bandan","station_id":"KPB","distance":1364,"is_transit":true,"i_lat":-6.132549},{"time":9,"i_lat":-6.144674,"i_long":106.79867,"line":1,"transit":false,"station_id":"AK","station_name":"Angke","distance":4102,"is_transit":false},{"transit":false,"station_id":"DU","i_lat":-6.155215,"line":1,"i_long":106.800832,"time":4,"distance":1230,"is_transit":false,"station_name":"Duri"},{"time":8,"i_long":106.811091,"i_lat":-6.185545,"line":1,"distance":3632,"transit":true,"is_transit":true,"station_name":"Tanah Abang","station_id":"THB"},{"distance":3191,"station_name":"Palmerah","time":6,"transit":false,"station_id":"PLM","i_lat":-6.207404,"line":6,"is_transit":false,"i_long":106.79689},{"transit":false,"time":7,"i_lat":-6.237242,"distance":3737,"station_id":"KBY","line":6,"i_long":106.780334,"is_transit":false,"station_name":"Kebayoran"},{"i_lat":-6.276362,"i_long":106.74273,"line":6,"station_id":"PDJ","time":8,"station_name":"Pondokranji","distance":6218,"transit":false,"is_transit":false},{"station_id":"JMU","line":6,"time":3,"station_name":"Jurangmangu","i_lat":-6.288927,"i_long":106.728916,"is_transit":false,"distance":2179,"transit":false},{"station_name":"Sudimara","time":4,"is_transit":false,"transit":false,"distance":1994,"i_lat":-6.296963,"i_long":106.712277,"station_id":"SDM","line":6},{"time":6,"distance":4566,"i_lat":-6.314823,"line":6,"is_transit":false,"station_name":"Rawa Buntu","i_long":106.675475,"station_id":"RU","transit":false},{"distance":2413,"line":6,"transit":false,"station_name":"Serpong","is_transit":false,"i_long":106.66566,"i_lat":-6.319871,"station_id":"SRP","time":4},{"is_transit":false,"time":4,"i_lat":-6.32484,"distance":1784,"transit":false,"station_id":"CSK","station_name":"Cisauk","i_long":106.640411,"line":3}],[{"transit":false,"i_long":106.86807400000001,"station_name":"Jatinegara","is_transit":false,"line":1,"station_id":"JNG","time":0,"distance":0,"i_lat":-6.215091},{"i_long":106.861737,"transit":false,"station_name":"Pondok Jati","station_id":"POK","line":11,"distance":1236,"time":2,"is_transit":false,"i_lat":-6.209188},{"i_long":106.855437,"transit":false,"distance":1829,"station_id":"KMT","time":2,"station_name":"Kramat","i_lat":-6.193792,"line":11,"is_transit":false},{"i_lat":-6.185975,"transit":false,"i_long":106.850107,"station_id":"GST","is_transit":false,"time":1,"line":11,"station_name":"Gang Sentiong","distance":973},{"station_id":"PSE","i_lat":-6.174784,"distance":1567,"transit":false,"time":8,"line":11,"station_name":"Pasar Senen","is_transit":false,"i_long":106.84368},{"transit":false,"time":4,"i_long":106.839204,"station_id":"KMO","is_transit":false,"i_lat":-6.161728,"distance":1436,"station_name":"Kemayoran","line":11},{"line":11,"distance":1901,"transit":false,"time":5,"station_name":"Rajawali","i_long":106.836569,"is_transit":false,"i_lat":-6.14505,"station_id":"RJW"},{"transit":true,"station_id":"KPB","station_name":"Kampung Bandan","is_transit":true,"time":3,"distance":1444,"i_lat":-6.132549,"i_long":106.826365,"line":4},{"i_long":106.812439,"station_name":"Jakarta Kota","transit":true,"i_lat":-6.137569,"line":2,"distance":1364,"is_transit":true,"time":3,"station_id":"JAKK"},{"station_name":"Jayakarta","i_long":106.820901,"line":2,"time":4,"distance":1264,"transit":false,"station_id":"JAY","is_transit":false,"i_lat":-6.141205},{"i_lat":-6.149769,"station_id":"MGB","line":2,"distance":1080,"transit":false,"station_name":"Manggabesar","is_transit":false,"i_long":106.82482,"time":2},{"line":2,"i_long":106.827103,"station_id":"SW","time":2,"station_name":"Sawah Besar","transit":false,"distance":906,"is_transit":false,"i_lat":-6.160725},{"transit":false,"distance":1149,"station_id":"JUA","line":2,"time":2,"i_long":106.828284,"is_transit":false,"station_name":"Juanda","i_lat":-6.166716},{"i_lat":-6.186295,"is_transit":false,"station_id":"GDD","i_long":106.832183,"time":4,"station_name":"Gondangdia","distance":2015,"transit":false,"line":2},{"station_id":"CKI","i_lat":-6.198556,"distance":1750,"transit":false,"time":3,"is_transit":false,"i_long":106.840169,"station_name":"Cikini","line":2},{"transit":true,"line":2,"time":4,"distance":1590,"i_long":106.84912,"station_name":"Manggarai","station_id":"MRI","i_lat":-6.209883,"is_transit":true},{"distance":3186,"station_name":"Sudirman","transit":false,"is_transit":false,"i_long":106.822649,"time":4,"i_lat":-6.202263,"line":1,"station_id":"SUD"},{"i_long":106.819881,"transit":false,"line":1,"time":1,"station_name":"Sudirman Baru","station_id":"SUDB","is_transit":false,"distance":280,"i_lat":-6.201433},{"station_name":"Karet","station_id":"KAT","time":1,"i_lat":-6.20132,"distance":471,"transit":false,"i_long":106.816351,"is_transit":false,"line":1},{"time":5,"station_name":"Tanah Abang","station_id":"THB","line":1,"distance":2029,"i_long":106.811091,"transit":true,"i_lat":-6.185545,"is_transit":true},{"transit":false,"i_long":106.79689,"station_name":"Palmerah","line":6,"distance":3191,"is_transit":false,"time":6,"station_id":"PLM","i_lat":-6.207404},{"line":6,"is_transit":false,"station_id":"KBY","time":7,"station_name":"Kebayoran","distance":3737,"transit":false,"i_lat":-6.237242,"i_long":106.780334},{"transit":false,"i_long":106.74273,"line":6,"distance":6218,"is_transit":false,"i_lat":-6.276362,"station_id":"PDJ","time":8,"station_name":"Pondokranji"},{"i_long":106.728916,"station_id":"JMU","station_name":"Jurangmangu","line":6,"time":3,"distance":2179,"is_transit":false,"transit":false,"i_lat":-6.288927},{"time":4,"is_transit":false,"i_long":106.712277,"station_id":"SDM","distance":1994,"line":6,"station_name":"Sudimara","transit":false,"i_lat":-6.296963},{"i_long":106.675475,"line":6,"distance":4566,"is_transit":false,"station_id":"RU","time":6,"station_name":"Rawa Buntu","i_lat":-6.314823,"transit":false},{"is_transit":false,"distance":2413,"station_id":"SRP","i_lat":-6.319871,"line":6,"time":4,"station_name":"Serpong","i_long":106.66566,"transit":false},{"distance":1784,"i_long":106.640411,"station_id":"CSK","is_transit":false,"transit":false,"i_lat":-6.32484,"line":3,"station_name":"Cisauk","time":4}]]}