{"data":[[{"station_name":"Jatinegara","distance":0,"i_lat":-6.215091,"station_id":"JNG","is_transit":false,"line":1,"time":0,"transit":false,"i_long":106.86807400000001},{"distance":1377,"station_id":"MTR","station_name":"Matraman","time":2,"is_transit":false,"i_long":106.858896,"line":1,"i_lat":-6.212485,"transit":false},{"line":2,"distance":1275,"is_transit":false,"station_name":"Manggarai","transit":false,"station_id":"MRI","time":2,"i_lat":-6.209883,"i_long":106.84912},{"station_name":"Sudirman","time":4,"i_lat":-6.202263,"line":1,"transit":false,"i_long":106.822649,"is_transit":false,"station_id":"SUD","distance":3186},{"i_long":106.819881,"line":1,"is_transit":false,"time":1,"station_id":"SUDB","transit":false,"distance":280,"station_name":"Sudirman Baru","i_lat":-6.201433},{"distance":471,"i_long":106.816351,"i_lat":-6.20132,"station_name":"Karet","transit":false,"time":1,"station_id":"KAT","is_transit":false,"line":1},{"i_long":106.811091,"time":5,"i_lat":-6.185545,"line":1,"station_id":"THB","transit":true,"station_name":"Tanah Abang","is_transit":true,"distance":2029},{"i_long":106.79689,"i_lat":-6.207404,"station_name":"Palmerah","station_id":"PLM","transit":false,"time":6,"is_transit":false,"line":6,"distance":3191},{"i_lat":-6.237242,"transit":false,"is_transit":false,"time":7,"station_name":"Kebayoran","distance":3737,"station_id":"KBY","i_long":106.780334,"line":6},{"station_name":"Pondokranji","distance":6218,"time":8,"is_transit":false,"i_lat":-6.276362,"line":6,"transit":false,"station_id":"PDJ","i_long":106.74273},{"transit":false,"station_id":"JMU","i_lat":-6.288927,"i_long":106.728916,"time":3,"line":6,"distance":2179,"station_name":"Jurangmangu","is_transit":false},{"station_name":"Sudimara","distance":1994,"time":4,"station_id":"SDM","is_transit":false,"line":6,"i_long":106.712277,"i_lat":-6.296963,"transit":false},{"time":6,"line":6,"distance":4566,"transit":false,"i_long":106.675475,"station_id":"RU","station_name":"Rawa Buntu","i_lat":-6.314823,"is_transit":false},{"station_id":"SRP","time":4,"station_name":"Serpong","i_long":106.66566,"transit":false,"is_transit":false,"line":6,"distance":2413,"i_lat":-6.319871},{"station_name":"Cisauk","distance":1784,"time":4,"transit":false,"i_long":106.640411,"line":3,"station_id":"CSK","is_transit":false,"i_lat":-6.32484}],[{"line":1,"station_id":"JNG","is_transit":false,"station_name":"Jatinegara","i_lat":-6.215091,"transit":false,"i_long":106.86807400000001,"distance":0,"time":0},{"i_long":106.861737,"line":11,"is_transit":false,"time":2,"station_name":"Pondok Jati","distance":1236,"station_id":"POK","transit":false,"i_lat":-6.209188},{"is_transit":false,"station_id":"KMT","i_lat":-6.193792,"line":11,"time":2,"station_name":"Kramat","i_long":106.855437,"transit":false,"distance":1829},{"station_name":"Gang Sentiong","time":1,"transit":false,"i_lat":-6.185975,"distance":973,"i_long":106.850107,"station_id":"GST","is_transit":false,"line":11},{"station_id":"PSE","station_name":"Pasar Senen","line":11,"is_transit":false,"i_lat":-6.174784,"transit":false,"time":8,"i_long":106.84368,"distance":1567},{"i_lat":-6.161728,"time":4,"transit":false,"station_id":"KMO","is_transit":false,"station_name":"Kemayoran","i_long":106.839204,"line":11,"distance":1436},{"is_transit":false,"i_long":106.836569,"i_lat":-6.14505,"line":11,"transit":false,"distance":1901,"station_id":"RJW","station_name":"Rajawali","time":5},{"i_long":106.826365,"i_lat":-6.132549,"line":4,"station_id":"KPB","transit":true,"is_transit":true,"time":3,"station_name":"Kampung Bandan","distance":1444},{"station_id":"AK","is_transit":false,"i_lat":-6.144674,"station_name":"Angke","distance":4102,"time":9,"i_long":106.79867,"line":1,"transit":false},{"station_id":"DU","transit":false,"station_name":"Duri","i_lat":-6.155215,"is_transit":false,"line":1,"distance":1230,"time":4,"i_long":106.800832},{"i_lat":-6.185545,"time":8,"line":1,"i_long":106.811091,"station_id":"THB","station_name":"Tanah Abang","transit":true,"is_transit":true,"distance":3632},{"line":6,"transit":false,"station_id":"PLM","i_long":106.79689,"time":6,"station_name":"Palmerah","i_lat":-6.207404,"is_transit":false,"distance":3191},{"i_lat":-6.237242,"time":7,"transit":false,"station_name":"Kebayoran","i_long":106.780334,"is_transit":false,"distance":3737,"station_id":"KBY","line":6},{"is_transit":false,"time":8,"transit":false,"station_id":"PDJ","station_name":"Pondokranji","i_long":106.74273,"i_lat":-6.276362,"line":6,"distance":6218},{"distance":2179,"is_transit":false,"station_name":"Jurangmangu","i_long":106.728916,"time":3,"i_lat":-6.288927,"transit":false,"station_id":"JMU","line":6},{"distance":1994,"transit":false,"time":4,"station_name":"Sudimara","line":6,"is_transit":false,"i_lat":-6.296963,"i_long":106.712277,"station_id":"SDM"},{"i_long":106.675475,"distance":4566,"time":6,"line":6,"station_id":"RU","transit":false,"i_lat":-6.314823,"station_name":"Rawa Buntu","is_transit":false},{"distance":2413,"line":6,"is_transit":false,"i_long":106.66566,"transit":false,"i_lat":-6.319871,"time":4,"station_name":"Serpong","station_id":"SRP"},{"line":3,"station_name":"Cisauk","transit":false,"time":4,"is_transit":false,"i_lat":-6.32484,"i_long":106.640411,"distance":1784,"station_id":"CSK"}],[{"station_name":"Jatinegara","is_transit":false,"i_lat":-6.215091,"line":1,"station_id":"JNG","distance":0,"time":0,"transit":false,"i_long":106.86807400000001},{"i_lat":-6.212485,"time":2,"station_name":"Matraman","is_transit":false,"i_long":106.858896,"distance":1377,"transit":false,"station_id":"MTR","line":1},{"i_long":106.84912,"distance":1275,"transit":true,"is_transit":true,"station_id":"MRI","i_lat":-6.209883,"station_name":"Manggarai","time":2,"line":2},{"transit":false,"station_id":"CKI","station_name":"Cikini","distance":1590,"is_transit":false,"i_lat":-6.198556,"i_long":106.840169,"line":2,"time":4},{"transit":false,"station_name":"Gondangdia","is_transit":false,"i_long":106.832183,"line":2,"distance":1750,"i_lat":-6.186295,"station_id":"GDD","time":3},{"is_transit":false,"transit":false,"station_name":"Juanda","distance":2015,"time":4,"i_lat":-6.166716,"i_long":106.828284,"line":2,"station_id":"JUA"},{"is_transit":false,"line":2,"station_id":"SW","time":2,"transit":false,"i_lat":-6.160725,"station_name":"Sawah Besar","i_long":106.827103,"distance":1149},{"station_name":"Manggabesar","station_id":"MGB","is_transit":false,"i_lat":-6.149769,"transit":false,"distance":906,"time":2,"line":2,"i_long":106.82482},{"time":2,"is_transit":false,"i_lat":-6.141205,"i_long":106.820901,"transit":false,"line":2,"station_id":"JAY","station_name":"Jayakarta","distance":1080},{"line":2,"station_id":"JAKK","is_transit":true,"transit":true,"station_name":"Jakarta Kota","distance":1264,"i_lat":-6.137569,"i_long":106.812439,"time":4},{"transit":true,"station_id":"KPB","time":3,"i_long":106.826365,"is_transit":true,"station_name":"Kampung Bandan","i_lat":-6.132549,"distance":1364,"line":4},{"station_id":"AK","distance":4102,"station_name":"Angke","time":9,"i_lat":-6.144674,"i_long":106.79867,"is_transit":false,"line":1,"transit":false},{"transit":false,"i_lat":-6.155215,"station_name":"Duri","is_transit":false,"station_id":"DU","distance":1230,"i_long":106.800832,"line":1,"time":4},{"i_long":106.811091,"time":8,"distance":3632,"transit":true,"station_id":"THB","is_transit":true,"i_lat":-6.185545,"line":1,"station_name":"Tanah Abang"},{"i_long":106.79689,"is_transit":false,"line":6,"station_name":"Palmerah","station_id":"PLM","time":6,"distance":3191,"transit":false,"i_lat":-6.207404},{"i_lat":-6.237242,"i_long":106.780334,"distance":3737,"transit":false,"station_id":"KBY","is_transit":false,"station_name":"Kebayoran","time":7,"line":6},{"transit":false,"distance":6218,"station_id":"PDJ","i_long":106.74273,"line":6,"is_transit":false,"station_name":"Pondokranji","time":8,"i_lat":-6.276362},{"is_transit":false,"time":3,"distance":2179,"i_long":106.728916,"station_id":"JMU","transit":false,"line":6,"station_name":"Jurangmangu","i_lat":-6.288927},{"i_long":106.712277,"i_lat":-6.296963,"is_transit":false,"transit":false,"line":6,"distance":1994,"time":4,"station_id":"SDM","station_name":"Sudimara"},{"station_name":"Rawa Buntu","station_id":"RU","time":6,"line":6,"i_long":106.675475,"distance":4566,"is_transit":false,"i_lat":-6.314823,"transit":false},{"i_long":106.66566,"time":4,"station_name":"Serpong","distance":2413,"line":6,"transit":false,"station_id":"SRP","i_lat":-6.319871,"is_transit":false},{"i_long":106.640411,"time":4,"is_transit":false,"distance":1784,"station_name":"Cisauk","transit":false,"i_lat":-6.32484,"line":3,"station_id":"CSK"}],[{"transit":false,"i_long":106.86807400000001,"station_id":"JNG","station_name":"Jatinegara","time":0,"i_lat":-6.215091,"distance":0,"is_transit":false,"line":1},{"station_name":"Pondok Jati","i_long":106.861737,"distance":1236,"station_id":"POK","time":2,"line":11,"is_transit":false,"transit":false,"i_lat":-6.209188},{"is_transit":false,"station_name":"Kramat","station_id":"KMT","i_lat":-6.193792,"i_long":106.855437,"line":11,"distance":1829,"time":2,"transit":false},{"i_lat":-6.185975,"distance":973,"station_id":"GST","transit":false,"i_long":106.850107,"is_transit":false,"line":11,"time":1,"station_name":"Gang Sentiong"},{"distance":1567,"i_long":106.84368,"transit":false,"station_id":"PSE","time":8,"station_name":"Pasar Senen","i_lat":-6.174784,"line":11,"is_transit":false},{"transit":false,"station_name":"Kemayoran","line":11,"i_long":106.839204,"station_id":"KMO","distance":1436,"time":4,"is_transit":false,"i_lat":-6.161728},{"line":11,"distance":1901,"is_transit":false,"station_name":"Rajawali","i_lat":-6.14505,"transit":false,"station_id":"RJW","time":5,"i_long":106.836569},{"i_long":106.826365,"i_lat":-6.132549,"time":3,"station_name":"Kampung Bandan","transit":true,"station_id":"KPB","is_transit":true,"line":4,"distance":1444},{"time":3,"station_name":"Jakarta Kota","line":2,"distance":1364,"transit":true,"station_id":"JAKK","i_lat":-6.137569,"is_transit":true,"i_long":106.812439},{"transit":false,"is_transit":false,"station_name":"Jayakarta","distance":1264,"time":4,"i_lat":-6.141205,"station_id":"JAY","i_long":106.820901,"line":2},{"line":2,"distance":1080,"transit":false,"station_name":"Manggabesar","time":2,"is_transit":false,"i_lat":-6.149769,"station_id":"MGB","i_long":106.82482},{"distance":906,"station_id":"SW","transit":false,"is_transit":false,"station_name":"Sawah Besar","line":2,"time":2,"i_lat":-6.160725,"i_long":106.827103},{"distance":1149,"line":2,"station_name":"Juanda","transit":false,"station_id":"JUA","is_transit":false,"i_lat":-6.166716,"i_long":106.828284,"time":2},{"transit":false,"line":2,"i_long":106.832183,"station_id":"GDD","i_lat":-6.186295,"time":4,"station_name":"Gondangdia","is_transit":false,"distance":2015},{"station_name":"Cikini","is_transit":false,"time":3,"line":2,"station_id":"CKI","transit":false,"i_long":106.840169,"distance":1750,"i_lat":-6.198556},{"is_transit":true,"i_lat":-6.209883,"transit":true,"station_id":"MRI","time":4,"i_long":106.84912,"line":2,"distance":1590,"station_name":"Manggarai"},{"station_id":"SUD","station_name":"Sudirman","i_long":106.822649,"i_lat":-6.202263,"time":4,"distance":3186,"is_transit":false,"line":1,"transit":false},{"is_transit":false,"i_lat":-6.201433,"i_long":106.819881,"distance":280,"transit":false,"line":1,"station_id":"SUDB","time":1,"station_name":"Sudirman Baru"},{"station_id":"KAT","i_lat":-6.20132,"i_long":106.816351,"station_name":"Karet","is_transit":false,"time":1,"line":1,"transit":false,"distance":471},{"station_name":"Tanah Abang","i_lat":-6.185545,"i_long":106.811091,"line":1,"distance":2029,"transit":true,"time":5,"is_transit":true,"station_id":"THB"},{"distance":3191,"i_long":106.79689,"transit":false,"is_transit":false,"time":6,"i_lat":-6.207404,"station_name":"Palmerah","station_id":"PLM","line":6},{"time":7,"transit":false,"station_name":"Kebayoran","station_id":"KBY","line":6,"i_lat":-6.237242,"distance":3737,"i_long":106.780334,"is_transit":false},{"transit":false,"i_lat":-6.276362,"i_long":106.74273,"station_name":"Pondokranji","line":6,"station_id":"PDJ","time":8,"distance":6218,"is_transit":false},{"station_name":"Jurangmangu","i_long":106.728916,"line":6,"time":3,"transit":false,"is_transit":false,"station_id":"JMU","i_lat":-6.288927,"distance":2179},{"station_name":"Sudimara","time":4,"station_id":"SDM","transit":false,"i_long":106.712277,"distance":1994,"is_transit":false,"i_lat":-6.296963,"line":6},{"i_lat":-6.314823,"distance":4566,"time":6,"station_id":"RU","is_transit":false,"station_name":"Rawa Buntu","i_long":106.675475,"line":6,"transit":false},{"is_transit":false,"i_lat":-6.319871,"distance":2413,"line":6,"transit":false,"i_long":106.66566,"station_name":"Serpong","station_id":"SRP","time":4},{"distance":1784,"i_long":106.640411,"station_name":"Cisauk","transit":false,"station_id":"CSK","is_transit":false,"i_lat":-6.32484,"time":4,"line":3}]]}