{"data":[[{"time":0,"station_id":"JNG","is_transit":false,"station_name":"Jatinegara","distance":0,"i_long":106.86807400000001,"line":1,"transit":false,"i_lat":-6.215091},{"station_id":"KLD","i_long":106.899548,"line":1,"is_transit":false,"station_name":"Klender","i_lat":-6.2135,"distance":3395,"time":3,"transit":false},{"i_lat":-6.215568,"line":1,"transit":false,"is_transit":false,"i_long":106.922662,"station_id":"BUA","time":2,"station_name":"Buaran","distance":3100},{"line":1,"station_id":"KLDB","transit":false,"is_transit":false,"station_name":"Klenderbaru","distance":1305,"i_lat":-6.217455,"i_long":106.939679,"time":1},{"is_transit":false,"station_name":"Cakung","line":1,"station_id":"CUK","transit":false,"time":8,"distance":1385,"i_lat":-6.219053,"i_long":106.951283},{"station_id":"KRI","transit":false,"is_transit":false,"time":3,"station_name":"Kranji","line":1,"distance":3097,"i_lat":-6.224515,"i_long":106.977657},{"transit":false,"is_transit":false,"time":4,"station_name":"Bekasi","i_lat":-6.236616,"station_id":"BKS","distance":2520,"i_long":106.997013,"line":1},{"distance":2368,"i_lat":-6.248029,"line":1,"is_transit":false,"station_name":"Bekasi Timur","i_long":107.016735,"transit":false,"station_id":"BKST","time":2},{"time":7,"transit":false,"station_name":"Tambun","i_long":107.055722,"is_transit":false,"station_id":"TB","distance":4460,"i_lat":-6.258864,"line":1},{"line":1,"station_id":"CIT","distance":3420,"station_name":"Cibitung","is_transit":false,"i_long":107.083084,"transit":false,"time":3,"i_lat":-6.261877},{"i_lat":-6.262938,"distance":2800,"i_long":107.093313,"is_transit":false,"transit":false,"line":1,"station_name":"Metland Telaga Murni","station_id":"TLM","time":2},{"line":1,"station_id":"CKR","is_transit":false,"distance":3689,"station_name":"Cikarang","i_long":107.144613,"transit":false,"i_lat":-6.2553149999999995,"time":4}]]}