{"data":[[{"time":0,"line":1,"i_lat":-6.215091,"is_transit":false,"station_name":"Jatinegara","distance":0,"station_id":"JNG","i_long":106.86807400000001,"transit":false},{"line":1,"station_name":"Matraman","transit":false,"is_transit":false,"station_id":"MTR","i_lat":-6.212485,"time":2,"distance":1377,"i_long":106.858896},{"transit":true,"station_name":"Manggarai","distance":1275,"line":2,"i_lat":-6.209883,"is_transit":true,"i_long":106.84912,"time":2,"station_id":"MRI"},{"time":4,"is_transit":false,"i_long":106.857948,"station_name":"Tebet","transit":false,"distance":2610,"station_id":"TEB","i_lat":-6.226659,"line":2},{"transit":false,"time":2,"distance":1230,"is_transit":false,"i_lat":-6.242512,"i_long":106.856607,"line":2,"station_name":"Cawang","station_id":"CW"},{"line":2,"i_lat":-6.255332,"station_name":"Duren Kalibata","distance":1546,"time":3,"is_transit":false,"transit":false,"i_long":106.85449,"station_id":"DRN"},{"is_transit":false,"station_id":"PSMB","i_long":106.851577,"transit":false,"line":2,"distance":824,"station_name":"Pasar Minggu Baru","i_lat":-6.263214,"time":2},{"distance":2380,"station_id":"PSM","time":2,"transit":false,"line":2,"station_name":"Pasar Minggu","i_lat":-6.2842400000000005,"is_transit":false,"i_long":106.843999},{"is_transit":false,"time":4,"distance":2820,"station_name":"Tanjung Barat","line":2,"transit":false,"i_long":106.838896,"station_id":"TNT","i_lat":-6.3080680000000005},{"station_id":"LNA","i_lat":-6.330363,"line":2,"is_transit":false,"station_name":"Lenteng Agung","i_long":106.832616,"transit":false,"time":3,"distance":2671},{"station_id":"UP","i_lat":-6.339291,"line":2,"station_name":"Univ. Pancasila","is_transit":false,"time":2,"i_long":106.834175,"distance":1029,"transit":false},{"i_long":106.831474,"is_transit":false,"station_id":"UI","line":2,"i_lat":-6.360749,"transit":false,"time":3,"distance":2264,"station_name":"Univ. Indonesia"},{"i_lat":-6.369073,"i_long":106.831114,"station_name":"Pondok Cina","is_transit":false,"transit":false,"distance":1109,"station_id":"POC","time":2,"line":2},{"line":2,"distance":2727,"transit":false,"is_transit":false,"time":4,"station_id":"DPB","station_name":"Depokbaru","i_lat":-6.391065,"i_long":106.819451},{"station_id":"DP","line":2,"time":3,"station_name":"Depok","distance":1584,"transit":false,"i_long":106.816926,"is_transit":false,"i_lat":-6.405256},{"is_transit":false,"transit":false,"station_name":"Citayam","distance":5084,"i_lat":-6.448811,"station_id":"CTA","line":2,"time":6,"i_long":106.800298}],[{"time":0,"station_id":"JNG","i_lat":-6.215091,"transit":false,"distance":0,"line":1,"is_transit":false,"i_long":106.86807400000001,"station_name":"Jatinegara"},{"time":2,"distance":1236,"transit":false,"station_name":"Pondok Jati","station_id":"POK","i_lat":-6.209188,"line":11,"is_transit":false,"i_long":106.861737},{"is_transit":false,"time":2,"line":11,"i_long":106.855437,"distance":1829,"station_name":"Kramat","transit":false,"station_id":"KMT","i_lat":-6.193792},{"distance":973,"i_lat":-6.185975,"station_name":"Gang Sentiong","time":1,"i_long":106.850107,"line":11,"transit":false,"is_transit":false,"station_id":"GST"},{"distance":1567,"line":11,"i_long":106.84368,"station_id":"PSE","i_lat":-6.174784,"station_name":"Pasar Senen","transit":false,"time":8,"is_transit":false},{"i_lat":-6.161728,"distance":1436,"is_transit":false,"time":4,"station_name":"Kemayoran","i_long":106.839204,"transit":false,"station_id":"KMO","line":11},{"i_long":106.836569,"station_name":"Rajawali","distance":1901,"is_transit":false,"i_lat":-6.14505,"station_id":"RJW","line":11,"transit":false,"time":5},{"i_long":106.826365,"line":4,"i_lat":-6.132549,"transit":true,"time":3,"station_id":"KPB","station_name":"Kampung Bandan","is_transit":true,"distance":1444},{"is_transit":false,"i_lat":-6.144674,"i_long":106.79867,"distance":4102,"time":9,"station_name":"Angke","line":1,"transit":false,"station_id":"AK"},{"is_transit":false,"station_id":"DU","i_long":106.800832,"i_lat":-6.155215,"transit":false,"time":4,"distance":1230,"line":1,"station_name":"Duri"},{"is_transit":false,"station_id":"THB","station_name":"Tanah Abang","i_lat":-6.185545,"i_long":106.811091,"line":1,"time":8,"distance":3632,"transit":false},{"station_id":"KAT","station_name":"Karet","transit":false,"i_lat":-6.20132,"i_long":106.816351,"is_transit":false,"distance":2029,"time":5,"line":1},{"line":1,"station_id":"SUDB","transit":false,"time":1,"i_lat":-6.201433,"is_transit":false,"i_long":106.819881,"distance":471,"station_name":"Sudirman Baru"},{"transit":false,"is_transit":false,"station_id":"SUD","i_long":106.822649,"station_name":"Sudirman","time":1,"distance":280,"i_lat":-6.202263,"line":1},{"is_transit":true,"station_id":"MRI","i_long":106.84912,"line":2,"distance":3186,"transit":true,"time":4,"i_lat":-6.209883,"station_name":"Manggarai"},{"distance":2610,"is_transit":false,"transit":false,"station_id":"TEB","i_lat":-6.226659,"time":4,"station_name":"Tebet","i_long":106.857948,"line":2},{"station_id":"CW","line":2,"i_long":106.856607,"transit":false,"distance":1230,"time":2,"is_transit":false,"i_lat":-6.242512,"station_name":"Cawang"},{"distance":1546,"time":3,"station_name":"Duren Kalibata","is_transit":false,"i_lat":-6.255332,"station_id":"DRN","line":2,"transit":false,"i_long":106.85449},{"line":2,"station_id":"PSMB","time":2,"i_lat":-6.263214,"i_long":106.851577,"is_transit":false,"distance":824,"station_name":"Pasar Minggu Baru","transit":false},{"is_transit":false,"station_id":"PSM","i_lat":-6.2842400000000005,"distance":2380,"i_long":106.843999,"line":2,"station_name":"Pasar Minggu","transit":false,"time":2},{"is_transit":false,"i_lat":-6.3080680000000005,"distance":2820,"transit":false,"station_name":"Tanjung Barat","time":4,"station_id":"TNT","line":2,"i_long":106.838896},{"station_name":"Lenteng Agung","station_id":"LNA","i_long":106.832616,"distance":2671,"i_lat":-6.330363,"time":3,"transit":false,"is_transit":false,"line":2},{"time":2,"distance":1029,"transit":false,"station_name":"Univ. Pancasila","is_transit":false,"line":2,"station_id":"UP","i_lat":-6.339291,"i_long":106.834175},{"distance":2264,"station_name":"Univ. Indonesia","transit":false,"is_transit":false,"station_id":"UI","time":3,"i_long":106.831474,"i_lat":-6.360749,"line":2},{"transit":false,"station_id":"POC","i_long":106.831114,"time":2,"distance":1109,"station_name":"Pondok Cina","is_transit":false,"i_lat":-6.369073,"line":2},{"time":4,"is_transit":false,"distance":2727,"station_name":"Depokbaru","i_lat":-6.391065,"station_id":"DPB","i_long":106.819451,"transit":false,"line":2},{"time":3,"station_name":"Depok","distance":1584,"station_id":"DP","i_lat":-6.405256,"is_transit":false,"line":2,"i_long":106.816926,"transit":false},{"i_long":106.800298,"is_transit":false,"i_lat":-6.448811,"line":2,"station_name":"Citayam","time":6,"distance":5084,"transit":false,"station_id":"CTA"}],[{"station_id":"JNG","i_lat":-6.215091,"line":1,"i_long":106.86807400000001,"station_name":"Jatinegara","time":0,"transit":false,"distance":0,"is_transit":false},{"time":2,"i_long":106.861737,"transit":false,"line":11,"distance":1236,"is_transit":false,"station_id":"POK","station_name":"Pondok Jati","i_lat":-6.209188},{"line":11,"i_long":106.855437,"distance":1829,"transit":false,"station_id":"KMT","time":2,"i_lat":-6.193792,"is_transit":false,"station_name":"Kramat"},{"is_transit":false,"line":11,"distance":973,"i_long":106.850107,"station_name":"Gang Sentiong","time":1,"station_id":"GST","transit":false,"i_lat":-6.185975},{"is_transit":false,"i_long":106.84368,"line":11,"transit":false,"station_name":"Pasar Senen","distance":1567,"time":8,"station_id":"PSE","i_lat":-6.174784},{"time":4,"distance":1436,"station_name":"Kemayoran","transit":false,"i_lat":-6.161728,"i_long":106.839204,"is_transit":false,"station_id":"KMO","line":11},{"transit":false,"line":11,"station_id":"RJW","is_transit":false,"i_lat":-6.14505,"i_long":106.836569,"time":5,"distance":1901,"station_name":"Rajawali"},{"distance":1444,"is_transit":true,"time":3,"station_name":"Kampung Bandan","transit":true,"i_lat":-6.132549,"station_id":"KPB","line":4,"i_long":106.826365},{"i_long":106.812439,"transit":true,"i_lat":-6.137569,"station_name":"Jakarta Kota","line":2,"distance":1364,"station_id":"JAKK","time":3,"is_transit":true},{"transit":false,"station_name":"Jayakarta","line":2,"distance":1264,"station_id":"JAY","i_long":106.820901,"time":4,"is_transit":false,"i_lat":-6.141205},{"station_id":"MGB","transit":false,"distance":1080,"line":2,"station_name":"Manggabesar","is_transit":false,"time":2,"i_lat":-6.149769,"i_long":106.82482},{"is_transit":false,"station_id":"SW","i_lat":-6.160725,"i_long":106.827103,"transit":false,"line":2,"distance":906,"station_name":"Sawah Besar","time":2},{"i_long":106.828284,"time":2,"transit":false,"station_name":"Juanda","i_lat":-6.166716,"line":2,"distance":1149,"is_transit":false,"station_id":"JUA"},{"i_long":106.832183,"station_name":"Gondangdia","transit":false,"time":4,"is_transit":false,"station_id":"GDD","i_lat":-6.186295,"line":2,"distance":2015},{"transit":false,"is_transit":false,"station_id":"CKI","i_long":106.840169,"line":2,"distance":1750,"time":3,"i_lat":-6.198556,"station_name":"Cikini"},{"station_id":"MRI","time":4,"i_lat":-6.209883,"i_long":106.84912,"line":2,"distance":1590,"station_name":"Manggarai","is_transit":false,"transit":false},{"station_id":"TEB","transit":false,"i_long":106.857948,"time":4,"station_name":"Tebet","line":2,"is_transit":false,"distance":2610,"i_lat":-6.226659},{"station_name":"Cawang","time":2,"line":2,"transit":false,"is_transit":false,"i_long":106.856607,"station_id":"CW","i_lat":-6.242512,"distance":1230},{"station_name":"Duren Kalibata","station_id":"DRN","is_transit":false,"transit":false,"i_lat":-6.255332,"distance":1546,"i_long":106.85449,"time":3,"line":2},{"i_lat":-6.263214,"line":2,"time":2,"station_name":"Pasar Minggu Baru","is_transit":false,"station_id":"PSMB","i_long":106.851577,"distance":824,"transit":false},{"distance":2380,"station_name":"Pasar Minggu","is_transit":false,"time":2,"i_long":106.843999,"station_id":"PSM","i_lat":-6.2842400000000005,"line":2,"transit":false},{"distance":2820,"i_lat":-6.3080680000000005,"line":2,"station_id":"TNT","i_long":106.838896,"transit":false,"station_name":"Tanjung Barat","is_transit":false,"time":4},{"is_transit":false,"i_long":106.832616,"time":3,"distance":2671,"i_lat":-6.330363,"line":2,"transit":false,"station_name":"Lenteng Agung","station_id":"LNA"},{"station_id":"UP","time":2,"i_lat":-6.339291,"station_name":"Univ. Pancasila","transit":false,"line":2,"is_transit":false,"i_long":106.834175,"distance":1029},{"transit":false,"distance":2264,"line":2,"station_name":"Univ. Indonesia","i_lat":-6.360749,"station_id":"UI","is_transit":false,"i_long":106.831474,"time":3},{"line":2,"transit":false,"is_transit":false,"distance":1109,"station_id":"POC","station_name":"Pondok Cina","time":2,"i_lat":-6.369073,"i_long":106.831114},{"i_long":106.819451,"transit":false,"station_id":"DPB","distance":2727,"is_transit":false,"time":4,"i_lat":-6.391065,"station_name":"Depokbaru","line":2},{"i_long":106.816926,"transit":false,"time":3,"distance":1584,"station_name":"Depok","station_id":"DP","i_lat":-6.405256,"is_transit":false,"line":2},{"i_lat":-6.448811,"transit":false,"station_id":"CTA","station_name":"Citayam","is_transit":false,"time":6,"distance":5084,"i_long":106.800298,"line":2}]]}