{"data":[[{"time":0,"i_lat":-6.215091,"i_long":106.86807400000001,"line":1,"transit":false,"station_id":"JNG","station_name":"Jatinegara","distance":0,"is_transit":false},{"is_transit":false,"station_id":"KLD","i_long":106.899548,"time":3,"i_lat":-6.2135,"distance":3395,"line":1,"station_name":"Klender","transit":false},{"transit":false,"is_transit":false,"distance":3100,"time":2,"station_name":"Buaran","i_lat":-6.215568,"station_id":"BUA","i_long":106.922662,"line":1},{"transit":false,"i_long":106.939679,"station_name":"Klenderbaru","is_transit":false,"line":1,"station_id":"KLDB","time":1,"i_lat":-6.217455,"distance":1305},{"time":8,"station_id":"CUK","station_name":"Cakung","i_lat":-6.219053,"i_long":106.951283,"line":1,"transit":false,"is_transit":false,"distance":1385},{"transit":false,"i_lat":-6.224515,"time":3,"station_id":"KRI","station_name":"Kranji","is_transit":false,"distance":3097,"line":1,"i_long":106.977657},{"is_transit":false,"time":4,"station_id":"BKS","i_lat":-6.236616,"i_long":106.997013,"transit":false,"line":1,"distance":2520,"station_name":"Bekasi"},{"distance":2368,"i_long":107.016735,"station_name":"Bekasi Timur","is_transit":false,"time":2,"line":1,"transit":false,"station_id":"BKST","i_lat":-6.248029},{"i_lat":-6.258864,"time":7,"distance":4460,"i_long":107.055722,"transit":false,"line":1,"is_transit":false,"station_name":"Tambun","station_id":"TB"},{"i_lat":-6.261877,"station_name":"Cibitung","time":3,"distance":3420,"i_long":107.083084,"transit":false,"is_transit":false,"line":1,"station_id":"CIT"},{"transit":false,"time":2,"line":1,"i_long":107.093313,"is_transit":false,"station_id":"TLM","i_lat":-6.262938,"station_name":"Metland Telaga Murni","distance":2800},{"i_long":107.144613,"is_transit":false,"station_name":"Cikarang","line":1,"transit":false,"time":4,"distance":3689,"i_lat":-6.2553149999999995,"station_id":"CKR"}]]}