{"data":[[{"distance":0,"time":0,"station_name":"Jatinegara","is_transit":false,"station_id":"JNG","line":1,"transit":false,"i_long":106.86807400000001,"i_lat":-6.215091},{"time":2,"station_name":"Pondok Jati","station_id":"POK","line":11,"distance":1236,"is_transit":false,"transit":false,"i_long":106.861737,"i_lat":-6.209188},{"line":11,"station_id":"KMT","time":2,"is_transit":false,"i_long":106.855437,"transit":false,"i_lat":-6.193792,"distance":1829,"station_name":"Kramat"},{"station_id":"GST","is_transit":false,"i_long":106.850107,"distance":973,"i_lat":-6.185975,"transit":false,"line":11,"station_name":"Gang Sentiong","time":1},{"distance":1567,"transit":false,"time":8,"line":11,"is_transit":false,"i_lat":-6.174784,"i_long":106.84368,"station_name":"Pasar Senen","station_id":"PSE"}],[{"distance":0,"time":0,"i_long":106.86807400000001,"station_id":"JNG","line":1,"transit":false,"is_transit":false,"i_lat":-6.215091,"station_name":"Jatinegara"},{"station_id":"MTR","line":1,"transit":false,"i_lat":-6.212485,"i_long":106.858896,"distance":1377,"is_transit":false,"station_name":"Matraman","time":2},{"station_name":"Manggarai","i_long":106.84912,"is_transit":false,"transit":false,"distance":1275,"time":2,"line":2,"i_lat":-6.209883,"station_id":"MRI"},{"i_long":106.822649,"time":4,"i_lat":-6.202263,"line":1,"station_name":"Sudirman","is_transit":false,"transit":false,"station_id":"SUD","distance":3186},{"i_long":106.819881,"transit":false,"distance":280,"i_lat":-6.201433,"time":1,"is_transit":false,"station_name":"Sudirman Baru","line":1,"station_id":"SUDB"},{"distance":471,"is_transit":false,"i_long":106.816351,"time":1,"station_id":"KAT","station_name":"Karet","line":1,"transit":false,"i_lat":-6.20132},{"i_lat":-6.185545,"time":5,"i_long":106.811091,"line":1,"station_id":"THB","is_transit":false,"transit":false,"distance":2029,"station_name":"Tanah Abang"},{"distance":3632,"time":8,"i_long":106.800832,"station_id":"DU","line":1,"station_name":"Duri","transit":false,"is_transit":false,"i_lat":-6.155215},{"transit":false,"station_name":"Angke","i_lat":-6.144674,"line":1,"time":4,"i_long":106.79867,"distance":1230,"is_transit":false,"station_id":"AK"},{"transit":true,"line":4,"i_lat":-6.132549,"station_name":"Kampung Bandan","is_transit":true,"i_long":106.826365,"distance":4102,"time":9,"station_id":"KPB"},{"i_long":106.836569,"station_id":"RJW","station_name":"Rajawali","transit":false,"line":11,"distance":1444,"time":3,"is_transit":false,"i_lat":-6.14505},{"i_lat":-6.161728,"time":5,"station_id":"KMO","is_transit":false,"i_long":106.839204,"distance":1901,"transit":false,"station_name":"Kemayoran","line":11},{"transit":false,"is_transit":false,"i_lat":-6.174784,"i_long":106.84368,"distance":1436,"station_name":"Pasar Senen","line":11,"time":4,"station_id":"PSE"}],[{"is_transit":false,"i_lat":-6.215091,"i_long":106.86807400000001,"time":0,"station_name":"Jatinegara","station_id":"JNG","transit":false,"line":1,"distance":0},{"i_long":106.858896,"line":1,"station_id":"MTR","station_name":"Matraman","time":2,"is_transit":false,"transit":false,"i_lat":-6.212485,"distance":1377},{"station_id":"MRI","i_lat":-6.209883,"line":2,"station_name":"Manggarai","transit":true,"distance":1275,"time":2,"is_transit":true,"i_long":106.84912},{"transit":false,"time":4,"distance":1590,"is_transit":false,"line":2,"i_lat":-6.198556,"station_id":"CKI","i_long":106.840169,"station_name":"Cikini"},{"line":2,"time":3,"distance":1750,"station_name":"Gondangdia","is_transit":false,"i_long":106.832183,"transit":false,"i_lat":-6.186295,"station_id":"GDD"},{"station_id":"JUA","transit":false,"station_name":"Juanda","is_transit":false,"i_lat":-6.166716,"line":2,"time":4,"i_long":106.828284,"distance":2015},{"i_long":106.827103,"station_id":"SW","time":2,"transit":false,"distance":1149,"i_lat":-6.160725,"station_name":"Sawah Besar","line":2,"is_transit":false},{"station_name":"Manggabesar","line":2,"is_transit":false,"i_long":106.82482,"time":2,"station_id":"MGB","distance":906,"transit":false,"i_lat":-6.149769},{"station_name":"Jayakarta","station_id":"JAY","time":2,"transit":false,"i_lat":-6.141205,"i_long":106.820901,"distance":1080,"is_transit":false,"line":2},{"i_lat":-6.137569,"station_id":"JAKK","time":4,"distance":1264,"station_name":"Jakarta Kota","transit":true,"line":2,"i_long":106.812439,"is_transit":true},{"time":3,"transit":true,"i_lat":-6.132549,"line":4,"i_long":106.826365,"station_id":"KPB","distance":1364,"station_name":"Kampung Bandan","is_transit":true},{"time":3,"i_long":106.836569,"i_lat":-6.14505,"transit":false,"station_id":"RJW","distance":1444,"station_name":"Rajawali","is_transit":false,"line":11},{"station_id":"KMO","transit":false,"distance":1901,"time":5,"line":11,"i_lat":-6.161728,"station_name":"Kemayoran","is_transit":false,"i_long":106.839204},{"i_long":106.84368,"transit":false,"distance":1436,"i_lat":-6.174784,"line":11,"station_id":"PSE","time":4,"is_transit":false,"station_name":"Pasar Senen"}]]}