{"data":[[{"is_transit":false,"line":1,"time":0,"i_lat":-6.215091,"i_long":106.86807400000001,"distance":0,"transit":false,"station_name":"Jatinegara","station_id":"JNG"},{"i_lat":-6.212485,"is_transit":false,"station_id":"MTR","line":1,"station_name":"Matraman","time":2,"distance":1377,"i_long":106.858896,"transit":false},{"distance":1275,"is_transit":false,"i_long":106.84912,"line":2,"station_id":"MRI","station_name":"Manggarai","i_lat":-6.209883,"time":2,"transit":false},{"distance":3186,"transit":false,"i_long":106.822649,"line":1,"station_name":"Sudirman","is_transit":false,"station_id":"SUD","time":4,"i_lat":-6.202263},{"i_long":106.819881,"i_lat":-6.201433,"time":1,"is_transit":false,"line":1,"distance":280,"station_name":"Sudirman Baru","transit":false,"station_id":"SUDB"},{"distance":471,"i_lat":-6.20132,"time":1,"transit":false,"line":1,"station_id":"KAT","station_name":"Karet","is_transit":false,"i_long":106.816351},{"station_id":"THB","i_lat":-6.185545,"is_transit":true,"station_name":"Tanah Abang","time":5,"transit":true,"distance":2029,"line":1,"i_long":106.811091},{"station_name":"Palmerah","transit":false,"i_lat":-6.207404,"time":6,"station_id":"PLM","line":6,"distance":3191,"i_long":106.79689,"is_transit":false},{"line":6,"station_id":"KBY","transit":false,"time":7,"station_name":"Kebayoran","distance":3737,"i_long":106.780334,"is_transit":false,"i_lat":-6.237242},{"i_lat":-6.276362,"transit":false,"station_id":"PDJ","station_name":"Pondokranji","time":8,"i_long":106.74273,"distance":6218,"line":6,"is_transit":false},{"transit":false,"i_long":106.728916,"line":6,"distance":2179,"station_name":"Jurangmangu","i_lat":-6.288927,"station_id":"JMU","is_transit":false,"time":3},{"line":6,"is_transit":false,"i_long":106.712277,"station_id":"SDM","transit":false,"distance":1994,"station_name":"Sudimara","time":4,"i_lat":-6.296963},{"station_name":"Rawa Buntu","time":6,"station_id":"RU","transit":false,"line":6,"i_lat":-6.314823,"is_transit":false,"i_long":106.675475,"distance":4566},{"i_long":106.66566,"station_name":"Serpong","i_lat":-6.319871,"time":4,"distance":2413,"is_transit":false,"station_id":"SRP","transit":false,"line":6},{"time":4,"line":3,"station_id":"CSK","transit":false,"is_transit":false,"station_name":"Cisauk","i_long":106.640411,"distance":1784,"i_lat":-6.32484},{"is_transit":false,"transit":false,"i_long":106.617853,"distance":2519,"i_lat":-6.329547,"station_name":"Cicayur","line":3,"station_id":"CC","time":4},{"station_id":"PRP","time":8,"i_lat":-6.3441410000000005,"distance":5968,"transit":false,"i_long":106.568863,"is_transit":false,"station_name":"Parung Panjang","line":6},{"transit":false,"station_id":"CJT","station_name":"Cilejit","i_long":106.508482,"time":9,"distance":7025,"i_lat":-6.354349,"line":3,"is_transit":false},{"line":0,"distance":2675,"i_lat":-6.338021,"transit":false,"station_name":"Daru","i_long":106.491338,"station_id":"DAR","is_transit":false,"time":6},{"station_id":"TEJ","transit":false,"line":6,"is_transit":false,"station_name":"Tenjo","time":5,"distance":3902,"i_lat":-6.327251,"i_long":106.460812}],[{"line":1,"is_transit":false,"time":0,"transit":false,"i_long":106.86807400000001,"station_id":"JNG","station_name":"Jatinegara","distance":0,"i_lat":-6.215091},{"i_long":106.861737,"line":11,"time":2,"i_lat":-6.209188,"is_transit":false,"station_name":"Pondok Jati","station_id":"POK","distance":1236,"transit":false},{"transit":false,"distance":1829,"i_long":106.855437,"station_name":"Kramat","line":11,"time":2,"is_transit":false,"station_id":"KMT","i_lat":-6.193792},{"line":11,"station_id":"GST","transit":false,"time":1,"distance":973,"i_lat":-6.185975,"i_long":106.850107,"station_name":"Gang Sentiong","is_transit":false},{"time":8,"station_id":"PSE","line":11,"distance":1567,"i_lat":-6.174784,"station_name":"Pasar Senen","transit":false,"is_transit":false,"i_long":106.84368},{"line":11,"station_id":"KMO","distance":1436,"i_lat":-6.161728,"is_transit":false,"station_name":"Kemayoran","time":4,"transit":false,"i_long":106.839204},{"i_lat":-6.14505,"line":11,"is_transit":false,"station_id":"RJW","time":5,"transit":false,"i_long":106.836569,"station_name":"Rajawali","distance":1901},{"station_id":"KPB","transit":true,"i_lat":-6.132549,"i_long":106.826365,"time":3,"station_name":"Kampung Bandan","is_transit":true,"distance":1444,"line":4},{"i_long":106.79867,"line":1,"distance":4102,"time":9,"transit":false,"station_id":"AK","station_name":"Angke","is_transit":false,"i_lat":-6.144674},{"station_id":"DU","transit":false,"station_name":"Duri","time":4,"i_lat":-6.155215,"i_long":106.800832,"line":1,"distance":1230,"is_transit":false},{"i_long":106.811091,"transit":true,"line":1,"time":8,"station_name":"Tanah Abang","is_transit":true,"distance":3632,"station_id":"THB","i_lat":-6.185545},{"i_lat":-6.207404,"station_id":"PLM","transit":false,"distance":3191,"line":6,"i_long":106.79689,"is_transit":false,"station_name":"Palmerah","time":6},{"distance":3737,"station_id":"KBY","line":6,"is_transit":false,"i_long":106.780334,"station_name":"Kebayoran","time":7,"transit":false,"i_lat":-6.237242},{"i_lat":-6.276362,"station_id":"PDJ","station_name":"Pondokranji","is_transit":false,"time":8,"transit":false,"distance":6218,"i_long":106.74273,"line":6},{"station_name":"Jurangmangu","transit":false,"i_long":106.728916,"is_transit":false,"i_lat":-6.288927,"station_id":"JMU","time":3,"distance":2179,"line":6},{"transit":false,"distance":1994,"station_name":"Sudimara","station_id":"SDM","i_lat":-6.296963,"i_long":106.712277,"time":4,"is_transit":false,"line":6},{"i_lat":-6.314823,"is_transit":false,"i_long":106.675475,"transit":false,"station_id":"RU","time":6,"station_name":"Rawa Buntu","line":6,"distance":4566},{"is_transit":false,"station_id":"SRP","time":4,"i_lat":-6.319871,"i_long":106.66566,"line":6,"station_name":"Serpong","transit":false,"distance":2413},{"station_id":"CSK","time":4,"station_name":"Cisauk","transit":false,"i_lat":-6.32484,"is_transit":false,"i_long":106.640411,"line":3,"distance":1784},{"station_name":"Cicayur","station_id":"CC","i_lat":-6.329547,"time":4,"distance":2519,"is_transit":false,"transit":false,"i_long":106.617853,"line":3},{"time":8,"station_id":"PRP","distance":5968,"line":6,"i_lat":-6.3441410000000005,"i_long":106.568863,"is_transit":false,"transit":false,"station_name":"Parung Panjang"},{"line":3,"time":9,"transit":false,"station_name":"Cilejit","is_transit":false,"i_lat":-6.354349,"i_long":106.508482,"station_id":"CJT","distance":7025},{"transit":false,"time":6,"is_transit":false,"distance":2675,"i_long":106.491338,"station_name":"Daru","station_id":"DAR","i_lat":-6.338021,"line":0},{"station_id":"TEJ","station_name":"Tenjo","is_transit":false,"time":5,"distance":3902,"i_lat":-6.327251,"line":6,"i_long":106.460812,"transit":false}],[{"distance":0,"i_long":106.86807400000001,"station_id":"JNG","time":0,"is_transit":false,"line":1,"transit":false,"i_lat":-6.215091,"station_name":"Jatinegara"},{"time":2,"distance":1377,"i_lat":-6.212485,"station_id":"MTR","station_name":"Matraman","is_transit":false,"i_long":106.858896,"transit":false,"line":1},{"transit":true,"distance":1275,"station_id":"MRI","station_name":"Manggarai","is_transit":true,"line":2,"i_lat":-6.209883,"i_long":106.84912,"time":2},{"i_lat":-6.198556,"line":2,"station_name":"Cikini","i_long":106.840169,"time":4,"station_id":"CKI","distance":1590,"is_transit":false,"transit":false},{"is_transit":false,"station_id":"GDD","i_lat":-6.186295,"transit":false,"line":2,"station_name":"Gondangdia","time":3,"distance":1750,"i_long":106.832183},{"transit":false,"i_long":106.828284,"distance":2015,"station_name":"Juanda","is_transit":false,"time":4,"i_lat":-6.166716,"line":2,"station_id":"JUA"},{"distance":1149,"is_transit":false,"i_long":106.827103,"station_id":"SW","transit":false,"i_lat":-6.160725,"time":2,"line":2,"station_name":"Sawah Besar"},{"is_transit":false,"i_long":106.82482,"station_id":"MGB","station_name":"Manggabesar","distance":906,"i_lat":-6.149769,"time":2,"line":2,"transit":false},{"transit":false,"distance":1080,"i_lat":-6.141205,"station_id":"JAY","line":2,"i_long":106.820901,"station_name":"Jayakarta","is_transit":false,"time":2},{"station_id":"JAKK","is_transit":true,"line":2,"i_long":106.812439,"station_name":"Jakarta Kota","time":4,"distance":1264,"transit":true,"i_lat":-6.137569},{"station_id":"KPB","is_transit":true,"time":3,"transit":true,"i_lat":-6.132549,"i_long":106.826365,"station_name":"Kampung Bandan","distance":1364,"line":4},{"distance":4102,"line":1,"station_id":"AK","station_name":"Angke","is_transit":false,"i_long":106.79867,"time":9,"transit":false,"i_lat":-6.144674},{"station_id":"DU","station_name":"Duri","transit":false,"line":1,"is_transit":false,"distance":1230,"i_long":106.800832,"time":4,"i_lat":-6.155215},{"is_transit":true,"time":8,"i_long":106.811091,"line":1,"transit":true,"station_id":"THB","distance":3632,"i_lat":-6.185545,"station_name":"Tanah Abang"},{"time":6,"i_lat":-6.207404,"line":6,"station_id":"PLM","station_name":"Palmerah","is_transit":false,"i_long":106.79689,"transit":false,"distance":3191},{"transit":false,"time":7,"station_id":"KBY","i_lat":-6.237242,"station_name":"Kebayoran","is_transit":false,"distance":3737,"i_long":106.780334,"line":6},{"station_name":"Pondokranji","is_transit":false,"time":8,"line":6,"station_id":"PDJ","distance":6218,"i_lat":-6.276362,"i_long":106.74273,"transit":false},{"distance":2179,"is_transit":false,"line":6,"i_long":106.728916,"i_lat":-6.288927,"station_name":"Jurangmangu","time":3,"station_id":"JMU","transit":false},{"time":4,"distance":1994,"i_lat":-6.296963,"i_long":106.712277,"transit":false,"station_id":"SDM","is_transit":false,"station_name":"Sudimara","line":6},{"i_lat":-6.314823,"station_id":"RU","transit":false,"is_transit":false,"station_name":"Rawa Buntu","distance":4566,"line":6,"i_long":106.675475,"time":6},{"transit":false,"i_long":106.66566,"station_name":"Serpong","distance":2413,"station_id":"SRP","line":6,"is_transit":false,"time":4,"i_lat":-6.319871},{"station_id":"CSK","i_lat":-6.32484,"time":4,"i_long":106.640411,"distance":1784,"station_name":"Cisauk","transit":false,"line":3,"is_transit":false},{"time":4,"transit":false,"station_name":"Cicayur","i_lat":-6.329547,"is_transit":false,"distance":2519,"i_long":106.617853,"line":3,"station_id":"CC"},{"i_lat":-6.3441410000000005,"time":8,"distance":5968,"station_id":"PRP","transit":false,"is_transit":false,"station_name":"Parung Panjang","line":6,"i_long":106.568863},{"line":3,"distance":7025,"time":9,"is_transit":false,"transit":false,"station_id":"CJT","i_long":106.508482,"station_name":"Cilejit","i_lat":-6.354349},{"distance":2675,"transit":false,"station_id":"DAR","station_name":"Daru","line":0,"is_transit":false,"time":6,"i_lat":-6.338021,"i_long":106.491338},{"distance":3902,"transit":false,"station_id":"TEJ","i_lat":-6.327251,"station_name":"Tenjo","line":6,"time":5,"i_long":106.460812,"is_transit":false}],[{"is_transit":false,"time":0,"station_id":"JNG","transit":false,"i_long":106.86807400000001,"distance":0,"i_lat":-6.215091,"line":1,"station_name":"Jatinegara"},{"station_name":"Pondok Jati","is_transit":false,"distance":1236,"i_long":106.861737,"station_id":"POK","line":11,"time":2,"transit":false,"i_lat":-6.209188},{"time":2,"i_lat":-6.193792,"station_name":"Kramat","distance":1829,"line":11,"station_id":"KMT","i_long":106.855437,"transit":false,"is_transit":false},{"i_lat":-6.185975,"line":11,"i_long":106.850107,"transit":false,"station_name":"Gang Sentiong","station_id":"GST","is_transit":false,"distance":973,"time":1},{"i_lat":-6.174784,"line":11,"station_id":"PSE","i_long":106.84368,"is_transit":false,"distance":1567,"time":8,"station_name":"Pasar Senen","transit":false},{"is_transit":false,"station_name":"Kemayoran","line":11,"transit":false,"station_id":"KMO","i_long":106.839204,"distance":1436,"i_lat":-6.161728,"time":4},{"transit":false,"time":5,"i_lat":-6.14505,"line":11,"is_transit":false,"i_long":106.836569,"station_name":"Rajawali","station_id":"RJW","distance":1901},{"is_transit":true,"station_name":"Kampung Bandan","transit":true,"station_id":"KPB","distance":1444,"i_lat":-6.132549,"time":3,"line":4,"i_long":106.826365},{"station_name":"Jakarta Kota","transit":true,"is_transit":true,"i_long":106.812439,"line":2,"i_lat":-6.137569,"time":3,"distance":1364,"station_id":"JAKK"},{"transit":false,"distance":1264,"is_transit":false,"station_name":"Jayakarta","i_long":106.820901,"station_id":"JAY","line":2,"time":4,"i_lat":-6.141205},{"i_long":106.82482,"transit":false,"i_lat":-6.149769,"station_name":"Manggabesar","line":2,"station_id":"MGB","is_transit":false,"time":2,"distance":1080},{"line":2,"is_transit":false,"station_name":"Sawah Besar","time":2,"transit":false,"station_id":"SW","distance":906,"i_lat":-6.160725,"i_long":106.827103},{"station_id":"JUA","station_name":"Juanda","time":2,"transit":false,"distance":1149,"i_long":106.828284,"is_transit":false,"line":2,"i_lat":-6.166716},{"i_long":106.832183,"distance":2015,"time":4,"transit":false,"i_lat":-6.186295,"line":2,"is_transit":false,"station_id":"GDD","station_name":"Gondangdia"},{"i_long":106.840169,"transit":false,"station_id":"CKI","time":3,"is_transit":false,"i_lat":-6.198556,"distance":1750,"line":2,"station_name":"Cikini"},{"station_id":"MRI","is_transit":true,"station_name":"Manggarai","time":4,"transit":true,"distance":1590,"i_lat":-6.209883,"i_long":106.84912,"line":2},{"station_id":"SUD","time":4,"i_long":106.822649,"line":1,"station_name":"Sudirman","is_transit":false,"transit":false,"distance":3186,"i_lat":-6.202263},{"time":1,"station_id":"SUDB","station_name":"Sudirman Baru","transit":false,"distance":280,"line":1,"i_long":106.819881,"i_lat":-6.201433,"is_transit":false},{"i_lat":-6.20132,"is_transit":false,"distance":471,"line":1,"i_long":106.816351,"station_id":"KAT","station_name":"Karet","time":1,"transit":false},{"i_long":106.811091,"time":5,"station_name":"Tanah Abang","line":1,"station_id":"THB","i_lat":-6.185545,"is_transit":true,"transit":true,"distance":2029},{"is_transit":false,"distance":3191,"station_id":"PLM","time":6,"i_lat":-6.207404,"i_long":106.79689,"station_name":"Palmerah","transit":false,"line":6},{"time":7,"distance":3737,"station_id":"KBY","is_transit":false,"line":6,"station_name":"Kebayoran","i_lat":-6.237242,"i_long":106.780334,"transit":false},{"i_lat":-6.276362,"distance":6218,"time":8,"station_id":"PDJ","station_name":"Pondokranji","line":6,"is_transit":false,"transit":false,"i_long":106.74273},{"transit":false,"distance":2179,"is_transit":false,"i_long":106.728916,"station_id":"JMU","line":6,"time":3,"i_lat":-6.288927,"station_name":"Jurangmangu"},{"is_transit":false,"transit":false,"distance":1994,"time":4,"station_name":"Sudimara","i_long":106.712277,"line":6,"i_lat":-6.296963,"station_id":"SDM"},{"i_lat":-6.314823,"transit":false,"station_id":"RU","station_name":"Rawa Buntu","time":6,"distance":4566,"line":6,"is_transit":false,"i_long":106.675475},{"transit":false,"station_name":"Serpong","i_long":106.66566,"is_transit":false,"distance":2413,"station_id":"SRP","line":6,"time":4,"i_lat":-6.319871},{"i_long":106.640411,"station_name":"Cisauk","station_id":"CSK","time":4,"i_lat":-6.32484,"line":3,"is_transit":false,"transit":false,"distance":1784},{"line":3,"transit":false,"i_lat":-6.329547,"station_name":"Cicayur","is_transit":false,"time":4,"station_id":"CC","distance":2519,"i_long":106.617853},{"transit":false,"i_lat":-6.3441410000000005,"i_long":106.568863,"station_id":"PRP","distance":5968,"line":6,"station_name":"Parung Panjang","time":8,"is_transit":false},{"transit":false,"i_lat":-6.354349,"distance":7025,"station_id":"CJT","is_transit":false,"i_long":106.508482,"line":3,"station_name":"Cilejit","time":9},{"transit":false,"is_transit":false,"i_lat":-6.338021,"time":6,"line":0,"i_long":106.491338,"distance":2675,"station_id":"DAR","station_name":"Daru"},{"i_long":106.460812,"line":6,"is_transit":false,"i_lat":-6.327251,"station_id":"TEJ","transit":false,"distance":3902,"time":5,"station_name":"Tenjo"}]]}