{"data":[[{"transit":false,"i_long":106.86807400000001,"line":0,"i_lat":-6.215091,"station_id":"JNG","distance":0,"time":0,"station_name":"Jatinegara","is_transit":true},{"i_lat":-6.209188,"i_long":106.861737,"station_name":"Pondok Jati","line":11,"transit":false,"station_id":"POK","is_transit":false,"time":2,"distance":1236}],[{"time":0,"distance":0,"is_transit":true,"station_id":"JNG","station_name":"Jatinegara","transit":false,"i_long":106.86807400000001,"i_lat":-6.215091,"line":0},{"is_transit":false,"time":2,"distance":1377,"i_long":106.858896,"i_lat":-6.212485,"station_id":"MTR","transit":false,"station_name":"Matraman","line":1},{"distance":1275,"station_id":"MRI","transit":false,"line":0,"i_lat":-6.209883,"is_transit":true,"i_long":106.84912,"time":2,"station_name":"Manggarai"},{"distance":3186,"station_id":"SUD","station_name":"Sudirman","line":1,"transit":false,"time":4,"i_long":106.822649,"is_transit":false,"i_lat":-6.202263},{"transit":false,"station_id":"SUDB","time":1,"i_lat":-6.201433,"i_long":106.819881,"station_name":"Sudirman Baru","line":1,"distance":280,"is_transit":false},{"i_lat":-6.20132,"distance":471,"is_transit":false,"station_id":"KAT","station_name":"Karet","time":1,"transit":false,"i_long":106.816351,"line":1},{"station_name":"Tanah Abang","time":5,"station_id":"THB","i_lat":-6.185545,"is_transit":true,"i_long":106.811091,"transit":false,"distance":2029,"line":1},{"line":1,"time":8,"station_name":"Duri","is_transit":true,"transit":true,"distance":3632,"i_lat":-6.155215,"station_id":"DU","i_long":106.800832},{"station_name":"Angke","i_lat":-6.144674,"is_transit":false,"i_long":106.79867,"distance":1230,"line":0,"station_id":"AK","transit":false,"time":4},{"is_transit":true,"i_long":106.826365,"time":9,"transit":true,"i_lat":-6.132549,"station_name":"Kampung Bandan","station_id":"KPB","distance":4102,"line":0},{"is_transit":false,"i_lat":-6.14505,"line":11,"time":3,"i_long":106.836569,"transit":false,"station_name":"Rajawali","distance":1444,"station_id":"RJW"},{"distance":1901,"station_id":"KMO","time":5,"i_long":106.839204,"line":11,"station_name":"Kemayoran","i_lat":-6.161728,"is_transit":false,"transit":false},{"transit":false,"station_id":"PSE","station_name":"Pasar Senen","time":4,"line":11,"distance":1436,"i_lat":-6.174784,"i_long":106.84368,"is_transit":false},{"time":8,"distance":1567,"station_id":"GST","is_transit":false,"transit":false,"station_name":"Gang Sentiong","i_lat":-6.185975,"i_long":106.850107,"line":11},{"i_long":106.855437,"station_name":"Kramat","time":1,"station_id":"KMT","i_lat":-6.193792,"is_transit":false,"line":11,"distance":973,"transit":false},{"is_transit":false,"i_lat":-6.209188,"station_id":"POK","i_long":106.861737,"distance":1829,"station_name":"Pondok Jati","transit":false,"line":11,"time":2}],[{"station_name":"Jatinegara","is_transit":true,"i_long":106.86807400000001,"line":0,"distance":0,"time":0,"transit":false,"i_lat":-6.215091,"station_id":"JNG"},{"station_id":"MTR","i_lat":-6.212485,"transit":false,"is_transit":false,"station_name":"Matraman","time":2,"distance":1377,"i_long":106.858896,"line":1},{"station_id":"MRI","station_name":"Manggarai","is_transit":true,"transit":true,"time":2,"i_lat":-6.209883,"line":0,"i_long":106.84912,"distance":1275},{"is_transit":false,"distance":1590,"transit":false,"i_lat":-6.198556,"line":0,"station_name":"Cikini","time":4,"i_long":106.840169,"station_id":"CKI"},{"transit":false,"station_name":"Gondangdia","i_lat":-6.186295,"time":3,"distance":1750,"station_id":"GDD","i_long":106.832183,"line":2,"is_transit":false},{"i_lat":-6.166716,"line":2,"i_long":106.828284,"station_name":"Juanda","is_transit":false,"distance":2015,"station_id":"JUA","time":4,"transit":false},{"station_name":"Sawah Besar","is_transit":false,"station_id":"SW","line":2,"i_long":106.827103,"time":2,"i_lat":-6.160725,"transit":false,"distance":1149},{"distance":906,"i_long":106.82482,"time":2,"station_name":"Manggabesar","is_transit":false,"transit":false,"line":2,"i_lat":-6.149769,"station_id":"MGB"},{"is_transit":false,"time":2,"transit":false,"station_id":"JAY","distance":1080,"i_lat":-6.141205,"i_long":106.820901,"station_name":"Jayakarta","line":7},{"distance":1264,"i_lat":-6.137569,"station_name":"Jakarta Kota","transit":true,"i_long":106.812439,"line":0,"is_transit":true,"time":4,"station_id":"JAKK"},{"transit":true,"i_long":106.826365,"station_name":"Kampung Bandan","station_id":"KPB","is_transit":true,"i_lat":-6.132549,"line":0,"distance":1364,"time":3},{"i_long":106.836569,"transit":false,"line":11,"is_transit":false,"i_lat":-6.14505,"station_id":"RJW","distance":1444,"station_name":"Rajawali","time":3},{"line":11,"is_transit":false,"transit":false,"time":5,"station_id":"KMO","distance":1901,"station_name":"Kemayoran","i_lat":-6.161728,"i_long":106.839204},{"transit":false,"time":4,"i_long":106.84368,"line":11,"distance":1436,"station_name":"Pasar Senen","is_transit":false,"station_id":"PSE","i_lat":-6.174784},{"station_id":"GST","is_transit":false,"distance":1567,"time":8,"i_long":106.850107,"station_name":"Gang Sentiong","i_lat":-6.185975,"line":11,"transit":false},{"distance":973,"i_long":106.855437,"i_lat":-6.193792,"station_name":"Kramat","station_id":"KMT","is_transit":false,"time":1,"transit":false,"line":11},{"station_name":"Pondok Jati","station_id":"POK","i_lat":-6.209188,"transit":false,"is_transit":false,"time":2,"i_long":106.861737,"distance":1829,"line":11}]]}