{"data":[[{"station_id":"JNG","line":1,"i_long":106.86807400000001,"distance":0,"time":0,"transit":false,"is_transit":false,"station_name":"Jatinegara","i_lat":-6.215091},{"i_long":106.861737,"is_transit":false,"distance":1236,"time":2,"line":11,"station_name":"Pondok Jati","station_id":"POK","transit":false,"i_lat":-6.209188},{"time":2,"station_id":"KMT","station_name":"Kramat","is_transit":false,"distance":1829,"i_lat":-6.193792,"i_long":106.855437,"line":11,"transit":false},{"time":1,"distance":973,"station_name":"Gang Sentiong","i_lat":-6.185975,"station_id":"GST","is_transit":false,"i_long":106.850107,"transit":false,"line":11},{"is_transit":false,"station_name":"Pasar Senen","line":11,"time":8,"i_lat":-6.174784,"station_id":"PSE","distance":1567,"transit":false,"i_long":106.84368},{"station_name":"Kemayoran","station_id":"KMO","transit":false,"line":11,"distance":1436,"time":4,"is_transit":false,"i_lat":-6.161728,"i_long":106.839204},{"line":11,"i_lat":-6.14505,"transit":false,"station_id":"RJW","station_name":"Rajawali","distance":1901,"time":5,"is_transit":false,"i_long":106.836569}],[{"is_transit":false,"i_lat":-6.215091,"i_long":106.86807400000001,"distance":0,"station_id":"JNG","line":1,"time":0,"station_name":"Jatinegara","transit":false},{"i_lat":-6.212485,"station_name":"Matraman","time":2,"station_id":"MTR","i_long":106.858896,"line":1,"distance":1377,"transit":false,"is_transit":false},{"distance":1275,"time":2,"transit":false,"station_name":"Manggarai","station_id":"MRI","is_transit":false,"i_lat":-6.209883,"i_long":106.84912,"line":2},{"i_lat":-6.202263,"transit":false,"time":4,"station_id":"SUD","distance":3186,"i_long":106.822649,"line":1,"is_transit":false,"station_name":"Sudirman"},{"is_transit":false,"station_name":"Sudirman Baru","line":1,"distance":280,"i_long":106.819881,"time":1,"i_lat":-6.201433,"station_id":"SUDB","transit":false},{"distance":471,"i_lat":-6.20132,"is_transit":false,"station_id":"KAT","i_long":106.816351,"station_name":"Karet","line":1,"time":1,"transit":false},{"is_transit":false,"station_name":"Tanah Abang","i_lat":-6.185545,"transit":false,"i_long":106.811091,"line":1,"distance":2029,"time":5,"station_id":"THB"},{"line":1,"time":8,"station_id":"DU","transit":false,"i_long":106.800832,"i_lat":-6.155215,"station_name":"Duri","distance":3632,"is_transit":false},{"i_lat":-6.144674,"transit":false,"station_name":"Angke","station_id":"AK","distance":1230,"is_transit":false,"i_long":106.79867,"line":1,"time":4},{"is_transit":true,"station_name":"Kampung Bandan","transit":true,"i_lat":-6.132549,"i_long":106.826365,"line":4,"time":9,"station_id":"KPB","distance":4102},{"time":3,"i_lat":-6.14505,"is_transit":false,"distance":1444,"transit":false,"i_long":106.836569,"line":11,"station_id":"RJW","station_name":"Rajawali"}],[{"is_transit":false,"time":0,"line":1,"i_long":106.86807400000001,"station_name":"Jatinegara","transit":false,"station_id":"JNG","distance":0,"i_lat":-6.215091},{"distance":1377,"i_long":106.858896,"line":1,"station_name":"Matraman","time":2,"is_transit":false,"transit":false,"i_lat":-6.212485,"station_id":"MTR"},{"distance":1275,"transit":true,"is_transit":true,"station_name":"Manggarai","time":2,"i_lat":-6.209883,"i_long":106.84912,"station_id":"MRI","line":2},{"station_name":"Cikini","distance":1590,"i_long":106.840169,"station_id":"CKI","time":4,"i_lat":-6.198556,"line":2,"is_transit":false,"transit":false},{"is_transit":false,"time":3,"i_long":106.832183,"distance":1750,"i_lat":-6.186295,"transit":false,"line":2,"station_name":"Gondangdia","station_id":"GDD"},{"i_lat":-6.166716,"line":2,"station_id":"JUA","station_name":"Juanda","is_transit":false,"distance":2015,"i_long":106.828284,"time":4,"transit":false},{"station_id":"SW","is_transit":false,"transit":false,"line":2,"distance":1149,"time":2,"i_long":106.827103,"i_lat":-6.160725,"station_name":"Sawah Besar"},{"line":2,"i_long":106.82482,"distance":906,"time":2,"station_name":"Manggabesar","station_id":"MGB","transit":false,"i_lat":-6.149769,"is_transit":false},{"line":2,"is_transit":false,"time":2,"station_name":"Jayakarta","station_id":"JAY","distance":1080,"i_lat":-6.141205,"i_long":106.820901,"transit":false},{"is_transit":true,"distance":1264,"station_id":"JAKK","i_long":106.812439,"i_lat":-6.137569,"station_name":"Jakarta Kota","time":4,"line":2,"transit":true},{"distance":1364,"i_long":106.826365,"station_name":"Kampung Bandan","transit":true,"is_transit":true,"time":3,"line":4,"i_lat":-6.132549,"station_id":"KPB"},{"i_long":106.836569,"station_name":"Rajawali","line":11,"time":3,"station_id":"RJW","transit":false,"i_lat":-6.14505,"distance":1444,"is_transit":false}]]}