{"data":[[{"distance":0,"line":1,"station_id":"JNG","time":0,"station_name":"Jatinegara","i_lat":-6.215091,"i_long":106.86807400000001,"is_transit":false,"transit":false},{"is_transit":false,"time":2,"i_long":106.861737,"station_id":"POK","line":11,"distance":1236,"i_lat":-6.209188,"station_name":"Pondok Jati","transit":false}],[{"is_transit":false,"i_lat":-6.215091,"station_id":"JNG","distance":0,"line":1,"station_name":"Jatinegara","time":0,"i_long":106.86807400000001,"transit":false},{"time":2,"transit":false,"distance":1377,"is_transit":false,"station_name":"Matraman","i_lat":-6.212485,"i_long":106.858896,"line":1,"station_id":"MTR"},{"distance":1275,"station_id":"MRI","station_name":"Manggarai","time":2,"line":2,"i_long":106.84912,"transit":false,"is_transit":false,"i_lat":-6.209883},{"station_id":"SUD","i_long":106.822649,"transit":false,"station_name":"Sudirman","time":4,"line":1,"i_lat":-6.202263,"is_transit":false,"distance":3186},{"is_transit":false,"transit":false,"i_long":106.819881,"station_name":"Sudirman Baru","line":1,"time":1,"distance":280,"i_lat":-6.201433,"station_id":"SUDB"},{"i_lat":-6.20132,"time":1,"station_id":"KAT","distance":471,"station_name":"Karet","i_long":106.816351,"transit":false,"is_transit":false,"line":1},{"transit":false,"station_id":"THB","i_long":106.811091,"time":5,"is_transit":false,"distance":2029,"i_lat":-6.185545,"station_name":"Tanah Abang","line":1},{"time":8,"line":1,"station_name":"Duri","distance":3632,"is_transit":false,"station_id":"DU","transit":false,"i_long":106.800832,"i_lat":-6.155215},{"i_long":106.79867,"is_transit":false,"transit":false,"i_lat":-6.144674,"line":1,"distance":1230,"time":4,"station_name":"Angke","station_id":"AK"},{"i_long":106.826365,"station_id":"KPB","line":4,"transit":true,"i_lat":-6.132549,"distance":4102,"station_name":"Kampung Bandan","is_transit":true,"time":9},{"station_name":"Rajawali","distance":1444,"i_lat":-6.14505,"time":3,"station_id":"RJW","transit":false,"i_long":106.836569,"line":11,"is_transit":false},{"time":5,"distance":1901,"i_lat":-6.161728,"station_id":"KMO","transit":false,"i_long":106.839204,"line":11,"is_transit":false,"station_name":"Kemayoran"},{"distance":1436,"time":4,"i_long":106.84368,"is_transit":false,"transit":false,"station_id":"PSE","station_name":"Pasar Senen","i_lat":-6.174784,"line":11},{"i_lat":-6.185975,"transit":false,"station_id":"GST","is_transit":false,"time":8,"station_name":"Gang Sentiong","i_long":106.850107,"line":11,"distance":1567},{"is_transit":false,"time":1,"i_long":106.855437,"distance":973,"transit":false,"station_name":"Kramat","station_id":"KMT","i_lat":-6.193792,"line":11},{"distance":1829,"is_transit":false,"i_long":106.861737,"station_name":"Pondok Jati","transit":false,"time":2,"station_id":"POK","line":11,"i_lat":-6.209188}],[{"time":0,"station_id":"JNG","line":1,"distance":0,"transit":false,"i_lat":-6.215091,"i_long":106.86807400000001,"is_transit":false,"station_name":"Jatinegara"},{"transit":false,"station_id":"MTR","is_transit":false,"station_name":"Matraman","i_lat":-6.212485,"distance":1377,"time":2,"i_long":106.858896,"line":1},{"station_name":"Manggarai","line":2,"transit":true,"i_long":106.84912,"i_lat":-6.209883,"is_transit":true,"distance":1275,"station_id":"MRI","time":2},{"transit":false,"is_transit":false,"i_long":106.840169,"distance":1590,"line":2,"i_lat":-6.198556,"station_id":"CKI","time":4,"station_name":"Cikini"},{"is_transit":false,"station_name":"Gondangdia","distance":1750,"i_lat":-6.186295,"i_long":106.832183,"station_id":"GDD","transit":false,"line":2,"time":3},{"station_id":"JUA","time":4,"transit":false,"distance":2015,"is_transit":false,"i_long":106.828284,"line":2,"i_lat":-6.166716,"station_name":"Juanda"},{"station_name":"Sawah Besar","is_transit":false,"station_id":"SW","i_long":106.827103,"i_lat":-6.160725,"line":2,"time":2,"transit":false,"distance":1149},{"distance":906,"line":2,"station_id":"MGB","is_transit":false,"station_name":"Manggabesar","transit":false,"time":2,"i_lat":-6.149769,"i_long":106.82482},{"i_lat":-6.141205,"time":2,"station_id":"JAY","transit":false,"is_transit":false,"distance":1080,"line":2,"i_long":106.820901,"station_name":"Jayakarta"},{"station_name":"Jakarta Kota","i_lat":-6.137569,"transit":true,"is_transit":true,"distance":1264,"time":4,"i_long":106.812439,"station_id":"JAKK","line":2},{"is_transit":true,"i_lat":-6.132549,"station_id":"KPB","i_long":106.826365,"time":3,"line":4,"transit":true,"distance":1364,"station_name":"Kampung Bandan"},{"is_transit":false,"station_name":"Rajawali","station_id":"RJW","distance":1444,"transit":false,"i_lat":-6.14505,"i_long":106.836569,"line":11,"time":3},{"station_id":"KMO","time":5,"distance":1901,"station_name":"Kemayoran","line":11,"i_lat":-6.161728,"i_long":106.839204,"is_transit":false,"transit":false},{"station_name":"Pasar Senen","i_long":106.84368,"transit":false,"is_transit":false,"distance":1436,"i_lat":-6.174784,"time":4,"line":11,"station_id":"PSE"},{"station_name":"Gang Sentiong","distance":1567,"i_lat":-6.185975,"transit":false,"time":8,"i_long":106.850107,"station_id":"GST","line":11,"is_transit":false},{"line":11,"time":1,"is_transit":false,"i_lat":-6.193792,"distance":973,"station_id":"KMT","station_name":"Kramat","transit":false,"i_long":106.855437},{"time":2,"transit":false,"station_name":"Pondok Jati","i_lat":-6.209188,"i_long":106.861737,"is_transit":false,"line":11,"station_id":"POK","distance":1829}]]}