{"data":[[{"is_transit":false,"i_long":106.86807400000001,"distance":0,"transit":false,"time":0,"line":1,"station_name":"Jatinegara","station_id":"JNG","i_lat":-6.215091},{"station_id":"MTR","i_lat":-6.212485,"station_name":"Matraman","transit":false,"distance":1377,"i_long":106.858896,"line":1,"time":2,"is_transit":false},{"i_long":106.84912,"i_lat":-6.209883,"line":2,"is_transit":false,"station_id":"MRI","transit":false,"time":2,"distance":1275,"station_name":"Manggarai"},{"line":1,"transit":false,"time":4,"station_name":"Sudirman","distance":3186,"i_lat":-6.202263,"i_long":106.822649,"is_transit":false,"station_id":"SUD"},{"station_id":"SUDB","station_name":"Sudirman Baru","i_lat":-6.201433,"i_long":106.819881,"transit":false,"is_transit":false,"distance":280,"line":1,"time":1},{"time":1,"station_id":"KAT","i_long":106.816351,"line":1,"transit":false,"is_transit":false,"station_name":"Karet","distance":471,"i_lat":-6.20132},{"i_long":106.811091,"station_name":"Tanah Abang","line":1,"time":5,"distance":2029,"station_id":"THB","i_lat":-6.185545,"transit":false,"is_transit":false},{"is_transit":true,"i_lat":-6.155215,"time":8,"i_long":106.800832,"line":1,"transit":true,"station_id":"DU","distance":3632,"station_name":"Duri"},{"line":5,"transit":false,"i_lat":-6.162021,"i_long":106.788277,"time":3,"station_id":"GRG","is_transit":false,"distance":1700,"station_name":"Grogol"},{"station_id":"PSG","station_name":"Pesing","i_long":106.771379,"transit":false,"distance":2036,"is_transit":false,"line":5,"time":2,"i_lat":-6.161433},{"is_transit":false,"station_name":"Taman Kota","i_long":106.756522,"station_id":"TKO","time":2,"line":5,"transit":false,"i_lat":-6.1587309999999995,"distance":1614},{"time":2,"distance":2334,"is_transit":false,"i_long":106.737035,"line":5,"transit":false,"station_id":"BOI","i_lat":-6.159876,"station_name":"Bojongindah"},{"line":5,"station_id":"RW","i_long":106.723064,"i_lat":-6.162758,"transit":false,"is_transit":false,"distance":1152,"station_name":"Rawa Buaya","time":4},{"i_lat":-6.166068,"i_long":106.701612,"transit":false,"line":5,"distance":2504,"time":3,"is_transit":false,"station_id":"KDS","station_name":"Kalideres"}],[{"is_transit":false,"station_id":"JNG","distance":0,"i_long":106.86807400000001,"transit":false,"station_name":"Jatinegara","time":0,"i_lat":-6.215091,"line":1},{"station_name":"Pondok Jati","transit":false,"distance":1236,"is_transit":false,"i_lat":-6.209188,"i_long":106.861737,"line":11,"time":2,"station_id":"POK"},{"is_transit":false,"station_name":"Kramat","i_long":106.855437,"time":2,"i_lat":-6.193792,"transit":false,"station_id":"KMT","distance":1829,"line":11},{"transit":false,"i_long":106.850107,"is_transit":false,"time":1,"line":11,"station_id":"GST","distance":973,"i_lat":-6.185975,"station_name":"Gang Sentiong"},{"line":11,"i_lat":-6.174784,"station_name":"Pasar Senen","i_long":106.84368,"transit":false,"is_transit":false,"station_id":"PSE","distance":1567,"time":8},{"is_transit":false,"transit":false,"i_lat":-6.161728,"line":11,"time":4,"distance":1436,"i_long":106.839204,"station_name":"Kemayoran","station_id":"KMO"},{"i_lat":-6.14505,"distance":1901,"transit":false,"line":11,"station_name":"Rajawali","is_transit":false,"station_id":"RJW","i_long":106.836569,"time":5},{"i_long":106.826365,"time":3,"transit":true,"line":4,"distance":1444,"station_id":"KPB","station_name":"Kampung Bandan","is_transit":true,"i_lat":-6.132549},{"i_lat":-6.144674,"i_long":106.79867,"is_transit":false,"time":9,"line":1,"station_id":"AK","station_name":"Angke","distance":4102,"transit":false},{"station_id":"DU","transit":true,"station_name":"Duri","is_transit":true,"time":4,"i_lat":-6.155215,"line":1,"distance":1230,"i_long":106.800832},{"time":3,"distance":1700,"transit":false,"is_transit":false,"station_id":"GRG","station_name":"Grogol","i_long":106.788277,"i_lat":-6.162021,"line":5},{"i_long":106.771379,"line":5,"is_transit":false,"transit":false,"station_id":"PSG","station_name":"Pesing","time":2,"i_lat":-6.161433,"distance":2036},{"station_id":"TKO","time":2,"i_long":106.756522,"line":5,"distance":1614,"transit":false,"station_name":"Taman Kota","is_transit":false,"i_lat":-6.1587309999999995},{"i_lat":-6.159876,"i_long":106.737035,"is_transit":false,"transit":false,"station_id":"BOI","station_name":"Bojongindah","time":2,"line":5,"distance":2334},{"station_name":"Rawa Buaya","i_lat":-6.162758,"is_transit":false,"transit":false,"distance":1152,"time":4,"line":5,"i_long":106.723064,"station_id":"RW"},{"i_long":106.701612,"time":3,"is_transit":false,"distance":2504,"i_lat":-6.166068,"line":5,"transit":false,"station_id":"KDS","station_name":"Kalideres"}],[{"line":1,"station_id":"JNG","is_transit":false,"distance":0,"i_long":106.86807400000001,"transit":false,"station_name":"Jatinegara","time":0,"i_lat":-6.215091},{"is_transit":false,"i_long":106.858896,"station_name":"Matraman","transit":false,"line":1,"distance":1377,"time":2,"i_lat":-6.212485,"station_id":"MTR"},{"time":2,"transit":true,"distance":1275,"i_long":106.84912,"line":2,"station_name":"Manggarai","i_lat":-6.209883,"station_id":"MRI","is_transit":true},{"distance":1590,"line":2,"i_long":106.840169,"i_lat":-6.198556,"station_name":"Cikini","transit":false,"station_id":"CKI","is_transit":false,"time":4},{"i_long":106.832183,"line":2,"station_id":"GDD","is_transit":false,"i_lat":-6.186295,"distance":1750,"station_name":"Gondangdia","time":3,"transit":false},{"station_id":"JUA","distance":2015,"i_long":106.828284,"line":2,"station_name":"Juanda","transit":false,"is_transit":false,"i_lat":-6.166716,"time":4},{"is_transit":false,"station_id":"SW","time":2,"station_name":"Sawah Besar","i_long":106.827103,"transit":false,"line":2,"i_lat":-6.160725,"distance":1149},{"distance":906,"i_long":106.82482,"station_name":"Manggabesar","i_lat":-6.149769,"time":2,"line":2,"is_transit":false,"transit":false,"station_id":"MGB"},{"distance":1080,"i_lat":-6.141205,"line":2,"station_id":"JAY","i_long":106.820901,"is_transit":false,"time":2,"transit":false,"station_name":"Jayakarta"},{"station_id":"JAKK","distance":1264,"line":2,"is_transit":true,"station_name":"Jakarta Kota","i_lat":-6.137569,"transit":true,"i_long":106.812439,"time":4},{"line":4,"is_transit":true,"station_id":"KPB","distance":1364,"station_name":"Kampung Bandan","transit":true,"time":3,"i_long":106.826365,"i_lat":-6.132549},{"station_id":"AK","distance":4102,"i_lat":-6.144674,"is_transit":false,"i_long":106.79867,"line":1,"transit":false,"station_name":"Angke","time":9},{"station_id":"DU","time":4,"i_long":106.800832,"is_transit":true,"transit":true,"distance":1230,"line":1,"i_lat":-6.155215,"station_name":"Duri"},{"transit":false,"i_lat":-6.162021,"distance":1700,"i_long":106.788277,"station_id":"GRG","station_name":"Grogol","is_transit":false,"line":5,"time":3},{"is_transit":false,"time":2,"i_lat":-6.161433,"transit":false,"distance":2036,"line":5,"i_long":106.771379,"station_name":"Pesing","station_id":"PSG"},{"i_lat":-6.1587309999999995,"line":5,"distance":1614,"time":2,"station_id":"TKO","transit":false,"station_name":"Taman Kota","is_transit":false,"i_long":106.756522},{"line":5,"i_long":106.737035,"station_name":"Bojongindah","time":2,"distance":2334,"transit":false,"is_transit":false,"i_lat":-6.159876,"station_id":"BOI"},{"station_name":"Rawa Buaya","i_lat":-6.162758,"distance":1152,"is_transit":false,"i_long":106.723064,"station_id":"RW","transit":false,"line":5,"time":4},{"i_lat":-6.166068,"station_id":"KDS","distance":2504,"is_transit":false,"time":3,"line":5,"station_name":"Kalideres","i_long":106.701612,"transit":false}],[{"station_id":"JNG","line":1,"transit":false,"station_name":"Jatinegara","i_lat":-6.215091,"is_transit":false,"i_long":106.86807400000001,"distance":0,"time":0},{"i_long":106.861737,"time":2,"transit":false,"distance":1236,"i_lat":-6.209188,"station_id":"POK","is_transit":false,"station_name":"Pondok Jati","line":11},{"station_id":"KMT","time":2,"i_lat":-6.193792,"station_name":"Kramat","transit":false,"is_transit":false,"line":11,"distance":1829,"i_long":106.855437},{"i_long":106.850107,"station_id":"GST","is_transit":false,"i_lat":-6.185975,"line":11,"time":1,"distance":973,"station_name":"Gang Sentiong","transit":false},{"station_name":"Pasar Senen","is_transit":false,"transit":false,"i_lat":-6.174784,"i_long":106.84368,"distance":1567,"line":11,"station_id":"PSE","time":8},{"is_transit":false,"station_id":"KMO","i_lat":-6.161728,"station_name":"Kemayoran","distance":1436,"i_long":106.839204,"transit":false,"time":4,"line":11},{"station_id":"RJW","transit":false,"distance":1901,"time":5,"i_lat":-6.14505,"station_name":"Rajawali","line":11,"is_transit":false,"i_long":106.836569},{"time":3,"station_id":"KPB","line":4,"station_name":"Kampung Bandan","transit":true,"i_long":106.826365,"distance":1444,"i_lat":-6.132549,"is_transit":true},{"i_lat":-6.137569,"station_name":"Jakarta Kota","distance":1364,"is_transit":true,"i_long":106.812439,"time":3,"line":2,"transit":true,"station_id":"JAKK"},{"i_lat":-6.141205,"time":4,"transit":false,"distance":1264,"station_name":"Jayakarta","i_long":106.820901,"is_transit":false,"line":2,"station_id":"JAY"},{"station_id":"MGB","line":2,"distance":1080,"i_lat":-6.149769,"i_long":106.82482,"transit":false,"is_transit":false,"time":2,"station_name":"Manggabesar"},{"transit":false,"line":2,"time":2,"i_lat":-6.160725,"station_id":"SW","i_long":106.827103,"is_transit":false,"station_name":"Sawah Besar","distance":906},{"time":2,"i_long":106.828284,"transit":false,"distance":1149,"is_transit":false,"line":2,"station_id":"JUA","i_lat":-6.166716,"station_name":"Juanda"},{"time":4,"distance":2015,"station_id":"GDD","line":2,"i_long":106.832183,"i_lat":-6.186295,"is_transit":false,"station_name":"Gondangdia","transit":false},{"station_id":"CKI","distance":1750,"i_long":106.840169,"transit":false,"station_name":"Cikini","is_transit":false,"time":3,"i_lat":-6.198556,"line":2},{"is_transit":true,"time":4,"transit":true,"distance":1590,"station_name":"Manggarai","station_id":"MRI","line":2,"i_lat":-6.209883,"i_long":106.84912},{"time":4,"distance":3186,"station_id":"SUD","i_long":106.822649,"line":1,"i_lat":-6.202263,"station_name":"Sudirman","is_transit":false,"transit":false},{"station_id":"SUDB","station_name":"Sudirman Baru","is_transit":false,"line":1,"time":1,"i_long":106.819881,"distance":280,"i_lat":-6.201433,"transit":false},{"time":1,"i_lat":-6.20132,"i_long":106.816351,"line":1,"transit":false,"station_name":"Karet","station_id":"KAT","is_transit":false,"distance":471},{"is_transit":false,"time":5,"transit":false,"i_long":106.811091,"distance":2029,"line":1,"station_name":"Tanah Abang","i_lat":-6.185545,"station_id":"THB"},{"line":1,"station_id":"DU","i_lat":-6.155215,"distance":3632,"i_long":106.800832,"time":8,"is_transit":true,"station_name":"Duri","transit":true},{"i_lat":-6.162021,"i_long":106.788277,"time":3,"line":5,"station_name":"Grogol","transit":false,"station_id":"GRG","is_transit":false,"distance":1700},{"station_id":"PSG","distance":2036,"i_long":106.771379,"station_name":"Pesing","transit":false,"is_transit":false,"i_lat":-6.161433,"line":5,"time":2},{"station_name":"Taman Kota","station_id":"TKO","time":2,"line":5,"transit":false,"is_transit":false,"distance":1614,"i_lat":-6.1587309999999995,"i_long":106.756522},{"line":5,"i_long":106.737035,"distance":2334,"i_lat":-6.159876,"station_name":"Bojongindah","is_transit":false,"transit":false,"time":2,"station_id":"BOI"},{"i_lat":-6.162758,"station_name":"Rawa Buaya","i_long":106.723064,"distance":1152,"is_transit":false,"line":5,"transit":false,"time":4,"station_id":"RW"},{"transit":false,"i_long":106.701612,"station_name":"Kalideres","distance":2504,"line":5,"is_transit":false,"time":3,"i_lat":-6.166068,"station_id":"KDS"}]]}