{"data":[[{"distance":0,"line":1,"transit":false,"station_name":"Jatinegara","is_transit":false,"i_long":106.86807400000001,"time":0,"i_lat":-6.215091,"station_id":"JNG"},{"i_long":106.858896,"time":2,"is_transit":false,"transit":false,"station_id":"MTR","station_name":"Matraman","i_lat":-6.212485,"line":1,"distance":1377},{"distance":1275,"transit":false,"station_id":"MRI","time":2,"station_name":"Manggarai","is_transit":false,"i_lat":-6.209883,"i_long":106.84912,"line":2},{"distance":3186,"station_id":"SUD","is_transit":false,"transit":false,"i_long":106.822649,"i_lat":-6.202263,"time":4,"station_name":"Sudirman","line":1},{"station_id":"SUDB","transit":false,"station_name":"Sudirman Baru","i_lat":-6.201433,"i_long":106.819881,"time":1,"distance":280,"line":1,"is_transit":false},{"distance":471,"transit":false,"time":1,"station_id":"KAT","station_name":"Karet","is_transit":false,"i_lat":-6.20132,"i_long":106.816351,"line":1},{"transit":true,"time":5,"i_long":106.811091,"is_transit":true,"distance":2029,"station_id":"THB","station_name":"Tanah Abang","i_lat":-6.185545,"line":1},{"is_transit":false,"station_id":"PLM","station_name":"Palmerah","line":6,"time":6,"i_long":106.79689,"i_lat":-6.207404,"transit":false,"distance":3191},{"line":6,"station_name":"Kebayoran","is_transit":false,"time":7,"distance":3737,"i_lat":-6.237242,"station_id":"KBY","i_long":106.780334,"transit":false},{"i_long":106.74273,"i_lat":-6.276362,"line":6,"station_id":"PDJ","is_transit":false,"time":8,"distance":6218,"station_name":"Pondokranji","transit":false},{"i_long":106.728916,"station_name":"Jurangmangu","time":3,"i_lat":-6.288927,"line":6,"distance":2179,"transit":false,"is_transit":false,"station_id":"JMU"},{"distance":1994,"time":4,"station_id":"SDM","is_transit":false,"transit":false,"i_lat":-6.296963,"i_long":106.712277,"line":6,"station_name":"Sudimara"},{"transit":false,"station_id":"RU","line":6,"time":6,"station_name":"Rawa Buntu","i_lat":-6.314823,"i_long":106.675475,"distance":4566,"is_transit":false},{"time":4,"distance":2413,"station_name":"Serpong","station_id":"SRP","i_lat":-6.319871,"is_transit":false,"i_long":106.66566,"transit":false,"line":6},{"station_id":"CSK","is_transit":false,"time":4,"station_name":"Cisauk","transit":false,"distance":1784,"line":3,"i_long":106.640411,"i_lat":-6.32484},{"time":4,"distance":2519,"station_id":"CC","is_transit":false,"line":3,"transit":false,"i_long":106.617853,"i_lat":-6.329547,"station_name":"Cicayur"},{"time":8,"i_lat":-6.3441410000000005,"is_transit":false,"distance":5968,"station_name":"Parung Panjang","i_long":106.568863,"transit":false,"line":6,"station_id":"PRP"},{"i_lat":-6.354349,"distance":7025,"station_name":"Cilejit","i_long":106.508482,"is_transit":false,"transit":false,"time":9,"station_id":"CJT","line":3},{"time":6,"station_id":"DAR","i_long":106.491338,"line":0,"station_name":"Daru","transit":false,"distance":2675,"i_lat":-6.338021,"is_transit":false},{"station_name":"Tenjo","distance":3902,"transit":false,"station_id":"TEJ","is_transit":false,"time":5,"i_long":106.460812,"i_lat":-6.327251,"line":6},{"i_long":106.425991,"station_id":"TGS","i_lat":-6.328533,"transit":false,"distance":2974,"line":6,"station_name":"Tigaraksa","is_transit":false,"time":5},{"distance":2651,"transit":false,"time":3,"i_long":106.411216,"is_transit":false,"i_lat":-6.33561,"station_id":"CKY","line":3,"station_name":"Cikoya"},{"station_id":"MJ","transit":false,"i_long":106.394373,"i_lat":-6.332307,"is_transit":false,"time":4,"station_name":"Maja","distance":1853,"line":6},{"station_name":"Citeras","station_id":"CTR","time":10,"i_lat":-6.334892,"transit":false,"is_transit":false,"distance":7293,"i_long":106.332092,"line":3}],[{"station_id":"JNG","distance":0,"time":0,"i_lat":-6.215091,"transit":false,"station_name":"Jatinegara","i_long":106.86807400000001,"line":1,"is_transit":false},{"line":11,"station_id":"POK","transit":false,"i_long":106.861737,"i_lat":-6.209188,"is_transit":false,"distance":1236,"station_name":"Pondok Jati","time":2},{"time":2,"i_long":106.855437,"distance":1829,"line":11,"station_id":"KMT","i_lat":-6.193792,"transit":false,"is_transit":false,"station_name":"Kramat"},{"distance":973,"transit":false,"is_transit":false,"station_name":"Gang Sentiong","line":11,"station_id":"GST","i_lat":-6.185975,"time":1,"i_long":106.850107},{"station_id":"PSE","is_transit":false,"distance":1567,"i_lat":-6.174784,"transit":false,"station_name":"Pasar Senen","line":11,"time":8,"i_long":106.84368},{"transit":false,"station_id":"KMO","distance":1436,"i_lat":-6.161728,"line":11,"station_name":"Kemayoran","time":4,"is_transit":false,"i_long":106.839204},{"i_long":106.836569,"is_transit":false,"transit":false,"line":11,"distance":1901,"time":5,"i_lat":-6.14505,"station_id":"RJW","station_name":"Rajawali"},{"i_lat":-6.132549,"i_long":106.826365,"is_transit":true,"station_id":"KPB","distance":1444,"line":4,"transit":true,"station_name":"Kampung Bandan","time":3},{"distance":4102,"i_lat":-6.144674,"station_id":"AK","transit":false,"is_transit":false,"time":9,"line":1,"station_name":"Angke","i_long":106.79867},{"time":4,"i_lat":-6.155215,"transit":false,"is_transit":false,"i_long":106.800832,"line":1,"station_id":"DU","station_name":"Duri","distance":1230},{"station_name":"Tanah Abang","station_id":"THB","time":8,"i_lat":-6.185545,"distance":3632,"is_transit":true,"transit":true,"i_long":106.811091,"line":1},{"distance":3191,"transit":false,"station_name":"Palmerah","line":6,"time":6,"i_long":106.79689,"i_lat":-6.207404,"station_id":"PLM","is_transit":false},{"transit":false,"is_transit":false,"i_lat":-6.237242,"time":7,"line":6,"distance":3737,"station_name":"Kebayoran","i_long":106.780334,"station_id":"KBY"},{"line":6,"i_long":106.74273,"is_transit":false,"station_id":"PDJ","station_name":"Pondokranji","i_lat":-6.276362,"transit":false,"distance":6218,"time":8},{"transit":false,"i_lat":-6.288927,"line":6,"station_id":"JMU","station_name":"Jurangmangu","distance":2179,"i_long":106.728916,"time":3,"is_transit":false},{"distance":1994,"station_id":"SDM","is_transit":false,"time":4,"i_long":106.712277,"station_name":"Sudimara","i_lat":-6.296963,"transit":false,"line":6},{"station_id":"RU","line":6,"is_transit":false,"i_long":106.675475,"time":6,"i_lat":-6.314823,"transit":false,"station_name":"Rawa Buntu","distance":4566},{"transit":false,"distance":2413,"time":4,"is_transit":false,"i_lat":-6.319871,"station_id":"SRP","station_name":"Serpong","i_long":106.66566,"line":6},{"is_transit":false,"i_long":106.640411,"line":3,"time":4,"transit":false,"station_name":"Cisauk","i_lat":-6.32484,"distance":1784,"station_id":"CSK"},{"line":3,"distance":2519,"is_transit":false,"time":4,"i_long":106.617853,"station_name":"Cicayur","station_id":"CC","i_lat":-6.329547,"transit":false},{"station_name":"Parung Panjang","station_id":"PRP","i_long":106.568863,"time":8,"is_transit":false,"transit":false,"i_lat":-6.3441410000000005,"line":6,"distance":5968},{"distance":7025,"is_transit":false,"station_name":"Cilejit","time":9,"transit":false,"i_lat":-6.354349,"station_id":"CJT","i_long":106.508482,"line":3},{"time":6,"line":0,"is_transit":false,"i_lat":-6.338021,"station_id":"DAR","distance":2675,"station_name":"Daru","i_long":106.491338,"transit":false},{"i_lat":-6.327251,"time":5,"line":6,"distance":3902,"transit":false,"station_id":"TEJ","station_name":"Tenjo","is_transit":false,"i_long":106.460812},{"station_name":"Tigaraksa","station_id":"TGS","distance":2974,"time":5,"transit":false,"i_lat":-6.328533,"line":6,"i_long":106.425991,"is_transit":false},{"distance":2651,"i_lat":-6.33561,"i_long":106.411216,"is_transit":false,"line":3,"station_name":"Cikoya","station_id":"CKY","transit":false,"time":3},{"i_lat":-6.332307,"transit":false,"time":4,"distance":1853,"i_long":106.394373,"station_id":"MJ","line":6,"station_name":"Maja","is_transit":false},{"transit":false,"station_id":"CTR","time":10,"i_lat":-6.334892,"is_transit":false,"station_name":"Citeras","i_long":106.332092,"line":3,"distance":7293}],[{"time":0,"distance":0,"i_long":106.86807400000001,"line":1,"station_name":"Jatinegara","station_id":"JNG","transit":false,"i_lat":-6.215091,"is_transit":false},{"line":1,"i_long":106.858896,"distance":1377,"is_transit":false,"transit":false,"station_id":"MTR","station_name":"Matraman","time":2,"i_lat":-6.212485},{"i_long":106.84912,"line":2,"station_id":"MRI","transit":true,"time":2,"distance":1275,"station_name":"Manggarai","is_transit":true,"i_lat":-6.209883},{"i_long":106.840169,"i_lat":-6.198556,"transit":false,"station_id":"CKI","station_name":"Cikini","time":4,"line":2,"is_transit":false,"distance":1590},{"line":2,"station_name":"Gondangdia","station_id":"GDD","is_transit":false,"i_long":106.832183,"distance":1750,"i_lat":-6.186295,"transit":false,"time":3},{"i_long":106.828284,"station_name":"Juanda","station_id":"JUA","i_lat":-6.166716,"is_transit":false,"distance":2015,"transit":false,"time":4,"line":2},{"station_id":"SW","distance":1149,"i_lat":-6.160725,"is_transit":false,"time":2,"i_long":106.827103,"line":2,"station_name":"Sawah Besar","transit":false},{"time":2,"station_name":"Manggabesar","line":2,"station_id":"MGB","distance":906,"i_long":106.82482,"is_transit":false,"transit":false,"i_lat":-6.149769},{"station_id":"JAY","distance":1080,"station_name":"Jayakarta","i_lat":-6.141205,"transit":false,"line":2,"is_transit":false,"time":2,"i_long":106.820901},{"transit":true,"is_transit":true,"time":4,"line":2,"station_name":"Jakarta Kota","station_id":"JAKK","i_lat":-6.137569,"i_long":106.812439,"distance":1264},{"station_name":"Kampung Bandan","time":3,"i_lat":-6.132549,"station_id":"KPB","transit":true,"is_transit":true,"i_long":106.826365,"distance":1364,"line":4},{"i_lat":-6.144674,"line":1,"station_name":"Angke","distance":4102,"is_transit":false,"i_long":106.79867,"time":9,"transit":false,"station_id":"AK"},{"i_long":106.800832,"station_id":"DU","distance":1230,"transit":false,"station_name":"Duri","line":1,"i_lat":-6.155215,"time":4,"is_transit":false},{"station_id":"THB","i_lat":-6.185545,"is_transit":true,"station_name":"Tanah Abang","time":8,"line":1,"distance":3632,"transit":true,"i_long":106.811091},{"time":6,"line":6,"station_name":"Palmerah","transit":false,"i_lat":-6.207404,"distance":3191,"i_long":106.79689,"is_transit":false,"station_id":"PLM"},{"time":7,"i_lat":-6.237242,"is_transit":false,"transit":false,"station_id":"KBY","distance":3737,"station_name":"Kebayoran","i_long":106.780334,"line":6},{"i_long":106.74273,"distance":6218,"time":8,"i_lat":-6.276362,"station_id":"PDJ","station_name":"Pondokranji","transit":false,"line":6,"is_transit":false},{"line":6,"transit":false,"time":3,"distance":2179,"i_lat":-6.288927,"station_id":"JMU","is_transit":false,"i_long":106.728916,"station_name":"Jurangmangu"},{"i_lat":-6.296963,"transit":false,"is_transit":false,"station_name":"Sudimara","time":4,"i_long":106.712277,"line":6,"distance":1994,"station_id":"SDM"},{"i_long":106.675475,"time":6,"is_transit":false,"line":6,"i_lat":-6.314823,"distance":4566,"station_name":"Rawa Buntu","station_id":"RU","transit":false},{"line":6,"transit":false,"is_transit":false,"i_lat":-6.319871,"time":4,"distance":2413,"station_name":"Serpong","i_long":106.66566,"station_id":"SRP"},{"i_long":106.640411,"station_id":"CSK","distance":1784,"line":3,"i_lat":-6.32484,"station_name":"Cisauk","transit":false,"time":4,"is_transit":false},{"is_transit":false,"i_long":106.617853,"line":3,"distance":2519,"station_id":"CC","time":4,"transit":false,"station_name":"Cicayur","i_lat":-6.329547},{"transit":false,"time":8,"i_lat":-6.3441410000000005,"station_name":"Parung Panjang","is_transit":false,"station_id":"PRP","line":6,"distance":5968,"i_long":106.568863},{"is_transit":false,"station_name":"Cilejit","i_lat":-6.354349,"time":9,"station_id":"CJT","transit":false,"distance":7025,"i_long":106.508482,"line":3},{"station_id":"DAR","station_name":"Daru","is_transit":false,"time":6,"i_long":106.491338,"distance":2675,"i_lat":-6.338021,"transit":false,"line":0},{"station_id":"TEJ","time":5,"is_transit":false,"i_long":106.460812,"transit":false,"distance":3902,"station_name":"Tenjo","i_lat":-6.327251,"line":6},{"i_long":106.425991,"line":6,"i_lat":-6.328533,"distance":2974,"station_name":"Tigaraksa","is_transit":false,"time":5,"station_id":"TGS","transit":false},{"transit":false,"distance":2651,"i_long":106.411216,"line":3,"time":3,"station_name":"Cikoya","is_transit":false,"station_id":"CKY","i_lat":-6.33561},{"is_transit":false,"i_lat":-6.332307,"station_id":"MJ","station_name":"Maja","i_long":106.394373,"distance":1853,"line":6,"time":4,"transit":false},{"transit":false,"line":3,"distance":7293,"is_transit":false,"station_name":"Citeras","i_lat":-6.334892,"i_long":106.332092,"station_id":"CTR","time":10}],[{"i_lat":-6.215091,"i_long":106.86807400000001,"time":0,"station_id":"JNG","is_transit":false,"distance":0,"station_name":"Jatinegara","transit":false,"line":1},{"time":2,"distance":1236,"i_long":106.861737,"line":11,"station_name":"Pondok Jati","is_transit":false,"transit":false,"station_id":"POK","i_lat":-6.209188},{"transit":false,"station_id":"KMT","station_name":"Kramat","is_transit":false,"i_long":106.855437,"line":11,"time":2,"distance":1829,"i_lat":-6.193792},{"distance":973,"is_transit":false,"i_lat":-6.185975,"line":11,"transit":false,"station_id":"GST","station_name":"Gang Sentiong","time":1,"i_long":106.850107},{"station_name":"Pasar Senen","time":8,"line":11,"transit":false,"distance":1567,"i_long":106.84368,"station_id":"PSE","is_transit":false,"i_lat":-6.174784},{"time":4,"station_name":"Kemayoran","line":11,"transit":false,"distance":1436,"i_lat":-6.161728,"station_id":"KMO","is_transit":false,"i_long":106.839204},{"station_id":"RJW","time":5,"is_transit":false,"i_long":106.836569,"line":11,"station_name":"Rajawali","transit":false,"i_lat":-6.14505,"distance":1901},{"transit":true,"distance":1444,"time":3,"i_long":106.826365,"i_lat":-6.132549,"line":4,"station_id":"KPB","is_transit":true,"station_name":"Kampung Bandan"},{"distance":1364,"station_name":"Jakarta Kota","i_long":106.812439,"station_id":"JAKK","i_lat":-6.137569,"transit":true,"line":2,"time":3,"is_transit":true},{"is_transit":false,"transit":false,"station_name":"Jayakarta","time":4,"i_lat":-6.141205,"i_long":106.820901,"line":2,"distance":1264,"station_id":"JAY"},{"station_name":"Manggabesar","transit":false,"is_transit":false,"i_lat":-6.149769,"station_id":"MGB","time":2,"i_long":106.82482,"line":2,"distance":1080},{"time":2,"is_transit":false,"transit":false,"station_id":"SW","distance":906,"i_long":106.827103,"i_lat":-6.160725,"station_name":"Sawah Besar","line":2},{"transit":false,"station_id":"JUA","i_lat":-6.166716,"is_transit":false,"line":2,"time":2,"station_name":"Juanda","distance":1149,"i_long":106.828284},{"station_name":"Gondangdia","is_transit":false,"line":2,"i_long":106.832183,"station_id":"GDD","distance":2015,"time":4,"transit":false,"i_lat":-6.186295},{"i_lat":-6.198556,"station_name":"Cikini","time":3,"i_long":106.840169,"distance":1750,"station_id":"CKI","line":2,"is_transit":false,"transit":false},{"i_long":106.84912,"line":2,"time":4,"distance":1590,"station_name":"Manggarai","station_id":"MRI","is_transit":true,"transit":true,"i_lat":-6.209883},{"station_id":"SUD","distance":3186,"time":4,"station_name":"Sudirman","line":1,"is_transit":false,"transit":false,"i_lat":-6.202263,"i_long":106.822649},{"is_transit":false,"i_long":106.819881,"line":1,"distance":280,"time":1,"i_lat":-6.201433,"station_id":"SUDB","station_name":"Sudirman Baru","transit":false},{"is_transit":false,"i_lat":-6.20132,"station_id":"KAT","distance":471,"i_long":106.816351,"line":1,"transit":false,"station_name":"Karet","time":1},{"station_id":"THB","time":5,"is_transit":true,"i_long":106.811091,"line":1,"distance":2029,"station_name":"Tanah Abang","i_lat":-6.185545,"transit":true},{"i_lat":-6.207404,"is_transit":false,"time":6,"transit":false,"i_long":106.79689,"line":6,"station_id":"PLM","distance":3191,"station_name":"Palmerah"},{"distance":3737,"i_long":106.780334,"transit":false,"time":7,"station_id":"KBY","is_transit":false,"station_name":"Kebayoran","line":6,"i_lat":-6.237242},{"time":8,"i_lat":-6.276362,"line":6,"station_name":"Pondokranji","i_long":106.74273,"station_id":"PDJ","is_transit":false,"transit":false,"distance":6218},{"distance":2179,"i_long":106.728916,"line":6,"time":3,"transit":false,"is_transit":false,"i_lat":-6.288927,"station_id":"JMU","station_name":"Jurangmangu"},{"i_long":106.712277,"distance":1994,"transit":false,"station_name":"Sudimara","i_lat":-6.296963,"station_id":"SDM","line":6,"time":4,"is_transit":false},{"distance":4566,"i_lat":-6.314823,"i_long":106.675475,"is_transit":false,"transit":false,"station_name":"Rawa Buntu","time":6,"station_id":"RU","line":6},{"is_transit":false,"distance":2413,"line":6,"time":4,"i_long":106.66566,"station_name":"Serpong","transit":false,"i_lat":-6.319871,"station_id":"SRP"},{"station_id":"CSK","distance":1784,"i_long":106.640411,"line":3,"station_name":"Cisauk","is_transit":false,"transit":false,"time":4,"i_lat":-6.32484},{"transit":false,"time":4,"distance":2519,"is_transit":false,"station_id":"CC","i_long":106.617853,"i_lat":-6.329547,"station_name":"Cicayur","line":3},{"station_name":"Parung Panjang","line":6,"distance":5968,"time":8,"transit":false,"i_long":106.568863,"is_transit":false,"station_id":"PRP","i_lat":-6.3441410000000005},{"distance":7025,"time":9,"is_transit":false,"i_lat":-6.354349,"station_id":"CJT","i_long":106.508482,"line":3,"station_name":"Cilejit","transit":false},{"is_transit":false,"distance":2675,"time":6,"station_id":"DAR","station_name":"Daru","i_lat":-6.338021,"line":0,"i_long":106.491338,"transit":false},{"transit":false,"distance":3902,"i_lat":-6.327251,"line":6,"is_transit":false,"station_id":"TEJ","i_long":106.460812,"station_name":"Tenjo","time":5},{"transit":false,"distance":2974,"station_id":"TGS","station_name":"Tigaraksa","i_long":106.425991,"time":5,"line":6,"is_transit":false,"i_lat":-6.328533},{"transit":false,"i_lat":-6.33561,"line":3,"distance":2651,"station_id":"CKY","i_long":106.411216,"station_name":"Cikoya","is_transit":false,"time":3},{"station_name":"Maja","distance":1853,"time":4,"is_transit":false,"station_id":"MJ","i_long":106.394373,"i_lat":-6.332307,"line":6,"transit":false},{"station_name":"Citeras","line":3,"station_id":"CTR","i_long":106.332092,"i_lat":-6.334892,"is_transit":false,"transit":false,"distance":7293,"time":10}]]}