{"data":[[{"station_id":"JNG","is_transit":false,"i_lat":-6.215091,"i_long":106.86807400000001,"transit":false,"distance":0,"line":1,"station_name":"Jatinegara","time":0},{"time":2,"station_name":"Matraman","is_transit":false,"line":1,"transit":false,"station_id":"MTR","i_lat":-6.212485,"i_long":106.858896,"distance":1377},{"station_id":"MRI","line":2,"is_transit":true,"station_name":"Manggarai","distance":1275,"i_lat":-6.209883,"time":2,"transit":true,"i_long":106.84912},{"line":2,"i_lat":-6.226659,"is_transit":false,"station_id":"TEB","station_name":"Tebet","distance":2610,"i_long":106.857948,"transit":false,"time":4},{"i_long":106.856607,"station_name":"Cawang","time":2,"station_id":"CW","distance":1230,"transit":false,"i_lat":-6.242512,"is_transit":false,"line":2},{"transit":false,"station_id":"DRN","distance":1546,"time":3,"is_transit":false,"line":2,"station_name":"Duren Kalibata","i_lat":-6.255332,"i_long":106.85449},{"line":2,"is_transit":false,"distance":824,"transit":false,"i_lat":-6.263214,"i_long":106.851577,"station_name":"Pasar Minggu Baru","time":2,"station_id":"PSMB"},{"transit":false,"station_id":"PSM","i_lat":-6.2842400000000005,"line":2,"distance":2380,"is_transit":false,"station_name":"Pasar Minggu","i_long":106.843999,"time":2},{"is_transit":false,"transit":false,"station_name":"Tanjung Barat","time":4,"i_lat":-6.3080680000000005,"i_long":106.838896,"distance":2820,"station_id":"TNT","line":2},{"line":2,"station_name":"Lenteng Agung","station_id":"LNA","transit":false,"i_long":106.832616,"time":3,"is_transit":false,"distance":2671,"i_lat":-6.330363},{"i_lat":-6.339291,"i_long":106.834175,"line":2,"time":2,"station_name":"Univ. Pancasila","transit":false,"is_transit":false,"distance":1029,"station_id":"UP"},{"distance":2264,"station_id":"UI","time":3,"is_transit":false,"station_name":"Univ. Indonesia","i_lat":-6.360749,"i_long":106.831474,"line":2,"transit":false},{"distance":1109,"station_id":"POC","time":2,"transit":false,"i_long":106.831114,"i_lat":-6.369073,"is_transit":false,"line":2,"station_name":"Pondok Cina"},{"station_id":"DPB","time":4,"station_name":"Depokbaru","i_lat":-6.391065,"transit":false,"line":2,"distance":2727,"is_transit":false,"i_long":106.819451},{"i_lat":-6.405256,"time":3,"transit":false,"is_transit":false,"station_name":"Depok","i_long":106.816926,"station_id":"DP","line":2,"distance":1584},{"time":6,"is_transit":false,"station_name":"Citayam","distance":5084,"i_long":106.800298,"line":2,"transit":false,"i_lat":-6.448811,"station_id":"CTA"}],[{"i_long":106.86807400000001,"line":1,"station_name":"Jatinegara","time":0,"distance":0,"station_id":"JNG","i_lat":-6.215091,"is_transit":false,"transit":false},{"distance":1236,"line":11,"transit":false,"time":2,"station_id":"POK","is_transit":false,"i_lat":-6.209188,"station_name":"Pondok Jati","i_long":106.861737},{"is_transit":false,"station_name":"Kramat","distance":1829,"i_long":106.855437,"line":11,"time":2,"transit":false,"i_lat":-6.193792,"station_id":"KMT"},{"station_id":"GST","distance":973,"transit":false,"is_transit":false,"time":1,"line":11,"i_lat":-6.185975,"i_long":106.850107,"station_name":"Gang Sentiong"},{"station_id":"PSE","transit":false,"i_lat":-6.174784,"time":8,"line":11,"is_transit":false,"distance":1567,"i_long":106.84368,"station_name":"Pasar Senen"},{"i_lat":-6.161728,"i_long":106.839204,"station_name":"Kemayoran","time":4,"distance":1436,"is_transit":false,"transit":false,"line":11,"station_id":"KMO"},{"station_name":"Rajawali","time":5,"station_id":"RJW","line":11,"transit":false,"i_lat":-6.14505,"distance":1901,"i_long":106.836569,"is_transit":false},{"is_transit":true,"transit":true,"i_lat":-6.132549,"station_name":"Kampung Bandan","i_long":106.826365,"time":3,"distance":1444,"line":4,"station_id":"KPB"},{"is_transit":false,"transit":false,"i_lat":-6.144674,"distance":4102,"station_name":"Angke","station_id":"AK","i_long":106.79867,"line":1,"time":9},{"station_name":"Duri","station_id":"DU","is_transit":false,"i_long":106.800832,"distance":1230,"time":4,"transit":false,"i_lat":-6.155215,"line":1},{"line":1,"distance":3632,"is_transit":false,"transit":false,"station_id":"THB","i_lat":-6.185545,"station_name":"Tanah Abang","time":8,"i_long":106.811091},{"is_transit":false,"time":5,"transit":false,"distance":2029,"line":1,"station_id":"KAT","station_name":"Karet","i_lat":-6.20132,"i_long":106.816351},{"transit":false,"i_long":106.819881,"distance":471,"station_name":"Sudirman Baru","time":1,"station_id":"SUDB","is_transit":false,"i_lat":-6.201433,"line":1},{"station_name":"Sudirman","line":1,"is_transit":false,"station_id":"SUD","distance":280,"transit":false,"i_lat":-6.202263,"time":1,"i_long":106.822649},{"station_name":"Manggarai","transit":true,"i_long":106.84912,"distance":3186,"station_id":"MRI","i_lat":-6.209883,"time":4,"is_transit":true,"line":2},{"i_lat":-6.226659,"station_id":"TEB","time":4,"transit":false,"line":2,"station_name":"Tebet","distance":2610,"i_long":106.857948,"is_transit":false},{"i_long":106.856607,"i_lat":-6.242512,"time":2,"station_name":"Cawang","transit":false,"line":2,"distance":1230,"station_id":"CW","is_transit":false},{"line":2,"station_id":"DRN","is_transit":false,"time":3,"distance":1546,"transit":false,"station_name":"Duren Kalibata","i_lat":-6.255332,"i_long":106.85449},{"i_long":106.851577,"station_id":"PSMB","time":2,"is_transit":false,"i_lat":-6.263214,"line":2,"station_name":"Pasar Minggu Baru","distance":824,"transit":false},{"is_transit":false,"transit":false,"i_long":106.843999,"i_lat":-6.2842400000000005,"station_id":"PSM","time":2,"station_name":"Pasar Minggu","line":2,"distance":2380},{"transit":false,"i_long":106.838896,"station_name":"Tanjung Barat","distance":2820,"i_lat":-6.3080680000000005,"line":2,"time":4,"station_id":"TNT","is_transit":false},{"is_transit":false,"station_name":"Lenteng Agung","transit":false,"time":3,"distance":2671,"i_lat":-6.330363,"i_long":106.832616,"station_id":"LNA","line":2},{"line":2,"transit":false,"station_name":"Univ. Pancasila","is_transit":false,"station_id":"UP","time":2,"distance":1029,"i_lat":-6.339291,"i_long":106.834175},{"i_lat":-6.360749,"i_long":106.831474,"is_transit":false,"station_id":"UI","station_name":"Univ. Indonesia","distance":2264,"transit":false,"time":3,"line":2},{"station_id":"POC","transit":false,"station_name":"Pondok Cina","time":2,"i_long":106.831114,"is_transit":false,"distance":1109,"i_lat":-6.369073,"line":2},{"station_id":"DPB","station_name":"Depokbaru","i_long":106.819451,"line":2,"i_lat":-6.391065,"transit":false,"distance":2727,"time":4,"is_transit":false},{"distance":1584,"i_lat":-6.405256,"time":3,"station_name":"Depok","station_id":"DP","line":2,"is_transit":false,"i_long":106.816926,"transit":false},{"transit":false,"line":2,"is_transit":false,"station_id":"CTA","station_name":"Citayam","i_lat":-6.448811,"time":6,"distance":5084,"i_long":106.800298}],[{"line":1,"station_id":"JNG","time":0,"station_name":"Jatinegara","i_long":106.86807400000001,"is_transit":false,"transit":false,"i_lat":-6.215091,"distance":0},{"time":2,"i_lat":-6.209188,"station_id":"POK","i_long":106.861737,"transit":false,"distance":1236,"is_transit":false,"line":11,"station_name":"Pondok Jati"},{"i_long":106.855437,"line":11,"is_transit":false,"station_id":"KMT","station_name":"Kramat","distance":1829,"time":2,"i_lat":-6.193792,"transit":false},{"time":1,"i_long":106.850107,"distance":973,"is_transit":false,"station_id":"GST","i_lat":-6.185975,"transit":false,"station_name":"Gang Sentiong","line":11},{"is_transit":false,"station_id":"PSE","transit":false,"station_name":"Pasar Senen","i_lat":-6.174784,"line":11,"distance":1567,"i_long":106.84368,"time":8},{"i_long":106.839204,"line":11,"is_transit":false,"station_name":"Kemayoran","distance":1436,"station_id":"KMO","transit":false,"time":4,"i_lat":-6.161728},{"i_long":106.836569,"time":5,"station_name":"Rajawali","line":11,"transit":false,"i_lat":-6.14505,"station_id":"RJW","is_transit":false,"distance":1901},{"transit":true,"distance":1444,"i_long":106.826365,"is_transit":true,"station_id":"KPB","i_lat":-6.132549,"line":4,"time":3,"station_name":"Kampung Bandan"},{"transit":true,"station_name":"Jakarta Kota","time":3,"i_long":106.812439,"station_id":"JAKK","distance":1364,"i_lat":-6.137569,"is_transit":true,"line":2},{"is_transit":false,"transit":false,"i_lat":-6.141205,"i_long":106.820901,"line":2,"station_name":"Jayakarta","distance":1264,"station_id":"JAY","time":4},{"station_id":"MGB","i_long":106.82482,"is_transit":false,"i_lat":-6.149769,"time":2,"distance":1080,"station_name":"Manggabesar","transit":false,"line":2},{"station_id":"SW","time":2,"is_transit":false,"station_name":"Sawah Besar","transit":false,"i_lat":-6.160725,"line":2,"distance":906,"i_long":106.827103},{"transit":false,"distance":1149,"station_name":"Juanda","i_long":106.828284,"line":2,"i_lat":-6.166716,"time":2,"is_transit":false,"station_id":"JUA"},{"is_transit":false,"station_name":"Gondangdia","line":2,"transit":false,"distance":2015,"station_id":"GDD","i_long":106.832183,"i_lat":-6.186295,"time":4},{"distance":1750,"transit":false,"i_lat":-6.198556,"is_transit":false,"station_id":"CKI","i_long":106.840169,"line":2,"time":3,"station_name":"Cikini"},{"is_transit":false,"station_id":"MRI","line":2,"i_long":106.84912,"station_name":"Manggarai","transit":false,"i_lat":-6.209883,"time":4,"distance":1590},{"line":2,"i_long":106.857948,"transit":false,"time":4,"is_transit":false,"station_id":"TEB","i_lat":-6.226659,"distance":2610,"station_name":"Tebet"},{"line":2,"is_transit":false,"transit":false,"distance":1230,"i_lat":-6.242512,"station_id":"CW","i_long":106.856607,"station_name":"Cawang","time":2},{"line":2,"station_id":"DRN","is_transit":false,"station_name":"Duren Kalibata","distance":1546,"transit":false,"i_long":106.85449,"time":3,"i_lat":-6.255332},{"station_id":"PSMB","transit":false,"distance":824,"i_long":106.851577,"time":2,"station_name":"Pasar Minggu Baru","i_lat":-6.263214,"line":2,"is_transit":false},{"time":2,"is_transit":false,"distance":2380,"station_id":"PSM","i_lat":-6.2842400000000005,"station_name":"Pasar Minggu","line":2,"i_long":106.843999,"transit":false},{"i_long":106.838896,"station_name":"Tanjung Barat","transit":false,"line":2,"is_transit":false,"time":4,"station_id":"TNT","i_lat":-6.3080680000000005,"distance":2820},{"station_id":"LNA","i_long":106.832616,"time":3,"line":2,"transit":false,"distance":2671,"is_transit":false,"station_name":"Lenteng Agung","i_lat":-6.330363},{"distance":1029,"station_id":"UP","transit":false,"station_name":"Univ. Pancasila","i_long":106.834175,"i_lat":-6.339291,"line":2,"time":2,"is_transit":false},{"distance":2264,"station_name":"Univ. Indonesia","i_lat":-6.360749,"station_id":"UI","i_long":106.831474,"transit":false,"line":2,"time":3,"is_transit":false},{"time":2,"distance":1109,"station_id":"POC","station_name":"Pondok Cina","transit":false,"is_transit":false,"i_long":106.831114,"line":2,"i_lat":-6.369073},{"is_transit":false,"distance":2727,"time":4,"station_name":"Depokbaru","i_lat":-6.391065,"i_long":106.819451,"transit":false,"line":2,"station_id":"DPB"},{"is_transit":false,"i_lat":-6.405256,"transit":false,"time":3,"line":2,"station_name":"Depok","i_long":106.816926,"station_id":"DP","distance":1584},{"is_transit":false,"station_id":"CTA","time":6,"line":2,"distance":5084,"i_lat":-6.448811,"i_long":106.800298,"transit":false,"station_name":"Citayam"}]]}