{"data":[[{"station_id":"JNG","i_lat":-6.215091,"i_long":106.86807400000001,"line":1,"station_name":"Jatinegara","transit":false,"is_transit":false,"time":0,"distance":0},{"time":2,"station_name":"Matraman","is_transit":false,"i_long":106.858896,"line":1,"i_lat":-6.212485,"distance":1377,"station_id":"MTR","transit":false},{"i_long":106.84912,"station_name":"Manggarai","transit":true,"distance":1275,"is_transit":true,"line":2,"time":2,"station_id":"MRI","i_lat":-6.209883},{"time":4,"station_name":"Tebet","distance":2610,"station_id":"TEB","line":2,"i_long":106.857948,"transit":false,"is_transit":false,"i_lat":-6.226659},{"station_name":"Cawang","transit":false,"time":2,"i_lat":-6.242512,"i_long":106.856607,"station_id":"CW","line":2,"is_transit":false,"distance":1230},{"distance":1546,"station_name":"Duren Kalibata","is_transit":false,"line":2,"time":3,"station_id":"DRN","transit":false,"i_lat":-6.255332,"i_long":106.85449},{"station_name":"Pasar Minggu Baru","is_transit":false,"time":2,"station_id":"PSMB","transit":false,"i_long":106.851577,"i_lat":-6.263214,"line":2,"distance":824},{"is_transit":false,"station_id":"PSM","i_long":106.843999,"time":2,"station_name":"Pasar Minggu","transit":false,"i_lat":-6.2842400000000005,"line":2,"distance":2380},{"time":4,"station_name":"Tanjung Barat","station_id":"TNT","transit":false,"is_transit":false,"line":2,"distance":2820,"i_lat":-6.3080680000000005,"i_long":106.838896},{"i_long":106.832616,"i_lat":-6.330363,"transit":false,"station_id":"LNA","distance":2671,"line":2,"is_transit":false,"time":3,"station_name":"Lenteng Agung"},{"is_transit":false,"station_id":"UP","i_lat":-6.339291,"i_long":106.834175,"line":2,"time":2,"distance":1029,"station_name":"Univ. Pancasila","transit":false},{"time":3,"transit":false,"station_name":"Univ. Indonesia","i_lat":-6.360749,"station_id":"UI","distance":2264,"i_long":106.831474,"line":2,"is_transit":false}],[{"distance":0,"line":1,"station_id":"JNG","station_name":"Jatinegara","i_lat":-6.215091,"time":0,"is_transit":false,"transit":false,"i_long":106.86807400000001},{"i_long":106.861737,"distance":1236,"i_lat":-6.209188,"station_name":"Pondok Jati","is_transit":false,"line":11,"time":2,"station_id":"POK","transit":false},{"distance":1829,"station_id":"KMT","station_name":"Kramat","i_long":106.855437,"time":2,"is_transit":false,"i_lat":-6.193792,"line":11,"transit":false},{"distance":973,"is_transit":false,"station_id":"GST","line":11,"i_lat":-6.185975,"time":1,"station_name":"Gang Sentiong","transit":false,"i_long":106.850107},{"station_id":"PSE","station_name":"Pasar Senen","i_lat":-6.174784,"i_long":106.84368,"is_transit":false,"time":8,"line":11,"transit":false,"distance":1567},{"station_id":"KMO","station_name":"Kemayoran","i_long":106.839204,"transit":false,"line":11,"i_lat":-6.161728,"is_transit":false,"distance":1436,"time":4},{"distance":1901,"i_lat":-6.14505,"transit":false,"time":5,"i_long":106.836569,"station_name":"Rajawali","is_transit":false,"station_id":"RJW","line":11},{"i_long":106.826365,"time":3,"transit":true,"station_id":"KPB","station_name":"Kampung Bandan","i_lat":-6.132549,"line":4,"is_transit":true,"distance":1444},{"transit":false,"station_name":"Angke","i_lat":-6.144674,"line":1,"is_transit":false,"distance":4102,"station_id":"AK","i_long":106.79867,"time":9},{"time":4,"transit":false,"i_long":106.800832,"station_id":"DU","i_lat":-6.155215,"distance":1230,"is_transit":false,"station_name":"Duri","line":1},{"station_id":"THB","i_lat":-6.185545,"i_long":106.811091,"is_transit":false,"distance":3632,"line":1,"station_name":"Tanah Abang","transit":false,"time":8},{"station_name":"Karet","line":1,"transit":false,"is_transit":false,"i_lat":-6.20132,"station_id":"KAT","distance":2029,"time":5,"i_long":106.816351},{"i_long":106.819881,"station_name":"Sudirman Baru","is_transit":false,"i_lat":-6.201433,"transit":false,"distance":471,"time":1,"line":1,"station_id":"SUDB"},{"distance":280,"time":1,"transit":false,"i_lat":-6.202263,"i_long":106.822649,"is_transit":false,"station_name":"Sudirman","line":1,"station_id":"SUD"},{"i_lat":-6.209883,"i_long":106.84912,"time":4,"line":2,"transit":true,"station_id":"MRI","is_transit":true,"station_name":"Manggarai","distance":3186},{"is_transit":false,"transit":false,"i_long":106.857948,"time":4,"line":2,"distance":2610,"station_id":"TEB","i_lat":-6.226659,"station_name":"Tebet"},{"i_long":106.856607,"time":2,"is_transit":false,"transit":false,"station_id":"CW","i_lat":-6.242512,"distance":1230,"station_name":"Cawang","line":2},{"i_long":106.85449,"distance":1546,"station_id":"DRN","is_transit":false,"station_name":"Duren Kalibata","i_lat":-6.255332,"line":2,"time":3,"transit":false},{"i_lat":-6.263214,"i_long":106.851577,"transit":false,"station_id":"PSMB","station_name":"Pasar Minggu Baru","is_transit":false,"distance":824,"time":2,"line":2},{"transit":false,"station_name":"Pasar Minggu","station_id":"PSM","distance":2380,"time":2,"i_lat":-6.2842400000000005,"i_long":106.843999,"line":2,"is_transit":false},{"line":2,"station_name":"Tanjung Barat","i_lat":-6.3080680000000005,"is_transit":false,"i_long":106.838896,"station_id":"TNT","distance":2820,"transit":false,"time":4},{"transit":false,"is_transit":false,"station_id":"LNA","i_lat":-6.330363,"time":3,"station_name":"Lenteng Agung","distance":2671,"i_long":106.832616,"line":2},{"line":2,"station_id":"UP","distance":1029,"is_transit":false,"time":2,"station_name":"Univ. Pancasila","i_lat":-6.339291,"transit":false,"i_long":106.834175},{"distance":2264,"transit":false,"i_lat":-6.360749,"station_name":"Univ. Indonesia","station_id":"UI","time":3,"is_transit":false,"i_long":106.831474,"line":2}],[{"time":0,"is_transit":false,"station_name":"Jatinegara","i_lat":-6.215091,"i_long":106.86807400000001,"transit":false,"distance":0,"station_id":"JNG","line":1},{"i_lat":-6.209188,"i_long":106.861737,"line":11,"station_name":"Pondok Jati","is_transit":false,"station_id":"POK","transit":false,"time":2,"distance":1236},{"i_lat":-6.193792,"transit":false,"time":2,"station_name":"Kramat","distance":1829,"i_long":106.855437,"is_transit":false,"line":11,"station_id":"KMT"},{"time":1,"line":11,"i_long":106.850107,"is_transit":false,"station_name":"Gang Sentiong","station_id":"GST","transit":false,"distance":973,"i_lat":-6.185975},{"i_long":106.84368,"station_id":"PSE","transit":false,"distance":1567,"station_name":"Pasar Senen","i_lat":-6.174784,"line":11,"is_transit":false,"time":8},{"i_lat":-6.161728,"i_long":106.839204,"time":4,"is_transit":false,"station_id":"KMO","transit":false,"distance":1436,"line":11,"station_name":"Kemayoran"},{"station_id":"RJW","station_name":"Rajawali","transit":false,"i_long":106.836569,"i_lat":-6.14505,"time":5,"is_transit":false,"distance":1901,"line":11},{"is_transit":true,"time":3,"i_lat":-6.132549,"transit":true,"station_name":"Kampung Bandan","station_id":"KPB","i_long":106.826365,"line":4,"distance":1444},{"i_lat":-6.137569,"line":2,"time":3,"distance":1364,"station_name":"Jakarta Kota","transit":true,"is_transit":true,"station_id":"JAKK","i_long":106.812439},{"transit":false,"station_id":"JAY","i_lat":-6.141205,"station_name":"Jayakarta","is_transit":false,"distance":1264,"time":4,"i_long":106.820901,"line":2},{"i_long":106.82482,"line":2,"distance":1080,"i_lat":-6.149769,"time":2,"station_name":"Manggabesar","station_id":"MGB","transit":false,"is_transit":false},{"i_long":106.827103,"is_transit":false,"line":2,"distance":906,"time":2,"transit":false,"station_id":"SW","i_lat":-6.160725,"station_name":"Sawah Besar"},{"i_lat":-6.166716,"station_name":"Juanda","time":2,"station_id":"JUA","transit":false,"is_transit":false,"distance":1149,"i_long":106.828284,"line":2},{"is_transit":false,"time":4,"transit":false,"i_long":106.832183,"i_lat":-6.186295,"station_name":"Gondangdia","line":2,"station_id":"GDD","distance":2015},{"station_name":"Cikini","distance":1750,"i_lat":-6.198556,"transit":false,"time":3,"station_id":"CKI","line":2,"is_transit":false,"i_long":106.840169},{"time":4,"station_name":"Manggarai","station_id":"MRI","is_transit":false,"distance":1590,"i_long":106.84912,"line":2,"transit":false,"i_lat":-6.209883},{"transit":false,"station_name":"Tebet","is_transit":false,"station_id":"TEB","distance":2610,"time":4,"i_lat":-6.226659,"line":2,"i_long":106.857948},{"is_transit":false,"time":2,"station_id":"CW","i_long":106.856607,"station_name":"Cawang","i_lat":-6.242512,"transit":false,"distance":1230,"line":2},{"is_transit":false,"transit":false,"distance":1546,"time":3,"i_long":106.85449,"line":2,"station_name":"Duren Kalibata","station_id":"DRN","i_lat":-6.255332},{"time":2,"station_name":"Pasar Minggu Baru","distance":824,"station_id":"PSMB","i_lat":-6.263214,"i_long":106.851577,"line":2,"transit":false,"is_transit":false},{"is_transit":false,"i_long":106.843999,"station_name":"Pasar Minggu","station_id":"PSM","transit":false,"distance":2380,"line":2,"i_lat":-6.2842400000000005,"time":2},{"distance":2820,"is_transit":false,"i_long":106.838896,"i_lat":-6.3080680000000005,"line":2,"time":4,"transit":false,"station_name":"Tanjung Barat","station_id":"TNT"},{"distance":2671,"transit":false,"is_transit":false,"line":2,"i_long":106.832616,"station_name":"Lenteng Agung","time":3,"station_id":"LNA","i_lat":-6.330363},{"is_transit":false,"distance":1029,"i_long":106.834175,"transit":false,"i_lat":-6.339291,"line":2,"time":2,"station_id":"UP","station_name":"Univ. Pancasila"},{"time":3,"transit":false,"is_transit":false,"distance":2264,"line":2,"i_long":106.831474,"station_name":"Univ. Indonesia","station_id":"UI","i_lat":-6.360749}]]}