{"data":[[{"station_id":"JNG","i_long":106.86807400000001,"time":0,"station_name":"Jatinegara","i_lat":-6.215091,"is_transit":true,"line":0,"transit":false,"distance":0},{"station_name":"Pondok Jati","is_transit":false,"i_lat":-6.209188,"station_id":"POK","i_long":106.861737,"time":2,"distance":1236,"transit":false,"line":11},{"i_long":106.855437,"distance":1829,"transit":false,"is_transit":false,"station_id":"KMT","station_name":"Kramat","i_lat":-6.193792,"time":2,"line":11},{"transit":false,"station_id":"GST","time":1,"i_lat":-6.185975,"line":11,"station_name":"Gang Sentiong","is_transit":false,"distance":973,"i_long":106.850107},{"is_transit":false,"i_lat":-6.174784,"distance":1567,"station_name":"Pasar Senen","station_id":"PSE","time":8,"i_long":106.84368,"line":11,"transit":false},{"time":4,"station_id":"KMO","line":11,"distance":1436,"station_name":"Kemayoran","i_long":106.839204,"i_lat":-6.161728,"transit":false,"is_transit":false},{"i_long":106.836569,"station_id":"RJW","station_name":"Rajawali","distance":1901,"line":11,"time":5,"is_transit":false,"transit":false,"i_lat":-6.14505}],[{"station_name":"Jatinegara","is_transit":true,"station_id":"JNG","time":0,"line":0,"distance":0,"i_long":106.86807400000001,"i_lat":-6.215091,"transit":false},{"time":2,"transit":false,"is_transit":false,"station_id":"MTR","line":1,"distance":1377,"i_long":106.858896,"station_name":"Matraman","i_lat":-6.212485},{"transit":false,"is_transit":true,"i_long":106.84912,"i_lat":-6.209883,"station_name":"Manggarai","time":2,"distance":1275,"line":0,"station_id":"MRI"},{"station_name":"Sudirman","i_lat":-6.202263,"time":4,"i_long":106.822649,"line":1,"is_transit":false,"distance":3186,"station_id":"SUD","transit":false},{"is_transit":false,"line":1,"time":1,"station_name":"Sudirman Baru","i_lat":-6.201433,"distance":280,"station_id":"SUDB","i_long":106.819881,"transit":false},{"i_long":106.816351,"station_id":"KAT","station_name":"Karet","is_transit":false,"distance":471,"i_lat":-6.20132,"line":1,"transit":false,"time":1},{"is_transit":true,"time":5,"station_name":"Tanah Abang","distance":2029,"i_long":106.811091,"i_lat":-6.185545,"line":1,"transit":false,"station_id":"THB"},{"time":8,"is_transit":true,"transit":true,"i_lat":-6.155215,"line":1,"station_id":"DU","distance":3632,"station_name":"Duri","i_long":106.800832},{"station_id":"AK","time":4,"transit":false,"i_long":106.79867,"line":0,"is_transit":false,"i_lat":-6.144674,"distance":1230,"station_name":"Angke"},{"distance":4102,"i_long":106.826365,"is_transit":true,"i_lat":-6.132549,"line":0,"time":9,"station_id":"KPB","station_name":"Kampung Bandan","transit":true},{"transit":false,"time":3,"i_long":106.836569,"i_lat":-6.14505,"distance":1444,"station_name":"Rajawali","line":11,"station_id":"RJW","is_transit":false}],[{"time":0,"i_long":106.86807400000001,"is_transit":true,"i_lat":-6.215091,"station_name":"Jatinegara","station_id":"JNG","transit":false,"line":0,"distance":0},{"time":2,"transit":false,"is_transit":false,"station_id":"MTR","distance":1377,"i_lat":-6.212485,"station_name":"Matraman","i_long":106.858896,"line":1},{"distance":1275,"station_id":"MRI","station_name":"Manggarai","transit":true,"line":0,"time":2,"i_lat":-6.209883,"is_transit":true,"i_long":106.84912},{"station_id":"CKI","time":4,"distance":1590,"transit":false,"station_name":"Cikini","is_transit":false,"line":0,"i_long":106.840169,"i_lat":-6.198556},{"time":3,"i_lat":-6.186295,"station_name":"Gondangdia","i_long":106.832183,"is_transit":false,"station_id":"GDD","distance":1750,"transit":false,"line":2},{"i_lat":-6.166716,"distance":2015,"is_transit":false,"station_name":"Juanda","time":4,"station_id":"JUA","i_long":106.828284,"line":2,"transit":false},{"station_id":"SW","i_long":106.827103,"distance":1149,"line":2,"i_lat":-6.160725,"time":2,"transit":false,"is_transit":false,"station_name":"Sawah Besar"},{"time":2,"i_long":106.82482,"line":2,"transit":false,"is_transit":false,"station_name":"Manggabesar","distance":906,"station_id":"MGB","i_lat":-6.149769},{"is_transit":false,"station_name":"Jayakarta","line":7,"i_lat":-6.141205,"i_long":106.820901,"transit":false,"time":2,"station_id":"JAY","distance":1080},{"line":0,"time":4,"i_lat":-6.137569,"transit":true,"station_id":"JAKK","i_long":106.812439,"is_transit":true,"station_name":"Jakarta Kota","distance":1264},{"is_transit":true,"distance":1364,"line":0,"station_name":"Kampung Bandan","transit":true,"time":3,"station_id":"KPB","i_long":106.826365,"i_lat":-6.132549},{"station_id":"RJW","time":3,"station_name":"Rajawali","distance":1444,"i_lat":-6.14505,"line":11,"is_transit":false,"transit":false,"i_long":106.836569}]]}