{"data":[[{"is_transit":true,"station_name":"Jatinegara","i_long":106.86807400000001,"station_id":"JNG","distance":0,"i_lat":-6.215091,"line":0,"transit":false,"time":0},{"is_transit":false,"i_long":106.858896,"distance":1377,"transit":false,"i_lat":-6.212485,"station_id":"MTR","line":1,"time":2,"station_name":"Matraman"},{"station_id":"MRI","station_name":"Manggarai","time":2,"line":0,"i_long":106.84912,"is_transit":true,"i_lat":-6.209883,"transit":true,"distance":1275},{"is_transit":false,"i_long":106.857948,"transit":false,"station_id":"TEB","distance":2610,"line":2,"station_name":"Tebet","time":4,"i_lat":-6.226659},{"is_transit":false,"i_lat":-6.242512,"i_long":106.856607,"line":0,"station_id":"CW","distance":1230,"station_name":"Cawang","transit":false,"time":2},{"time":3,"distance":1546,"transit":false,"i_lat":-6.255332,"i_long":106.85449,"is_transit":false,"station_id":"DRN","line":0,"station_name":"Duren Kalibata"},{"is_transit":false,"time":2,"i_lat":-6.263214,"line":2,"distance":824,"station_id":"PSMB","station_name":"Pasar Minggu Baru","transit":false,"i_long":106.851577},{"transit":false,"time":2,"is_transit":false,"distance":2380,"i_lat":-6.2842400000000005,"i_long":106.843999,"station_id":"PSM","line":2,"station_name":"Pasar Minggu"},{"i_lat":-6.3080680000000005,"line":2,"station_id":"TNT","i_long":106.838896,"distance":2820,"time":4,"transit":false,"station_name":"Tanjung Barat","is_transit":false},{"time":3,"i_lat":-6.330363,"station_name":"Lenteng Agung","is_transit":false,"transit":false,"station_id":"LNA","line":2,"distance":2671,"i_long":106.832616},{"line":2,"station_id":"UP","station_name":"Univ. Pancasila","distance":1029,"transit":false,"i_lat":-6.339291,"time":2,"is_transit":false,"i_long":106.834175},{"transit":false,"station_name":"Univ. Indonesia","distance":2264,"i_lat":-6.360749,"is_transit":false,"time":3,"i_long":106.831474,"station_id":"UI","line":2}],[{"station_id":"JNG","transit":false,"station_name":"Jatinegara","i_long":106.86807400000001,"distance":0,"is_transit":true,"time":0,"line":0,"i_lat":-6.215091},{"distance":1236,"transit":false,"is_transit":false,"station_name":"Pondok Jati","i_lat":-6.209188,"time":2,"line":11,"station_id":"POK","i_long":106.861737},{"i_long":106.855437,"time":2,"station_name":"Kramat","transit":false,"distance":1829,"line":11,"is_transit":false,"station_id":"KMT","i_lat":-6.193792},{"line":11,"station_name":"Gang Sentiong","is_transit":false,"station_id":"GST","time":1,"transit":false,"i_long":106.850107,"i_lat":-6.185975,"distance":973},{"time":8,"distance":1567,"transit":false,"station_id":"PSE","i_long":106.84368,"line":11,"is_transit":false,"station_name":"Pasar Senen","i_lat":-6.174784},{"i_lat":-6.161728,"i_long":106.839204,"station_name":"Kemayoran","time":4,"line":11,"is_transit":false,"distance":1436,"station_id":"KMO","transit":false},{"is_transit":false,"station_id":"RJW","distance":1901,"time":5,"transit":false,"i_lat":-6.14505,"i_long":106.836569,"line":11,"station_name":"Rajawali"},{"transit":true,"line":0,"station_id":"KPB","i_long":106.826365,"i_lat":-6.132549,"station_name":"Kampung Bandan","distance":1444,"time":3,"is_transit":true},{"time":9,"i_lat":-6.144674,"distance":4102,"line":0,"transit":false,"station_name":"Angke","i_long":106.79867,"is_transit":false,"station_id":"AK"},{"station_id":"DU","i_lat":-6.155215,"i_long":106.800832,"time":4,"transit":true,"station_name":"Duri","is_transit":true,"distance":1230,"line":1},{"station_id":"THB","distance":3632,"transit":false,"i_lat":-6.185545,"line":1,"station_name":"Tanah Abang","time":8,"i_long":106.811091,"is_transit":true},{"is_transit":false,"time":5,"distance":2029,"transit":false,"line":1,"i_lat":-6.20132,"i_long":106.816351,"station_id":"KAT","station_name":"Karet"},{"is_transit":false,"i_long":106.819881,"station_name":"Sudirman Baru","time":1,"distance":471,"transit":false,"i_lat":-6.201433,"line":1,"station_id":"SUDB"},{"transit":false,"distance":280,"is_transit":false,"i_long":106.822649,"line":1,"station_name":"Sudirman","station_id":"SUD","time":1,"i_lat":-6.202263},{"transit":true,"station_id":"MRI","station_name":"Manggarai","distance":3186,"i_long":106.84912,"is_transit":true,"line":0,"i_lat":-6.209883,"time":4},{"transit":false,"is_transit":false,"time":4,"i_long":106.857948,"station_name":"Tebet","station_id":"TEB","distance":2610,"line":2,"i_lat":-6.226659},{"station_name":"Cawang","distance":1230,"is_transit":false,"station_id":"CW","line":0,"i_lat":-6.242512,"transit":false,"time":2,"i_long":106.856607},{"is_transit":false,"line":0,"time":3,"transit":false,"i_lat":-6.255332,"station_id":"DRN","station_name":"Duren Kalibata","distance":1546,"i_long":106.85449},{"station_id":"PSMB","is_transit":false,"i_lat":-6.263214,"i_long":106.851577,"distance":824,"line":2,"station_name":"Pasar Minggu Baru","transit":false,"time":2},{"is_transit":false,"i_long":106.843999,"time":2,"station_name":"Pasar Minggu","i_lat":-6.2842400000000005,"distance":2380,"line":2,"transit":false,"station_id":"PSM"},{"time":4,"is_transit":false,"i_long":106.838896,"station_name":"Tanjung Barat","transit":false,"i_lat":-6.3080680000000005,"distance":2820,"line":2,"station_id":"TNT"},{"is_transit":false,"i_lat":-6.330363,"station_id":"LNA","station_name":"Lenteng Agung","time":3,"distance":2671,"transit":false,"i_long":106.832616,"line":2},{"is_transit":false,"time":2,"line":2,"i_long":106.834175,"transit":false,"station_id":"UP","i_lat":-6.339291,"distance":1029,"station_name":"Univ. Pancasila"},{"station_id":"UI","i_lat":-6.360749,"distance":2264,"i_long":106.831474,"is_transit":false,"station_name":"Univ. Indonesia","transit":false,"line":2,"time":3}],[{"station_id":"JNG","transit":false,"is_transit":true,"i_long":106.86807400000001,"distance":0,"station_name":"Jatinegara","i_lat":-6.215091,"time":0,"line":0},{"distance":1236,"i_lat":-6.209188,"is_transit":false,"i_long":106.861737,"station_name":"Pondok Jati","line":11,"station_id":"POK","transit":false,"time":2},{"station_name":"Kramat","transit":false,"time":2,"station_id":"KMT","i_lat":-6.193792,"line":11,"is_transit":false,"i_long":106.855437,"distance":1829},{"is_transit":false,"station_id":"GST","distance":973,"transit":false,"station_name":"Gang Sentiong","time":1,"line":11,"i_lat":-6.185975,"i_long":106.850107},{"time":8,"line":11,"i_lat":-6.174784,"station_id":"PSE","transit":false,"i_long":106.84368,"distance":1567,"is_transit":false,"station_name":"Pasar Senen"},{"transit":false,"time":4,"station_id":"KMO","i_long":106.839204,"is_transit":false,"line":11,"distance":1436,"station_name":"Kemayoran","i_lat":-6.161728},{"i_lat":-6.14505,"is_transit":false,"transit":false,"i_long":106.836569,"line":11,"station_name":"Rajawali","distance":1901,"station_id":"RJW","time":5},{"is_transit":true,"transit":true,"time":3,"i_long":106.826365,"i_lat":-6.132549,"line":0,"station_name":"Kampung Bandan","distance":1444,"station_id":"KPB"},{"transit":true,"time":3,"distance":1364,"line":0,"is_transit":true,"station_name":"Jakarta Kota","i_long":106.812439,"i_lat":-6.137569,"station_id":"JAKK"},{"is_transit":false,"distance":1264,"i_lat":-6.141205,"line":7,"i_long":106.820901,"station_name":"Jayakarta","time":4,"station_id":"JAY","transit":false},{"time":2,"i_lat":-6.149769,"is_transit":false,"station_name":"Manggabesar","distance":1080,"transit":false,"station_id":"MGB","line":2,"i_long":106.82482},{"distance":906,"transit":false,"is_transit":false,"time":2,"i_long":106.827103,"line":2,"station_id":"SW","i_lat":-6.160725,"station_name":"Sawah Besar"},{"line":2,"distance":1149,"station_name":"Juanda","i_long":106.828284,"time":2,"station_id":"JUA","i_lat":-6.166716,"is_transit":false,"transit":false},{"line":2,"station_name":"Gondangdia","transit":false,"i_lat":-6.186295,"station_id":"GDD","distance":2015,"i_long":106.832183,"is_transit":false,"time":4},{"i_lat":-6.198556,"is_transit":false,"station_id":"CKI","transit":false,"distance":1750,"time":3,"line":0,"i_long":106.840169,"station_name":"Cikini"},{"distance":1590,"i_long":106.84912,"is_transit":true,"time":4,"line":0,"transit":true,"station_id":"MRI","station_name":"Manggarai","i_lat":-6.209883},{"station_name":"Tebet","i_long":106.857948,"transit":false,"is_transit":false,"i_lat":-6.226659,"distance":2610,"station_id":"TEB","time":4,"line":2},{"i_lat":-6.242512,"time":2,"line":0,"i_long":106.856607,"transit":false,"station_id":"CW","is_transit":false,"station_name":"Cawang","distance":1230},{"line":0,"is_transit":false,"transit":false,"i_lat":-6.255332,"i_long":106.85449,"station_name":"Duren Kalibata","station_id":"DRN","distance":1546,"time":3},{"i_lat":-6.263214,"is_transit":false,"transit":false,"i_long":106.851577,"station_name":"Pasar Minggu Baru","line":2,"time":2,"station_id":"PSMB","distance":824},{"station_id":"PSM","is_transit":false,"i_lat":-6.2842400000000005,"i_long":106.843999,"time":2,"transit":false,"distance":2380,"line":2,"station_name":"Pasar Minggu"},{"distance":2820,"i_long":106.838896,"time":4,"line":2,"i_lat":-6.3080680000000005,"station_name":"Tanjung Barat","is_transit":false,"transit":false,"station_id":"TNT"},{"station_id":"LNA","distance":2671,"i_lat":-6.330363,"i_long":106.832616,"is_transit":false,"transit":false,"line":2,"station_name":"Lenteng Agung","time":3},{"station_id":"UP","distance":1029,"is_transit":false,"i_long":106.834175,"time":2,"transit":false,"station_name":"Univ. Pancasila","line":2,"i_lat":-6.339291},{"line":2,"station_id":"UI","distance":2264,"i_lat":-6.360749,"transit":false,"station_name":"Univ. Indonesia","i_long":106.831474,"is_transit":false,"time":3}]]}