{"data":[[{"i_lat":-6.215091,"transit":false,"time":0,"distance":0,"i_long":106.86807400000001,"station_id":"JNG","line":1,"station_name":"Jatinegara","is_transit":false},{"time":2,"station_id":"MTR","transit":false,"i_lat":-6.212485,"station_name":"Matraman","is_transit":false,"i_long":106.858896,"line":1,"distance":1377},{"time":2,"distance":1275,"i_long":106.84912,"line":2,"station_name":"Manggarai","station_id":"MRI","transit":false,"i_lat":-6.209883,"is_transit":false},{"line":1,"i_long":106.822649,"distance":3186,"time":4,"station_name":"Sudirman","station_id":"SUD","is_transit":false,"transit":false,"i_lat":-6.202263},{"i_long":106.819881,"line":1,"time":1,"station_id":"SUDB","transit":false,"distance":280,"station_name":"Sudirman Baru","is_transit":false,"i_lat":-6.201433},{"i_long":106.816351,"i_lat":-6.20132,"station_id":"KAT","transit":false,"station_name":"Karet","time":1,"line":1,"distance":471,"is_transit":false},{"line":1,"station_name":"Tanah Abang","station_id":"THB","is_transit":false,"i_long":106.811091,"distance":2029,"i_lat":-6.185545,"time":5,"transit":false},{"i_long":106.800832,"station_name":"Duri","station_id":"DU","i_lat":-6.155215,"is_transit":true,"distance":3632,"time":8,"transit":true,"line":1},{"station_id":"GRG","distance":1700,"i_lat":-6.162021,"is_transit":false,"time":3,"i_long":106.788277,"line":5,"station_name":"Grogol","transit":false},{"time":2,"station_name":"Pesing","line":5,"distance":2036,"station_id":"PSG","i_long":106.771379,"is_transit":false,"transit":false,"i_lat":-6.161433},{"distance":1614,"station_id":"TKO","station_name":"Taman Kota","i_lat":-6.1587309999999995,"transit":false,"line":5,"time":2,"is_transit":false,"i_long":106.756522},{"is_transit":false,"time":2,"transit":false,"line":5,"station_name":"Bojongindah","station_id":"BOI","i_lat":-6.159876,"i_long":106.737035,"distance":2334},{"time":4,"station_name":"Rawa Buaya","i_lat":-6.162758,"station_id":"RW","is_transit":false,"transit":false,"i_long":106.723064,"distance":1152,"line":5},{"i_lat":-6.166068,"line":5,"station_name":"Kalideres","distance":2504,"is_transit":false,"i_long":106.701612,"time":3,"transit":false,"station_id":"KDS"},{"i_long":106.679458,"station_id":"PI","distance":2548,"station_name":"Poris","transit":false,"line":5,"i_lat":-6.169933,"time":3,"is_transit":false},{"station_id":"BPR","i_lat":-6.171811,"time":3,"station_name":"Batuceper","is_transit":false,"line":5,"distance":1834,"transit":false,"i_long":106.665036},{"is_transit":false,"line":5,"station_name":"Tanah Tinggi","transit":false,"i_lat":-6.17331,"distance":2028,"i_long":106.64657,"time":3,"station_id":"TTI"}],[{"station_id":"JNG","line":1,"i_lat":-6.215091,"i_long":106.86807400000001,"distance":0,"station_name":"Jatinegara","is_transit":false,"transit":false,"time":0},{"time":2,"is_transit":false,"distance":1236,"station_id":"POK","transit":false,"line":11,"i_lat":-6.209188,"i_long":106.861737,"station_name":"Pondok Jati"},{"time":2,"i_lat":-6.193792,"transit":false,"station_id":"KMT","is_transit":false,"station_name":"Kramat","distance":1829,"i_long":106.855437,"line":11},{"station_id":"GST","is_transit":false,"i_long":106.850107,"i_lat":-6.185975,"transit":false,"time":1,"line":11,"station_name":"Gang Sentiong","distance":973},{"time":8,"transit":false,"i_lat":-6.174784,"i_long":106.84368,"distance":1567,"is_transit":false,"line":11,"station_name":"Pasar Senen","station_id":"PSE"},{"i_lat":-6.161728,"i_long":106.839204,"line":11,"transit":false,"distance":1436,"station_name":"Kemayoran","is_transit":false,"station_id":"KMO","time":4},{"is_transit":false,"distance":1901,"time":5,"line":11,"i_lat":-6.14505,"i_long":106.836569,"station_id":"RJW","transit":false,"station_name":"Rajawali"},{"i_lat":-6.132549,"transit":true,"time":3,"distance":1444,"station_name":"Kampung Bandan","station_id":"KPB","is_transit":true,"i_long":106.826365,"line":4},{"time":9,"station_name":"Angke","i_lat":-6.144674,"line":1,"transit":false,"i_long":106.79867,"station_id":"AK","distance":4102,"is_transit":false},{"transit":true,"i_long":106.800832,"is_transit":true,"station_id":"DU","time":4,"station_name":"Duri","line":1,"distance":1230,"i_lat":-6.155215},{"i_lat":-6.162021,"station_id":"GRG","transit":false,"distance":1700,"line":5,"time":3,"station_name":"Grogol","i_long":106.788277,"is_transit":false},{"is_transit":false,"distance":2036,"station_name":"Pesing","i_long":106.771379,"line":5,"i_lat":-6.161433,"station_id":"PSG","time":2,"transit":false},{"station_id":"TKO","is_transit":false,"transit":false,"distance":1614,"i_lat":-6.1587309999999995,"time":2,"station_name":"Taman Kota","i_long":106.756522,"line":5},{"i_lat":-6.159876,"transit":false,"station_name":"Bojongindah","station_id":"BOI","is_transit":false,"distance":2334,"i_long":106.737035,"line":5,"time":2},{"is_transit":false,"distance":1152,"station_name":"Rawa Buaya","line":5,"i_lat":-6.162758,"i_long":106.723064,"time":4,"transit":false,"station_id":"RW"},{"station_name":"Kalideres","i_lat":-6.166068,"transit":false,"is_transit":false,"i_long":106.701612,"distance":2504,"time":3,"station_id":"KDS","line":5},{"station_id":"PI","line":5,"is_transit":false,"transit":false,"station_name":"Poris","time":3,"i_lat":-6.169933,"distance":2548,"i_long":106.679458},{"distance":1834,"transit":false,"time":3,"is_transit":false,"i_lat":-6.171811,"line":5,"i_long":106.665036,"station_name":"Batuceper","station_id":"BPR"},{"station_id":"TTI","transit":false,"distance":2028,"line":5,"i_long":106.64657,"is_transit":false,"station_name":"Tanah Tinggi","i_lat":-6.17331,"time":3}],[{"i_long":106.86807400000001,"line":1,"time":0,"station_name":"Jatinegara","distance":0,"i_lat":-6.215091,"transit":false,"is_transit":false,"station_id":"JNG"},{"station_id":"MTR","station_name":"Matraman","i_long":106.858896,"i_lat":-6.212485,"transit":false,"time":2,"distance":1377,"line":1,"is_transit":false},{"is_transit":true,"time":2,"station_name":"Manggarai","transit":true,"line":2,"distance":1275,"i_long":106.84912,"station_id":"MRI","i_lat":-6.209883},{"transit":false,"i_lat":-6.198556,"i_long":106.840169,"station_id":"CKI","line":2,"time":4,"station_name":"Cikini","distance":1590,"is_transit":false},{"transit":false,"i_lat":-6.186295,"distance":1750,"time":3,"i_long":106.832183,"station_id":"GDD","station_name":"Gondangdia","is_transit":false,"line":2},{"line":2,"station_name":"Juanda","distance":2015,"station_id":"JUA","is_transit":false,"i_lat":-6.166716,"i_long":106.828284,"time":4,"transit":false},{"station_name":"Sawah Besar","transit":false,"line":2,"station_id":"SW","i_lat":-6.160725,"distance":1149,"i_long":106.827103,"time":2,"is_transit":false},{"transit":false,"line":2,"time":2,"station_id":"MGB","i_lat":-6.149769,"i_long":106.82482,"station_name":"Manggabesar","distance":906,"is_transit":false},{"transit":false,"station_id":"JAY","i_long":106.820901,"time":2,"is_transit":false,"i_lat":-6.141205,"line":2,"station_name":"Jayakarta","distance":1080},{"time":4,"i_lat":-6.137569,"transit":true,"line":2,"station_name":"Jakarta Kota","i_long":106.812439,"is_transit":true,"station_id":"JAKK","distance":1264},{"transit":true,"station_name":"Kampung Bandan","is_transit":true,"i_long":106.826365,"i_lat":-6.132549,"line":4,"time":3,"distance":1364,"station_id":"KPB"},{"distance":4102,"transit":false,"i_lat":-6.144674,"line":1,"station_name":"Angke","time":9,"station_id":"AK","is_transit":false,"i_long":106.79867},{"transit":true,"station_id":"DU","i_lat":-6.155215,"station_name":"Duri","is_transit":true,"line":1,"time":4,"distance":1230,"i_long":106.800832},{"station_name":"Grogol","station_id":"GRG","i_lat":-6.162021,"transit":false,"is_transit":false,"i_long":106.788277,"distance":1700,"time":3,"line":5},{"station_id":"PSG","line":5,"i_lat":-6.161433,"time":2,"station_name":"Pesing","is_transit":false,"i_long":106.771379,"transit":false,"distance":2036},{"station_id":"TKO","i_lat":-6.1587309999999995,"is_transit":false,"distance":1614,"i_long":106.756522,"time":2,"transit":false,"line":5,"station_name":"Taman Kota"},{"line":5,"time":2,"station_name":"Bojongindah","i_lat":-6.159876,"is_transit":false,"transit":false,"i_long":106.737035,"distance":2334,"station_id":"BOI"},{"line":5,"transit":false,"time":4,"station_name":"Rawa Buaya","station_id":"RW","is_transit":false,"i_lat":-6.162758,"i_long":106.723064,"distance":1152},{"station_name":"Kalideres","i_lat":-6.166068,"station_id":"KDS","distance":2504,"transit":false,"is_transit":false,"i_long":106.701612,"line":5,"time":3},{"distance":2548,"line":5,"i_lat":-6.169933,"is_transit":false,"station_name":"Poris","time":3,"i_long":106.679458,"station_id":"PI","transit":false},{"line":5,"distance":1834,"station_name":"Batuceper","time":3,"station_id":"BPR","is_transit":false,"i_long":106.665036,"transit":false,"i_lat":-6.171811},{"time":3,"distance":2028,"is_transit":false,"transit":false,"i_long":106.64657,"station_name":"Tanah Tinggi","i_lat":-6.17331,"station_id":"TTI","line":5}],[{"station_id":"JNG","time":0,"transit":false,"is_transit":false,"i_long":106.86807400000001,"distance":0,"line":1,"i_lat":-6.215091,"station_name":"Jatinegara"},{"time":2,"is_transit":false,"i_long":106.861737,"station_id":"POK","distance":1236,"i_lat":-6.209188,"transit":false,"station_name":"Pondok Jati","line":11},{"line":11,"transit":false,"i_lat":-6.193792,"i_long":106.855437,"station_id":"KMT","time":2,"is_transit":false,"station_name":"Kramat","distance":1829},{"station_id":"GST","time":1,"i_lat":-6.185975,"i_long":106.850107,"line":11,"station_name":"Gang Sentiong","distance":973,"transit":false,"is_transit":false},{"station_id":"PSE","distance":1567,"station_name":"Pasar Senen","is_transit":false,"i_long":106.84368,"transit":false,"i_lat":-6.174784,"line":11,"time":8},{"i_long":106.839204,"i_lat":-6.161728,"transit":false,"is_transit":false,"line":11,"station_id":"KMO","distance":1436,"time":4,"station_name":"Kemayoran"},{"is_transit":false,"transit":false,"station_name":"Rajawali","station_id":"RJW","distance":1901,"i_lat":-6.14505,"i_long":106.836569,"line":11,"time":5},{"i_long":106.826365,"station_name":"Kampung Bandan","is_transit":true,"distance":1444,"line":4,"time":3,"station_id":"KPB","transit":true,"i_lat":-6.132549},{"is_transit":true,"i_lat":-6.137569,"distance":1364,"station_name":"Jakarta Kota","time":3,"line":2,"i_long":106.812439,"transit":true,"station_id":"JAKK"},{"station_id":"JAY","transit":false,"time":4,"i_lat":-6.141205,"is_transit":false,"line":2,"station_name":"Jayakarta","distance":1264,"i_long":106.820901},{"i_long":106.82482,"i_lat":-6.149769,"line":2,"station_id":"MGB","transit":false,"time":2,"is_transit":false,"distance":1080,"station_name":"Manggabesar"},{"is_transit":false,"station_name":"Sawah Besar","transit":false,"i_lat":-6.160725,"distance":906,"line":2,"time":2,"station_id":"SW","i_long":106.827103},{"is_transit":false,"station_name":"Juanda","time":2,"distance":1149,"line":2,"station_id":"JUA","transit":false,"i_long":106.828284,"i_lat":-6.166716},{"station_name":"Gondangdia","time":4,"transit":false,"i_lat":-6.186295,"i_long":106.832183,"is_transit":false,"distance":2015,"line":2,"station_id":"GDD"},{"time":3,"i_lat":-6.198556,"station_id":"CKI","transit":false,"i_long":106.840169,"distance":1750,"line":2,"station_name":"Cikini","is_transit":false},{"i_long":106.84912,"station_name":"Manggarai","i_lat":-6.209883,"transit":true,"time":4,"is_transit":true,"line":2,"station_id":"MRI","distance":1590},{"i_lat":-6.202263,"i_long":106.822649,"distance":3186,"is_transit":false,"station_id":"SUD","station_name":"Sudirman","transit":false,"line":1,"time":4},{"transit":false,"station_id":"SUDB","distance":280,"line":1,"i_lat":-6.201433,"station_name":"Sudirman Baru","time":1,"is_transit":false,"i_long":106.819881},{"station_name":"Karet","i_lat":-6.20132,"is_transit":false,"distance":471,"time":1,"transit":false,"station_id":"KAT","i_long":106.816351,"line":1},{"line":1,"is_transit":false,"distance":2029,"i_lat":-6.185545,"station_name":"Tanah Abang","i_long":106.811091,"transit":false,"time":5,"station_id":"THB"},{"station_name":"Duri","transit":true,"i_lat":-6.155215,"line":1,"i_long":106.800832,"station_id":"DU","time":8,"is_transit":true,"distance":3632},{"line":5,"station_name":"Grogol","station_id":"GRG","distance":1700,"i_lat":-6.162021,"time":3,"i_long":106.788277,"transit":false,"is_transit":false},{"i_lat":-6.161433,"line":5,"transit":false,"distance":2036,"i_long":106.771379,"time":2,"is_transit":false,"station_id":"PSG","station_name":"Pesing"},{"i_long":106.756522,"station_id":"TKO","time":2,"is_transit":false,"i_lat":-6.1587309999999995,"distance":1614,"station_name":"Taman Kota","line":5,"transit":false},{"station_name":"Bojongindah","transit":false,"i_long":106.737035,"distance":2334,"time":2,"i_lat":-6.159876,"is_transit":false,"station_id":"BOI","line":5},{"is_transit":false,"i_lat":-6.162758,"line":5,"station_name":"Rawa Buaya","time":4,"station_id":"RW","distance":1152,"i_long":106.723064,"transit":false},{"line":5,"station_name":"Kalideres","time":3,"station_id":"KDS","is_transit":false,"transit":false,"distance":2504,"i_long":106.701612,"i_lat":-6.166068},{"time":3,"station_id":"PI","station_name":"Poris","is_transit":false,"transit":false,"i_lat":-6.169933,"line":5,"distance":2548,"i_long":106.679458},{"station_id":"BPR","distance":1834,"transit":false,"i_long":106.665036,"time":3,"station_name":"Batuceper","line":5,"is_transit":false,"i_lat":-6.171811},{"time":3,"distance":2028,"station_id":"TTI","is_transit":false,"i_long":106.64657,"station_name":"Tanah Tinggi","line":5,"transit":false,"i_lat":-6.17331}]]}