{"data":[[{"i_lat":-6.215091,"line":1,"distance":0,"i_long":106.86807400000001,"time":0,"is_transit":false,"station_name":"Jatinegara","station_id":"JNG","transit":false},{"time":2,"transit":false,"line":1,"station_name":"Matraman","is_transit":false,"i_lat":-6.212485,"i_long":106.858896,"station_id":"MTR","distance":1377},{"distance":1275,"line":2,"is_transit":false,"time":2,"transit":false,"i_long":106.84912,"station_id":"MRI","i_lat":-6.209883,"station_name":"Manggarai"},{"station_id":"SUD","line":1,"distance":3186,"station_name":"Sudirman","time":4,"transit":false,"i_lat":-6.202263,"i_long":106.822649,"is_transit":false},{"time":1,"line":1,"station_name":"Sudirman Baru","i_long":106.819881,"is_transit":false,"distance":280,"i_lat":-6.201433,"station_id":"SUDB","transit":false},{"i_lat":-6.20132,"i_long":106.816351,"station_name":"Karet","line":1,"station_id":"KAT","distance":471,"time":1,"is_transit":false,"transit":false},{"transit":false,"line":1,"i_lat":-6.185545,"distance":2029,"station_name":"Tanah Abang","station_id":"THB","i_long":106.811091,"is_transit":false,"time":5},{"station_id":"DU","i_lat":-6.155215,"distance":3632,"station_name":"Duri","time":8,"is_transit":true,"transit":true,"i_long":106.800832,"line":1},{"time":3,"i_lat":-6.162021,"line":5,"transit":false,"station_name":"Grogol","station_id":"GGL","is_transit":false,"distance":1700,"i_long":106.788277},{"is_transit":false,"distance":2036,"transit":false,"i_long":106.771379,"time":2,"station_id":"PSG","i_lat":-6.161433,"station_name":"Pesing","line":5},{"i_lat":-6.1587309999999995,"distance":1614,"line":5,"transit":false,"time":2,"station_name":"Taman Kota","i_long":106.756522,"is_transit":false,"station_id":"TKO"},{"is_transit":false,"station_name":"Bojongindah","station_id":"BOI","distance":2334,"time":2,"i_lat":-6.159876,"transit":false,"i_long":106.737035,"line":5},{"station_id":"RW","i_long":106.723064,"distance":1152,"transit":false,"line":5,"station_name":"Rawa Buaya","is_transit":false,"time":4,"i_lat":-6.162758},{"transit":false,"i_lat":-6.166068,"station_id":"KDS","is_transit":false,"station_name":"Kalideres","time":3,"distance":2504,"i_long":106.701612,"line":5},{"station_name":"Poris","time":3,"transit":false,"is_transit":false,"distance":2548,"line":5,"station_id":"PI","i_lat":-6.169933,"i_long":106.679458},{"i_lat":-6.171811,"i_long":106.665036,"station_name":"Batuceper","time":3,"line":5,"is_transit":false,"distance":1834,"transit":false,"station_id":"BPR"},{"station_name":"Tanah Tinggi","i_lat":-6.17331,"station_id":"TTI","time":3,"line":5,"transit":false,"distance":2028,"is_transit":false,"i_long":106.64657}],[{"station_name":"Jatinegara","transit":false,"i_lat":-6.215091,"distance":0,"is_transit":false,"station_id":"JNG","time":0,"line":1,"i_long":106.86807400000001},{"is_transit":false,"time":2,"station_id":"POK","line":11,"transit":false,"distance":1236,"i_long":106.861737,"i_lat":-6.209188,"station_name":"Pondok Jati"},{"station_id":"KMT","time":2,"transit":false,"line":11,"is_transit":false,"i_long":106.855437,"i_lat":-6.193792,"distance":1829,"station_name":"Kramat"},{"time":1,"station_id":"GST","is_transit":false,"line":11,"i_lat":-6.185975,"distance":973,"transit":false,"i_long":106.850107,"station_name":"Gang Sentiong"},{"i_lat":-6.174784,"time":8,"distance":1567,"transit":false,"line":11,"station_id":"PSE","is_transit":false,"i_long":106.84368,"station_name":"Pasar Senen"},{"transit":false,"i_long":106.839204,"station_id":"KMO","time":4,"i_lat":-6.161728,"station_name":"Kemayoran","line":11,"is_transit":false,"distance":1436},{"is_transit":false,"station_name":"Rajawali","station_id":"RJW","line":11,"i_lat":-6.14505,"time":5,"transit":false,"i_long":106.836569,"distance":1901},{"is_transit":true,"i_long":106.826365,"i_lat":-6.132549,"station_id":"KPB","distance":1444,"transit":true,"line":4,"station_name":"Kampung Bandan","time":3},{"station_name":"Angke","i_long":106.79867,"time":9,"transit":false,"distance":4102,"station_id":"AK","is_transit":false,"i_lat":-6.144674,"line":1},{"transit":true,"i_long":106.800832,"i_lat":-6.155215,"distance":1230,"line":1,"time":4,"station_id":"DU","station_name":"Duri","is_transit":true},{"station_name":"Grogol","i_long":106.788277,"transit":false,"line":5,"distance":1700,"i_lat":-6.162021,"time":3,"is_transit":false,"station_id":"GGL"},{"transit":false,"distance":2036,"station_name":"Pesing","station_id":"PSG","is_transit":false,"i_long":106.771379,"i_lat":-6.161433,"line":5,"time":2},{"i_long":106.756522,"transit":false,"i_lat":-6.1587309999999995,"line":5,"is_transit":false,"station_id":"TKO","time":2,"distance":1614,"station_name":"Taman Kota"},{"is_transit":false,"distance":2334,"time":2,"i_long":106.737035,"transit":false,"i_lat":-6.159876,"station_name":"Bojongindah","station_id":"BOI","line":5},{"is_transit":false,"station_id":"RW","transit":false,"time":4,"station_name":"Rawa Buaya","line":5,"i_lat":-6.162758,"i_long":106.723064,"distance":1152},{"station_id":"KDS","i_lat":-6.166068,"station_name":"Kalideres","distance":2504,"line":5,"time":3,"is_transit":false,"transit":false,"i_long":106.701612},{"distance":2548,"time":3,"i_lat":-6.169933,"i_long":106.679458,"line":5,"station_id":"PI","station_name":"Poris","transit":false,"is_transit":false},{"station_id":"BPR","i_lat":-6.171811,"i_long":106.665036,"line":5,"station_name":"Batuceper","transit":false,"is_transit":false,"time":3,"distance":1834},{"time":3,"line":5,"distance":2028,"is_transit":false,"transit":false,"station_name":"Tanah Tinggi","i_long":106.64657,"station_id":"TTI","i_lat":-6.17331}],[{"time":0,"distance":0,"station_name":"Jatinegara","is_transit":false,"i_long":106.86807400000001,"line":1,"i_lat":-6.215091,"station_id":"JNG","transit":false},{"i_lat":-6.212485,"station_name":"Matraman","line":1,"is_transit":false,"station_id":"MTR","i_long":106.858896,"time":2,"transit":false,"distance":1377},{"i_lat":-6.209883,"station_id":"MRI","transit":true,"time":2,"station_name":"Manggarai","i_long":106.84912,"line":2,"is_transit":true,"distance":1275},{"distance":1590,"station_name":"Cikini","i_long":106.840169,"i_lat":-6.198556,"station_id":"CKI","transit":false,"line":2,"time":4,"is_transit":false},{"transit":false,"time":3,"is_transit":false,"line":2,"i_lat":-6.186295,"i_long":106.832183,"distance":1750,"station_id":"GDD","station_name":"Gondangdia"},{"distance":2015,"transit":false,"time":4,"station_id":"JUA","i_lat":-6.166716,"i_long":106.828284,"line":2,"station_name":"Juanda","is_transit":false},{"time":2,"distance":1149,"station_id":"SW","line":2,"transit":false,"i_long":106.827103,"station_name":"Sawah Besar","i_lat":-6.160725,"is_transit":false},{"i_long":106.82482,"distance":906,"station_name":"Manggabesar","transit":false,"line":2,"i_lat":-6.149769,"station_id":"MGB","is_transit":false,"time":2},{"transit":false,"line":2,"station_name":"Jayakarta","time":2,"station_id":"JAY","i_long":106.820901,"is_transit":false,"distance":1080,"i_lat":-6.141205},{"transit":true,"is_transit":true,"distance":1264,"i_lat":-6.137569,"station_name":"Jakarta Kota","station_id":"JAKK","i_long":106.812439,"line":2,"time":4},{"is_transit":true,"line":4,"distance":1364,"transit":true,"i_long":106.826365,"i_lat":-6.132549,"station_id":"KPB","station_name":"Kampung Bandan","time":3},{"distance":4102,"i_long":106.79867,"transit":false,"time":9,"station_id":"AK","line":1,"station_name":"Angke","i_lat":-6.144674,"is_transit":false},{"i_lat":-6.155215,"is_transit":true,"station_name":"Duri","time":4,"distance":1230,"transit":true,"line":1,"i_long":106.800832,"station_id":"DU"},{"i_lat":-6.162021,"transit":false,"line":5,"time":3,"i_long":106.788277,"distance":1700,"is_transit":false,"station_name":"Grogol","station_id":"GGL"},{"distance":2036,"time":2,"station_name":"Pesing","transit":false,"is_transit":false,"i_lat":-6.161433,"line":5,"station_id":"PSG","i_long":106.771379},{"i_lat":-6.1587309999999995,"line":5,"distance":1614,"station_id":"TKO","transit":false,"station_name":"Taman Kota","time":2,"i_long":106.756522,"is_transit":false},{"i_long":106.737035,"transit":false,"station_name":"Bojongindah","time":2,"distance":2334,"station_id":"BOI","is_transit":false,"i_lat":-6.159876,"line":5},{"station_name":"Rawa Buaya","line":5,"is_transit":false,"time":4,"distance":1152,"transit":false,"station_id":"RW","i_lat":-6.162758,"i_long":106.723064},{"i_long":106.701612,"i_lat":-6.166068,"station_id":"KDS","station_name":"Kalideres","is_transit":false,"transit":false,"line":5,"distance":2504,"time":3},{"distance":2548,"station_id":"PI","transit":false,"is_transit":false,"station_name":"Poris","i_lat":-6.169933,"line":5,"time":3,"i_long":106.679458},{"i_long":106.665036,"transit":false,"time":3,"distance":1834,"i_lat":-6.171811,"line":5,"is_transit":false,"station_name":"Batuceper","station_id":"BPR"},{"station_id":"TTI","i_lat":-6.17331,"distance":2028,"line":5,"station_name":"Tanah Tinggi","transit":false,"i_long":106.64657,"time":3,"is_transit":false}],[{"distance":0,"is_transit":false,"transit":false,"i_long":106.86807400000001,"station_name":"Jatinegara","i_lat":-6.215091,"station_id":"JNG","line":1,"time":0},{"line":11,"i_lat":-6.209188,"station_name":"Pondok Jati","is_transit":false,"distance":1236,"time":2,"station_id":"POK","transit":false,"i_long":106.861737},{"station_id":"KMT","station_name":"Kramat","is_transit":false,"time":2,"transit":false,"line":11,"i_long":106.855437,"distance":1829,"i_lat":-6.193792},{"station_id":"GST","station_name":"Gang Sentiong","i_lat":-6.185975,"time":1,"line":11,"is_transit":false,"i_long":106.850107,"distance":973,"transit":false},{"transit":false,"time":8,"i_long":106.84368,"distance":1567,"line":11,"station_name":"Pasar Senen","is_transit":false,"station_id":"PSE","i_lat":-6.174784},{"distance":1436,"station_name":"Kemayoran","transit":false,"is_transit":false,"i_lat":-6.161728,"i_long":106.839204,"time":4,"station_id":"KMO","line":11},{"distance":1901,"line":11,"station_name":"Rajawali","is_transit":false,"transit":false,"station_id":"RJW","time":5,"i_lat":-6.14505,"i_long":106.836569},{"line":4,"transit":true,"station_name":"Kampung Bandan","distance":1444,"is_transit":true,"station_id":"KPB","i_lat":-6.132549,"i_long":106.826365,"time":3},{"station_id":"JAKK","transit":true,"i_lat":-6.137569,"station_name":"Jakarta Kota","time":3,"line":2,"is_transit":true,"i_long":106.812439,"distance":1364},{"transit":false,"is_transit":false,"i_long":106.820901,"line":2,"time":4,"i_lat":-6.141205,"distance":1264,"station_name":"Jayakarta","station_id":"JAY"},{"station_name":"Manggabesar","i_long":106.82482,"i_lat":-6.149769,"is_transit":false,"time":2,"distance":1080,"line":2,"transit":false,"station_id":"MGB"},{"is_transit":false,"line":2,"distance":906,"station_id":"SW","time":2,"station_name":"Sawah Besar","i_lat":-6.160725,"transit":false,"i_long":106.827103},{"station_name":"Juanda","transit":false,"time":2,"i_lat":-6.166716,"distance":1149,"i_long":106.828284,"line":2,"is_transit":false,"station_id":"JUA"},{"i_lat":-6.186295,"station_name":"Gondangdia","time":4,"distance":2015,"station_id":"GDD","is_transit":false,"i_long":106.832183,"line":2,"transit":false},{"time":3,"i_lat":-6.198556,"distance":1750,"is_transit":false,"line":2,"transit":false,"station_name":"Cikini","station_id":"CKI","i_long":106.840169},{"i_lat":-6.209883,"distance":1590,"time":4,"i_long":106.84912,"line":2,"station_name":"Manggarai","is_transit":true,"transit":true,"station_id":"MRI"},{"station_name":"Sudirman","time":4,"i_lat":-6.202263,"is_transit":false,"distance":3186,"station_id":"SUD","i_long":106.822649,"line":1,"transit":false},{"line":1,"distance":280,"station_id":"SUDB","time":1,"i_lat":-6.201433,"station_name":"Sudirman Baru","is_transit":false,"transit":false,"i_long":106.819881},{"line":1,"station_name":"Karet","time":1,"station_id":"KAT","is_transit":false,"transit":false,"distance":471,"i_lat":-6.20132,"i_long":106.816351},{"i_lat":-6.185545,"transit":false,"distance":2029,"time":5,"station_id":"THB","i_long":106.811091,"station_name":"Tanah Abang","is_transit":false,"line":1},{"distance":3632,"transit":true,"line":1,"station_name":"Duri","station_id":"DU","i_lat":-6.155215,"time":8,"i_long":106.800832,"is_transit":true},{"line":5,"distance":1700,"station_name":"Grogol","transit":false,"is_transit":false,"time":3,"i_lat":-6.162021,"station_id":"GGL","i_long":106.788277},{"is_transit":false,"transit":false,"station_id":"PSG","line":5,"i_long":106.771379,"station_name":"Pesing","time":2,"distance":2036,"i_lat":-6.161433},{"time":2,"station_name":"Taman Kota","line":5,"station_id":"TKO","is_transit":false,"distance":1614,"i_lat":-6.1587309999999995,"i_long":106.756522,"transit":false},{"line":5,"time":2,"distance":2334,"is_transit":false,"station_id":"BOI","transit":false,"i_lat":-6.159876,"station_name":"Bojongindah","i_long":106.737035},{"is_transit":false,"i_lat":-6.162758,"distance":1152,"i_long":106.723064,"station_id":"RW","time":4,"station_name":"Rawa Buaya","transit":false,"line":5},{"station_id":"KDS","time":3,"station_name":"Kalideres","i_lat":-6.166068,"transit":false,"i_long":106.701612,"distance":2504,"line":5,"is_transit":false},{"distance":2548,"i_lat":-6.169933,"station_id":"PI","station_name":"Poris","i_long":106.679458,"time":3,"is_transit":false,"transit":false,"line":5},{"station_name":"Batuceper","distance":1834,"i_lat":-6.171811,"station_id":"BPR","time":3,"line":5,"is_transit":false,"transit":false,"i_long":106.665036},{"time":3,"transit":false,"is_transit":false,"station_name":"Tanah Tinggi","distance":2028,"i_long":106.64657,"station_id":"TTI","i_lat":-6.17331,"line":5}]]}