{"data":[[{"distance":0,"i_long":106.86807400000001,"time":0,"station_name":"Jatinegara","is_transit":false,"i_lat":-6.215091,"line":1,"station_id":"JNG","transit":false},{"station_id":"MTR","station_name":"Matraman","i_long":106.858896,"i_lat":-6.212485,"line":1,"is_transit":false,"transit":false,"time":2,"distance":1377},{"distance":1275,"station_name":"Manggarai","station_id":"MRI","i_lat":-6.209883,"line":2,"i_long":106.84912,"transit":false,"is_transit":false,"time":2},{"i_lat":-6.202263,"i_long":106.822649,"line":1,"distance":3186,"transit":false,"station_id":"SUD","station_name":"Sudirman","is_transit":false,"time":4},{"transit":false,"distance":280,"station_id":"SUDB","station_name":"Sudirman Baru","i_long":106.819881,"time":1,"is_transit":false,"line":1,"i_lat":-6.201433},{"station_name":"Karet","transit":false,"is_transit":false,"time":1,"distance":471,"station_id":"KAT","i_lat":-6.20132,"i_long":106.816351,"line":1},{"station_name":"Tanah Abang","distance":2029,"line":1,"i_lat":-6.185545,"i_long":106.811091,"time":5,"station_id":"THB","transit":true,"is_transit":true},{"line":6,"is_transit":false,"transit":false,"station_name":"Palmerah","time":6,"distance":3191,"station_id":"PLM","i_long":106.79689,"i_lat":-6.207404},{"station_id":"KBY","station_name":"Kebayoran","time":7,"i_lat":-6.237242,"i_long":106.780334,"distance":3737,"line":6,"transit":false,"is_transit":false},{"line":6,"distance":6218,"i_long":106.74273,"transit":false,"is_transit":false,"station_name":"Pondokranji","time":8,"station_id":"PDJ","i_lat":-6.276362},{"distance":2179,"time":3,"transit":false,"i_lat":-6.288927,"i_long":106.728916,"line":6,"station_name":"Jurangmangu","is_transit":false,"station_id":"JMU"},{"station_name":"Sudimara","time":4,"i_lat":-6.296963,"line":6,"distance":1994,"is_transit":false,"transit":false,"i_long":106.712277,"station_id":"SDM"},{"i_lat":-6.314823,"is_transit":false,"i_long":106.675475,"distance":4566,"station_name":"Rawa Buntu","transit":false,"time":6,"station_id":"RU","line":6},{"i_long":106.66566,"time":4,"transit":false,"is_transit":false,"distance":2413,"i_lat":-6.319871,"station_name":"Serpong","line":6,"station_id":"SRP"},{"line":3,"distance":1784,"time":4,"station_name":"Cisauk","station_id":"CSK","i_lat":-6.32484,"transit":false,"is_transit":false,"i_long":106.640411},{"i_lat":-6.329547,"station_id":"CC","distance":2519,"line":3,"station_name":"Cicayur","i_long":106.617853,"time":4,"is_transit":false,"transit":false},{"time":8,"i_lat":-6.3441410000000005,"distance":5968,"i_long":106.568863,"line":6,"transit":false,"station_name":"Parung Panjang","is_transit":false,"station_id":"PRP"},{"distance":7025,"station_name":"Cilejit","time":9,"transit":false,"station_id":"CJT","i_lat":-6.354349,"is_transit":false,"i_long":106.508482,"line":3},{"station_id":"DAR","distance":2675,"station_name":"Daru","line":0,"is_transit":false,"i_lat":-6.338021,"transit":false,"i_long":106.491338,"time":6}],[{"line":1,"i_lat":-6.215091,"distance":0,"time":0,"is_transit":false,"station_id":"JNG","station_name":"Jatinegara","i_long":106.86807400000001,"transit":false},{"line":11,"time":2,"distance":1236,"transit":false,"i_long":106.861737,"is_transit":false,"station_name":"Pondok Jati","i_lat":-6.209188,"station_id":"POK"},{"transit":false,"is_transit":false,"distance":1829,"station_name":"Kramat","station_id":"KMT","i_lat":-6.193792,"line":11,"time":2,"i_long":106.855437},{"i_lat":-6.185975,"is_transit":false,"station_name":"Gang Sentiong","time":1,"transit":false,"line":11,"i_long":106.850107,"distance":973,"station_id":"GST"},{"distance":1567,"station_id":"PSE","transit":false,"station_name":"Pasar Senen","time":8,"i_lat":-6.174784,"i_long":106.84368,"line":11,"is_transit":false},{"i_long":106.839204,"is_transit":false,"time":4,"station_id":"KMO","station_name":"Kemayoran","transit":false,"distance":1436,"i_lat":-6.161728,"line":11},{"is_transit":false,"station_id":"RJW","i_long":106.836569,"line":11,"distance":1901,"time":5,"transit":false,"i_lat":-6.14505,"station_name":"Rajawali"},{"i_long":106.826365,"is_transit":true,"line":4,"distance":1444,"i_lat":-6.132549,"station_name":"Kampung Bandan","station_id":"KPB","time":3,"transit":true},{"is_transit":false,"station_name":"Angke","i_lat":-6.144674,"distance":4102,"transit":false,"line":1,"time":9,"station_id":"AK","i_long":106.79867},{"i_lat":-6.155215,"station_name":"Duri","transit":false,"i_long":106.800832,"distance":1230,"is_transit":false,"station_id":"DU","line":1,"time":4},{"transit":true,"line":1,"is_transit":true,"time":8,"distance":3632,"i_long":106.811091,"station_id":"THB","i_lat":-6.185545,"station_name":"Tanah Abang"},{"i_long":106.79689,"distance":3191,"i_lat":-6.207404,"line":6,"is_transit":false,"time":6,"transit":false,"station_id":"PLM","station_name":"Palmerah"},{"distance":3737,"is_transit":false,"i_long":106.780334,"line":6,"transit":false,"i_lat":-6.237242,"time":7,"station_name":"Kebayoran","station_id":"KBY"},{"i_lat":-6.276362,"station_id":"PDJ","i_long":106.74273,"transit":false,"line":6,"distance":6218,"station_name":"Pondokranji","is_transit":false,"time":8},{"time":3,"distance":2179,"i_long":106.728916,"line":6,"is_transit":false,"transit":false,"i_lat":-6.288927,"station_name":"Jurangmangu","station_id":"JMU"},{"station_name":"Sudimara","transit":false,"station_id":"SDM","time":4,"line":6,"i_lat":-6.296963,"distance":1994,"i_long":106.712277,"is_transit":false},{"is_transit":false,"transit":false,"distance":4566,"station_id":"RU","i_long":106.675475,"station_name":"Rawa Buntu","line":6,"time":6,"i_lat":-6.314823},{"time":4,"station_name":"Serpong","transit":false,"distance":2413,"is_transit":false,"station_id":"SRP","i_lat":-6.319871,"i_long":106.66566,"line":6},{"station_name":"Cisauk","is_transit":false,"distance":1784,"i_long":106.640411,"transit":false,"line":3,"station_id":"CSK","time":4,"i_lat":-6.32484},{"i_long":106.617853,"is_transit":false,"station_id":"CC","line":3,"time":4,"station_name":"Cicayur","distance":2519,"transit":false,"i_lat":-6.329547},{"is_transit":false,"line":6,"station_name":"Parung Panjang","distance":5968,"station_id":"PRP","time":8,"transit":false,"i_lat":-6.3441410000000005,"i_long":106.568863},{"time":9,"transit":false,"distance":7025,"station_name":"Cilejit","is_transit":false,"line":3,"station_id":"CJT","i_lat":-6.354349,"i_long":106.508482},{"station_id":"DAR","line":0,"time":6,"i_long":106.491338,"transit":false,"distance":2675,"i_lat":-6.338021,"station_name":"Daru","is_transit":false}],[{"line":1,"i_lat":-6.215091,"i_long":106.86807400000001,"station_name":"Jatinegara","distance":0,"is_transit":false,"time":0,"station_id":"JNG","transit":false},{"distance":1377,"time":2,"station_name":"Matraman","transit":false,"is_transit":false,"station_id":"MTR","i_lat":-6.212485,"line":1,"i_long":106.858896},{"transit":true,"i_long":106.84912,"distance":1275,"line":2,"station_id":"MRI","is_transit":true,"time":2,"station_name":"Manggarai","i_lat":-6.209883},{"station_name":"Cikini","transit":false,"distance":1590,"is_transit":false,"station_id":"CKI","i_lat":-6.198556,"line":2,"i_long":106.840169,"time":4},{"is_transit":false,"distance":1750,"station_id":"GDD","i_long":106.832183,"i_lat":-6.186295,"station_name":"Gondangdia","time":3,"line":2,"transit":false},{"i_lat":-6.166716,"time":4,"i_long":106.828284,"transit":false,"station_name":"Juanda","distance":2015,"is_transit":false,"station_id":"JUA","line":2},{"distance":1149,"i_lat":-6.160725,"line":2,"station_name":"Sawah Besar","time":2,"i_long":106.827103,"transit":false,"station_id":"SW","is_transit":false},{"i_long":106.82482,"distance":906,"station_id":"MGB","is_transit":false,"time":2,"line":2,"i_lat":-6.149769,"station_name":"Manggabesar","transit":false},{"i_lat":-6.141205,"transit":false,"i_long":106.820901,"distance":1080,"time":2,"station_name":"Jayakarta","is_transit":false,"line":2,"station_id":"JAY"},{"station_id":"JAKK","time":4,"i_long":106.812439,"i_lat":-6.137569,"line":2,"distance":1264,"station_name":"Jakarta Kota","is_transit":true,"transit":true},{"is_transit":true,"station_id":"KPB","i_lat":-6.132549,"transit":true,"time":3,"distance":1364,"i_long":106.826365,"line":4,"station_name":"Kampung Bandan"},{"is_transit":false,"distance":4102,"transit":false,"i_lat":-6.144674,"i_long":106.79867,"time":9,"station_id":"AK","line":1,"station_name":"Angke"},{"station_name":"Duri","time":4,"transit":false,"is_transit":false,"station_id":"DU","i_long":106.800832,"line":1,"i_lat":-6.155215,"distance":1230},{"station_id":"THB","distance":3632,"is_transit":true,"transit":true,"i_lat":-6.185545,"station_name":"Tanah Abang","time":8,"i_long":106.811091,"line":1},{"line":6,"i_long":106.79689,"transit":false,"time":6,"station_id":"PLM","i_lat":-6.207404,"station_name":"Palmerah","is_transit":false,"distance":3191},{"transit":false,"is_transit":false,"station_id":"KBY","time":7,"distance":3737,"station_name":"Kebayoran","i_lat":-6.237242,"i_long":106.780334,"line":6},{"is_transit":false,"distance":6218,"i_lat":-6.276362,"line":6,"station_id":"PDJ","i_long":106.74273,"station_name":"Pondokranji","time":8,"transit":false},{"distance":2179,"station_name":"Jurangmangu","i_long":106.728916,"transit":false,"is_transit":false,"i_lat":-6.288927,"line":6,"station_id":"JMU","time":3},{"time":4,"is_transit":false,"line":6,"station_id":"SDM","i_lat":-6.296963,"i_long":106.712277,"station_name":"Sudimara","transit":false,"distance":1994},{"station_id":"RU","time":6,"i_lat":-6.314823,"station_name":"Rawa Buntu","line":6,"is_transit":false,"transit":false,"distance":4566,"i_long":106.675475},{"station_name":"Serpong","i_long":106.66566,"line":6,"is_transit":false,"time":4,"i_lat":-6.319871,"station_id":"SRP","distance":2413,"transit":false},{"transit":false,"line":3,"time":4,"distance":1784,"is_transit":false,"station_id":"CSK","i_lat":-6.32484,"station_name":"Cisauk","i_long":106.640411},{"line":3,"distance":2519,"is_transit":false,"i_lat":-6.329547,"station_id":"CC","i_long":106.617853,"time":4,"transit":false,"station_name":"Cicayur"},{"station_name":"Parung Panjang","transit":false,"time":8,"is_transit":false,"distance":5968,"i_long":106.568863,"line":6,"i_lat":-6.3441410000000005,"station_id":"PRP"},{"station_id":"CJT","time":9,"station_name":"Cilejit","distance":7025,"transit":false,"i_lat":-6.354349,"is_transit":false,"line":3,"i_long":106.508482},{"i_lat":-6.338021,"line":0,"distance":2675,"i_long":106.491338,"transit":false,"station_name":"Daru","is_transit":false,"time":6,"station_id":"DAR"}],[{"is_transit":false,"station_id":"JNG","transit":false,"i_long":106.86807400000001,"station_name":"Jatinegara","line":1,"time":0,"distance":0,"i_lat":-6.215091},{"station_name":"Pondok Jati","i_long":106.861737,"transit":false,"line":11,"station_id":"POK","is_transit":false,"time":2,"i_lat":-6.209188,"distance":1236},{"distance":1829,"i_lat":-6.193792,"time":2,"station_id":"KMT","transit":false,"line":11,"is_transit":false,"station_name":"Kramat","i_long":106.855437},{"i_long":106.850107,"station_name":"Gang Sentiong","transit":false,"station_id":"GST","i_lat":-6.185975,"time":1,"distance":973,"line":11,"is_transit":false},{"i_long":106.84368,"i_lat":-6.174784,"transit":false,"station_name":"Pasar Senen","is_transit":false,"station_id":"PSE","distance":1567,"time":8,"line":11},{"time":4,"i_lat":-6.161728,"transit":false,"distance":1436,"station_id":"KMO","is_transit":false,"i_long":106.839204,"line":11,"station_name":"Kemayoran"},{"line":11,"is_transit":false,"time":5,"station_name":"Rajawali","distance":1901,"station_id":"RJW","transit":false,"i_lat":-6.14505,"i_long":106.836569},{"is_transit":true,"station_id":"KPB","i_lat":-6.132549,"i_long":106.826365,"station_name":"Kampung Bandan","time":3,"transit":true,"line":4,"distance":1444},{"i_long":106.812439,"transit":true,"is_transit":true,"time":3,"station_id":"JAKK","station_name":"Jakarta Kota","i_lat":-6.137569,"line":2,"distance":1364},{"is_transit":false,"transit":false,"i_long":106.820901,"time":4,"station_id":"JAY","station_name":"Jayakarta","i_lat":-6.141205,"line":2,"distance":1264},{"is_transit":false,"i_lat":-6.149769,"station_name":"Manggabesar","time":2,"distance":1080,"station_id":"MGB","transit":false,"i_long":106.82482,"line":2},{"transit":false,"is_transit":false,"i_lat":-6.160725,"station_id":"SW","distance":906,"i_long":106.827103,"time":2,"station_name":"Sawah Besar","line":2},{"station_name":"Juanda","line":2,"i_long":106.828284,"is_transit":false,"i_lat":-6.166716,"time":2,"distance":1149,"transit":false,"station_id":"JUA"},{"transit":false,"station_name":"Gondangdia","time":4,"distance":2015,"i_lat":-6.186295,"is_transit":false,"i_long":106.832183,"station_id":"GDD","line":2},{"distance":1750,"station_id":"CKI","i_lat":-6.198556,"i_long":106.840169,"is_transit":false,"line":2,"station_name":"Cikini","time":3,"transit":false},{"transit":true,"station_id":"MRI","station_name":"Manggarai","line":2,"time":4,"distance":1590,"is_transit":true,"i_lat":-6.209883,"i_long":106.84912},{"station_name":"Sudirman","line":1,"station_id":"SUD","i_long":106.822649,"transit":false,"time":4,"is_transit":false,"distance":3186,"i_lat":-6.202263},{"i_long":106.819881,"is_transit":false,"line":1,"distance":280,"station_name":"Sudirman Baru","station_id":"SUDB","time":1,"i_lat":-6.201433,"transit":false},{"station_name":"Karet","time":1,"distance":471,"station_id":"KAT","transit":false,"i_long":106.816351,"is_transit":false,"line":1,"i_lat":-6.20132},{"distance":2029,"is_transit":true,"station_id":"THB","transit":true,"station_name":"Tanah Abang","time":5,"i_lat":-6.185545,"i_long":106.811091,"line":1},{"i_lat":-6.207404,"station_name":"Palmerah","distance":3191,"i_long":106.79689,"transit":false,"line":6,"time":6,"is_transit":false,"station_id":"PLM"},{"time":7,"is_transit":false,"i_lat":-6.237242,"station_name":"Kebayoran","distance":3737,"line":6,"transit":false,"station_id":"KBY","i_long":106.780334},{"station_name":"Pondokranji","i_long":106.74273,"time":8,"transit":false,"station_id":"PDJ","is_transit":false,"line":6,"distance":6218,"i_lat":-6.276362},{"station_name":"Jurangmangu","i_lat":-6.288927,"is_transit":false,"time":3,"station_id":"JMU","i_long":106.728916,"line":6,"distance":2179,"transit":false},{"time":4,"line":6,"station_name":"Sudimara","distance":1994,"transit":false,"station_id":"SDM","i_lat":-6.296963,"i_long":106.712277,"is_transit":false},{"time":6,"i_lat":-6.314823,"i_long":106.675475,"distance":4566,"is_transit":false,"line":6,"station_name":"Rawa Buntu","transit":false,"station_id":"RU"},{"i_long":106.66566,"station_id":"SRP","transit":false,"time":4,"is_transit":false,"line":6,"i_lat":-6.319871,"station_name":"Serpong","distance":2413},{"i_long":106.640411,"line":3,"station_name":"Cisauk","distance":1784,"i_lat":-6.32484,"is_transit":false,"station_id":"CSK","time":4,"transit":false},{"station_name":"Cicayur","is_transit":false,"line":3,"transit":false,"time":4,"i_long":106.617853,"distance":2519,"i_lat":-6.329547,"station_id":"CC"},{"i_lat":-6.3441410000000005,"line":6,"i_long":106.568863,"station_name":"Parung Panjang","time":8,"station_id":"PRP","transit":false,"is_transit":false,"distance":5968},{"transit":false,"station_name":"Cilejit","line":3,"i_long":106.508482,"station_id":"CJT","distance":7025,"is_transit":false,"time":9,"i_lat":-6.354349},{"time":6,"station_id":"DAR","i_long":106.491338,"is_transit":false,"i_lat":-6.338021,"transit":false,"distance":2675,"line":0,"station_name":"Daru"}]]}