{"data":[[{"station_name":"Jatinegara","time":0,"transit":false,"line":1,"is_transit":false,"station_id":"JNG","distance":0,"i_lat":-6.215091,"i_long":106.86807400000001},{"time":2,"line":1,"transit":false,"distance":1377,"station_id":"MTR","i_long":106.858896,"station_name":"Matraman","is_transit":false,"i_lat":-6.212485},{"station_id":"MRI","distance":1275,"station_name":"Manggarai","is_transit":false,"time":2,"i_lat":-6.209883,"transit":false,"i_long":106.84912,"line":2},{"is_transit":false,"transit":false,"i_lat":-6.202263,"distance":3186,"time":4,"station_name":"Sudirman","station_id":"SUD","line":1,"i_long":106.822649},{"i_long":106.819881,"line":1,"station_id":"SUDB","transit":false,"i_lat":-6.201433,"is_transit":false,"station_name":"Sudirman Baru","time":1,"distance":280},{"station_name":"Karet","time":1,"transit":false,"is_transit":false,"line":1,"i_lat":-6.20132,"i_long":106.816351,"distance":471,"station_id":"KAT"},{"is_transit":true,"station_name":"Tanah Abang","transit":true,"time":5,"line":1,"i_lat":-6.185545,"i_long":106.811091,"distance":2029,"station_id":"THB"},{"time":6,"station_name":"Palmerah","i_long":106.79689,"i_lat":-6.207404,"is_transit":false,"distance":3191,"station_id":"PLM","line":6,"transit":false},{"i_long":106.780334,"i_lat":-6.237242,"time":7,"transit":false,"line":6,"station_id":"KBY","is_transit":false,"station_name":"Kebayoran","distance":3737},{"i_long":106.74273,"transit":false,"line":6,"distance":6218,"time":8,"station_name":"Pondokranji","station_id":"PDJ","i_lat":-6.276362,"is_transit":false},{"is_transit":false,"station_id":"JMU","i_lat":-6.288927,"station_name":"Jurangmangu","transit":false,"time":3,"line":6,"i_long":106.728916,"distance":2179},{"station_id":"SDM","is_transit":false,"station_name":"Sudimara","time":4,"line":6,"i_lat":-6.296963,"distance":1994,"i_long":106.712277,"transit":false},{"i_long":106.675475,"is_transit":false,"station_name":"Rawa Buntu","time":6,"station_id":"RU","transit":false,"distance":4566,"i_lat":-6.314823,"line":6},{"station_id":"SRP","is_transit":false,"i_lat":-6.319871,"station_name":"Serpong","i_long":106.66566,"distance":2413,"transit":false,"line":6,"time":4},{"i_long":106.640411,"line":3,"is_transit":false,"station_name":"Cisauk","time":4,"station_id":"CSK","transit":false,"distance":1784,"i_lat":-6.32484}],[{"time":0,"line":1,"station_name":"Jatinegara","is_transit":false,"distance":0,"i_lat":-6.215091,"transit":false,"i_long":106.86807400000001,"station_id":"JNG"},{"station_name":"Pondok Jati","transit":false,"i_lat":-6.209188,"distance":1236,"station_id":"POK","line":11,"is_transit":false,"time":2,"i_long":106.861737},{"station_id":"KMT","line":11,"distance":1829,"station_name":"Kramat","is_transit":false,"time":2,"transit":false,"i_lat":-6.193792,"i_long":106.855437},{"i_lat":-6.185975,"i_long":106.850107,"station_id":"GST","line":11,"is_transit":false,"station_name":"Gang Sentiong","time":1,"distance":973,"transit":false},{"distance":1567,"station_id":"PSE","i_lat":-6.174784,"i_long":106.84368,"station_name":"Pasar Senen","line":11,"transit":false,"is_transit":false,"time":8},{"is_transit":false,"transit":false,"distance":1436,"i_lat":-6.161728,"time":4,"station_name":"Kemayoran","i_long":106.839204,"station_id":"KMO","line":11},{"time":5,"transit":false,"is_transit":false,"station_id":"RJW","i_lat":-6.14505,"i_long":106.836569,"line":11,"distance":1901,"station_name":"Rajawali"},{"time":3,"distance":1444,"station_id":"KPB","i_long":106.826365,"line":4,"i_lat":-6.132549,"is_transit":true,"station_name":"Kampung Bandan","transit":true},{"time":9,"is_transit":false,"distance":4102,"i_lat":-6.144674,"station_name":"Angke","station_id":"AK","line":1,"i_long":106.79867,"transit":false},{"i_lat":-6.155215,"time":4,"transit":false,"line":1,"i_long":106.800832,"distance":1230,"station_id":"DU","station_name":"Duri","is_transit":false},{"i_long":106.811091,"station_name":"Tanah Abang","time":8,"station_id":"THB","transit":true,"distance":3632,"is_transit":true,"line":1,"i_lat":-6.185545},{"line":6,"is_transit":false,"time":6,"station_id":"PLM","distance":3191,"i_long":106.79689,"i_lat":-6.207404,"transit":false,"station_name":"Palmerah"},{"time":7,"is_transit":false,"line":6,"i_long":106.780334,"station_name":"Kebayoran","station_id":"KBY","transit":false,"distance":3737,"i_lat":-6.237242},{"transit":false,"line":6,"i_lat":-6.276362,"station_id":"PDJ","is_transit":false,"distance":6218,"time":8,"station_name":"Pondokranji","i_long":106.74273},{"is_transit":false,"transit":false,"station_name":"Jurangmangu","station_id":"JMU","time":3,"distance":2179,"i_long":106.728916,"line":6,"i_lat":-6.288927},{"i_lat":-6.296963,"station_name":"Sudimara","time":4,"transit":false,"distance":1994,"is_transit":false,"station_id":"SDM","line":6,"i_long":106.712277},{"station_id":"RU","line":6,"i_long":106.675475,"transit":false,"station_name":"Rawa Buntu","is_transit":false,"distance":4566,"i_lat":-6.314823,"time":6},{"station_name":"Serpong","transit":false,"distance":2413,"time":4,"i_lat":-6.319871,"is_transit":false,"i_long":106.66566,"station_id":"SRP","line":6},{"line":3,"i_lat":-6.32484,"station_id":"CSK","distance":1784,"transit":false,"is_transit":false,"station_name":"Cisauk","i_long":106.640411,"time":4}],[{"transit":false,"is_transit":false,"i_lat":-6.215091,"line":1,"distance":0,"station_id":"JNG","station_name":"Jatinegara","i_long":106.86807400000001,"time":0},{"is_transit":false,"distance":1377,"time":2,"transit":false,"station_id":"MTR","line":1,"i_lat":-6.212485,"station_name":"Matraman","i_long":106.858896},{"station_id":"MRI","line":2,"transit":true,"i_lat":-6.209883,"station_name":"Manggarai","distance":1275,"time":2,"i_long":106.84912,"is_transit":true},{"is_transit":false,"time":4,"i_long":106.840169,"station_id":"CKI","station_name":"Cikini","transit":false,"distance":1590,"i_lat":-6.198556,"line":2},{"i_lat":-6.186295,"time":3,"transit":false,"station_name":"Gondangdia","i_long":106.832183,"line":2,"is_transit":false,"distance":1750,"station_id":"GDD"},{"transit":false,"distance":2015,"time":4,"is_transit":false,"i_long":106.828284,"station_id":"JUA","station_name":"Juanda","i_lat":-6.166716,"line":2},{"distance":1149,"is_transit":false,"time":2,"line":2,"station_id":"SW","i_lat":-6.160725,"i_long":106.827103,"station_name":"Sawah Besar","transit":false},{"line":2,"transit":false,"station_id":"MGB","time":2,"i_lat":-6.149769,"station_name":"Manggabesar","i_long":106.82482,"distance":906,"is_transit":false},{"transit":false,"i_long":106.820901,"line":2,"station_name":"Jayakarta","time":2,"station_id":"JAY","i_lat":-6.141205,"is_transit":false,"distance":1080},{"is_transit":true,"i_lat":-6.137569,"transit":true,"time":4,"station_name":"Jakarta Kota","i_long":106.812439,"line":2,"station_id":"JAKK","distance":1264},{"i_lat":-6.132549,"i_long":106.826365,"line":4,"distance":1364,"time":3,"is_transit":true,"station_name":"Kampung Bandan","transit":true,"station_id":"KPB"},{"is_transit":false,"station_id":"AK","i_lat":-6.144674,"line":1,"i_long":106.79867,"time":9,"distance":4102,"station_name":"Angke","transit":false},{"i_lat":-6.155215,"transit":false,"station_id":"DU","station_name":"Duri","line":1,"distance":1230,"is_transit":false,"time":4,"i_long":106.800832},{"i_long":106.811091,"distance":3632,"time":8,"line":1,"transit":true,"station_name":"Tanah Abang","is_transit":true,"station_id":"THB","i_lat":-6.185545},{"line":6,"time":6,"i_long":106.79689,"distance":3191,"is_transit":false,"station_id":"PLM","station_name":"Palmerah","transit":false,"i_lat":-6.207404},{"i_lat":-6.237242,"distance":3737,"transit":false,"station_name":"Kebayoran","line":6,"station_id":"KBY","is_transit":false,"i_long":106.780334,"time":7},{"transit":false,"line":6,"distance":6218,"station_id":"PDJ","i_long":106.74273,"time":8,"is_transit":false,"station_name":"Pondokranji","i_lat":-6.276362},{"is_transit":false,"i_lat":-6.288927,"transit":false,"i_long":106.728916,"time":3,"distance":2179,"station_name":"Jurangmangu","station_id":"JMU","line":6},{"station_id":"SDM","transit":false,"time":4,"i_long":106.712277,"line":6,"station_name":"Sudimara","distance":1994,"is_transit":false,"i_lat":-6.296963},{"time":6,"i_long":106.675475,"is_transit":false,"station_id":"RU","i_lat":-6.314823,"line":6,"distance":4566,"station_name":"Rawa Buntu","transit":false},{"station_id":"SRP","i_long":106.66566,"is_transit":false,"line":6,"transit":false,"i_lat":-6.319871,"time":4,"distance":2413,"station_name":"Serpong"},{"station_id":"CSK","is_transit":false,"line":3,"station_name":"Cisauk","transit":false,"i_lat":-6.32484,"distance":1784,"i_long":106.640411,"time":4}],[{"i_long":106.86807400000001,"station_name":"Jatinegara","time":0,"is_transit":false,"distance":0,"i_lat":-6.215091,"station_id":"JNG","line":1,"transit":false},{"time":2,"transit":false,"line":11,"distance":1236,"station_id":"POK","is_transit":false,"station_name":"Pondok Jati","i_lat":-6.209188,"i_long":106.861737},{"i_lat":-6.193792,"distance":1829,"is_transit":false,"time":2,"transit":false,"line":11,"station_name":"Kramat","station_id":"KMT","i_long":106.855437},{"distance":973,"time":1,"station_name":"Gang Sentiong","i_long":106.850107,"station_id":"GST","i_lat":-6.185975,"transit":false,"is_transit":false,"line":11},{"i_lat":-6.174784,"station_id":"PSE","time":8,"i_long":106.84368,"station_name":"Pasar Senen","is_transit":false,"line":11,"distance":1567,"transit":false},{"i_lat":-6.161728,"station_id":"KMO","i_long":106.839204,"is_transit":false,"time":4,"distance":1436,"station_name":"Kemayoran","line":11,"transit":false},{"distance":1901,"transit":false,"time":5,"is_transit":false,"station_name":"Rajawali","i_long":106.836569,"station_id":"RJW","i_lat":-6.14505,"line":11},{"i_lat":-6.132549,"i_long":106.826365,"distance":1444,"transit":true,"line":4,"time":3,"station_id":"KPB","is_transit":true,"station_name":"Kampung Bandan"},{"station_name":"Jakarta Kota","i_lat":-6.137569,"time":3,"i_long":106.812439,"transit":true,"distance":1364,"line":2,"is_transit":true,"station_id":"JAKK"},{"distance":1264,"station_id":"JAY","is_transit":false,"station_name":"Jayakarta","i_long":106.820901,"transit":false,"time":4,"i_lat":-6.141205,"line":2},{"station_name":"Manggabesar","i_lat":-6.149769,"transit":false,"distance":1080,"station_id":"MGB","time":2,"is_transit":false,"i_long":106.82482,"line":2},{"i_lat":-6.160725,"station_id":"SW","station_name":"Sawah Besar","line":2,"distance":906,"time":2,"is_transit":false,"i_long":106.827103,"transit":false},{"is_transit":false,"i_long":106.828284,"station_id":"JUA","station_name":"Juanda","time":2,"i_lat":-6.166716,"transit":false,"distance":1149,"line":2},{"station_id":"GDD","distance":2015,"transit":false,"line":2,"time":4,"i_lat":-6.186295,"station_name":"Gondangdia","i_long":106.832183,"is_transit":false},{"distance":1750,"station_name":"Cikini","transit":false,"is_transit":false,"i_long":106.840169,"i_lat":-6.198556,"line":2,"time":3,"station_id":"CKI"},{"station_name":"Manggarai","line":2,"transit":true,"i_long":106.84912,"station_id":"MRI","time":4,"is_transit":true,"distance":1590,"i_lat":-6.209883},{"is_transit":false,"station_name":"Sudirman","distance":3186,"time":4,"i_lat":-6.202263,"line":1,"transit":false,"i_long":106.822649,"station_id":"SUD"},{"distance":280,"line":1,"station_id":"SUDB","is_transit":false,"transit":false,"station_name":"Sudirman Baru","i_long":106.819881,"time":1,"i_lat":-6.201433},{"is_transit":false,"station_id":"KAT","time":1,"station_name":"Karet","distance":471,"i_lat":-6.20132,"transit":false,"line":1,"i_long":106.816351},{"distance":2029,"transit":true,"station_name":"Tanah Abang","i_long":106.811091,"station_id":"THB","line":1,"is_transit":true,"time":5,"i_lat":-6.185545},{"line":6,"transit":false,"time":6,"i_long":106.79689,"i_lat":-6.207404,"distance":3191,"station_name":"Palmerah","station_id":"PLM","is_transit":false},{"station_name":"Kebayoran","station_id":"KBY","is_transit":false,"transit":false,"i_long":106.780334,"line":6,"i_lat":-6.237242,"distance":3737,"time":7},{"time":8,"station_name":"Pondokranji","i_lat":-6.276362,"i_long":106.74273,"distance":6218,"station_id":"PDJ","is_transit":false,"transit":false,"line":6},{"station_name":"Jurangmangu","i_long":106.728916,"time":3,"line":6,"is_transit":false,"distance":2179,"transit":false,"i_lat":-6.288927,"station_id":"JMU"},{"distance":1994,"is_transit":false,"transit":false,"time":4,"i_lat":-6.296963,"station_name":"Sudimara","i_long":106.712277,"line":6,"station_id":"SDM"},{"transit":false,"distance":4566,"line":6,"station_id":"RU","i_lat":-6.314823,"i_long":106.675475,"time":6,"station_name":"Rawa Buntu","is_transit":false},{"line":6,"time":4,"station_id":"SRP","station_name":"Serpong","transit":false,"i_long":106.66566,"i_lat":-6.319871,"distance":2413,"is_transit":false},{"station_name":"Cisauk","transit":false,"distance":1784,"time":4,"i_lat":-6.32484,"i_long":106.640411,"station_id":"CSK","is_transit":false,"line":3}]]}