{"data":[[{"transit":false,"i_lat":-6.215091,"line":1,"i_long":106.86807400000001,"distance":0,"time":0,"station_id":"JNG","station_name":"Jatinegara","is_transit":false},{"station_name":"Matraman","transit":false,"i_lat":-6.212485,"time":2,"distance":1377,"station_id":"MTR","is_transit":false,"line":1,"i_long":106.858896},{"station_id":"MRI","line":2,"is_transit":false,"time":2,"distance":1275,"i_lat":-6.209883,"i_long":106.84912,"station_name":"Manggarai","transit":false}],[{"station_name":"Jatinegara","i_long":106.86807400000001,"line":1,"time":0,"is_transit":false,"distance":0,"station_id":"JNG","i_lat":-6.215091,"transit":false},{"transit":false,"time":2,"station_id":"POK","distance":1236,"is_transit":false,"i_lat":-6.209188,"line":11,"station_name":"Pondok Jati","i_long":106.861737},{"is_transit":false,"i_long":106.855437,"line":11,"station_name":"Kramat","transit":false,"station_id":"KMT","distance":1829,"i_lat":-6.193792,"time":2},{"distance":973,"is_transit":false,"line":11,"i_lat":-6.185975,"time":1,"station_name":"Gang Sentiong","i_long":106.850107,"station_id":"GST","transit":false},{"i_lat":-6.174784,"station_id":"PSE","is_transit":false,"time":8,"distance":1567,"station_name":"Pasar Senen","transit":false,"i_long":106.84368,"line":11},{"station_id":"KMO","transit":false,"station_name":"Kemayoran","i_long":106.839204,"i_lat":-6.161728,"line":11,"is_transit":false,"time":4,"distance":1436},{"transit":false,"i_lat":-6.14505,"station_id":"RJW","line":11,"time":5,"distance":1901,"is_transit":false,"i_long":106.836569,"station_name":"Rajawali"},{"station_name":"Kampung Bandan","i_lat":-6.132549,"transit":true,"time":3,"i_long":106.826365,"is_transit":true,"line":4,"distance":1444,"station_id":"KPB"},{"transit":false,"i_lat":-6.144674,"station_name":"Angke","time":9,"i_long":106.79867,"station_id":"AK","distance":4102,"is_transit":false,"line":1},{"station_id":"DU","is_transit":false,"station_name":"Duri","distance":1230,"transit":false,"time":4,"line":1,"i_long":106.800832,"i_lat":-6.155215},{"distance":3632,"line":1,"time":8,"transit":false,"is_transit":false,"station_name":"Tanah Abang","i_long":106.811091,"i_lat":-6.185545,"station_id":"THB"},{"transit":false,"station_id":"KAT","i_lat":-6.20132,"line":1,"is_transit":false,"time":5,"i_long":106.816351,"distance":2029,"station_name":"Karet"},{"station_id":"SUDB","distance":471,"station_name":"Sudirman Baru","i_long":106.819881,"line":1,"is_transit":false,"i_lat":-6.201433,"transit":false,"time":1},{"i_long":106.822649,"transit":false,"time":1,"station_id":"SUD","distance":280,"station_name":"Sudirman","is_transit":false,"i_lat":-6.202263,"line":1},{"station_name":"Manggarai","station_id":"MRI","is_transit":false,"transit":false,"i_lat":-6.209883,"i_long":106.84912,"line":2,"time":4,"distance":3186}],[{"distance":0,"is_transit":false,"station_id":"JNG","transit":false,"i_lat":-6.215091,"i_long":106.86807400000001,"station_name":"Jatinegara","time":0,"line":1},{"station_name":"Pondok Jati","line":11,"time":2,"is_transit":false,"transit":false,"i_long":106.861737,"distance":1236,"station_id":"POK","i_lat":-6.209188},{"time":2,"transit":false,"i_lat":-6.193792,"station_id":"KMT","line":11,"distance":1829,"is_transit":false,"station_name":"Kramat","i_long":106.855437},{"is_transit":false,"station_id":"GST","station_name":"Gang Sentiong","i_long":106.850107,"transit":false,"distance":973,"time":1,"i_lat":-6.185975,"line":11},{"distance":1567,"station_id":"PSE","time":8,"i_lat":-6.174784,"i_long":106.84368,"station_name":"Pasar Senen","is_transit":false,"transit":false,"line":11},{"time":4,"distance":1436,"station_id":"KMO","transit":false,"station_name":"Kemayoran","line":11,"is_transit":false,"i_lat":-6.161728,"i_long":106.839204},{"distance":1901,"station_id":"RJW","transit":false,"line":11,"is_transit":false,"i_lat":-6.14505,"i_long":106.836569,"station_name":"Rajawali","time":5},{"distance":1444,"is_transit":true,"line":4,"time":3,"station_id":"KPB","station_name":"Kampung Bandan","transit":true,"i_lat":-6.132549,"i_long":106.826365},{"i_long":106.812439,"i_lat":-6.137569,"distance":1364,"time":3,"station_name":"Jakarta Kota","line":2,"station_id":"JAKK","is_transit":true,"transit":true},{"is_transit":false,"time":4,"station_id":"JAY","transit":false,"line":2,"distance":1264,"station_name":"Jayakarta","i_long":106.820901,"i_lat":-6.141205},{"station_id":"MGB","line":2,"is_transit":false,"transit":false,"i_long":106.82482,"time":2,"i_lat":-6.149769,"station_name":"Manggabesar","distance":1080},{"transit":false,"i_long":106.827103,"line":2,"station_id":"SW","distance":906,"is_transit":false,"time":2,"station_name":"Sawah Besar","i_lat":-6.160725},{"distance":1149,"station_name":"Juanda","is_transit":false,"i_lat":-6.166716,"i_long":106.828284,"line":2,"time":2,"station_id":"JUA","transit":false},{"distance":2015,"time":4,"station_name":"Gondangdia","station_id":"GDD","is_transit":false,"transit":false,"line":2,"i_lat":-6.186295,"i_long":106.832183},{"i_long":106.840169,"station_name":"Cikini","distance":1750,"transit":false,"line":2,"time":3,"station_id":"CKI","is_transit":false,"i_lat":-6.198556},{"is_transit":false,"time":4,"station_name":"Manggarai","station_id":"MRI","i_long":106.84912,"i_lat":-6.209883,"distance":1590,"line":2,"transit":false}]]}