{"data":[[{"line":1,"station_id":"JNG","time":0,"distance":0,"transit":false,"i_lat":-6.215091,"is_transit":false,"i_long":106.86807400000001,"station_name":"Jatinegara"},{"transit":false,"time":2,"distance":1377,"line":1,"station_name":"Matraman","station_id":"MTR","i_lat":-6.212485,"i_long":106.858896,"is_transit":false},{"i_lat":-6.209883,"time":2,"i_long":106.84912,"transit":false,"station_name":"Manggarai","distance":1275,"line":2,"is_transit":false,"station_id":"MRI"}],[{"distance":0,"line":1,"station_name":"Jatinegara","time":0,"is_transit":false,"i_lat":-6.215091,"station_id":"JNG","transit":false,"i_long":106.86807400000001},{"station_name":"Pondok Jati","i_lat":-6.209188,"line":11,"is_transit":false,"station_id":"POK","distance":1236,"time":2,"i_long":106.861737,"transit":false},{"is_transit":false,"i_lat":-6.193792,"station_id":"KMT","line":11,"distance":1829,"transit":false,"time":2,"station_name":"Kramat","i_long":106.855437},{"i_long":106.850107,"time":1,"distance":973,"transit":false,"station_id":"GST","is_transit":false,"station_name":"Gang Sentiong","i_lat":-6.185975,"line":11},{"station_name":"Pasar Senen","distance":1567,"is_transit":false,"i_lat":-6.174784,"i_long":106.84368,"transit":false,"station_id":"PSE","time":8,"line":11},{"station_name":"Kemayoran","i_long":106.839204,"is_transit":false,"i_lat":-6.161728,"time":4,"transit":false,"line":11,"distance":1436,"station_id":"KMO"},{"line":11,"distance":1901,"time":5,"transit":false,"station_name":"Rajawali","i_long":106.836569,"is_transit":false,"station_id":"RJW","i_lat":-6.14505},{"distance":1444,"i_lat":-6.132549,"is_transit":true,"time":3,"transit":true,"i_long":106.826365,"line":4,"station_id":"KPB","station_name":"Kampung Bandan"},{"line":1,"is_transit":false,"station_name":"Angke","time":9,"transit":false,"i_lat":-6.144674,"station_id":"AK","i_long":106.79867,"distance":4102},{"i_lat":-6.155215,"is_transit":false,"i_long":106.800832,"line":1,"distance":1230,"station_id":"DU","time":4,"station_name":"Duri","transit":false},{"is_transit":false,"station_name":"Tanah Abang","station_id":"THB","time":8,"i_lat":-6.185545,"line":1,"transit":false,"i_long":106.811091,"distance":3632},{"is_transit":false,"time":5,"distance":2029,"i_lat":-6.20132,"transit":false,"i_long":106.816351,"line":1,"station_name":"Karet","station_id":"KAT"},{"station_id":"SUDB","is_transit":false,"i_lat":-6.201433,"transit":false,"station_name":"Sudirman Baru","i_long":106.819881,"time":1,"distance":471,"line":1},{"distance":280,"i_long":106.822649,"line":1,"time":1,"is_transit":false,"station_name":"Sudirman","transit":false,"i_lat":-6.202263,"station_id":"SUD"},{"i_long":106.84912,"line":2,"i_lat":-6.209883,"station_name":"Manggarai","distance":3186,"transit":false,"station_id":"MRI","is_transit":false,"time":4}],[{"is_transit":false,"station_id":"JNG","i_long":106.86807400000001,"line":1,"transit":false,"distance":0,"station_name":"Jatinegara","i_lat":-6.215091,"time":0},{"line":11,"distance":1236,"i_lat":-6.209188,"is_transit":false,"station_name":"Pondok Jati","i_long":106.861737,"time":2,"transit":false,"station_id":"POK"},{"line":11,"time":2,"transit":false,"station_id":"KMT","station_name":"Kramat","is_transit":false,"distance":1829,"i_lat":-6.193792,"i_long":106.855437},{"distance":973,"line":11,"station_id":"GST","transit":false,"i_lat":-6.185975,"i_long":106.850107,"station_name":"Gang Sentiong","is_transit":false,"time":1},{"i_lat":-6.174784,"is_transit":false,"station_name":"Pasar Senen","i_long":106.84368,"transit":false,"line":11,"distance":1567,"time":8,"station_id":"PSE"},{"station_id":"KMO","transit":false,"time":4,"distance":1436,"is_transit":false,"i_lat":-6.161728,"i_long":106.839204,"station_name":"Kemayoran","line":11},{"is_transit":false,"station_name":"Rajawali","station_id":"RJW","time":5,"i_long":106.836569,"line":11,"i_lat":-6.14505,"transit":false,"distance":1901},{"line":4,"transit":true,"station_name":"Kampung Bandan","time":3,"is_transit":true,"distance":1444,"station_id":"KPB","i_long":106.826365,"i_lat":-6.132549},{"is_transit":true,"station_name":"Jakarta Kota","station_id":"JAKK","time":3,"line":2,"i_lat":-6.137569,"transit":true,"distance":1364,"i_long":106.812439},{"station_id":"JAY","i_lat":-6.141205,"i_long":106.820901,"is_transit":false,"distance":1264,"transit":false,"station_name":"Jayakarta","time":4,"line":2},{"station_id":"MGB","i_long":106.82482,"time":2,"distance":1080,"is_transit":false,"station_name":"Manggabesar","i_lat":-6.149769,"transit":false,"line":2},{"transit":false,"i_lat":-6.160725,"is_transit":false,"i_long":106.827103,"line":2,"station_id":"SW","distance":906,"time":2,"station_name":"Sawah Besar"},{"is_transit":false,"i_lat":-6.166716,"time":2,"station_id":"JUA","station_name":"Juanda","line":2,"distance":1149,"transit":false,"i_long":106.828284},{"is_transit":false,"i_long":106.832183,"line":2,"i_lat":-6.186295,"distance":2015,"transit":false,"station_id":"GDD","station_name":"Gondangdia","time":4},{"station_name":"Cikini","i_long":106.840169,"line":2,"transit":false,"station_id":"CKI","i_lat":-6.198556,"is_transit":false,"distance":1750,"time":3},{"is_transit":false,"i_long":106.84912,"line":2,"station_name":"Manggarai","transit":false,"i_lat":-6.209883,"time":4,"station_id":"MRI","distance":1590}]]}