{"data":[[{"is_transit":false,"transit":false,"time":0,"station_name":"Jatinegara","distance":0,"station_id":"JNG","i_lat":-6.215091,"i_long":106.86807400000001,"line":1},{"transit":false,"distance":1377,"is_transit":false,"station_id":"MTR","i_long":106.858896,"i_lat":-6.212485,"line":1,"station_name":"Matraman","time":2},{"station_name":"Manggarai","transit":false,"is_transit":false,"time":2,"station_id":"MRI","line":2,"i_lat":-6.209883,"distance":1275,"i_long":106.84912},{"distance":3186,"station_name":"Sudirman","station_id":"SUD","line":1,"transit":false,"is_transit":false,"i_lat":-6.202263,"time":4,"i_long":106.822649},{"is_transit":false,"distance":280,"station_id":"SUDB","transit":false,"station_name":"Sudirman Baru","line":1,"i_long":106.819881,"i_lat":-6.201433,"time":1},{"station_id":"KAT","time":1,"distance":471,"is_transit":false,"i_lat":-6.20132,"i_long":106.816351,"station_name":"Karet","transit":false,"line":1},{"i_long":106.811091,"transit":true,"is_transit":true,"line":1,"station_id":"THB","i_lat":-6.185545,"distance":2029,"time":5,"station_name":"Tanah Abang"},{"transit":false,"distance":3191,"station_name":"Palmerah","is_transit":false,"i_long":106.79689,"station_id":"PLM","time":6,"line":6,"i_lat":-6.207404}],[{"transit":false,"station_id":"JNG","i_lat":-6.215091,"time":0,"line":1,"station_name":"Jatinegara","i_long":106.86807400000001,"is_transit":false,"distance":0},{"i_lat":-6.209188,"station_name":"Pondok Jati","time":2,"line":11,"i_long":106.861737,"distance":1236,"transit":false,"is_transit":false,"station_id":"POK"},{"is_transit":false,"time":2,"line":11,"station_name":"Kramat","i_lat":-6.193792,"distance":1829,"i_long":106.855437,"transit":false,"station_id":"KMT"},{"transit":false,"time":1,"is_transit":false,"i_lat":-6.185975,"distance":973,"station_name":"Gang Sentiong","station_id":"GST","i_long":106.850107,"line":11},{"distance":1567,"transit":false,"i_lat":-6.174784,"station_name":"Pasar Senen","time":8,"station_id":"PSE","is_transit":false,"line":11,"i_long":106.84368},{"i_long":106.839204,"is_transit":false,"time":4,"station_id":"KMO","i_lat":-6.161728,"distance":1436,"line":11,"station_name":"Kemayoran","transit":false},{"i_lat":-6.14505,"station_name":"Rajawali","is_transit":false,"time":5,"transit":false,"distance":1901,"i_long":106.836569,"line":11,"station_id":"RJW"},{"time":3,"i_lat":-6.132549,"distance":1444,"transit":true,"station_id":"KPB","station_name":"Kampung Bandan","i_long":106.826365,"is_transit":true,"line":4},{"station_name":"Angke","time":9,"station_id":"AK","i_long":106.79867,"distance":4102,"transit":false,"i_lat":-6.144674,"line":1,"is_transit":false},{"transit":false,"station_id":"DU","time":4,"distance":1230,"i_long":106.800832,"station_name":"Duri","i_lat":-6.155215,"is_transit":false,"line":1},{"transit":true,"time":8,"i_long":106.811091,"station_id":"THB","station_name":"Tanah Abang","line":1,"is_transit":true,"distance":3632,"i_lat":-6.185545},{"station_name":"Palmerah","is_transit":false,"time":6,"i_lat":-6.207404,"transit":false,"i_long":106.79689,"distance":3191,"station_id":"PLM","line":6}],[{"station_id":"JNG","line":1,"i_lat":-6.215091,"i_long":106.86807400000001,"station_name":"Jatinegara","transit":false,"is_transit":false,"time":0,"distance":0},{"line":1,"station_id":"MTR","station_name":"Matraman","distance":1377,"i_lat":-6.212485,"time":2,"is_transit":false,"i_long":106.858896,"transit":false},{"line":2,"transit":true,"station_id":"MRI","time":2,"distance":1275,"i_lat":-6.209883,"station_name":"Manggarai","i_long":106.84912,"is_transit":true},{"time":4,"station_id":"CKI","i_long":106.840169,"is_transit":false,"transit":false,"line":2,"distance":1590,"i_lat":-6.198556,"station_name":"Cikini"},{"station_id":"GDD","i_long":106.832183,"station_name":"Gondangdia","i_lat":-6.186295,"time":3,"distance":1750,"transit":false,"line":2,"is_transit":false},{"is_transit":false,"transit":false,"time":4,"i_long":106.828284,"station_name":"Juanda","station_id":"JUA","i_lat":-6.166716,"line":2,"distance":2015},{"station_name":"Sawah Besar","i_lat":-6.160725,"line":2,"is_transit":false,"station_id":"SW","i_long":106.827103,"time":2,"transit":false,"distance":1149},{"i_long":106.82482,"station_id":"MGB","transit":false,"station_name":"Manggabesar","time":2,"is_transit":false,"distance":906,"i_lat":-6.149769,"line":2},{"is_transit":false,"transit":false,"distance":1080,"line":2,"time":2,"station_id":"JAY","i_lat":-6.141205,"i_long":106.820901,"station_name":"Jayakarta"},{"time":4,"distance":1264,"station_name":"Jakarta Kota","i_long":106.812439,"station_id":"JAKK","i_lat":-6.137569,"transit":true,"is_transit":true,"line":2},{"is_transit":true,"station_id":"KPB","i_long":106.826365,"transit":true,"station_name":"Kampung Bandan","i_lat":-6.132549,"line":4,"time":3,"distance":1364},{"station_id":"AK","station_name":"Angke","time":9,"distance":4102,"is_transit":false,"transit":false,"i_long":106.79867,"i_lat":-6.144674,"line":1},{"time":4,"station_name":"Duri","station_id":"DU","is_transit":false,"i_lat":-6.155215,"i_long":106.800832,"line":1,"distance":1230,"transit":false},{"transit":true,"station_id":"THB","is_transit":true,"time":8,"distance":3632,"i_lat":-6.185545,"i_long":106.811091,"station_name":"Tanah Abang","line":1},{"line":6,"is_transit":false,"station_id":"PLM","i_lat":-6.207404,"i_long":106.79689,"transit":false,"distance":3191,"station_name":"Palmerah","time":6}],[{"station_id":"JNG","i_long":106.86807400000001,"station_name":"Jatinegara","i_lat":-6.215091,"distance":0,"is_transit":false,"time":0,"transit":false,"line":1},{"is_transit":false,"i_lat":-6.209188,"distance":1236,"line":11,"time":2,"station_id":"POK","i_long":106.861737,"transit":false,"station_name":"Pondok Jati"},{"line":11,"is_transit":false,"distance":1829,"time":2,"transit":false,"station_id":"KMT","station_name":"Kramat","i_long":106.855437,"i_lat":-6.193792},{"i_long":106.850107,"transit":false,"line":11,"station_id":"GST","distance":973,"station_name":"Gang Sentiong","is_transit":false,"time":1,"i_lat":-6.185975},{"time":8,"transit":false,"i_lat":-6.174784,"station_name":"Pasar Senen","station_id":"PSE","distance":1567,"is_transit":false,"line":11,"i_long":106.84368},{"is_transit":false,"transit":false,"distance":1436,"time":4,"i_long":106.839204,"i_lat":-6.161728,"line":11,"station_name":"Kemayoran","station_id":"KMO"},{"is_transit":false,"time":5,"i_lat":-6.14505,"i_long":106.836569,"line":11,"distance":1901,"station_id":"RJW","station_name":"Rajawali","transit":false},{"station_id":"KPB","distance":1444,"i_long":106.826365,"line":4,"time":3,"is_transit":true,"transit":true,"i_lat":-6.132549,"station_name":"Kampung Bandan"},{"transit":true,"station_id":"JAKK","i_long":106.812439,"i_lat":-6.137569,"is_transit":true,"line":2,"time":3,"distance":1364,"station_name":"Jakarta Kota"},{"i_lat":-6.141205,"station_id":"JAY","station_name":"Jayakarta","time":4,"transit":false,"is_transit":false,"distance":1264,"i_long":106.820901,"line":2},{"line":2,"station_name":"Manggabesar","transit":false,"distance":1080,"is_transit":false,"i_lat":-6.149769,"time":2,"i_long":106.82482,"station_id":"MGB"},{"transit":false,"is_transit":false,"distance":906,"i_lat":-6.160725,"i_long":106.827103,"station_id":"SW","line":2,"time":2,"station_name":"Sawah Besar"},{"distance":1149,"i_lat":-6.166716,"transit":false,"station_name":"Juanda","station_id":"JUA","i_long":106.828284,"line":2,"time":2,"is_transit":false},{"i_long":106.832183,"line":2,"time":4,"station_name":"Gondangdia","transit":false,"station_id":"GDD","distance":2015,"is_transit":false,"i_lat":-6.186295},{"station_id":"CKI","i_lat":-6.198556,"station_name":"Cikini","transit":false,"is_transit":false,"line":2,"time":3,"distance":1750,"i_long":106.840169},{"station_name":"Manggarai","station_id":"MRI","i_lat":-6.209883,"time":4,"distance":1590,"line":2,"i_long":106.84912,"transit":true,"is_transit":true},{"station_name":"Sudirman","time":4,"line":1,"is_transit":false,"station_id":"SUD","i_lat":-6.202263,"i_long":106.822649,"distance":3186,"transit":false},{"line":1,"time":1,"distance":280,"i_long":106.819881,"station_name":"Sudirman Baru","i_lat":-6.201433,"station_id":"SUDB","transit":false,"is_transit":false},{"station_name":"Karet","i_long":106.816351,"station_id":"KAT","is_transit":false,"time":1,"distance":471,"transit":false,"i_lat":-6.20132,"line":1},{"is_transit":true,"i_lat":-6.185545,"line":1,"station_id":"THB","i_long":106.811091,"distance":2029,"transit":true,"station_name":"Tanah Abang","time":5},{"i_long":106.79689,"station_name":"Palmerah","distance":3191,"time":6,"is_transit":false,"i_lat":-6.207404,"station_id":"PLM","line":6,"transit":false}]]}