{"data":[[{"line":1,"station_id":"JNG","distance":0,"time":0,"transit":false,"is_transit":false,"i_lat":-6.215091,"station_name":"Jatinegara","i_long":106.86807400000001},{"station_id":"MTR","is_transit":false,"line":1,"station_name":"Matraman","time":2,"i_long":106.858896,"distance":1377,"i_lat":-6.212485,"transit":false},{"i_lat":-6.209883,"i_long":106.84912,"station_id":"MRI","line":2,"time":2,"is_transit":false,"station_name":"Manggarai","transit":false,"distance":1275},{"time":4,"distance":3186,"station_name":"Sudirman","transit":false,"i_lat":-6.202263,"station_id":"SUD","is_transit":false,"i_long":106.822649,"line":1},{"transit":false,"is_transit":false,"i_long":106.819881,"station_name":"Sudirman Baru","time":1,"distance":280,"station_id":"SUDB","i_lat":-6.201433,"line":1},{"transit":false,"is_transit":false,"i_lat":-6.20132,"line":1,"i_long":106.816351,"distance":471,"time":1,"station_id":"KAT","station_name":"Karet"},{"distance":2029,"i_lat":-6.185545,"time":5,"transit":true,"line":1,"station_name":"Tanah Abang","i_long":106.811091,"is_transit":true,"station_id":"THB"},{"i_lat":-6.207404,"station_name":"Palmerah","time":6,"distance":3191,"line":6,"transit":false,"is_transit":false,"i_long":106.79689,"station_id":"PLM"},{"station_id":"KBY","time":7,"distance":3737,"i_long":106.780334,"line":6,"transit":false,"is_transit":false,"station_name":"Kebayoran","i_lat":-6.237242},{"line":6,"station_name":"Pondokranji","is_transit":false,"time":8,"distance":6218,"transit":false,"i_lat":-6.276362,"i_long":106.74273,"station_id":"PDJ"},{"is_transit":false,"station_name":"Jurangmangu","station_id":"JMU","i_lat":-6.288927,"i_long":106.728916,"line":6,"distance":2179,"transit":false,"time":3},{"line":6,"station_name":"Sudimara","transit":false,"i_long":106.712277,"time":4,"is_transit":false,"station_id":"SDM","distance":1994,"i_lat":-6.296963},{"i_lat":-6.314823,"station_name":"Rawa Buntu","station_id":"RU","line":6,"transit":false,"i_long":106.675475,"is_transit":false,"distance":4566,"time":6},{"line":6,"i_long":106.66566,"station_id":"SRP","distance":2413,"station_name":"Serpong","time":4,"transit":false,"i_lat":-6.319871,"is_transit":false},{"time":4,"i_lat":-6.32484,"station_name":"Cisauk","transit":false,"is_transit":false,"station_id":"CSK","i_long":106.640411,"distance":1784,"line":3},{"is_transit":false,"station_id":"CC","i_lat":-6.329547,"distance":2519,"station_name":"Cicayur","time":4,"i_long":106.617853,"line":3,"transit":false},{"time":8,"station_id":"PRP","i_long":106.568863,"line":6,"is_transit":false,"transit":false,"distance":5968,"station_name":"Parung Panjang","i_lat":-6.3441410000000005},{"is_transit":false,"station_id":"CJT","time":9,"transit":false,"station_name":"Cilejit","distance":7025,"i_long":106.508482,"i_lat":-6.354349,"line":3},{"station_id":"DAR","distance":2675,"station_name":"Daru","transit":false,"i_lat":-6.338021,"i_long":106.491338,"line":0,"time":6,"is_transit":false},{"time":5,"distance":3902,"station_name":"Tenjo","line":6,"station_id":"TEJ","transit":false,"i_lat":-6.327251,"is_transit":false,"i_long":106.460812},{"is_transit":false,"line":6,"time":5,"distance":2974,"station_name":"Tigaraksa","transit":false,"i_lat":-6.328533,"i_long":106.425991,"station_id":"TGS"},{"transit":false,"time":3,"i_lat":-6.33561,"i_long":106.411216,"station_name":"Cikoya","line":3,"station_id":"CKY","distance":2651,"is_transit":false},{"station_name":"Maja","i_long":106.394373,"is_transit":false,"transit":false,"i_lat":-6.332307,"station_id":"MJ","distance":1853,"time":4,"line":6},{"time":10,"transit":false,"is_transit":false,"station_id":"CTR","line":3,"distance":7293,"station_name":"Citeras","i_long":106.332092,"i_lat":-6.334892}],[{"station_id":"JNG","transit":false,"distance":0,"i_long":106.86807400000001,"is_transit":false,"line":1,"station_name":"Jatinegara","time":0,"i_lat":-6.215091},{"line":11,"is_transit":false,"station_id":"POK","distance":1236,"i_lat":-6.209188,"station_name":"Pondok Jati","time":2,"transit":false,"i_long":106.861737},{"is_transit":false,"time":2,"i_lat":-6.193792,"i_long":106.855437,"station_name":"Kramat","transit":false,"distance":1829,"line":11,"station_id":"KMT"},{"transit":false,"i_long":106.850107,"station_name":"Gang Sentiong","distance":973,"is_transit":false,"time":1,"line":11,"i_lat":-6.185975,"station_id":"GST"},{"station_name":"Pasar Senen","is_transit":false,"distance":1567,"station_id":"PSE","line":11,"i_lat":-6.174784,"transit":false,"time":8,"i_long":106.84368},{"station_name":"Kemayoran","is_transit":false,"i_lat":-6.161728,"time":4,"station_id":"KMO","distance":1436,"line":11,"transit":false,"i_long":106.839204},{"station_id":"RJW","i_lat":-6.14505,"line":11,"i_long":106.836569,"station_name":"Rajawali","transit":false,"is_transit":false,"distance":1901,"time":5},{"time":3,"line":4,"i_long":106.826365,"distance":1444,"station_id":"KPB","transit":true,"is_transit":true,"station_name":"Kampung Bandan","i_lat":-6.132549},{"transit":false,"i_lat":-6.144674,"distance":4102,"station_id":"AK","station_name":"Angke","i_long":106.79867,"line":1,"is_transit":false,"time":9},{"station_id":"DU","i_long":106.800832,"transit":false,"i_lat":-6.155215,"distance":1230,"station_name":"Duri","is_transit":false,"line":1,"time":4},{"i_lat":-6.185545,"transit":true,"distance":3632,"station_name":"Tanah Abang","is_transit":true,"station_id":"THB","line":1,"i_long":106.811091,"time":8},{"station_id":"PLM","i_long":106.79689,"is_transit":false,"distance":3191,"transit":false,"station_name":"Palmerah","line":6,"time":6,"i_lat":-6.207404},{"is_transit":false,"line":6,"station_id":"KBY","i_lat":-6.237242,"distance":3737,"i_long":106.780334,"transit":false,"time":7,"station_name":"Kebayoran"},{"time":8,"station_id":"PDJ","is_transit":false,"i_long":106.74273,"line":6,"distance":6218,"i_lat":-6.276362,"transit":false,"station_name":"Pondokranji"},{"is_transit":false,"line":6,"time":3,"i_lat":-6.288927,"station_id":"JMU","distance":2179,"i_long":106.728916,"transit":false,"station_name":"Jurangmangu"},{"i_lat":-6.296963,"i_long":106.712277,"distance":1994,"transit":false,"station_id":"SDM","line":6,"station_name":"Sudimara","is_transit":false,"time":4},{"distance":4566,"time":6,"i_long":106.675475,"station_id":"RU","transit":false,"line":6,"station_name":"Rawa Buntu","i_lat":-6.314823,"is_transit":false},{"transit":false,"time":4,"i_lat":-6.319871,"station_id":"SRP","distance":2413,"line":6,"i_long":106.66566,"station_name":"Serpong","is_transit":false},{"station_name":"Cisauk","i_long":106.640411,"distance":1784,"is_transit":false,"station_id":"CSK","line":3,"time":4,"transit":false,"i_lat":-6.32484},{"transit":false,"i_long":106.617853,"station_name":"Cicayur","is_transit":false,"i_lat":-6.329547,"line":3,"time":4,"distance":2519,"station_id":"CC"},{"station_id":"PRP","i_long":106.568863,"is_transit":false,"station_name":"Parung Panjang","time":8,"i_lat":-6.3441410000000005,"line":6,"distance":5968,"transit":false},{"i_lat":-6.354349,"line":3,"station_id":"CJT","transit":false,"time":9,"i_long":106.508482,"distance":7025,"station_name":"Cilejit","is_transit":false},{"station_name":"Daru","transit":false,"is_transit":false,"distance":2675,"station_id":"DAR","i_long":106.491338,"time":6,"line":0,"i_lat":-6.338021},{"is_transit":false,"station_name":"Tenjo","time":5,"station_id":"TEJ","transit":false,"distance":3902,"i_long":106.460812,"i_lat":-6.327251,"line":6},{"i_long":106.425991,"is_transit":false,"transit":false,"i_lat":-6.328533,"line":6,"station_name":"Tigaraksa","station_id":"TGS","time":5,"distance":2974},{"transit":false,"i_lat":-6.33561,"line":3,"i_long":106.411216,"time":3,"distance":2651,"is_transit":false,"station_name":"Cikoya","station_id":"CKY"},{"line":6,"transit":false,"is_transit":false,"time":4,"station_name":"Maja","i_lat":-6.332307,"station_id":"MJ","i_long":106.394373,"distance":1853},{"distance":7293,"i_lat":-6.334892,"line":3,"station_id":"CTR","transit":false,"i_long":106.332092,"station_name":"Citeras","time":10,"is_transit":false}],[{"line":1,"is_transit":false,"i_lat":-6.215091,"distance":0,"transit":false,"station_id":"JNG","time":0,"station_name":"Jatinegara","i_long":106.86807400000001},{"line":1,"distance":1377,"i_lat":-6.212485,"is_transit":false,"station_id":"MTR","time":2,"station_name":"Matraman","i_long":106.858896,"transit":false},{"time":2,"is_transit":true,"line":2,"distance":1275,"i_lat":-6.209883,"i_long":106.84912,"station_id":"MRI","transit":true,"station_name":"Manggarai"},{"i_long":106.840169,"station_id":"CKI","line":2,"distance":1590,"station_name":"Cikini","i_lat":-6.198556,"is_transit":false,"transit":false,"time":4},{"i_lat":-6.186295,"distance":1750,"time":3,"station_name":"Gondangdia","i_long":106.832183,"line":2,"station_id":"GDD","is_transit":false,"transit":false},{"time":4,"distance":2015,"line":2,"i_long":106.828284,"station_name":"Juanda","i_lat":-6.166716,"transit":false,"is_transit":false,"station_id":"JUA"},{"station_id":"SW","i_long":106.827103,"station_name":"Sawah Besar","is_transit":false,"time":2,"transit":false,"i_lat":-6.160725,"line":2,"distance":1149},{"distance":906,"transit":false,"time":2,"line":2,"i_long":106.82482,"station_name":"Manggabesar","is_transit":false,"station_id":"MGB","i_lat":-6.149769},{"i_lat":-6.141205,"transit":false,"i_long":106.820901,"station_name":"Jayakarta","line":2,"time":2,"distance":1080,"station_id":"JAY","is_transit":false},{"i_long":106.812439,"distance":1264,"station_id":"JAKK","transit":true,"is_transit":true,"i_lat":-6.137569,"line":2,"station_name":"Jakarta Kota","time":4},{"distance":1364,"i_long":106.826365,"time":3,"i_lat":-6.132549,"line":4,"station_id":"KPB","transit":true,"is_transit":true,"station_name":"Kampung Bandan"},{"transit":false,"i_long":106.79867,"line":1,"i_lat":-6.144674,"time":9,"is_transit":false,"station_id":"AK","station_name":"Angke","distance":4102},{"is_transit":false,"station_name":"Duri","station_id":"DU","i_lat":-6.155215,"i_long":106.800832,"line":1,"time":4,"distance":1230,"transit":false},{"distance":3632,"line":1,"time":8,"transit":true,"station_id":"THB","i_long":106.811091,"station_name":"Tanah Abang","is_transit":true,"i_lat":-6.185545},{"i_long":106.79689,"distance":3191,"station_name":"Palmerah","line":6,"time":6,"i_lat":-6.207404,"is_transit":false,"station_id":"PLM","transit":false},{"distance":3737,"station_name":"Kebayoran","i_lat":-6.237242,"line":6,"transit":false,"i_long":106.780334,"is_transit":false,"station_id":"KBY","time":7},{"time":8,"i_lat":-6.276362,"line":6,"is_transit":false,"station_id":"PDJ","i_long":106.74273,"station_name":"Pondokranji","transit":false,"distance":6218},{"distance":2179,"transit":false,"station_name":"Jurangmangu","is_transit":false,"station_id":"JMU","i_lat":-6.288927,"line":6,"i_long":106.728916,"time":3},{"i_long":106.712277,"is_transit":false,"station_id":"SDM","line":6,"time":4,"station_name":"Sudimara","distance":1994,"transit":false,"i_lat":-6.296963},{"station_name":"Rawa Buntu","transit":false,"i_long":106.675475,"i_lat":-6.314823,"is_transit":false,"line":6,"distance":4566,"time":6,"station_id":"RU"},{"line":6,"transit":false,"time":4,"is_transit":false,"distance":2413,"i_long":106.66566,"station_name":"Serpong","station_id":"SRP","i_lat":-6.319871},{"i_lat":-6.32484,"transit":false,"distance":1784,"station_name":"Cisauk","is_transit":false,"station_id":"CSK","line":3,"time":4,"i_long":106.640411},{"time":4,"distance":2519,"station_name":"Cicayur","i_long":106.617853,"line":3,"transit":false,"i_lat":-6.329547,"is_transit":false,"station_id":"CC"},{"distance":5968,"i_long":106.568863,"i_lat":-6.3441410000000005,"time":8,"transit":false,"station_id":"PRP","station_name":"Parung Panjang","line":6,"is_transit":false},{"transit":false,"is_transit":false,"station_id":"CJT","i_lat":-6.354349,"time":9,"i_long":106.508482,"line":3,"distance":7025,"station_name":"Cilejit"},{"is_transit":false,"transit":false,"time":6,"station_name":"Daru","distance":2675,"i_lat":-6.338021,"line":0,"station_id":"DAR","i_long":106.491338},{"station_id":"TEJ","time":5,"distance":3902,"i_lat":-6.327251,"line":6,"transit":false,"is_transit":false,"i_long":106.460812,"station_name":"Tenjo"},{"distance":2974,"time":5,"i_long":106.425991,"i_lat":-6.328533,"station_name":"Tigaraksa","station_id":"TGS","transit":false,"is_transit":false,"line":6},{"distance":2651,"station_id":"CKY","line":3,"is_transit":false,"station_name":"Cikoya","time":3,"transit":false,"i_lat":-6.33561,"i_long":106.411216},{"station_name":"Maja","i_lat":-6.332307,"i_long":106.394373,"is_transit":false,"line":6,"station_id":"MJ","time":4,"transit":false,"distance":1853},{"line":3,"is_transit":false,"distance":7293,"time":10,"i_lat":-6.334892,"station_id":"CTR","transit":false,"station_name":"Citeras","i_long":106.332092}],[{"i_long":106.86807400000001,"is_transit":false,"distance":0,"station_name":"Jatinegara","station_id":"JNG","transit":false,"time":0,"line":1,"i_lat":-6.215091},{"time":2,"distance":1236,"station_name":"Pondok Jati","is_transit":false,"i_long":106.861737,"transit":false,"i_lat":-6.209188,"station_id":"POK","line":11},{"time":2,"station_name":"Kramat","transit":false,"is_transit":false,"i_lat":-6.193792,"station_id":"KMT","distance":1829,"line":11,"i_long":106.855437},{"station_name":"Gang Sentiong","i_lat":-6.185975,"is_transit":false,"station_id":"GST","transit":false,"time":1,"distance":973,"line":11,"i_long":106.850107},{"is_transit":false,"time":8,"i_lat":-6.174784,"station_id":"PSE","line":11,"distance":1567,"station_name":"Pasar Senen","i_long":106.84368,"transit":false},{"time":4,"transit":false,"station_id":"KMO","distance":1436,"line":11,"i_lat":-6.161728,"station_name":"Kemayoran","i_long":106.839204,"is_transit":false},{"line":11,"transit":false,"is_transit":false,"i_long":106.836569,"station_id":"RJW","i_lat":-6.14505,"distance":1901,"station_name":"Rajawali","time":5},{"station_id":"KPB","i_long":106.826365,"is_transit":true,"line":4,"i_lat":-6.132549,"distance":1444,"time":3,"station_name":"Kampung Bandan","transit":true},{"station_name":"Jakarta Kota","distance":1364,"transit":true,"time":3,"is_transit":true,"i_long":106.812439,"station_id":"JAKK","line":2,"i_lat":-6.137569},{"i_long":106.820901,"transit":false,"is_transit":false,"station_id":"JAY","line":2,"station_name":"Jayakarta","distance":1264,"i_lat":-6.141205,"time":4},{"i_long":106.82482,"i_lat":-6.149769,"is_transit":false,"transit":false,"station_name":"Manggabesar","station_id":"MGB","distance":1080,"time":2,"line":2},{"is_transit":false,"i_lat":-6.160725,"distance":906,"line":2,"transit":false,"time":2,"station_id":"SW","station_name":"Sawah Besar","i_long":106.827103},{"is_transit":false,"station_name":"Juanda","i_lat":-6.166716,"station_id":"JUA","time":2,"i_long":106.828284,"transit":false,"line":2,"distance":1149},{"is_transit":false,"i_lat":-6.186295,"station_name":"Gondangdia","time":4,"line":2,"distance":2015,"station_id":"GDD","transit":false,"i_long":106.832183},{"i_lat":-6.198556,"line":2,"station_id":"CKI","distance":1750,"station_name":"Cikini","transit":false,"is_transit":false,"time":3,"i_long":106.840169},{"is_transit":true,"line":2,"station_name":"Manggarai","transit":true,"station_id":"MRI","distance":1590,"i_lat":-6.209883,"i_long":106.84912,"time":4},{"is_transit":false,"line":1,"i_long":106.822649,"station_name":"Sudirman","transit":false,"time":4,"i_lat":-6.202263,"station_id":"SUD","distance":3186},{"station_name":"Sudirman Baru","time":1,"i_lat":-6.201433,"i_long":106.819881,"transit":false,"station_id":"SUDB","line":1,"is_transit":false,"distance":280},{"line":1,"station_name":"Karet","is_transit":false,"i_long":106.816351,"station_id":"KAT","i_lat":-6.20132,"time":1,"transit":false,"distance":471},{"transit":true,"station_id":"THB","station_name":"Tanah Abang","i_long":106.811091,"i_lat":-6.185545,"distance":2029,"line":1,"time":5,"is_transit":true},{"transit":false,"i_long":106.79689,"station_id":"PLM","station_name":"Palmerah","distance":3191,"is_transit":false,"line":6,"i_lat":-6.207404,"time":6},{"is_transit":false,"distance":3737,"i_long":106.780334,"time":7,"i_lat":-6.237242,"station_name":"Kebayoran","line":6,"station_id":"KBY","transit":false},{"time":8,"distance":6218,"i_lat":-6.276362,"i_long":106.74273,"line":6,"station_name":"Pondokranji","transit":false,"is_transit":false,"station_id":"PDJ"},{"time":3,"distance":2179,"i_lat":-6.288927,"i_long":106.728916,"is_transit":false,"station_id":"JMU","transit":false,"line":6,"station_name":"Jurangmangu"},{"i_lat":-6.296963,"i_long":106.712277,"line":6,"time":4,"station_id":"SDM","distance":1994,"transit":false,"station_name":"Sudimara","is_transit":false},{"i_lat":-6.314823,"transit":false,"line":6,"station_name":"Rawa Buntu","station_id":"RU","time":6,"is_transit":false,"distance":4566,"i_long":106.675475},{"station_id":"SRP","time":4,"distance":2413,"i_long":106.66566,"transit":false,"line":6,"i_lat":-6.319871,"is_transit":false,"station_name":"Serpong"},{"is_transit":false,"station_name":"Cisauk","i_long":106.640411,"distance":1784,"station_id":"CSK","time":4,"i_lat":-6.32484,"transit":false,"line":3},{"station_id":"CC","time":4,"is_transit":false,"station_name":"Cicayur","i_lat":-6.329547,"i_long":106.617853,"distance":2519,"transit":false,"line":3},{"i_lat":-6.3441410000000005,"transit":false,"is_transit":false,"line":6,"time":8,"station_id":"PRP","station_name":"Parung Panjang","distance":5968,"i_long":106.568863},{"is_transit":false,"time":9,"station_name":"Cilejit","transit":false,"distance":7025,"i_lat":-6.354349,"i_long":106.508482,"station_id":"CJT","line":3},{"is_transit":false,"distance":2675,"station_name":"Daru","time":6,"i_lat":-6.338021,"transit":false,"line":0,"station_id":"DAR","i_long":106.491338},{"line":6,"station_name":"Tenjo","time":5,"distance":3902,"is_transit":false,"station_id":"TEJ","transit":false,"i_long":106.460812,"i_lat":-6.327251},{"line":6,"station_name":"Tigaraksa","is_transit":false,"distance":2974,"station_id":"TGS","time":5,"i_lat":-6.328533,"transit":false,"i_long":106.425991},{"transit":false,"station_name":"Cikoya","is_transit":false,"station_id":"CKY","i_lat":-6.33561,"line":3,"time":3,"distance":2651,"i_long":106.411216},{"station_id":"MJ","i_lat":-6.332307,"distance":1853,"line":6,"is_transit":false,"i_long":106.394373,"time":4,"transit":false,"station_name":"Maja"},{"station_name":"Citeras","time":10,"i_long":106.332092,"line":3,"i_lat":-6.334892,"is_transit":false,"station_id":"CTR","transit":false,"distance":7293}]]}