{"data":[[{"i_lat":-6.215091,"transit":false,"line":1,"is_transit":false,"i_long":106.86807400000001,"station_name":"Jatinegara","distance":0,"time":0,"station_id":"JNG"},{"i_long":106.858896,"line":1,"distance":1377,"station_id":"MTR","transit":false,"time":2,"is_transit":false,"i_lat":-6.212485,"station_name":"Matraman"},{"time":2,"is_transit":true,"transit":true,"i_lat":-6.209883,"distance":1275,"station_name":"Manggarai","i_long":106.84912,"station_id":"MRI","line":2},{"distance":2610,"station_name":"Tebet","line":2,"transit":false,"i_long":106.857948,"station_id":"TEB","i_lat":-6.226659,"time":4,"is_transit":false},{"i_long":106.856607,"time":2,"station_id":"CW","i_lat":-6.242512,"station_name":"Cawang","transit":false,"line":2,"is_transit":false,"distance":1230},{"i_long":106.85449,"time":3,"i_lat":-6.255332,"line":2,"transit":false,"station_id":"DRN","station_name":"Duren Kalibata","is_transit":false,"distance":1546},{"i_lat":-6.263214,"distance":824,"station_id":"PSMB","station_name":"Pasar Minggu Baru","is_transit":false,"time":2,"i_long":106.851577,"transit":false,"line":2},{"distance":2380,"station_id":"PSM","line":2,"station_name":"Pasar Minggu","i_lat":-6.2842400000000005,"is_transit":false,"transit":false,"i_long":106.843999,"time":2},{"i_lat":-6.3080680000000005,"line":2,"station_id":"TNT","time":4,"i_long":106.838896,"station_name":"Tanjung Barat","transit":false,"distance":2820,"is_transit":false},{"i_lat":-6.330363,"i_long":106.832616,"time":3,"is_transit":false,"distance":2671,"station_name":"Lenteng Agung","station_id":"LNA","line":2,"transit":false},{"line":2,"transit":false,"i_lat":-6.339291,"distance":1029,"time":2,"is_transit":false,"i_long":106.834175,"station_name":"Univ. Pancasila","station_id":"UP"},{"i_long":106.831474,"line":2,"time":3,"distance":2264,"station_id":"UI","i_lat":-6.360749,"is_transit":false,"transit":false,"station_name":"Univ. Indonesia"},{"i_long":106.831114,"time":2,"station_id":"POC","is_transit":false,"distance":1109,"transit":false,"i_lat":-6.369073,"line":2,"station_name":"Pondok Cina"}],[{"i_long":106.86807400000001,"station_name":"Jatinegara","distance":0,"time":0,"is_transit":false,"line":1,"station_id":"JNG","i_lat":-6.215091,"transit":false},{"transit":false,"i_long":106.861737,"line":11,"is_transit":false,"distance":1236,"time":2,"station_id":"POK","i_lat":-6.209188,"station_name":"Pondok Jati"},{"distance":1829,"i_long":106.855437,"time":2,"station_id":"KMT","station_name":"Kramat","i_lat":-6.193792,"transit":false,"line":11,"is_transit":false},{"station_name":"Gang Sentiong","station_id":"GST","time":1,"i_lat":-6.185975,"transit":false,"i_long":106.850107,"is_transit":false,"line":11,"distance":973},{"i_lat":-6.174784,"station_id":"PSE","distance":1567,"time":8,"i_long":106.84368,"is_transit":false,"line":11,"transit":false,"station_name":"Pasar Senen"},{"station_id":"KMO","i_lat":-6.161728,"line":11,"is_transit":false,"time":4,"i_long":106.839204,"distance":1436,"transit":false,"station_name":"Kemayoran"},{"transit":false,"is_transit":false,"station_id":"RJW","i_long":106.836569,"station_name":"Rajawali","time":5,"distance":1901,"i_lat":-6.14505,"line":11},{"is_transit":true,"station_name":"Kampung Bandan","transit":true,"distance":1444,"i_lat":-6.132549,"time":3,"i_long":106.826365,"station_id":"KPB","line":4},{"i_long":106.79867,"line":1,"is_transit":false,"time":9,"transit":false,"station_name":"Angke","station_id":"AK","i_lat":-6.144674,"distance":4102},{"time":4,"i_lat":-6.155215,"station_id":"DU","is_transit":false,"distance":1230,"station_name":"Duri","transit":false,"i_long":106.800832,"line":1},{"i_lat":-6.185545,"i_long":106.811091,"time":8,"transit":false,"distance":3632,"is_transit":false,"station_id":"THB","line":1,"station_name":"Tanah Abang"},{"station_id":"KAT","line":1,"i_lat":-6.20132,"time":5,"distance":2029,"station_name":"Karet","is_transit":false,"transit":false,"i_long":106.816351},{"distance":471,"station_id":"SUDB","transit":false,"time":1,"i_lat":-6.201433,"i_long":106.819881,"line":1,"station_name":"Sudirman Baru","is_transit":false},{"i_long":106.822649,"distance":280,"station_name":"Sudirman","transit":false,"line":1,"time":1,"station_id":"SUD","i_lat":-6.202263,"is_transit":false},{"time":4,"i_long":106.84912,"transit":true,"station_id":"MRI","i_lat":-6.209883,"line":2,"station_name":"Manggarai","distance":3186,"is_transit":true},{"i_lat":-6.226659,"time":4,"station_id":"TEB","is_transit":false,"station_name":"Tebet","transit":false,"distance":2610,"i_long":106.857948,"line":2},{"station_id":"CW","i_lat":-6.242512,"distance":1230,"station_name":"Cawang","time":2,"transit":false,"is_transit":false,"line":2,"i_long":106.856607},{"distance":1546,"line":2,"time":3,"station_id":"DRN","i_lat":-6.255332,"transit":false,"is_transit":false,"station_name":"Duren Kalibata","i_long":106.85449},{"time":2,"is_transit":false,"transit":false,"i_lat":-6.263214,"line":2,"distance":824,"i_long":106.851577,"station_name":"Pasar Minggu Baru","station_id":"PSMB"},{"i_long":106.843999,"line":2,"i_lat":-6.2842400000000005,"distance":2380,"station_id":"PSM","time":2,"is_transit":false,"station_name":"Pasar Minggu","transit":false},{"line":2,"station_name":"Tanjung Barat","station_id":"TNT","i_long":106.838896,"time":4,"i_lat":-6.3080680000000005,"distance":2820,"is_transit":false,"transit":false},{"is_transit":false,"distance":2671,"i_long":106.832616,"line":2,"time":3,"i_lat":-6.330363,"station_name":"Lenteng Agung","station_id":"LNA","transit":false},{"station_id":"UP","distance":1029,"line":2,"station_name":"Univ. Pancasila","transit":false,"is_transit":false,"time":2,"i_lat":-6.339291,"i_long":106.834175},{"i_long":106.831474,"is_transit":false,"time":3,"line":2,"station_id":"UI","i_lat":-6.360749,"transit":false,"station_name":"Univ. Indonesia","distance":2264},{"transit":false,"distance":1109,"time":2,"station_name":"Pondok Cina","i_lat":-6.369073,"line":2,"is_transit":false,"i_long":106.831114,"station_id":"POC"}],[{"is_transit":false,"distance":0,"time":0,"station_id":"JNG","line":1,"station_name":"Jatinegara","transit":false,"i_lat":-6.215091,"i_long":106.86807400000001},{"transit":false,"i_lat":-6.209188,"is_transit":false,"station_id":"POK","i_long":106.861737,"line":11,"station_name":"Pondok Jati","distance":1236,"time":2},{"time":2,"transit":false,"is_transit":false,"distance":1829,"station_name":"Kramat","i_long":106.855437,"line":11,"station_id":"KMT","i_lat":-6.193792},{"station_name":"Gang Sentiong","time":1,"is_transit":false,"i_lat":-6.185975,"line":11,"distance":973,"station_id":"GST","transit":false,"i_long":106.850107},{"time":8,"station_name":"Pasar Senen","station_id":"PSE","transit":false,"i_long":106.84368,"line":11,"i_lat":-6.174784,"is_transit":false,"distance":1567},{"station_id":"KMO","line":11,"station_name":"Kemayoran","transit":false,"i_long":106.839204,"time":4,"i_lat":-6.161728,"distance":1436,"is_transit":false},{"time":5,"station_name":"Rajawali","i_lat":-6.14505,"i_long":106.836569,"line":11,"transit":false,"is_transit":false,"distance":1901,"station_id":"RJW"},{"i_long":106.826365,"is_transit":true,"distance":1444,"line":4,"station_name":"Kampung Bandan","time":3,"transit":true,"station_id":"KPB","i_lat":-6.132549},{"station_id":"JAKK","i_long":106.812439,"time":3,"station_name":"Jakarta Kota","i_lat":-6.137569,"is_transit":true,"distance":1364,"line":2,"transit":true},{"i_lat":-6.141205,"i_long":106.820901,"line":2,"is_transit":false,"transit":false,"distance":1264,"station_id":"JAY","station_name":"Jayakarta","time":4},{"i_long":106.82482,"is_transit":false,"line":2,"station_id":"MGB","transit":false,"station_name":"Manggabesar","distance":1080,"time":2,"i_lat":-6.149769},{"station_name":"Sawah Besar","line":2,"distance":906,"transit":false,"i_lat":-6.160725,"station_id":"SW","i_long":106.827103,"time":2,"is_transit":false},{"i_lat":-6.166716,"distance":1149,"station_name":"Juanda","line":2,"station_id":"JUA","i_long":106.828284,"time":2,"is_transit":false,"transit":false},{"transit":false,"time":4,"station_id":"GDD","station_name":"Gondangdia","i_long":106.832183,"is_transit":false,"line":2,"distance":2015,"i_lat":-6.186295},{"line":2,"time":3,"i_long":106.840169,"distance":1750,"station_name":"Cikini","i_lat":-6.198556,"station_id":"CKI","transit":false,"is_transit":false},{"distance":1590,"time":4,"transit":false,"i_lat":-6.209883,"station_name":"Manggarai","station_id":"MRI","line":2,"i_long":106.84912,"is_transit":false},{"is_transit":false,"i_long":106.857948,"time":4,"station_id":"TEB","i_lat":-6.226659,"transit":false,"distance":2610,"station_name":"Tebet","line":2},{"is_transit":false,"line":2,"i_long":106.856607,"i_lat":-6.242512,"distance":1230,"time":2,"station_name":"Cawang","transit":false,"station_id":"CW"},{"distance":1546,"line":2,"station_name":"Duren Kalibata","i_lat":-6.255332,"transit":false,"station_id":"DRN","is_transit":false,"time":3,"i_long":106.85449},{"station_id":"PSMB","distance":824,"is_transit":false,"i_lat":-6.263214,"line":2,"i_long":106.851577,"station_name":"Pasar Minggu Baru","time":2,"transit":false},{"transit":false,"line":2,"i_lat":-6.2842400000000005,"station_id":"PSM","distance":2380,"station_name":"Pasar Minggu","i_long":106.843999,"is_transit":false,"time":2},{"time":4,"is_transit":false,"distance":2820,"transit":false,"i_long":106.838896,"i_lat":-6.3080680000000005,"line":2,"station_name":"Tanjung Barat","station_id":"TNT"},{"distance":2671,"transit":false,"station_id":"LNA","i_lat":-6.330363,"i_long":106.832616,"line":2,"is_transit":false,"time":3,"station_name":"Lenteng Agung"},{"station_name":"Univ. Pancasila","station_id":"UP","is_transit":false,"i_long":106.834175,"distance":1029,"i_lat":-6.339291,"time":2,"line":2,"transit":false},{"time":3,"i_long":106.831474,"is_transit":false,"i_lat":-6.360749,"line":2,"station_name":"Univ. Indonesia","transit":false,"distance":2264,"station_id":"UI"},{"station_id":"POC","time":2,"station_name":"Pondok Cina","is_transit":false,"transit":false,"distance":1109,"i_long":106.831114,"line":2,"i_lat":-6.369073}]]}