{"data":[[{"time":0,"line":1,"i_long":106.86807400000001,"station_name":"Jatinegara","is_transit":false,"distance":0,"i_lat":-6.215091,"station_id":"JNG","transit":false},{"line":11,"station_id":"POK","transit":false,"i_long":106.861737,"is_transit":false,"station_name":"Pondok Jati","time":2,"distance":1236,"i_lat":-6.209188},{"i_lat":-6.193792,"line":11,"station_name":"Kramat","i_long":106.855437,"is_transit":false,"station_id":"KMT","transit":false,"distance":1829,"time":2},{"station_id":"GST","distance":973,"transit":false,"time":1,"station_name":"Gang Sentiong","line":11,"i_long":106.850107,"i_lat":-6.185975,"is_transit":false},{"i_lat":-6.174784,"distance":1567,"time":8,"transit":false,"station_name":"Pasar Senen","line":11,"station_id":"PSE","is_transit":false,"i_long":106.84368},{"time":4,"i_lat":-6.161728,"station_id":"KMO","transit":false,"i_long":106.839204,"line":11,"station_name":"Kemayoran","distance":1436,"is_transit":false},{"line":11,"time":5,"i_lat":-6.14505,"is_transit":false,"i_long":106.836569,"station_name":"Rajawali","transit":false,"distance":1901,"station_id":"RJW"}],[{"line":1,"time":0,"transit":false,"station_name":"Jatinegara","i_lat":-6.215091,"i_long":106.86807400000001,"station_id":"JNG","distance":0,"is_transit":false},{"i_lat":-6.212485,"station_name":"Matraman","is_transit":false,"time":2,"station_id":"MTR","transit":false,"line":1,"distance":1377,"i_long":106.858896},{"station_id":"MRI","is_transit":false,"line":2,"time":2,"transit":false,"i_lat":-6.209883,"distance":1275,"i_long":106.84912,"station_name":"Manggarai"},{"time":4,"i_lat":-6.202263,"station_name":"Sudirman","i_long":106.822649,"line":1,"transit":false,"station_id":"SUD","distance":3186,"is_transit":false},{"i_lat":-6.201433,"station_name":"Sudirman Baru","transit":false,"i_long":106.819881,"line":1,"station_id":"SUDB","is_transit":false,"time":1,"distance":280},{"station_id":"KAT","i_lat":-6.20132,"transit":false,"line":1,"time":1,"distance":471,"i_long":106.816351,"station_name":"Karet","is_transit":false},{"i_long":106.811091,"i_lat":-6.185545,"transit":false,"station_id":"THB","time":5,"is_transit":false,"station_name":"Tanah Abang","distance":2029,"line":1},{"distance":3632,"station_id":"DU","i_long":106.800832,"time":8,"line":1,"is_transit":false,"station_name":"Duri","i_lat":-6.155215,"transit":false},{"time":4,"transit":false,"i_lat":-6.144674,"i_long":106.79867,"is_transit":false,"line":1,"station_name":"Angke","distance":1230,"station_id":"AK"},{"time":9,"station_id":"KPB","distance":4102,"transit":true,"i_lat":-6.132549,"station_name":"Kampung Bandan","i_long":106.826365,"line":4,"is_transit":true},{"time":3,"i_lat":-6.14505,"distance":1444,"i_long":106.836569,"station_id":"RJW","station_name":"Rajawali","is_transit":false,"transit":false,"line":11}],[{"station_name":"Jatinegara","transit":false,"i_lat":-6.215091,"line":1,"distance":0,"time":0,"i_long":106.86807400000001,"station_id":"JNG","is_transit":false},{"i_lat":-6.212485,"line":1,"station_id":"MTR","time":2,"is_transit":false,"distance":1377,"transit":false,"station_name":"Matraman","i_long":106.858896},{"time":2,"i_long":106.84912,"station_id":"MRI","line":2,"station_name":"Manggarai","transit":true,"distance":1275,"i_lat":-6.209883,"is_transit":true},{"i_lat":-6.198556,"i_long":106.840169,"station_name":"Cikini","station_id":"CKI","transit":false,"line":2,"distance":1590,"is_transit":false,"time":4},{"station_name":"Gondangdia","transit":false,"is_transit":false,"station_id":"GDD","time":3,"i_lat":-6.186295,"distance":1750,"i_long":106.832183,"line":2},{"transit":false,"line":2,"time":4,"i_lat":-6.166716,"station_id":"JUA","i_long":106.828284,"station_name":"Juanda","is_transit":false,"distance":2015},{"i_long":106.827103,"station_name":"Sawah Besar","is_transit":false,"time":2,"station_id":"SW","transit":false,"line":2,"i_lat":-6.160725,"distance":1149},{"time":2,"station_name":"Manggabesar","station_id":"MGB","i_lat":-6.149769,"transit":false,"line":2,"distance":906,"is_transit":false,"i_long":106.82482},{"i_lat":-6.141205,"station_id":"JAY","transit":false,"time":2,"line":2,"station_name":"Jayakarta","is_transit":false,"i_long":106.820901,"distance":1080},{"i_long":106.812439,"is_transit":true,"station_id":"JAKK","distance":1264,"station_name":"Jakarta Kota","line":2,"time":4,"transit":true,"i_lat":-6.137569},{"station_id":"KPB","i_lat":-6.132549,"line":4,"i_long":106.826365,"station_name":"Kampung Bandan","distance":1364,"time":3,"is_transit":true,"transit":true},{"is_transit":false,"station_id":"RJW","line":11,"i_lat":-6.14505,"i_long":106.836569,"distance":1444,"transit":false,"time":3,"station_name":"Rajawali"}]]}