{"data":[[{"distance":0,"i_long":106.86807400000001,"transit":false,"time":0,"station_name":"Jatinegara","i_lat":-6.215091,"is_transit":true,"line":0,"station_id":"JNG"},{"is_transit":false,"transit":false,"station_id":"POK","station_name":"Pondok Jati","line":11,"time":2,"i_lat":-6.209188,"distance":1236,"i_long":106.861737},{"i_lat":-6.193792,"i_long":106.855437,"station_name":"Kramat","station_id":"KMT","transit":false,"is_transit":false,"line":11,"time":2,"distance":1829},{"is_transit":false,"distance":973,"time":1,"station_id":"GST","transit":false,"station_name":"Gang Sentiong","i_lat":-6.185975,"i_long":106.850107,"line":11},{"is_transit":false,"distance":1567,"station_id":"PSE","time":8,"i_long":106.84368,"station_name":"Pasar Senen","i_lat":-6.174784,"transit":false,"line":11}],[{"is_transit":true,"station_name":"Jatinegara","distance":0,"i_lat":-6.215091,"station_id":"JNG","time":0,"transit":false,"i_long":106.86807400000001,"line":0},{"station_name":"Matraman","station_id":"MTR","time":2,"is_transit":false,"transit":false,"line":1,"distance":1377,"i_lat":-6.212485,"i_long":106.858896},{"station_id":"MRI","line":0,"distance":1275,"transit":false,"i_lat":-6.209883,"station_name":"Manggarai","time":2,"i_long":106.84912,"is_transit":true},{"i_lat":-6.202263,"station_id":"SUD","is_transit":false,"line":1,"time":4,"distance":3186,"transit":false,"i_long":106.822649,"station_name":"Sudirman"},{"distance":280,"line":1,"transit":false,"is_transit":false,"station_id":"SUDB","i_lat":-6.201433,"time":1,"i_long":106.819881,"station_name":"Sudirman Baru"},{"distance":471,"line":1,"time":1,"is_transit":false,"station_name":"Karet","i_lat":-6.20132,"transit":false,"i_long":106.816351,"station_id":"KAT"},{"time":5,"line":1,"station_name":"Tanah Abang","is_transit":true,"i_lat":-6.185545,"i_long":106.811091,"transit":false,"station_id":"THB","distance":2029},{"transit":true,"i_lat":-6.155215,"station_name":"Duri","station_id":"DU","is_transit":true,"time":8,"distance":3632,"i_long":106.800832,"line":1},{"station_id":"AK","time":4,"distance":1230,"station_name":"Angke","i_lat":-6.144674,"i_long":106.79867,"is_transit":false,"transit":false,"line":0},{"line":0,"station_id":"KPB","is_transit":true,"transit":true,"station_name":"Kampung Bandan","distance":4102,"i_lat":-6.132549,"i_long":106.826365,"time":9},{"i_long":106.836569,"station_id":"RJW","is_transit":false,"time":3,"i_lat":-6.14505,"transit":false,"distance":1444,"line":11,"station_name":"Rajawali"},{"station_id":"KMO","is_transit":false,"time":5,"transit":false,"line":11,"distance":1901,"i_lat":-6.161728,"station_name":"Kemayoran","i_long":106.839204},{"i_long":106.84368,"transit":false,"is_transit":false,"time":4,"distance":1436,"line":11,"station_id":"PSE","station_name":"Pasar Senen","i_lat":-6.174784}],[{"i_long":106.86807400000001,"transit":false,"time":0,"station_name":"Jatinegara","i_lat":-6.215091,"station_id":"JNG","distance":0,"line":0,"is_transit":true},{"line":1,"time":2,"station_name":"Matraman","is_transit":false,"distance":1377,"i_long":106.858896,"station_id":"MTR","transit":false,"i_lat":-6.212485},{"transit":true,"i_lat":-6.209883,"line":0,"is_transit":true,"station_id":"MRI","i_long":106.84912,"station_name":"Manggarai","time":2,"distance":1275},{"station_id":"CKI","transit":false,"i_lat":-6.198556,"time":4,"i_long":106.840169,"line":0,"station_name":"Cikini","is_transit":false,"distance":1590},{"i_lat":-6.186295,"transit":false,"distance":1750,"line":2,"station_id":"GDD","is_transit":false,"station_name":"Gondangdia","i_long":106.832183,"time":3},{"station_id":"JUA","line":2,"time":4,"is_transit":false,"distance":2015,"transit":false,"i_lat":-6.166716,"station_name":"Juanda","i_long":106.828284},{"distance":1149,"i_long":106.827103,"transit":false,"time":2,"is_transit":false,"i_lat":-6.160725,"line":2,"station_id":"SW","station_name":"Sawah Besar"},{"is_transit":false,"i_long":106.82482,"time":2,"line":2,"transit":false,"station_id":"MGB","distance":906,"i_lat":-6.149769,"station_name":"Manggabesar"},{"station_id":"JAY","distance":1080,"i_lat":-6.141205,"line":7,"station_name":"Jayakarta","time":2,"is_transit":false,"transit":false,"i_long":106.820901},{"station_name":"Jakarta Kota","transit":true,"time":4,"i_long":106.812439,"station_id":"JAKK","distance":1264,"is_transit":true,"i_lat":-6.137569,"line":0},{"station_name":"Kampung Bandan","station_id":"KPB","distance":1364,"transit":true,"is_transit":true,"i_lat":-6.132549,"time":3,"i_long":106.826365,"line":0},{"transit":false,"line":11,"time":3,"i_lat":-6.14505,"station_id":"RJW","distance":1444,"i_long":106.836569,"station_name":"Rajawali","is_transit":false},{"i_lat":-6.161728,"line":11,"station_id":"KMO","i_long":106.839204,"is_transit":false,"station_name":"Kemayoran","time":5,"distance":1901,"transit":false},{"is_transit":false,"i_long":106.84368,"distance":1436,"station_id":"PSE","i_lat":-6.174784,"station_name":"Pasar Senen","transit":false,"line":11,"time":4}]]}