{"data":[[{"transit":false,"is_transit":false,"station_id":"JNG","time":0,"distance":0,"i_lat":-6.215091,"i_long":106.86807400000001,"line":1,"station_name":"Jatinegara"},{"i_long":106.858896,"station_id":"MTR","distance":1377,"line":1,"transit":false,"time":2,"station_name":"Matraman","is_transit":false,"i_lat":-6.212485},{"transit":false,"station_name":"Manggarai","i_lat":-6.209883,"line":2,"station_id":"MRI","distance":1275,"is_transit":false,"i_long":106.84912,"time":2},{"station_name":"Sudirman","is_transit":false,"i_long":106.822649,"station_id":"SUD","line":1,"distance":3186,"transit":false,"i_lat":-6.202263,"time":4},{"station_name":"Sudirman Baru","station_id":"SUDB","is_transit":false,"transit":false,"i_lat":-6.201433,"i_long":106.819881,"time":1,"line":1,"distance":280},{"line":1,"distance":471,"station_name":"Karet","time":1,"is_transit":false,"transit":false,"i_lat":-6.20132,"i_long":106.816351,"station_id":"KAT"},{"i_lat":-6.185545,"station_name":"Tanah Abang","is_transit":true,"transit":true,"i_long":106.811091,"line":1,"station_id":"THB","time":5,"distance":2029},{"line":6,"station_name":"Palmerah","time":6,"i_lat":-6.207404,"is_transit":false,"distance":3191,"transit":false,"station_id":"PLM","i_long":106.79689},{"station_name":"Kebayoran","i_lat":-6.237242,"line":6,"transit":false,"is_transit":false,"time":7,"i_long":106.780334,"station_id":"KBY","distance":3737},{"line":6,"transit":false,"station_name":"Pondokranji","i_lat":-6.276362,"distance":6218,"i_long":106.74273,"time":8,"is_transit":false,"station_id":"PDJ"},{"station_name":"Jurangmangu","distance":2179,"i_lat":-6.288927,"time":3,"transit":false,"i_long":106.728916,"station_id":"JMU","is_transit":false,"line":6},{"station_id":"SDM","distance":1994,"station_name":"Sudimara","i_lat":-6.296963,"transit":false,"i_long":106.712277,"is_transit":false,"line":6,"time":4},{"distance":4566,"is_transit":false,"i_long":106.675475,"line":6,"station_id":"RU","station_name":"Rawa Buntu","time":6,"transit":false,"i_lat":-6.314823},{"transit":false,"line":6,"time":4,"distance":2413,"is_transit":false,"station_id":"SRP","station_name":"Serpong","i_long":106.66566,"i_lat":-6.319871},{"i_lat":-6.32484,"line":3,"station_id":"CSK","distance":1784,"transit":false,"i_long":106.640411,"station_name":"Cisauk","is_transit":false,"time":4},{"is_transit":false,"distance":2519,"line":3,"time":4,"station_id":"CC","transit":false,"station_name":"Cicayur","i_lat":-6.329547,"i_long":106.617853},{"line":6,"transit":false,"distance":5968,"is_transit":false,"station_id":"PRP","i_long":106.568863,"time":8,"station_name":"Parung Panjang","i_lat":-6.3441410000000005},{"is_transit":false,"transit":false,"station_name":"Cilejit","i_long":106.508482,"time":9,"line":3,"station_id":"CJT","distance":7025,"i_lat":-6.354349},{"distance":2675,"station_id":"DAR","line":0,"is_transit":false,"i_long":106.491338,"transit":false,"time":6,"i_lat":-6.338021,"station_name":"Daru"},{"distance":3902,"line":6,"transit":false,"is_transit":false,"time":5,"station_name":"Tenjo","i_long":106.460812,"i_lat":-6.327251,"station_id":"TEJ"}],[{"distance":0,"i_lat":-6.215091,"station_id":"JNG","line":1,"is_transit":false,"i_long":106.86807400000001,"time":0,"station_name":"Jatinegara","transit":false},{"line":11,"station_id":"POK","station_name":"Pondok Jati","is_transit":false,"transit":false,"time":2,"i_long":106.861737,"i_lat":-6.209188,"distance":1236},{"distance":1829,"station_id":"KMT","station_name":"Kramat","i_long":106.855437,"transit":false,"time":2,"i_lat":-6.193792,"line":11,"is_transit":false},{"distance":973,"transit":false,"i_long":106.850107,"line":11,"station_id":"GST","is_transit":false,"time":1,"station_name":"Gang Sentiong","i_lat":-6.185975},{"i_long":106.84368,"is_transit":false,"station_name":"Pasar Senen","i_lat":-6.174784,"time":8,"line":11,"station_id":"PSE","transit":false,"distance":1567},{"station_name":"Kemayoran","station_id":"KMO","time":4,"is_transit":false,"line":11,"transit":false,"i_long":106.839204,"distance":1436,"i_lat":-6.161728},{"distance":1901,"is_transit":false,"transit":false,"time":5,"i_lat":-6.14505,"station_name":"Rajawali","station_id":"RJW","line":11,"i_long":106.836569},{"i_lat":-6.132549,"station_id":"KPB","is_transit":true,"transit":true,"distance":1444,"time":3,"station_name":"Kampung Bandan","line":4,"i_long":106.826365},{"transit":false,"time":9,"station_name":"Angke","station_id":"AK","i_lat":-6.144674,"is_transit":false,"line":1,"distance":4102,"i_long":106.79867},{"distance":1230,"line":1,"time":4,"transit":false,"is_transit":false,"station_id":"DU","i_lat":-6.155215,"i_long":106.800832,"station_name":"Duri"},{"line":1,"distance":3632,"station_name":"Tanah Abang","station_id":"THB","i_lat":-6.185545,"time":8,"transit":true,"i_long":106.811091,"is_transit":true},{"line":6,"station_name":"Palmerah","i_lat":-6.207404,"transit":false,"distance":3191,"station_id":"PLM","is_transit":false,"time":6,"i_long":106.79689},{"station_id":"KBY","distance":3737,"i_long":106.780334,"station_name":"Kebayoran","i_lat":-6.237242,"time":7,"transit":false,"is_transit":false,"line":6},{"is_transit":false,"time":8,"station_name":"Pondokranji","station_id":"PDJ","transit":false,"distance":6218,"i_lat":-6.276362,"i_long":106.74273,"line":6},{"i_lat":-6.288927,"station_name":"Jurangmangu","is_transit":false,"transit":false,"time":3,"distance":2179,"line":6,"station_id":"JMU","i_long":106.728916},{"is_transit":false,"station_id":"SDM","distance":1994,"transit":false,"i_long":106.712277,"station_name":"Sudimara","time":4,"line":6,"i_lat":-6.296963},{"time":6,"transit":false,"i_long":106.675475,"station_name":"Rawa Buntu","station_id":"RU","line":6,"i_lat":-6.314823,"is_transit":false,"distance":4566},{"i_lat":-6.319871,"distance":2413,"line":6,"transit":false,"i_long":106.66566,"station_name":"Serpong","is_transit":false,"station_id":"SRP","time":4},{"transit":false,"station_id":"CSK","time":4,"station_name":"Cisauk","is_transit":false,"i_lat":-6.32484,"distance":1784,"i_long":106.640411,"line":3},{"i_lat":-6.329547,"station_name":"Cicayur","transit":false,"distance":2519,"station_id":"CC","i_long":106.617853,"line":3,"is_transit":false,"time":4},{"time":8,"transit":false,"i_lat":-6.3441410000000005,"i_long":106.568863,"station_name":"Parung Panjang","distance":5968,"line":6,"is_transit":false,"station_id":"PRP"},{"is_transit":false,"line":3,"transit":false,"station_id":"CJT","time":9,"distance":7025,"i_long":106.508482,"i_lat":-6.354349,"station_name":"Cilejit"},{"station_name":"Daru","i_lat":-6.338021,"line":0,"is_transit":false,"i_long":106.491338,"time":6,"distance":2675,"station_id":"DAR","transit":false},{"time":5,"transit":false,"distance":3902,"is_transit":false,"station_name":"Tenjo","station_id":"TEJ","line":6,"i_long":106.460812,"i_lat":-6.327251}],[{"transit":false,"station_name":"Jatinegara","station_id":"JNG","i_long":106.86807400000001,"is_transit":false,"distance":0,"line":1,"time":0,"i_lat":-6.215091},{"distance":1377,"time":2,"i_long":106.858896,"station_id":"MTR","line":1,"is_transit":false,"transit":false,"station_name":"Matraman","i_lat":-6.212485},{"station_name":"Manggarai","is_transit":true,"station_id":"MRI","time":2,"distance":1275,"line":2,"i_long":106.84912,"transit":true,"i_lat":-6.209883},{"station_id":"CKI","i_lat":-6.198556,"line":2,"station_name":"Cikini","time":4,"is_transit":false,"i_long":106.840169,"transit":false,"distance":1590},{"transit":false,"station_name":"Gondangdia","distance":1750,"is_transit":false,"time":3,"station_id":"GDD","i_long":106.832183,"line":2,"i_lat":-6.186295},{"station_id":"JUA","i_lat":-6.166716,"i_long":106.828284,"station_name":"Juanda","line":2,"is_transit":false,"transit":false,"time":4,"distance":2015},{"distance":1149,"time":2,"i_long":106.827103,"transit":false,"i_lat":-6.160725,"is_transit":false,"station_id":"SW","station_name":"Sawah Besar","line":2},{"i_lat":-6.149769,"station_name":"Manggabesar","station_id":"MGB","time":2,"transit":false,"is_transit":false,"distance":906,"i_long":106.82482,"line":2},{"is_transit":false,"i_long":106.820901,"time":2,"transit":false,"station_name":"Jayakarta","i_lat":-6.141205,"distance":1080,"line":2,"station_id":"JAY"},{"is_transit":true,"station_name":"Jakarta Kota","station_id":"JAKK","line":2,"i_lat":-6.137569,"transit":true,"i_long":106.812439,"distance":1264,"time":4},{"is_transit":true,"transit":true,"distance":1364,"station_id":"KPB","i_lat":-6.132549,"line":4,"i_long":106.826365,"station_name":"Kampung Bandan","time":3},{"i_long":106.79867,"is_transit":false,"transit":false,"distance":4102,"line":1,"i_lat":-6.144674,"time":9,"station_name":"Angke","station_id":"AK"},{"transit":false,"i_long":106.800832,"line":1,"is_transit":false,"time":4,"i_lat":-6.155215,"distance":1230,"station_name":"Duri","station_id":"DU"},{"station_name":"Tanah Abang","i_long":106.811091,"time":8,"distance":3632,"station_id":"THB","line":1,"i_lat":-6.185545,"is_transit":true,"transit":true},{"is_transit":false,"i_long":106.79689,"station_name":"Palmerah","transit":false,"station_id":"PLM","line":6,"distance":3191,"time":6,"i_lat":-6.207404},{"i_lat":-6.237242,"i_long":106.780334,"time":7,"is_transit":false,"transit":false,"distance":3737,"station_name":"Kebayoran","station_id":"KBY","line":6},{"station_id":"PDJ","i_lat":-6.276362,"line":6,"time":8,"i_long":106.74273,"distance":6218,"is_transit":false,"station_name":"Pondokranji","transit":false},{"is_transit":false,"distance":2179,"i_long":106.728916,"transit":false,"station_name":"Jurangmangu","station_id":"JMU","time":3,"i_lat":-6.288927,"line":6},{"transit":false,"station_name":"Sudimara","distance":1994,"station_id":"SDM","i_lat":-6.296963,"is_transit":false,"time":4,"i_long":106.712277,"line":6},{"time":6,"station_id":"RU","line":6,"i_long":106.675475,"is_transit":false,"station_name":"Rawa Buntu","distance":4566,"i_lat":-6.314823,"transit":false},{"i_lat":-6.319871,"station_id":"SRP","is_transit":false,"transit":false,"line":6,"time":4,"station_name":"Serpong","distance":2413,"i_long":106.66566},{"station_id":"CSK","i_long":106.640411,"transit":false,"is_transit":false,"time":4,"i_lat":-6.32484,"distance":1784,"station_name":"Cisauk","line":3},{"line":3,"i_long":106.617853,"station_id":"CC","i_lat":-6.329547,"is_transit":false,"transit":false,"station_name":"Cicayur","distance":2519,"time":4},{"line":6,"distance":5968,"station_id":"PRP","time":8,"i_lat":-6.3441410000000005,"i_long":106.568863,"station_name":"Parung Panjang","is_transit":false,"transit":false},{"is_transit":false,"time":9,"i_long":106.508482,"station_id":"CJT","line":3,"i_lat":-6.354349,"transit":false,"distance":7025,"station_name":"Cilejit"},{"distance":2675,"station_id":"DAR","i_lat":-6.338021,"line":0,"transit":false,"i_long":106.491338,"station_name":"Daru","is_transit":false,"time":6},{"distance":3902,"station_name":"Tenjo","station_id":"TEJ","line":6,"is_transit":false,"i_lat":-6.327251,"time":5,"transit":false,"i_long":106.460812}],[{"station_id":"JNG","line":1,"is_transit":false,"i_long":106.86807400000001,"distance":0,"station_name":"Jatinegara","i_lat":-6.215091,"time":0,"transit":false},{"transit":false,"i_long":106.861737,"distance":1236,"station_name":"Pondok Jati","is_transit":false,"station_id":"POK","i_lat":-6.209188,"line":11,"time":2},{"distance":1829,"station_id":"KMT","station_name":"Kramat","transit":false,"is_transit":false,"time":2,"line":11,"i_lat":-6.193792,"i_long":106.855437},{"station_id":"GST","time":1,"distance":973,"station_name":"Gang Sentiong","i_lat":-6.185975,"is_transit":false,"line":11,"transit":false,"i_long":106.850107},{"time":8,"is_transit":false,"transit":false,"i_lat":-6.174784,"line":11,"i_long":106.84368,"distance":1567,"station_name":"Pasar Senen","station_id":"PSE"},{"station_name":"Kemayoran","i_lat":-6.161728,"time":4,"distance":1436,"station_id":"KMO","line":11,"i_long":106.839204,"transit":false,"is_transit":false},{"distance":1901,"station_name":"Rajawali","transit":false,"i_lat":-6.14505,"time":5,"station_id":"RJW","line":11,"is_transit":false,"i_long":106.836569},{"i_lat":-6.132549,"station_name":"Kampung Bandan","is_transit":true,"transit":true,"distance":1444,"i_long":106.826365,"time":3,"station_id":"KPB","line":4},{"time":3,"line":2,"transit":true,"distance":1364,"is_transit":true,"station_name":"Jakarta Kota","i_lat":-6.137569,"station_id":"JAKK","i_long":106.812439},{"distance":1264,"is_transit":false,"i_lat":-6.141205,"time":4,"line":2,"transit":false,"station_id":"JAY","i_long":106.820901,"station_name":"Jayakarta"},{"transit":false,"i_long":106.82482,"is_transit":false,"line":2,"time":2,"station_id":"MGB","distance":1080,"i_lat":-6.149769,"station_name":"Manggabesar"},{"is_transit":false,"station_name":"Sawah Besar","transit":false,"time":2,"line":2,"station_id":"SW","i_lat":-6.160725,"i_long":106.827103,"distance":906},{"station_id":"JUA","distance":1149,"line":2,"is_transit":false,"transit":false,"i_lat":-6.166716,"station_name":"Juanda","i_long":106.828284,"time":2},{"i_long":106.832183,"is_transit":false,"line":2,"station_id":"GDD","time":4,"transit":false,"distance":2015,"station_name":"Gondangdia","i_lat":-6.186295},{"line":2,"i_long":106.840169,"distance":1750,"is_transit":false,"time":3,"transit":false,"station_name":"Cikini","station_id":"CKI","i_lat":-6.198556},{"time":4,"line":2,"distance":1590,"station_id":"MRI","i_long":106.84912,"i_lat":-6.209883,"transit":true,"station_name":"Manggarai","is_transit":true},{"is_transit":false,"distance":3186,"station_id":"SUD","i_long":106.822649,"line":1,"time":4,"transit":false,"station_name":"Sudirman","i_lat":-6.202263},{"i_lat":-6.201433,"distance":280,"station_name":"Sudirman Baru","time":1,"transit":false,"i_long":106.819881,"line":1,"is_transit":false,"station_id":"SUDB"},{"time":1,"i_long":106.816351,"station_id":"KAT","line":1,"i_lat":-6.20132,"station_name":"Karet","is_transit":false,"transit":false,"distance":471},{"is_transit":true,"transit":true,"distance":2029,"station_id":"THB","i_lat":-6.185545,"i_long":106.811091,"line":1,"time":5,"station_name":"Tanah Abang"},{"station_id":"PLM","i_lat":-6.207404,"i_long":106.79689,"line":6,"time":6,"station_name":"Palmerah","transit":false,"is_transit":false,"distance":3191},{"i_lat":-6.237242,"time":7,"transit":false,"distance":3737,"station_id":"KBY","is_transit":false,"i_long":106.780334,"station_name":"Kebayoran","line":6},{"is_transit":false,"station_name":"Pondokranji","i_lat":-6.276362,"transit":false,"station_id":"PDJ","i_long":106.74273,"time":8,"line":6,"distance":6218},{"transit":false,"time":3,"distance":2179,"station_name":"Jurangmangu","i_long":106.728916,"line":6,"station_id":"JMU","is_transit":false,"i_lat":-6.288927},{"station_id":"SDM","station_name":"Sudimara","i_lat":-6.296963,"line":6,"i_long":106.712277,"distance":1994,"is_transit":false,"time":4,"transit":false},{"station_name":"Rawa Buntu","distance":4566,"transit":false,"i_lat":-6.314823,"line":6,"time":6,"is_transit":false,"station_id":"RU","i_long":106.675475},{"is_transit":false,"station_name":"Serpong","station_id":"SRP","distance":2413,"i_long":106.66566,"line":6,"transit":false,"i_lat":-6.319871,"time":4},{"i_long":106.640411,"is_transit":false,"transit":false,"time":4,"station_name":"Cisauk","station_id":"CSK","i_lat":-6.32484,"distance":1784,"line":3},{"station_name":"Cicayur","station_id":"CC","i_lat":-6.329547,"distance":2519,"i_long":106.617853,"time":4,"transit":false,"is_transit":false,"line":3},{"i_long":106.568863,"line":6,"station_name":"Parung Panjang","transit":false,"is_transit":false,"distance":5968,"station_id":"PRP","time":8,"i_lat":-6.3441410000000005},{"station_name":"Cilejit","station_id":"CJT","i_lat":-6.354349,"time":9,"transit":false,"distance":7025,"i_long":106.508482,"line":3,"is_transit":false},{"transit":false,"station_name":"Daru","time":6,"is_transit":false,"i_lat":-6.338021,"i_long":106.491338,"station_id":"DAR","distance":2675,"line":0},{"i_long":106.460812,"station_name":"Tenjo","is_transit":false,"i_lat":-6.327251,"line":6,"time":5,"transit":false,"distance":3902,"station_id":"TEJ"}]]}