{"data":[[{"i_long":106.86807400000001,"transit":false,"distance":0,"station_id":"JNG","is_transit":false,"i_lat":-6.215091,"line":1,"time":0,"station_name":"Jatinegara"},{"distance":3395,"station_id":"KLD","time":3,"station_name":"Klender","is_transit":false,"transit":false,"i_lat":-6.2135,"i_long":106.899548,"line":1},{"is_transit":false,"time":2,"transit":false,"station_name":"Buaran","i_lat":-6.215568,"line":1,"distance":3100,"station_id":"BUA","i_long":106.922662},{"i_long":106.939679,"station_id":"KLDB","line":1,"i_lat":-6.217455,"time":1,"is_transit":false,"transit":false,"distance":1305,"station_name":"Klenderbaru"},{"is_transit":false,"transit":false,"line":1,"station_name":"Cakung","time":8,"distance":1385,"station_id":"CUK","i_lat":-6.219053,"i_long":106.951283},{"i_long":106.977657,"station_id":"KRI","time":3,"distance":3097,"station_name":"Kranji","is_transit":false,"i_lat":-6.224515,"transit":false,"line":1},{"transit":false,"line":1,"time":4,"station_name":"Bekasi","i_lat":-6.236616,"distance":2520,"station_id":"BKS","is_transit":false,"i_long":106.997013},{"transit":false,"station_name":"Bekasi Timur","station_id":"BKST","is_transit":false,"time":2,"distance":2368,"i_lat":-6.248029,"line":1,"i_long":107.016735},{"i_lat":-6.258864,"distance":4460,"station_id":"TB","is_transit":false,"time":7,"station_name":"Tambun","transit":false,"i_long":107.055722,"line":1},{"distance":3420,"i_long":107.083084,"station_name":"Cibitung","station_id":"CIT","transit":false,"line":1,"i_lat":-6.261877,"is_transit":false,"time":3},{"time":2,"distance":2800,"station_id":"TLM","station_name":"Metland Telaga Murni","i_long":107.093313,"line":1,"transit":false,"is_transit":false,"i_lat":-6.262938},{"distance":3689,"is_transit":false,"i_lat":-6.2553149999999995,"station_name":"Cikarang","station_id":"CKR","time":4,"i_long":107.144613,"transit":false,"line":1}]]}