{"data":[[{"station_id":"JNG","is_transit":false,"distance":0,"line":1,"transit":false,"i_long":106.86807400000001,"i_lat":-6.215091,"station_name":"Jatinegara","time":0},{"transit":false,"is_transit":false,"line":1,"station_id":"KLD","station_name":"Klender","i_lat":-6.2135,"time":3,"i_long":106.899548,"distance":3395},{"i_lat":-6.215568,"is_transit":false,"time":2,"distance":3100,"station_name":"Buaran","transit":false,"station_id":"BUA","i_long":106.922662,"line":1},{"station_name":"Klenderbaru","is_transit":false,"time":1,"distance":1305,"i_lat":-6.217455,"i_long":106.939679,"line":1,"station_id":"KLDB","transit":false},{"station_id":"CUK","i_lat":-6.219053,"distance":1385,"is_transit":false,"line":1,"i_long":106.951283,"time":8,"station_name":"Cakung","transit":false},{"station_id":"KRI","station_name":"Kranji","is_transit":false,"transit":false,"i_lat":-6.224515,"i_long":106.977657,"line":1,"time":3,"distance":3097},{"station_id":"BKS","transit":false,"line":1,"station_name":"Bekasi","is_transit":false,"i_long":106.997013,"time":4,"distance":2520,"i_lat":-6.236616},{"is_transit":false,"line":1,"transit":false,"station_id":"BKST","station_name":"Bekasi Timur","distance":2368,"time":2,"i_long":107.016735,"i_lat":-6.248029},{"time":7,"transit":false,"station_id":"TB","is_transit":false,"distance":4460,"i_lat":-6.258864,"line":1,"station_name":"Tambun","i_long":107.055722},{"line":1,"i_lat":-6.261877,"distance":3420,"transit":false,"is_transit":false,"station_id":"CIT","time":3,"i_long":107.083084,"station_name":"Cibitung"},{"i_lat":-6.262938,"i_long":107.093313,"is_transit":false,"station_name":"Metland Telaga Murni","distance":2800,"time":2,"station_id":"TLM","transit":false,"line":1}]]}