{"data":[[{"i_lat":-6.215091,"station_id":"JNG","transit":false,"time":0,"i_long":106.86807400000001,"station_name":"Jatinegara","line":1,"is_transit":false,"distance":0},{"time":2,"distance":1377,"is_transit":false,"line":1,"station_id":"MTR","i_long":106.858896,"transit":false,"i_lat":-6.212485,"station_name":"Matraman"},{"time":2,"i_long":106.84912,"is_transit":false,"transit":false,"station_name":"Manggarai","line":2,"station_id":"MRI","distance":1275,"i_lat":-6.209883}],[{"i_lat":-6.215091,"time":0,"is_transit":false,"distance":0,"line":1,"transit":false,"station_name":"Jatinegara","station_id":"JNG","i_long":106.86807400000001},{"distance":1236,"i_long":106.861737,"transit":false,"station_id":"POK","line":11,"i_lat":-6.209188,"is_transit":false,"time":2,"station_name":"Pondok Jati"},{"is_transit":false,"station_name":"Kramat","station_id":"KMT","i_long":106.855437,"transit":false,"distance":1829,"i_lat":-6.193792,"time":2,"line":11},{"station_name":"Gang Sentiong","transit":false,"is_transit":false,"i_long":106.850107,"line":11,"i_lat":-6.185975,"time":1,"distance":973,"station_id":"GST"},{"i_long":106.84368,"line":11,"is_transit":false,"station_id":"PSE","time":8,"transit":false,"i_lat":-6.174784,"distance":1567,"station_name":"Pasar Senen"},{"time":4,"distance":1436,"i_long":106.839204,"station_name":"Kemayoran","is_transit":false,"transit":false,"station_id":"KMO","i_lat":-6.161728,"line":11},{"station_id":"RJW","line":11,"i_lat":-6.14505,"transit":false,"is_transit":false,"time":5,"distance":1901,"i_long":106.836569,"station_name":"Rajawali"},{"i_long":106.826365,"station_name":"Kampung Bandan","is_transit":true,"station_id":"KPB","i_lat":-6.132549,"time":3,"distance":1444,"line":4,"transit":true},{"i_long":106.79867,"i_lat":-6.144674,"station_name":"Angke","station_id":"AK","line":1,"distance":4102,"is_transit":false,"transit":false,"time":9},{"station_name":"Duri","i_long":106.800832,"station_id":"DU","line":1,"time":4,"transit":false,"is_transit":false,"i_lat":-6.155215,"distance":1230},{"distance":3632,"station_name":"Tanah Abang","is_transit":false,"transit":false,"time":8,"i_lat":-6.185545,"station_id":"THB","i_long":106.811091,"line":1},{"is_transit":false,"time":5,"station_id":"KAT","i_long":106.816351,"distance":2029,"station_name":"Karet","line":1,"i_lat":-6.20132,"transit":false},{"line":1,"i_lat":-6.201433,"transit":false,"is_transit":false,"distance":471,"station_name":"Sudirman Baru","station_id":"SUDB","i_long":106.819881,"time":1},{"transit":false,"i_long":106.822649,"line":1,"station_name":"Sudirman","i_lat":-6.202263,"station_id":"SUD","time":1,"is_transit":false,"distance":280},{"is_transit":false,"station_id":"MRI","i_long":106.84912,"transit":false,"time":4,"station_name":"Manggarai","distance":3186,"i_lat":-6.209883,"line":2}],[{"is_transit":false,"time":0,"i_lat":-6.215091,"station_name":"Jatinegara","station_id":"JNG","line":1,"transit":false,"distance":0,"i_long":106.86807400000001},{"distance":1236,"transit":false,"station_id":"POK","is_transit":false,"i_lat":-6.209188,"station_name":"Pondok Jati","i_long":106.861737,"time":2,"line":11},{"station_id":"KMT","is_transit":false,"i_lat":-6.193792,"distance":1829,"station_name":"Kramat","i_long":106.855437,"line":11,"time":2,"transit":false},{"time":1,"distance":973,"station_id":"GST","station_name":"Gang Sentiong","line":11,"transit":false,"i_long":106.850107,"is_transit":false,"i_lat":-6.185975},{"line":11,"transit":false,"is_transit":false,"i_lat":-6.174784,"time":8,"distance":1567,"station_id":"PSE","i_long":106.84368,"station_name":"Pasar Senen"},{"station_id":"KMO","time":4,"distance":1436,"station_name":"Kemayoran","i_long":106.839204,"transit":false,"is_transit":false,"line":11,"i_lat":-6.161728},{"i_lat":-6.14505,"is_transit":false,"station_id":"RJW","transit":false,"time":5,"distance":1901,"line":11,"i_long":106.836569,"station_name":"Rajawali"},{"i_lat":-6.132549,"i_long":106.826365,"distance":1444,"is_transit":true,"station_id":"KPB","station_name":"Kampung Bandan","line":4,"transit":true,"time":3},{"distance":1364,"i_lat":-6.137569,"station_name":"Jakarta Kota","transit":true,"is_transit":true,"time":3,"station_id":"JAKK","line":2,"i_long":106.812439},{"station_id":"JAY","line":2,"i_lat":-6.141205,"i_long":106.820901,"is_transit":false,"distance":1264,"station_name":"Jayakarta","transit":false,"time":4},{"station_id":"MGB","line":2,"is_transit":false,"station_name":"Manggabesar","time":2,"i_long":106.82482,"transit":false,"i_lat":-6.149769,"distance":1080},{"i_long":106.827103,"transit":false,"distance":906,"station_name":"Sawah Besar","line":2,"i_lat":-6.160725,"is_transit":false,"time":2,"station_id":"SW"},{"transit":false,"station_name":"Juanda","i_long":106.828284,"line":2,"time":2,"station_id":"JUA","is_transit":false,"distance":1149,"i_lat":-6.166716},{"time":4,"station_name":"Gondangdia","station_id":"GDD","distance":2015,"i_lat":-6.186295,"i_long":106.832183,"is_transit":false,"line":2,"transit":false},{"station_name":"Cikini","distance":1750,"time":3,"line":2,"is_transit":false,"station_id":"CKI","i_lat":-6.198556,"i_long":106.840169,"transit":false},{"is_transit":false,"station_id":"MRI","station_name":"Manggarai","time":4,"distance":1590,"line":2,"i_lat":-6.209883,"i_long":106.84912,"transit":false}]]}