{"data":[[{"time":0,"is_transit":false,"line":1,"distance":0,"station_name":"Jatinegara","i_lat":-6.215091,"transit":false,"station_id":"JNG","i_long":106.86807400000001},{"station_id":"POK","i_lat":-6.209188,"time":2,"is_transit":false,"i_long":106.861737,"line":11,"distance":1236,"transit":false,"station_name":"Pondok Jati"},{"transit":false,"line":11,"station_name":"Kramat","time":2,"station_id":"KMT","i_lat":-6.193792,"is_transit":false,"i_long":106.855437,"distance":1829},{"time":1,"i_long":106.850107,"line":11,"station_name":"Gang Sentiong","is_transit":false,"transit":false,"station_id":"GST","distance":973,"i_lat":-6.185975},{"station_id":"PSE","i_long":106.84368,"station_name":"Pasar Senen","distance":1567,"i_lat":-6.174784,"line":11,"time":8,"transit":false,"is_transit":false}],[{"i_lat":-6.215091,"i_long":106.86807400000001,"line":1,"time":0,"distance":0,"station_name":"Jatinegara","station_id":"JNG","is_transit":false,"transit":false},{"i_long":106.858896,"station_id":"MTR","distance":1377,"i_lat":-6.212485,"is_transit":false,"station_name":"Matraman","time":2,"transit":false,"line":1},{"transit":false,"line":2,"station_id":"MRI","station_name":"Manggarai","time":2,"is_transit":false,"i_lat":-6.209883,"i_long":106.84912,"distance":1275},{"distance":3186,"transit":false,"is_transit":false,"i_lat":-6.202263,"station_name":"Sudirman","station_id":"SUD","i_long":106.822649,"line":1,"time":4},{"station_id":"SUDB","station_name":"Sudirman Baru","distance":280,"transit":false,"i_lat":-6.201433,"line":1,"i_long":106.819881,"time":1,"is_transit":false},{"station_name":"Karet","distance":471,"i_lat":-6.20132,"i_long":106.816351,"line":1,"transit":false,"time":1,"station_id":"KAT","is_transit":false},{"i_long":106.811091,"line":1,"is_transit":false,"distance":2029,"station_id":"THB","i_lat":-6.185545,"station_name":"Tanah Abang","transit":false,"time":5},{"distance":3632,"is_transit":false,"time":8,"station_id":"DU","station_name":"Duri","line":1,"i_lat":-6.155215,"transit":false,"i_long":106.800832},{"station_name":"Angke","distance":1230,"time":4,"line":1,"transit":false,"i_lat":-6.144674,"is_transit":false,"station_id":"AK","i_long":106.79867},{"station_id":"KPB","transit":true,"i_lat":-6.132549,"i_long":106.826365,"distance":4102,"is_transit":true,"line":4,"time":9,"station_name":"Kampung Bandan"},{"is_transit":false,"time":3,"i_long":106.836569,"station_name":"Rajawali","line":11,"station_id":"RJW","distance":1444,"i_lat":-6.14505,"transit":false},{"station_name":"Kemayoran","time":5,"distance":1901,"is_transit":false,"station_id":"KMO","line":11,"transit":false,"i_long":106.839204,"i_lat":-6.161728},{"transit":false,"station_id":"PSE","is_transit":false,"i_lat":-6.174784,"distance":1436,"station_name":"Pasar Senen","i_long":106.84368,"line":11,"time":4}],[{"i_lat":-6.215091,"station_id":"JNG","distance":0,"i_long":106.86807400000001,"line":1,"transit":false,"time":0,"station_name":"Jatinegara","is_transit":false},{"station_id":"MTR","is_transit":false,"transit":false,"i_long":106.858896,"time":2,"i_lat":-6.212485,"distance":1377,"line":1,"station_name":"Matraman"},{"time":2,"station_name":"Manggarai","i_long":106.84912,"station_id":"MRI","is_transit":true,"i_lat":-6.209883,"line":2,"transit":true,"distance":1275},{"transit":false,"i_long":106.840169,"station_id":"CKI","is_transit":false,"line":2,"station_name":"Cikini","time":4,"distance":1590,"i_lat":-6.198556},{"station_id":"GDD","line":2,"station_name":"Gondangdia","transit":false,"time":3,"is_transit":false,"distance":1750,"i_lat":-6.186295,"i_long":106.832183},{"time":4,"i_lat":-6.166716,"is_transit":false,"i_long":106.828284,"line":2,"station_id":"JUA","station_name":"Juanda","transit":false,"distance":2015},{"distance":1149,"transit":false,"is_transit":false,"line":2,"station_id":"SW","time":2,"i_long":106.827103,"i_lat":-6.160725,"station_name":"Sawah Besar"},{"is_transit":false,"distance":906,"station_id":"MGB","transit":false,"i_long":106.82482,"station_name":"Manggabesar","time":2,"i_lat":-6.149769,"line":2},{"i_lat":-6.141205,"distance":1080,"transit":false,"time":2,"i_long":106.820901,"is_transit":false,"station_id":"JAY","line":2,"station_name":"Jayakarta"},{"station_id":"JAKK","station_name":"Jakarta Kota","i_lat":-6.137569,"is_transit":true,"transit":true,"i_long":106.812439,"line":2,"distance":1264,"time":4},{"i_lat":-6.132549,"distance":1364,"station_id":"KPB","time":3,"is_transit":true,"transit":true,"station_name":"Kampung Bandan","i_long":106.826365,"line":4},{"station_id":"RJW","distance":1444,"line":11,"station_name":"Rajawali","time":3,"i_lat":-6.14505,"i_long":106.836569,"transit":false,"is_transit":false},{"line":11,"i_long":106.839204,"transit":false,"i_lat":-6.161728,"time":5,"distance":1901,"is_transit":false,"station_name":"Kemayoran","station_id":"KMO"},{"transit":false,"i_long":106.84368,"distance":1436,"i_lat":-6.174784,"line":11,"station_id":"PSE","time":4,"station_name":"Pasar Senen","is_transit":false}]]}