{"data":[[{"distance":0,"i_lat":-6.215091,"time":0,"line":1,"is_transit":false,"i_long":106.86807400000001,"transit":false,"station_name":"Jatinegara","station_id":"JNG"},{"station_name":"Matraman","transit":false,"is_transit":false,"time":2,"line":1,"station_id":"MTR","i_long":106.858896,"distance":1377,"i_lat":-6.212485},{"station_id":"MRI","transit":false,"distance":1275,"line":2,"i_lat":-6.209883,"station_name":"Manggarai","i_long":106.84912,"is_transit":false,"time":2},{"station_name":"Sudirman","transit":false,"distance":3186,"station_id":"SUD","time":4,"i_lat":-6.202263,"is_transit":false,"i_long":106.822649,"line":1},{"station_id":"SUDB","station_name":"Sudirman Baru","is_transit":false,"transit":false,"i_lat":-6.201433,"time":1,"line":1,"distance":280,"i_long":106.819881},{"transit":false,"is_transit":false,"time":1,"station_id":"KAT","i_lat":-6.20132,"distance":471,"i_long":106.816351,"line":1,"station_name":"Karet"},{"station_name":"Tanah Abang","station_id":"THB","i_long":106.811091,"distance":2029,"transit":true,"line":1,"time":5,"i_lat":-6.185545,"is_transit":true},{"station_name":"Palmerah","time":6,"is_transit":false,"station_id":"PLM","line":6,"transit":false,"i_lat":-6.207404,"i_long":106.79689,"distance":3191},{"time":7,"station_name":"Kebayoran","distance":3737,"station_id":"KBY","i_long":106.780334,"line":6,"is_transit":false,"transit":false,"i_lat":-6.237242},{"distance":6218,"time":8,"i_long":106.74273,"line":6,"i_lat":-6.276362,"station_id":"PDJ","transit":false,"is_transit":false,"station_name":"Pondokranji"},{"station_name":"Jurangmangu","transit":false,"i_long":106.728916,"time":3,"distance":2179,"station_id":"JMU","is_transit":false,"i_lat":-6.288927,"line":6},{"time":4,"is_transit":false,"i_long":106.712277,"distance":1994,"station_name":"Sudimara","i_lat":-6.296963,"transit":false,"line":6,"station_id":"SDM"},{"distance":4566,"transit":false,"line":6,"station_id":"RU","time":6,"i_lat":-6.314823,"is_transit":false,"station_name":"Rawa Buntu","i_long":106.675475},{"i_lat":-6.319871,"is_transit":false,"time":4,"distance":2413,"transit":false,"line":6,"station_name":"Serpong","i_long":106.66566,"station_id":"SRP"},{"station_name":"Cisauk","is_transit":false,"time":4,"line":3,"transit":false,"i_long":106.640411,"i_lat":-6.32484,"distance":1784,"station_id":"CSK"},{"i_long":106.617853,"i_lat":-6.329547,"line":3,"transit":false,"station_name":"Cicayur","is_transit":false,"station_id":"CC","distance":2519,"time":4},{"is_transit":false,"time":8,"transit":false,"i_long":106.568863,"station_id":"PRP","station_name":"Parung Panjang","distance":5968,"line":6,"i_lat":-6.3441410000000005},{"i_long":106.508482,"is_transit":false,"station_name":"Cilejit","distance":7025,"time":9,"i_lat":-6.354349,"line":3,"transit":false,"station_id":"CJT"},{"i_long":106.491338,"line":0,"distance":2675,"station_name":"Daru","i_lat":-6.338021,"station_id":"DAR","time":6,"is_transit":false,"transit":false},{"time":5,"transit":false,"station_id":"TEJ","i_long":106.460812,"distance":3902,"station_name":"Tenjo","is_transit":false,"line":6,"i_lat":-6.327251}],[{"distance":0,"station_name":"Jatinegara","station_id":"JNG","is_transit":false,"i_lat":-6.215091,"transit":false,"i_long":106.86807400000001,"line":1,"time":0},{"distance":1236,"transit":false,"i_long":106.861737,"time":2,"is_transit":false,"line":11,"station_name":"Pondok Jati","i_lat":-6.209188,"station_id":"POK"},{"is_transit":false,"transit":false,"time":2,"i_lat":-6.193792,"i_long":106.855437,"line":11,"station_id":"KMT","distance":1829,"station_name":"Kramat"},{"i_long":106.850107,"line":11,"distance":973,"station_name":"Gang Sentiong","station_id":"GST","transit":false,"i_lat":-6.185975,"time":1,"is_transit":false},{"is_transit":false,"distance":1567,"line":11,"transit":false,"station_name":"Pasar Senen","i_lat":-6.174784,"i_long":106.84368,"station_id":"PSE","time":8},{"i_long":106.839204,"distance":1436,"station_id":"KMO","line":11,"transit":false,"time":4,"station_name":"Kemayoran","i_lat":-6.161728,"is_transit":false},{"distance":1901,"i_long":106.836569,"time":5,"station_name":"Rajawali","station_id":"RJW","transit":false,"is_transit":false,"line":11,"i_lat":-6.14505},{"distance":1444,"transit":true,"i_lat":-6.132549,"i_long":106.826365,"station_name":"Kampung Bandan","is_transit":true,"line":4,"time":3,"station_id":"KPB"},{"station_name":"Angke","i_lat":-6.144674,"is_transit":false,"i_long":106.79867,"distance":4102,"line":1,"station_id":"AK","transit":false,"time":9},{"transit":false,"distance":1230,"station_id":"DU","station_name":"Duri","i_long":106.800832,"line":1,"time":4,"i_lat":-6.155215,"is_transit":false},{"time":8,"line":1,"transit":true,"station_name":"Tanah Abang","i_lat":-6.185545,"is_transit":true,"i_long":106.811091,"station_id":"THB","distance":3632},{"station_id":"PLM","i_lat":-6.207404,"i_long":106.79689,"time":6,"line":6,"station_name":"Palmerah","transit":false,"distance":3191,"is_transit":false},{"i_lat":-6.237242,"distance":3737,"transit":false,"time":7,"station_id":"KBY","is_transit":false,"i_long":106.780334,"station_name":"Kebayoran","line":6},{"line":6,"distance":6218,"i_long":106.74273,"station_id":"PDJ","station_name":"Pondokranji","time":8,"transit":false,"is_transit":false,"i_lat":-6.276362},{"time":3,"transit":false,"i_lat":-6.288927,"i_long":106.728916,"is_transit":false,"station_id":"JMU","distance":2179,"line":6,"station_name":"Jurangmangu"},{"i_lat":-6.296963,"i_long":106.712277,"line":6,"transit":false,"time":4,"distance":1994,"station_name":"Sudimara","is_transit":false,"station_id":"SDM"},{"is_transit":false,"time":6,"station_name":"Rawa Buntu","station_id":"RU","i_lat":-6.314823,"i_long":106.675475,"line":6,"transit":false,"distance":4566},{"i_lat":-6.319871,"time":4,"is_transit":false,"i_long":106.66566,"line":6,"transit":false,"distance":2413,"station_id":"SRP","station_name":"Serpong"},{"time":4,"station_name":"Cisauk","is_transit":false,"i_long":106.640411,"line":3,"transit":false,"distance":1784,"i_lat":-6.32484,"station_id":"CSK"},{"station_name":"Cicayur","i_lat":-6.329547,"distance":2519,"time":4,"transit":false,"line":3,"i_long":106.617853,"is_transit":false,"station_id":"CC"},{"time":8,"distance":5968,"line":6,"i_lat":-6.3441410000000005,"is_transit":false,"transit":false,"i_long":106.568863,"station_id":"PRP","station_name":"Parung Panjang"},{"is_transit":false,"station_id":"CJT","transit":false,"distance":7025,"station_name":"Cilejit","line":3,"time":9,"i_lat":-6.354349,"i_long":106.508482},{"is_transit":false,"i_long":106.491338,"line":0,"transit":false,"distance":2675,"station_name":"Daru","station_id":"DAR","time":6,"i_lat":-6.338021},{"time":5,"distance":3902,"station_name":"Tenjo","i_lat":-6.327251,"i_long":106.460812,"line":6,"is_transit":false,"station_id":"TEJ","transit":false}],[{"i_long":106.86807400000001,"i_lat":-6.215091,"is_transit":false,"transit":false,"distance":0,"station_name":"Jatinegara","line":1,"station_id":"JNG","time":0},{"is_transit":false,"station_id":"MTR","i_long":106.858896,"station_name":"Matraman","transit":false,"distance":1377,"time":2,"line":1,"i_lat":-6.212485},{"distance":1275,"time":2,"station_name":"Manggarai","i_lat":-6.209883,"i_long":106.84912,"is_transit":true,"station_id":"MRI","transit":true,"line":2},{"is_transit":false,"distance":1590,"station_id":"CKI","transit":false,"station_name":"Cikini","time":4,"i_lat":-6.198556,"i_long":106.840169,"line":2},{"station_name":"Gondangdia","time":3,"i_lat":-6.186295,"i_long":106.832183,"line":2,"transit":false,"is_transit":false,"distance":1750,"station_id":"GDD"},{"i_lat":-6.166716,"transit":false,"time":4,"station_id":"JUA","line":2,"station_name":"Juanda","distance":2015,"i_long":106.828284,"is_transit":false},{"station_id":"SW","i_long":106.827103,"line":2,"i_lat":-6.160725,"transit":false,"distance":1149,"is_transit":false,"station_name":"Sawah Besar","time":2},{"time":2,"i_lat":-6.149769,"station_id":"MGB","i_long":106.82482,"is_transit":false,"distance":906,"transit":false,"station_name":"Manggabesar","line":2},{"transit":false,"distance":1080,"i_lat":-6.141205,"station_name":"Jayakarta","i_long":106.820901,"station_id":"JAY","time":2,"line":2,"is_transit":false},{"is_transit":true,"time":4,"station_name":"Jakarta Kota","station_id":"JAKK","distance":1264,"transit":true,"i_lat":-6.137569,"i_long":106.812439,"line":2},{"transit":true,"is_transit":true,"station_id":"KPB","i_long":106.826365,"i_lat":-6.132549,"distance":1364,"station_name":"Kampung Bandan","line":4,"time":3},{"is_transit":false,"i_lat":-6.144674,"transit":false,"time":9,"station_name":"Angke","line":1,"distance":4102,"station_id":"AK","i_long":106.79867},{"station_id":"DU","is_transit":false,"station_name":"Duri","transit":false,"time":4,"distance":1230,"line":1,"i_long":106.800832,"i_lat":-6.155215},{"station_id":"THB","i_lat":-6.185545,"transit":true,"time":8,"line":1,"i_long":106.811091,"distance":3632,"is_transit":true,"station_name":"Tanah Abang"},{"station_id":"PLM","is_transit":false,"i_lat":-6.207404,"transit":false,"i_long":106.79689,"distance":3191,"station_name":"Palmerah","time":6,"line":6},{"i_long":106.780334,"time":7,"i_lat":-6.237242,"is_transit":false,"station_id":"KBY","transit":false,"line":6,"distance":3737,"station_name":"Kebayoran"},{"station_name":"Pondokranji","distance":6218,"is_transit":false,"i_lat":-6.276362,"station_id":"PDJ","transit":false,"time":8,"line":6,"i_long":106.74273},{"transit":false,"distance":2179,"is_transit":false,"i_long":106.728916,"station_name":"Jurangmangu","line":6,"time":3,"station_id":"JMU","i_lat":-6.288927},{"is_transit":false,"line":6,"transit":false,"station_name":"Sudimara","i_lat":-6.296963,"station_id":"SDM","time":4,"i_long":106.712277,"distance":1994},{"distance":4566,"station_id":"RU","is_transit":false,"station_name":"Rawa Buntu","line":6,"transit":false,"i_long":106.675475,"i_lat":-6.314823,"time":6},{"station_id":"SRP","time":4,"transit":false,"line":6,"i_lat":-6.319871,"station_name":"Serpong","is_transit":false,"i_long":106.66566,"distance":2413},{"i_long":106.640411,"station_name":"Cisauk","line":3,"transit":false,"is_transit":false,"station_id":"CSK","time":4,"distance":1784,"i_lat":-6.32484},{"i_lat":-6.329547,"distance":2519,"time":4,"station_id":"CC","line":3,"is_transit":false,"station_name":"Cicayur","i_long":106.617853,"transit":false},{"station_name":"Parung Panjang","transit":false,"time":8,"i_lat":-6.3441410000000005,"line":6,"is_transit":false,"distance":5968,"station_id":"PRP","i_long":106.568863},{"i_lat":-6.354349,"station_name":"Cilejit","i_long":106.508482,"time":9,"line":3,"station_id":"CJT","is_transit":false,"distance":7025,"transit":false},{"i_long":106.491338,"station_id":"DAR","time":6,"distance":2675,"is_transit":false,"i_lat":-6.338021,"transit":false,"station_name":"Daru","line":0},{"time":5,"is_transit":false,"i_long":106.460812,"distance":3902,"station_id":"TEJ","station_name":"Tenjo","line":6,"transit":false,"i_lat":-6.327251}],[{"i_lat":-6.215091,"transit":false,"is_transit":false,"time":0,"i_long":106.86807400000001,"distance":0,"station_id":"JNG","station_name":"Jatinegara","line":1},{"transit":false,"is_transit":false,"station_name":"Pondok Jati","distance":1236,"station_id":"POK","i_lat":-6.209188,"i_long":106.861737,"time":2,"line":11},{"i_lat":-6.193792,"transit":false,"is_transit":false,"distance":1829,"station_name":"Kramat","station_id":"KMT","i_long":106.855437,"line":11,"time":2},{"transit":false,"is_transit":false,"station_id":"GST","line":11,"station_name":"Gang Sentiong","distance":973,"time":1,"i_lat":-6.185975,"i_long":106.850107},{"transit":false,"station_name":"Pasar Senen","is_transit":false,"i_lat":-6.174784,"station_id":"PSE","i_long":106.84368,"line":11,"distance":1567,"time":8},{"is_transit":false,"transit":false,"time":4,"distance":1436,"i_lat":-6.161728,"station_name":"Kemayoran","station_id":"KMO","i_long":106.839204,"line":11},{"transit":false,"station_id":"RJW","station_name":"Rajawali","time":5,"distance":1901,"i_long":106.836569,"i_lat":-6.14505,"is_transit":false,"line":11},{"transit":true,"station_id":"KPB","i_long":106.826365,"is_transit":true,"i_lat":-6.132549,"distance":1444,"time":3,"line":4,"station_name":"Kampung Bandan"},{"line":2,"transit":true,"station_id":"JAKK","is_transit":true,"distance":1364,"time":3,"i_lat":-6.137569,"i_long":106.812439,"station_name":"Jakarta Kota"},{"transit":false,"time":4,"i_long":106.820901,"distance":1264,"station_name":"Jayakarta","i_lat":-6.141205,"station_id":"JAY","is_transit":false,"line":2},{"distance":1080,"time":2,"station_id":"MGB","station_name":"Manggabesar","line":2,"i_long":106.82482,"i_lat":-6.149769,"transit":false,"is_transit":false},{"line":2,"i_lat":-6.160725,"is_transit":false,"time":2,"transit":false,"distance":906,"station_id":"SW","station_name":"Sawah Besar","i_long":106.827103},{"transit":false,"distance":1149,"station_id":"JUA","station_name":"Juanda","i_lat":-6.166716,"is_transit":false,"time":2,"i_long":106.828284,"line":2},{"is_transit":false,"distance":2015,"line":2,"time":4,"station_id":"GDD","transit":false,"i_lat":-6.186295,"station_name":"Gondangdia","i_long":106.832183},{"line":2,"station_id":"CKI","i_lat":-6.198556,"is_transit":false,"distance":1750,"time":3,"transit":false,"station_name":"Cikini","i_long":106.840169},{"station_name":"Manggarai","i_lat":-6.209883,"time":4,"i_long":106.84912,"transit":true,"is_transit":true,"distance":1590,"station_id":"MRI","line":2},{"is_transit":false,"time":4,"i_long":106.822649,"station_name":"Sudirman","line":1,"transit":false,"distance":3186,"station_id":"SUD","i_lat":-6.202263},{"transit":false,"is_transit":false,"station_id":"SUDB","station_name":"Sudirman Baru","i_lat":-6.201433,"i_long":106.819881,"distance":280,"time":1,"line":1},{"station_name":"Karet","i_long":106.816351,"line":1,"is_transit":false,"i_lat":-6.20132,"distance":471,"time":1,"station_id":"KAT","transit":false},{"distance":2029,"station_id":"THB","transit":true,"station_name":"Tanah Abang","time":5,"i_long":106.811091,"is_transit":true,"line":1,"i_lat":-6.185545},{"line":6,"is_transit":false,"transit":false,"station_id":"PLM","time":6,"i_long":106.79689,"station_name":"Palmerah","i_lat":-6.207404,"distance":3191},{"i_long":106.780334,"transit":false,"i_lat":-6.237242,"line":6,"is_transit":false,"time":7,"distance":3737,"station_id":"KBY","station_name":"Kebayoran"},{"i_long":106.74273,"time":8,"station_id":"PDJ","station_name":"Pondokranji","line":6,"i_lat":-6.276362,"distance":6218,"transit":false,"is_transit":false},{"station_id":"JMU","line":6,"i_long":106.728916,"i_lat":-6.288927,"station_name":"Jurangmangu","transit":false,"is_transit":false,"distance":2179,"time":3},{"time":4,"station_name":"Sudimara","line":6,"i_long":106.712277,"i_lat":-6.296963,"is_transit":false,"distance":1994,"transit":false,"station_id":"SDM"},{"station_id":"RU","station_name":"Rawa Buntu","time":6,"i_long":106.675475,"i_lat":-6.314823,"transit":false,"is_transit":false,"line":6,"distance":4566},{"i_lat":-6.319871,"is_transit":false,"station_id":"SRP","distance":2413,"station_name":"Serpong","time":4,"i_long":106.66566,"transit":false,"line":6},{"time":4,"is_transit":false,"transit":false,"station_id":"CSK","station_name":"Cisauk","i_long":106.640411,"line":3,"distance":1784,"i_lat":-6.32484},{"time":4,"distance":2519,"station_name":"Cicayur","i_long":106.617853,"station_id":"CC","is_transit":false,"i_lat":-6.329547,"transit":false,"line":3},{"station_id":"PRP","distance":5968,"time":8,"i_lat":-6.3441410000000005,"i_long":106.568863,"transit":false,"is_transit":false,"station_name":"Parung Panjang","line":6},{"i_long":106.508482,"line":3,"distance":7025,"is_transit":false,"station_id":"CJT","station_name":"Cilejit","transit":false,"time":9,"i_lat":-6.354349},{"station_name":"Daru","distance":2675,"transit":false,"time":6,"i_long":106.491338,"i_lat":-6.338021,"station_id":"DAR","line":0,"is_transit":false},{"station_id":"TEJ","is_transit":false,"station_name":"Tenjo","i_lat":-6.327251,"line":6,"transit":false,"distance":3902,"i_long":106.460812,"time":5}]]}