{"data":[[{"is_transit":false,"i_long":106.86807400000001,"station_id":"JNG","station_name":"Jatinegara","line":1,"transit":false,"i_lat":-6.215091,"distance":0,"time":0},{"i_long":106.858896,"time":2,"line":1,"station_id":"MTR","transit":false,"distance":1377,"i_lat":-6.212485,"station_name":"Matraman","is_transit":false},{"station_id":"MRI","transit":true,"is_transit":true,"i_lat":-6.209883,"distance":1275,"line":2,"time":2,"station_name":"Manggarai","i_long":106.84912},{"time":4,"station_id":"TEB","distance":2610,"i_long":106.857948,"is_transit":false,"i_lat":-6.226659,"transit":false,"station_name":"Tebet","line":2},{"is_transit":false,"transit":false,"station_name":"Cawang","line":2,"i_long":106.856607,"station_id":"CW","i_lat":-6.242512,"time":2,"distance":1230},{"transit":false,"line":2,"station_name":"Duren Kalibata","time":3,"i_lat":-6.255332,"is_transit":false,"distance":1546,"station_id":"DRN","i_long":106.85449},{"station_id":"PSMB","i_long":106.851577,"is_transit":false,"line":2,"transit":false,"station_name":"Pasar Minggu Baru","i_lat":-6.263214,"time":2,"distance":824},{"transit":false,"is_transit":false,"distance":2380,"time":2,"station_name":"Pasar Minggu","i_long":106.843999,"line":2,"station_id":"PSM","i_lat":-6.2842400000000005},{"is_transit":false,"station_id":"TNT","station_name":"Tanjung Barat","i_lat":-6.3080680000000005,"distance":2820,"transit":false,"line":2,"time":4,"i_long":106.838896},{"i_lat":-6.330363,"time":3,"i_long":106.832616,"station_id":"LNA","station_name":"Lenteng Agung","distance":2671,"is_transit":false,"transit":false,"line":2},{"station_name":"Univ. Pancasila","i_lat":-6.339291,"i_long":106.834175,"line":2,"is_transit":false,"transit":false,"time":2,"distance":1029,"station_id":"UP"},{"time":3,"line":2,"distance":2264,"station_name":"Univ. Indonesia","i_lat":-6.360749,"station_id":"UI","transit":false,"is_transit":false,"i_long":106.831474},{"station_name":"Pondok Cina","line":2,"is_transit":false,"time":2,"transit":false,"distance":1109,"i_lat":-6.369073,"station_id":"POC","i_long":106.831114},{"distance":2727,"station_id":"DPB","is_transit":false,"station_name":"Depokbaru","line":2,"i_lat":-6.391065,"i_long":106.819451,"transit":false,"time":4},{"station_name":"Depok","i_long":106.816926,"distance":1584,"station_id":"DP","i_lat":-6.405256,"line":2,"time":3,"transit":false,"is_transit":false},{"is_transit":false,"station_name":"Citayam","transit":false,"time":6,"i_lat":-6.448811,"line":2,"i_long":106.800298,"distance":5084,"station_id":"CTA"}],[{"transit":false,"i_lat":-6.215091,"line":1,"station_name":"Jatinegara","distance":0,"station_id":"JNG","time":0,"is_transit":false,"i_long":106.86807400000001},{"station_name":"Pondok Jati","is_transit":false,"i_lat":-6.209188,"time":2,"line":11,"i_long":106.861737,"transit":false,"station_id":"POK","distance":1236},{"station_id":"KMT","distance":1829,"is_transit":false,"transit":false,"i_lat":-6.193792,"i_long":106.855437,"line":11,"station_name":"Kramat","time":2},{"station_id":"GST","transit":false,"i_long":106.850107,"i_lat":-6.185975,"time":1,"station_name":"Gang Sentiong","is_transit":false,"distance":973,"line":11},{"line":11,"i_lat":-6.174784,"station_id":"PSE","station_name":"Pasar Senen","i_long":106.84368,"transit":false,"time":8,"distance":1567,"is_transit":false},{"is_transit":false,"line":11,"station_id":"KMO","i_lat":-6.161728,"time":4,"distance":1436,"station_name":"Kemayoran","i_long":106.839204,"transit":false},{"station_id":"RJW","station_name":"Rajawali","is_transit":false,"distance":1901,"i_lat":-6.14505,"i_long":106.836569,"time":5,"line":11,"transit":false},{"i_lat":-6.132549,"line":4,"station_id":"KPB","is_transit":true,"distance":1444,"time":3,"station_name":"Kampung Bandan","transit":true,"i_long":106.826365},{"i_long":106.79867,"time":9,"station_id":"AK","transit":false,"line":1,"is_transit":false,"i_lat":-6.144674,"station_name":"Angke","distance":4102},{"distance":1230,"is_transit":false,"i_long":106.800832,"line":1,"transit":false,"station_name":"Duri","i_lat":-6.155215,"station_id":"DU","time":4},{"i_lat":-6.185545,"is_transit":false,"transit":false,"time":8,"station_id":"THB","i_long":106.811091,"distance":3632,"line":1,"station_name":"Tanah Abang"},{"time":5,"transit":false,"station_name":"Karet","is_transit":false,"i_lat":-6.20132,"i_long":106.816351,"station_id":"KAT","line":1,"distance":2029},{"transit":false,"time":1,"is_transit":false,"i_lat":-6.201433,"i_long":106.819881,"distance":471,"station_name":"Sudirman Baru","station_id":"SUDB","line":1},{"distance":280,"station_name":"Sudirman","is_transit":false,"i_lat":-6.202263,"i_long":106.822649,"line":1,"transit":false,"time":1,"station_id":"SUD"},{"i_lat":-6.209883,"is_transit":true,"station_name":"Manggarai","transit":true,"station_id":"MRI","time":4,"distance":3186,"line":2,"i_long":106.84912},{"station_name":"Tebet","line":2,"i_long":106.857948,"distance":2610,"station_id":"TEB","time":4,"transit":false,"i_lat":-6.226659,"is_transit":false},{"time":2,"station_id":"CW","station_name":"Cawang","is_transit":false,"transit":false,"i_long":106.856607,"distance":1230,"line":2,"i_lat":-6.242512},{"distance":1546,"line":2,"time":3,"is_transit":false,"i_long":106.85449,"station_name":"Duren Kalibata","i_lat":-6.255332,"station_id":"DRN","transit":false},{"time":2,"station_id":"PSMB","transit":false,"is_transit":false,"station_name":"Pasar Minggu Baru","i_long":106.851577,"i_lat":-6.263214,"line":2,"distance":824},{"i_lat":-6.2842400000000005,"line":2,"transit":false,"is_transit":false,"distance":2380,"station_name":"Pasar Minggu","i_long":106.843999,"time":2,"station_id":"PSM"},{"time":4,"i_long":106.838896,"station_id":"TNT","is_transit":false,"i_lat":-6.3080680000000005,"distance":2820,"station_name":"Tanjung Barat","transit":false,"line":2},{"time":3,"i_long":106.832616,"distance":2671,"station_name":"Lenteng Agung","i_lat":-6.330363,"line":2,"transit":false,"station_id":"LNA","is_transit":false},{"transit":false,"time":2,"station_name":"Univ. Pancasila","is_transit":false,"i_long":106.834175,"line":2,"distance":1029,"i_lat":-6.339291,"station_id":"UP"},{"station_id":"UI","station_name":"Univ. Indonesia","line":2,"is_transit":false,"transit":false,"time":3,"i_long":106.831474,"distance":2264,"i_lat":-6.360749},{"station_id":"POC","time":2,"i_lat":-6.369073,"distance":1109,"station_name":"Pondok Cina","i_long":106.831114,"line":2,"transit":false,"is_transit":false},{"station_id":"DPB","time":4,"i_long":106.819451,"distance":2727,"station_name":"Depokbaru","transit":false,"line":2,"is_transit":false,"i_lat":-6.391065},{"distance":1584,"i_long":106.816926,"i_lat":-6.405256,"station_name":"Depok","is_transit":false,"line":2,"transit":false,"time":3,"station_id":"DP"},{"distance":5084,"i_lat":-6.448811,"is_transit":false,"i_long":106.800298,"transit":false,"station_id":"CTA","line":2,"station_name":"Citayam","time":6}],[{"station_name":"Jatinegara","i_lat":-6.215091,"time":0,"distance":0,"i_long":106.86807400000001,"line":1,"transit":false,"station_id":"JNG","is_transit":false},{"station_name":"Pondok Jati","i_lat":-6.209188,"station_id":"POK","distance":1236,"is_transit":false,"transit":false,"time":2,"i_long":106.861737,"line":11},{"is_transit":false,"station_name":"Kramat","line":11,"distance":1829,"time":2,"transit":false,"i_lat":-6.193792,"i_long":106.855437,"station_id":"KMT"},{"distance":973,"i_long":106.850107,"station_id":"GST","station_name":"Gang Sentiong","line":11,"transit":false,"is_transit":false,"i_lat":-6.185975,"time":1},{"i_lat":-6.174784,"transit":false,"i_long":106.84368,"time":8,"distance":1567,"station_name":"Pasar Senen","is_transit":false,"station_id":"PSE","line":11},{"station_id":"KMO","distance":1436,"transit":false,"time":4,"is_transit":false,"station_name":"Kemayoran","i_lat":-6.161728,"i_long":106.839204,"line":11},{"distance":1901,"i_lat":-6.14505,"line":11,"time":5,"transit":false,"station_id":"RJW","station_name":"Rajawali","i_long":106.836569,"is_transit":false},{"transit":true,"station_id":"KPB","is_transit":true,"i_long":106.826365,"line":4,"station_name":"Kampung Bandan","i_lat":-6.132549,"time":3,"distance":1444},{"line":2,"i_long":106.812439,"distance":1364,"time":3,"transit":true,"is_transit":true,"station_id":"JAKK","station_name":"Jakarta Kota","i_lat":-6.137569},{"transit":false,"is_transit":false,"i_long":106.820901,"station_name":"Jayakarta","distance":1264,"time":4,"line":2,"station_id":"JAY","i_lat":-6.141205},{"time":2,"transit":false,"distance":1080,"is_transit":false,"station_name":"Manggabesar","i_lat":-6.149769,"i_long":106.82482,"line":2,"station_id":"MGB"},{"is_transit":false,"i_long":106.827103,"line":2,"time":2,"transit":false,"station_id":"SW","distance":906,"i_lat":-6.160725,"station_name":"Sawah Besar"},{"is_transit":false,"i_lat":-6.166716,"station_name":"Juanda","line":2,"station_id":"JUA","i_long":106.828284,"time":2,"distance":1149,"transit":false},{"is_transit":false,"time":4,"i_lat":-6.186295,"i_long":106.832183,"line":2,"distance":2015,"station_name":"Gondangdia","transit":false,"station_id":"GDD"},{"is_transit":false,"line":2,"station_id":"CKI","i_long":106.840169,"transit":false,"station_name":"Cikini","i_lat":-6.198556,"distance":1750,"time":3},{"time":4,"i_lat":-6.209883,"station_id":"MRI","i_long":106.84912,"station_name":"Manggarai","distance":1590,"transit":false,"line":2,"is_transit":false},{"distance":2610,"time":4,"station_name":"Tebet","transit":false,"station_id":"TEB","i_long":106.857948,"line":2,"i_lat":-6.226659,"is_transit":false},{"is_transit":false,"station_name":"Cawang","station_id":"CW","time":2,"i_lat":-6.242512,"i_long":106.856607,"distance":1230,"line":2,"transit":false},{"station_id":"DRN","line":2,"time":3,"is_transit":false,"distance":1546,"station_name":"Duren Kalibata","transit":false,"i_lat":-6.255332,"i_long":106.85449},{"line":2,"is_transit":false,"i_long":106.851577,"station_id":"PSMB","i_lat":-6.263214,"transit":false,"station_name":"Pasar Minggu Baru","time":2,"distance":824},{"line":2,"distance":2380,"station_name":"Pasar Minggu","time":2,"is_transit":false,"i_lat":-6.2842400000000005,"station_id":"PSM","transit":false,"i_long":106.843999},{"distance":2820,"station_id":"TNT","i_long":106.838896,"i_lat":-6.3080680000000005,"line":2,"transit":false,"station_name":"Tanjung Barat","time":4,"is_transit":false},{"time":3,"transit":false,"station_id":"LNA","i_long":106.832616,"is_transit":false,"distance":2671,"i_lat":-6.330363,"line":2,"station_name":"Lenteng Agung"},{"i_long":106.834175,"station_name":"Univ. Pancasila","time":2,"distance":1029,"transit":false,"i_lat":-6.339291,"is_transit":false,"station_id":"UP","line":2},{"distance":2264,"i_long":106.831474,"time":3,"station_name":"Univ. Indonesia","station_id":"UI","transit":false,"line":2,"is_transit":false,"i_lat":-6.360749},{"distance":1109,"station_id":"POC","time":2,"station_name":"Pondok Cina","transit":false,"i_long":106.831114,"is_transit":false,"i_lat":-6.369073,"line":2},{"i_lat":-6.391065,"station_name":"Depokbaru","transit":false,"time":4,"line":2,"distance":2727,"station_id":"DPB","is_transit":false,"i_long":106.819451},{"time":3,"line":2,"distance":1584,"station_id":"DP","i_lat":-6.405256,"transit":false,"is_transit":false,"i_long":106.816926,"station_name":"Depok"},{"distance":5084,"time":6,"station_id":"CTA","i_long":106.800298,"station_name":"Citayam","is_transit":false,"transit":false,"i_lat":-6.448811,"line":2}]]}