{"data":[[{"i_lat":-6.215091,"station_id":"JNG","i_long":106.86807400000001,"time":0,"station_name":"Jatinegara","transit":false,"is_transit":false,"distance":0,"line":1},{"station_id":"MTR","is_transit":false,"transit":false,"station_name":"Matraman","time":2,"i_lat":-6.212485,"line":1,"distance":1377,"i_long":106.858896},{"i_long":106.84912,"time":2,"transit":false,"distance":1275,"station_name":"Manggarai","line":2,"station_id":"MRI","is_transit":false,"i_lat":-6.209883},{"station_name":"Sudirman","distance":3186,"i_lat":-6.202263,"is_transit":false,"transit":false,"station_id":"SUD","line":1,"time":4,"i_long":106.822649},{"time":1,"distance":280,"line":1,"i_long":106.819881,"i_lat":-6.201433,"is_transit":false,"station_name":"Sudirman Baru","transit":false,"station_id":"SUDB"},{"station_name":"Karet","is_transit":false,"line":1,"transit":false,"i_lat":-6.20132,"time":1,"station_id":"KAT","distance":471,"i_long":106.816351},{"station_name":"Tanah Abang","distance":2029,"i_lat":-6.185545,"i_long":106.811091,"station_id":"THB","is_transit":true,"line":1,"transit":true,"time":5},{"i_lat":-6.207404,"time":6,"station_id":"PLM","station_name":"Palmerah","distance":3191,"i_long":106.79689,"line":6,"transit":false,"is_transit":false},{"station_id":"KBY","station_name":"Kebayoran","i_long":106.780334,"line":6,"is_transit":false,"transit":false,"time":7,"distance":3737,"i_lat":-6.237242},{"station_name":"Pondokranji","transit":false,"i_long":106.74273,"is_transit":false,"time":8,"line":6,"distance":6218,"station_id":"PDJ","i_lat":-6.276362},{"transit":false,"i_lat":-6.288927,"station_name":"Jurangmangu","i_long":106.728916,"distance":2179,"line":6,"time":3,"station_id":"JMU","is_transit":false}],[{"distance":0,"is_transit":false,"transit":false,"line":1,"i_lat":-6.215091,"station_name":"Jatinegara","i_long":106.86807400000001,"station_id":"JNG","time":0},{"station_id":"POK","station_name":"Pondok Jati","distance":1236,"i_long":106.861737,"line":11,"is_transit":false,"transit":false,"time":2,"i_lat":-6.209188},{"is_transit":false,"time":2,"transit":false,"station_name":"Kramat","station_id":"KMT","line":11,"distance":1829,"i_long":106.855437,"i_lat":-6.193792},{"time":1,"i_lat":-6.185975,"line":11,"station_name":"Gang Sentiong","distance":973,"station_id":"GST","i_long":106.850107,"transit":false,"is_transit":false},{"i_lat":-6.174784,"i_long":106.84368,"station_id":"PSE","line":11,"is_transit":false,"transit":false,"station_name":"Pasar Senen","time":8,"distance":1567},{"station_name":"Kemayoran","station_id":"KMO","line":11,"distance":1436,"i_long":106.839204,"transit":false,"is_transit":false,"time":4,"i_lat":-6.161728},{"station_id":"RJW","distance":1901,"i_lat":-6.14505,"transit":false,"station_name":"Rajawali","time":5,"line":11,"is_transit":false,"i_long":106.836569},{"line":4,"station_id":"KPB","station_name":"Kampung Bandan","is_transit":true,"i_lat":-6.132549,"distance":1444,"time":3,"transit":true,"i_long":106.826365},{"is_transit":false,"time":9,"i_lat":-6.144674,"line":1,"station_id":"AK","i_long":106.79867,"distance":4102,"station_name":"Angke","transit":false},{"distance":1230,"i_lat":-6.155215,"line":1,"i_long":106.800832,"station_id":"DU","transit":false,"is_transit":false,"time":4,"station_name":"Duri"},{"line":1,"time":8,"is_transit":true,"i_lat":-6.185545,"transit":true,"station_name":"Tanah Abang","station_id":"THB","i_long":106.811091,"distance":3632},{"station_name":"Palmerah","is_transit":false,"i_long":106.79689,"line":6,"i_lat":-6.207404,"station_id":"PLM","distance":3191,"time":6,"transit":false},{"i_long":106.780334,"line":6,"transit":false,"time":7,"station_name":"Kebayoran","is_transit":false,"station_id":"KBY","distance":3737,"i_lat":-6.237242},{"station_id":"PDJ","time":8,"distance":6218,"i_long":106.74273,"i_lat":-6.276362,"station_name":"Pondokranji","transit":false,"line":6,"is_transit":false},{"line":6,"station_name":"Jurangmangu","is_transit":false,"transit":false,"time":3,"i_lat":-6.288927,"i_long":106.728916,"station_id":"JMU","distance":2179}],[{"transit":false,"distance":0,"station_name":"Jatinegara","i_lat":-6.215091,"is_transit":false,"time":0,"i_long":106.86807400000001,"line":1,"station_id":"JNG"},{"station_id":"MTR","is_transit":false,"station_name":"Matraman","distance":1377,"line":1,"i_long":106.858896,"time":2,"transit":false,"i_lat":-6.212485},{"line":2,"transit":true,"station_name":"Manggarai","i_lat":-6.209883,"time":2,"distance":1275,"station_id":"MRI","is_transit":true,"i_long":106.84912},{"is_transit":false,"i_lat":-6.198556,"line":2,"transit":false,"distance":1590,"station_id":"CKI","station_name":"Cikini","time":4,"i_long":106.840169},{"transit":false,"i_long":106.832183,"station_id":"GDD","distance":1750,"station_name":"Gondangdia","time":3,"line":2,"is_transit":false,"i_lat":-6.186295},{"time":4,"station_id":"JUA","i_lat":-6.166716,"distance":2015,"transit":false,"line":2,"is_transit":false,"i_long":106.828284,"station_name":"Juanda"},{"line":2,"i_lat":-6.160725,"station_name":"Sawah Besar","time":2,"station_id":"SW","is_transit":false,"distance":1149,"i_long":106.827103,"transit":false},{"line":2,"station_id":"MGB","distance":906,"i_lat":-6.149769,"is_transit":false,"station_name":"Manggabesar","i_long":106.82482,"time":2,"transit":false},{"station_name":"Jayakarta","transit":false,"line":2,"i_lat":-6.141205,"i_long":106.820901,"time":2,"is_transit":false,"distance":1080,"station_id":"JAY"},{"station_id":"JAKK","line":2,"transit":true,"is_transit":true,"time":4,"station_name":"Jakarta Kota","i_long":106.812439,"i_lat":-6.137569,"distance":1264},{"line":4,"distance":1364,"station_name":"Kampung Bandan","station_id":"KPB","is_transit":true,"i_lat":-6.132549,"i_long":106.826365,"transit":true,"time":3},{"station_id":"AK","i_long":106.79867,"transit":false,"line":1,"is_transit":false,"time":9,"station_name":"Angke","distance":4102,"i_lat":-6.144674},{"transit":false,"is_transit":false,"time":4,"line":1,"distance":1230,"i_lat":-6.155215,"station_id":"DU","station_name":"Duri","i_long":106.800832},{"station_name":"Tanah Abang","time":8,"distance":3632,"is_transit":true,"i_long":106.811091,"transit":true,"station_id":"THB","i_lat":-6.185545,"line":1},{"station_id":"PLM","station_name":"Palmerah","line":6,"i_long":106.79689,"is_transit":false,"time":6,"i_lat":-6.207404,"transit":false,"distance":3191},{"is_transit":false,"time":7,"transit":false,"distance":3737,"station_name":"Kebayoran","station_id":"KBY","line":6,"i_long":106.780334,"i_lat":-6.237242},{"time":8,"station_name":"Pondokranji","i_lat":-6.276362,"line":6,"is_transit":false,"i_long":106.74273,"distance":6218,"station_id":"PDJ","transit":false},{"i_lat":-6.288927,"station_id":"JMU","distance":2179,"i_long":106.728916,"line":6,"is_transit":false,"station_name":"Jurangmangu","time":3,"transit":false}],[{"station_name":"Jatinegara","distance":0,"transit":false,"time":0,"i_long":106.86807400000001,"line":1,"is_transit":false,"station_id":"JNG","i_lat":-6.215091},{"transit":false,"station_id":"POK","station_name":"Pondok Jati","i_lat":-6.209188,"distance":1236,"line":11,"time":2,"i_long":106.861737,"is_transit":false},{"is_transit":false,"i_lat":-6.193792,"distance":1829,"station_name":"Kramat","station_id":"KMT","i_long":106.855437,"transit":false,"time":2,"line":11},{"station_name":"Gang Sentiong","i_long":106.850107,"station_id":"GST","transit":false,"distance":973,"i_lat":-6.185975,"line":11,"time":1,"is_transit":false},{"transit":false,"time":8,"is_transit":false,"station_id":"PSE","i_long":106.84368,"i_lat":-6.174784,"line":11,"distance":1567,"station_name":"Pasar Senen"},{"transit":false,"station_name":"Kemayoran","line":11,"i_lat":-6.161728,"station_id":"KMO","i_long":106.839204,"is_transit":false,"distance":1436,"time":4},{"line":11,"is_transit":false,"station_name":"Rajawali","i_long":106.836569,"station_id":"RJW","time":5,"transit":false,"distance":1901,"i_lat":-6.14505},{"transit":true,"station_name":"Kampung Bandan","distance":1444,"time":3,"line":4,"i_lat":-6.132549,"i_long":106.826365,"is_transit":true,"station_id":"KPB"},{"i_lat":-6.137569,"transit":true,"station_name":"Jakarta Kota","time":3,"distance":1364,"i_long":106.812439,"line":2,"station_id":"JAKK","is_transit":true},{"transit":false,"station_name":"Jayakarta","station_id":"JAY","is_transit":false,"i_lat":-6.141205,"time":4,"i_long":106.820901,"distance":1264,"line":2},{"time":2,"station_name":"Manggabesar","station_id":"MGB","transit":false,"is_transit":false,"distance":1080,"line":2,"i_lat":-6.149769,"i_long":106.82482},{"i_lat":-6.160725,"is_transit":false,"i_long":106.827103,"station_name":"Sawah Besar","line":2,"time":2,"station_id":"SW","transit":false,"distance":906},{"i_long":106.828284,"transit":false,"line":2,"is_transit":false,"station_id":"JUA","station_name":"Juanda","time":2,"distance":1149,"i_lat":-6.166716},{"station_name":"Gondangdia","distance":2015,"transit":false,"i_lat":-6.186295,"line":2,"station_id":"GDD","time":4,"is_transit":false,"i_long":106.832183},{"station_name":"Cikini","distance":1750,"is_transit":false,"station_id":"CKI","i_long":106.840169,"transit":false,"time":3,"i_lat":-6.198556,"line":2},{"time":4,"i_long":106.84912,"is_transit":true,"distance":1590,"station_name":"Manggarai","station_id":"MRI","transit":true,"line":2,"i_lat":-6.209883},{"distance":3186,"is_transit":false,"time":4,"i_lat":-6.202263,"station_name":"Sudirman","line":1,"i_long":106.822649,"station_id":"SUD","transit":false},{"i_long":106.819881,"station_name":"Sudirman Baru","line":1,"i_lat":-6.201433,"transit":false,"distance":280,"is_transit":false,"station_id":"SUDB","time":1},{"is_transit":false,"distance":471,"station_id":"KAT","i_lat":-6.20132,"i_long":106.816351,"station_name":"Karet","line":1,"transit":false,"time":1},{"i_long":106.811091,"distance":2029,"line":1,"time":5,"transit":true,"station_id":"THB","station_name":"Tanah Abang","is_transit":true,"i_lat":-6.185545},{"transit":false,"i_long":106.79689,"is_transit":false,"i_lat":-6.207404,"line":6,"time":6,"distance":3191,"station_id":"PLM","station_name":"Palmerah"},{"i_lat":-6.237242,"distance":3737,"time":7,"line":6,"i_long":106.780334,"station_id":"KBY","is_transit":false,"station_name":"Kebayoran","transit":false},{"time":8,"transit":false,"is_transit":false,"station_id":"PDJ","i_long":106.74273,"line":6,"distance":6218,"i_lat":-6.276362,"station_name":"Pondokranji"},{"time":3,"is_transit":false,"i_long":106.728916,"station_name":"Jurangmangu","distance":2179,"station_id":"JMU","i_lat":-6.288927,"transit":false,"line":6}]]}