{"data":[[{"station_id":"JNG","time":0,"i_lat":-6.215091,"line":1,"is_transit":false,"station_name":"Jatinegara","i_long":106.86807400000001,"distance":0,"transit":false},{"distance":3395,"i_lat":-6.2135,"i_long":106.899548,"line":1,"station_name":"Klender","time":3,"transit":false,"is_transit":false,"station_id":"KLD"},{"station_name":"Buaran","station_id":"BUA","time":2,"is_transit":false,"distance":3100,"i_long":106.922662,"i_lat":-6.215568,"line":1,"transit":false},{"station_name":"Klenderbaru","time":1,"station_id":"KLDB","i_lat":-6.217455,"i_long":106.939679,"line":1,"distance":1305,"transit":false,"is_transit":false},{"station_name":"Cakung","station_id":"CUK","is_transit":false,"i_long":106.951283,"transit":false,"line":1,"distance":1385,"time":8,"i_lat":-6.219053},{"is_transit":false,"line":1,"transit":false,"station_name":"Kranji","station_id":"KRI","i_lat":-6.224515,"distance":3097,"i_long":106.977657,"time":3},{"time":4,"i_lat":-6.236616,"station_id":"BKS","distance":2520,"i_long":106.997013,"transit":false,"station_name":"Bekasi","is_transit":false,"line":1},{"i_long":107.016735,"line":1,"distance":2368,"station_name":"Bekasi Timur","station_id":"BKST","transit":false,"time":2,"is_transit":false,"i_lat":-6.248029},{"distance":4460,"station_name":"Tambun","i_long":107.055722,"time":7,"i_lat":-6.258864,"line":1,"is_transit":false,"station_id":"TB","transit":false},{"i_lat":-6.261877,"i_long":107.083084,"station_name":"Cibitung","station_id":"CIT","transit":false,"distance":3420,"time":3,"line":1,"is_transit":false},{"distance":2800,"i_long":107.093313,"transit":false,"station_id":"TLM","i_lat":-6.262938,"line":1,"is_transit":false,"time":2,"station_name":"Metland Telaga Murni"}]]}