{"data":[[{"station_name":"Jatinegara","transit":false,"i_lat":-6.215091,"i_long":106.86807400000001,"distance":0,"station_id":"JNG","line":1,"time":0,"is_transit":false},{"station_name":"Matraman","i_lat":-6.212485,"i_long":106.858896,"distance":1377,"transit":false,"time":2,"is_transit":false,"line":1,"station_id":"MTR"},{"is_transit":false,"distance":1275,"i_lat":-6.209883,"station_name":"Manggarai","transit":false,"station_id":"MRI","i_long":106.84912,"time":2,"line":2},{"i_lat":-6.202263,"i_long":106.822649,"line":1,"time":4,"station_name":"Sudirman","station_id":"SUD","distance":3186,"transit":false,"is_transit":false},{"distance":280,"station_id":"SUDB","line":1,"time":1,"i_lat":-6.201433,"station_name":"Sudirman Baru","i_long":106.819881,"transit":false,"is_transit":false},{"i_lat":-6.20132,"distance":471,"line":1,"is_transit":false,"transit":false,"station_name":"Karet","time":1,"station_id":"KAT","i_long":106.816351},{"station_id":"THB","distance":2029,"station_name":"Tanah Abang","i_lat":-6.185545,"time":5,"transit":true,"i_long":106.811091,"line":1,"is_transit":true},{"transit":false,"time":6,"distance":3191,"station_id":"PLM","station_name":"Palmerah","i_long":106.79689,"is_transit":false,"line":6,"i_lat":-6.207404},{"station_id":"KBY","line":6,"i_lat":-6.237242,"station_name":"Kebayoran","i_long":106.780334,"transit":false,"distance":3737,"time":7,"is_transit":false},{"time":8,"distance":6218,"i_lat":-6.276362,"transit":false,"station_id":"PDJ","i_long":106.74273,"line":6,"is_transit":false,"station_name":"Pondokranji"},{"line":6,"station_name":"Jurangmangu","transit":false,"time":3,"i_long":106.728916,"station_id":"JMU","i_lat":-6.288927,"distance":2179,"is_transit":false},{"line":6,"station_id":"SDM","transit":false,"is_transit":false,"time":4,"i_long":106.712277,"i_lat":-6.296963,"station_name":"Sudimara","distance":1994},{"station_name":"Rawa Buntu","time":6,"station_id":"RU","i_long":106.675475,"is_transit":false,"transit":false,"distance":4566,"i_lat":-6.314823,"line":6},{"line":6,"time":4,"transit":false,"i_long":106.66566,"station_name":"Serpong","i_lat":-6.319871,"distance":2413,"station_id":"SRP","is_transit":false},{"station_id":"CSK","time":4,"distance":1784,"station_name":"Cisauk","is_transit":false,"i_long":106.640411,"transit":false,"i_lat":-6.32484,"line":3},{"transit":false,"i_long":106.617853,"line":3,"station_name":"Cicayur","time":4,"is_transit":false,"i_lat":-6.329547,"distance":2519,"station_id":"CC"},{"time":8,"is_transit":false,"i_lat":-6.3441410000000005,"station_id":"PRP","distance":5968,"station_name":"Parung Panjang","transit":false,"line":6,"i_long":106.568863},{"transit":false,"distance":7025,"station_name":"Cilejit","i_lat":-6.354349,"time":9,"i_long":106.508482,"line":3,"station_id":"CJT","is_transit":false},{"station_id":"DAR","time":6,"station_name":"Daru","i_lat":-6.338021,"distance":2675,"i_long":106.491338,"line":0,"is_transit":false,"transit":false}],[{"is_transit":false,"station_id":"JNG","i_lat":-6.215091,"i_long":106.86807400000001,"line":1,"distance":0,"transit":false,"station_name":"Jatinegara","time":0},{"line":11,"transit":false,"station_name":"Pondok Jati","distance":1236,"time":2,"i_lat":-6.209188,"station_id":"POK","is_transit":false,"i_long":106.861737},{"i_lat":-6.193792,"time":2,"station_id":"KMT","i_long":106.855437,"station_name":"Kramat","is_transit":false,"line":11,"transit":false,"distance":1829},{"station_id":"GST","time":1,"is_transit":false,"transit":false,"i_lat":-6.185975,"distance":973,"station_name":"Gang Sentiong","i_long":106.850107,"line":11},{"i_lat":-6.174784,"is_transit":false,"station_id":"PSE","i_long":106.84368,"station_name":"Pasar Senen","time":8,"line":11,"distance":1567,"transit":false},{"station_id":"KMO","i_lat":-6.161728,"station_name":"Kemayoran","time":4,"distance":1436,"transit":false,"is_transit":false,"i_long":106.839204,"line":11},{"distance":1901,"time":5,"line":11,"station_name":"Rajawali","i_long":106.836569,"transit":false,"i_lat":-6.14505,"is_transit":false,"station_id":"RJW"},{"i_long":106.826365,"time":3,"transit":true,"line":4,"station_name":"Kampung Bandan","distance":1444,"is_transit":true,"i_lat":-6.132549,"station_id":"KPB"},{"station_id":"AK","is_transit":false,"distance":4102,"time":9,"i_lat":-6.144674,"transit":false,"line":1,"i_long":106.79867,"station_name":"Angke"},{"is_transit":false,"station_name":"Duri","station_id":"DU","distance":1230,"i_long":106.800832,"transit":false,"i_lat":-6.155215,"line":1,"time":4},{"transit":true,"i_lat":-6.185545,"line":1,"distance":3632,"station_name":"Tanah Abang","station_id":"THB","is_transit":true,"i_long":106.811091,"time":8},{"i_lat":-6.207404,"is_transit":false,"station_id":"PLM","i_long":106.79689,"distance":3191,"station_name":"Palmerah","time":6,"line":6,"transit":false},{"distance":3737,"transit":false,"is_transit":false,"i_long":106.780334,"time":7,"station_name":"Kebayoran","station_id":"KBY","i_lat":-6.237242,"line":6},{"station_id":"PDJ","i_long":106.74273,"is_transit":false,"station_name":"Pondokranji","time":8,"line":6,"i_lat":-6.276362,"distance":6218,"transit":false},{"transit":false,"i_long":106.728916,"i_lat":-6.288927,"station_id":"JMU","time":3,"line":6,"is_transit":false,"distance":2179,"station_name":"Jurangmangu"},{"time":4,"transit":false,"i_long":106.712277,"station_id":"SDM","station_name":"Sudimara","distance":1994,"i_lat":-6.296963,"line":6,"is_transit":false},{"i_long":106.675475,"line":6,"transit":false,"i_lat":-6.314823,"is_transit":false,"station_id":"RU","station_name":"Rawa Buntu","distance":4566,"time":6},{"transit":false,"time":4,"station_id":"SRP","i_long":106.66566,"station_name":"Serpong","is_transit":false,"line":6,"distance":2413,"i_lat":-6.319871},{"i_long":106.640411,"distance":1784,"transit":false,"is_transit":false,"time":4,"i_lat":-6.32484,"line":3,"station_name":"Cisauk","station_id":"CSK"},{"station_id":"CC","time":4,"transit":false,"station_name":"Cicayur","i_long":106.617853,"distance":2519,"line":3,"is_transit":false,"i_lat":-6.329547},{"line":6,"station_name":"Parung Panjang","time":8,"station_id":"PRP","transit":false,"distance":5968,"i_long":106.568863,"i_lat":-6.3441410000000005,"is_transit":false},{"station_name":"Cilejit","time":9,"is_transit":false,"distance":7025,"i_lat":-6.354349,"i_long":106.508482,"station_id":"CJT","transit":false,"line":3},{"i_lat":-6.338021,"transit":false,"is_transit":false,"distance":2675,"station_name":"Daru","line":0,"time":6,"station_id":"DAR","i_long":106.491338}],[{"i_lat":-6.215091,"transit":false,"i_long":106.86807400000001,"line":1,"station_name":"Jatinegara","distance":0,"is_transit":false,"time":0,"station_id":"JNG"},{"station_id":"MTR","line":1,"time":2,"distance":1377,"i_long":106.858896,"is_transit":false,"station_name":"Matraman","i_lat":-6.212485,"transit":false},{"station_name":"Manggarai","is_transit":true,"distance":1275,"transit":true,"station_id":"MRI","line":2,"time":2,"i_lat":-6.209883,"i_long":106.84912},{"i_long":106.840169,"station_name":"Cikini","distance":1590,"transit":false,"station_id":"CKI","line":2,"i_lat":-6.198556,"is_transit":false,"time":4},{"is_transit":false,"i_long":106.832183,"station_id":"GDD","line":2,"i_lat":-6.186295,"distance":1750,"station_name":"Gondangdia","time":3,"transit":false},{"i_lat":-6.166716,"line":2,"station_name":"Juanda","is_transit":false,"i_long":106.828284,"station_id":"JUA","transit":false,"time":4,"distance":2015},{"transit":false,"i_lat":-6.160725,"line":2,"distance":1149,"i_long":106.827103,"is_transit":false,"station_name":"Sawah Besar","time":2,"station_id":"SW"},{"i_lat":-6.149769,"station_name":"Manggabesar","i_long":106.82482,"time":2,"is_transit":false,"transit":false,"distance":906,"station_id":"MGB","line":2},{"transit":false,"station_id":"JAY","line":2,"time":2,"station_name":"Jayakarta","i_lat":-6.141205,"distance":1080,"is_transit":false,"i_long":106.820901},{"distance":1264,"transit":true,"time":4,"i_long":106.812439,"station_name":"Jakarta Kota","i_lat":-6.137569,"station_id":"JAKK","line":2,"is_transit":true},{"line":4,"distance":1364,"transit":true,"is_transit":true,"i_long":106.826365,"time":3,"station_name":"Kampung Bandan","i_lat":-6.132549,"station_id":"KPB"},{"station_id":"AK","i_lat":-6.144674,"station_name":"Angke","line":1,"distance":4102,"i_long":106.79867,"is_transit":false,"time":9,"transit":false},{"line":1,"transit":false,"station_name":"Duri","time":4,"is_transit":false,"i_lat":-6.155215,"distance":1230,"i_long":106.800832,"station_id":"DU"},{"i_long":106.811091,"is_transit":true,"station_id":"THB","line":1,"distance":3632,"transit":true,"time":8,"station_name":"Tanah Abang","i_lat":-6.185545},{"line":6,"station_id":"PLM","distance":3191,"transit":false,"time":6,"station_name":"Palmerah","i_long":106.79689,"i_lat":-6.207404,"is_transit":false},{"is_transit":false,"station_name":"Kebayoran","station_id":"KBY","transit":false,"time":7,"i_long":106.780334,"i_lat":-6.237242,"line":6,"distance":3737},{"transit":false,"station_name":"Pondokranji","time":8,"line":6,"distance":6218,"station_id":"PDJ","i_long":106.74273,"i_lat":-6.276362,"is_transit":false},{"is_transit":false,"i_long":106.728916,"transit":false,"line":6,"station_id":"JMU","distance":2179,"time":3,"i_lat":-6.288927,"station_name":"Jurangmangu"},{"line":6,"distance":1994,"i_long":106.712277,"time":4,"is_transit":false,"i_lat":-6.296963,"station_name":"Sudimara","station_id":"SDM","transit":false},{"station_id":"RU","time":6,"distance":4566,"i_lat":-6.314823,"line":6,"transit":false,"station_name":"Rawa Buntu","is_transit":false,"i_long":106.675475},{"transit":false,"distance":2413,"i_long":106.66566,"station_id":"SRP","i_lat":-6.319871,"station_name":"Serpong","is_transit":false,"line":6,"time":4},{"is_transit":false,"i_lat":-6.32484,"time":4,"distance":1784,"i_long":106.640411,"line":3,"station_name":"Cisauk","transit":false,"station_id":"CSK"},{"i_lat":-6.329547,"station_id":"CC","is_transit":false,"time":4,"station_name":"Cicayur","transit":false,"i_long":106.617853,"distance":2519,"line":3},{"is_transit":false,"line":6,"i_lat":-6.3441410000000005,"time":8,"station_id":"PRP","transit":false,"distance":5968,"station_name":"Parung Panjang","i_long":106.568863},{"is_transit":false,"time":9,"distance":7025,"station_name":"Cilejit","line":3,"i_long":106.508482,"transit":false,"station_id":"CJT","i_lat":-6.354349},{"transit":false,"i_long":106.491338,"distance":2675,"is_transit":false,"station_name":"Daru","time":6,"station_id":"DAR","i_lat":-6.338021,"line":0}],[{"i_lat":-6.215091,"line":1,"station_id":"JNG","transit":false,"is_transit":false,"i_long":106.86807400000001,"station_name":"Jatinegara","distance":0,"time":0},{"distance":1236,"station_id":"POK","line":11,"station_name":"Pondok Jati","transit":false,"time":2,"i_long":106.861737,"i_lat":-6.209188,"is_transit":false},{"i_long":106.855437,"line":11,"station_id":"KMT","i_lat":-6.193792,"distance":1829,"is_transit":false,"time":2,"transit":false,"station_name":"Kramat"},{"distance":973,"station_name":"Gang Sentiong","station_id":"GST","transit":false,"line":11,"time":1,"is_transit":false,"i_lat":-6.185975,"i_long":106.850107},{"transit":false,"station_id":"PSE","distance":1567,"is_transit":false,"station_name":"Pasar Senen","i_lat":-6.174784,"i_long":106.84368,"line":11,"time":8},{"station_id":"KMO","i_long":106.839204,"station_name":"Kemayoran","time":4,"line":11,"transit":false,"distance":1436,"is_transit":false,"i_lat":-6.161728},{"station_id":"RJW","i_long":106.836569,"transit":false,"line":11,"time":5,"distance":1901,"is_transit":false,"station_name":"Rajawali","i_lat":-6.14505},{"transit":true,"distance":1444,"i_lat":-6.132549,"time":3,"station_name":"Kampung Bandan","station_id":"KPB","line":4,"is_transit":true,"i_long":106.826365},{"line":2,"i_long":106.812439,"transit":true,"i_lat":-6.137569,"is_transit":true,"distance":1364,"time":3,"station_id":"JAKK","station_name":"Jakarta Kota"},{"station_id":"JAY","distance":1264,"station_name":"Jayakarta","is_transit":false,"i_long":106.820901,"line":2,"transit":false,"time":4,"i_lat":-6.141205},{"station_name":"Manggabesar","distance":1080,"i_lat":-6.149769,"line":2,"transit":false,"i_long":106.82482,"time":2,"station_id":"MGB","is_transit":false},{"time":2,"line":2,"i_long":106.827103,"distance":906,"is_transit":false,"i_lat":-6.160725,"station_id":"SW","transit":false,"station_name":"Sawah Besar"},{"line":2,"is_transit":false,"time":2,"distance":1149,"i_long":106.828284,"transit":false,"station_name":"Juanda","i_lat":-6.166716,"station_id":"JUA"},{"transit":false,"is_transit":false,"i_lat":-6.186295,"time":4,"line":2,"station_name":"Gondangdia","distance":2015,"station_id":"GDD","i_long":106.832183},{"distance":1750,"i_lat":-6.198556,"station_id":"CKI","transit":false,"station_name":"Cikini","line":2,"is_transit":false,"time":3,"i_long":106.840169},{"line":2,"time":4,"station_name":"Manggarai","station_id":"MRI","is_transit":true,"i_lat":-6.209883,"i_long":106.84912,"distance":1590,"transit":true},{"station_name":"Sudirman","station_id":"SUD","i_lat":-6.202263,"i_long":106.822649,"distance":3186,"transit":false,"time":4,"is_transit":false,"line":1},{"line":1,"i_lat":-6.201433,"station_name":"Sudirman Baru","i_long":106.819881,"station_id":"SUDB","transit":false,"time":1,"distance":280,"is_transit":false},{"is_transit":false,"i_lat":-6.20132,"line":1,"station_name":"Karet","station_id":"KAT","transit":false,"time":1,"distance":471,"i_long":106.816351},{"i_lat":-6.185545,"i_long":106.811091,"line":1,"station_name":"Tanah Abang","time":5,"transit":true,"distance":2029,"is_transit":true,"station_id":"THB"},{"station_id":"PLM","line":6,"distance":3191,"i_long":106.79689,"station_name":"Palmerah","time":6,"i_lat":-6.207404,"is_transit":false,"transit":false},{"i_long":106.780334,"transit":false,"station_id":"KBY","time":7,"distance":3737,"line":6,"i_lat":-6.237242,"is_transit":false,"station_name":"Kebayoran"},{"i_lat":-6.276362,"time":8,"station_name":"Pondokranji","distance":6218,"transit":false,"is_transit":false,"station_id":"PDJ","i_long":106.74273,"line":6},{"line":6,"is_transit":false,"time":3,"station_id":"JMU","distance":2179,"transit":false,"station_name":"Jurangmangu","i_lat":-6.288927,"i_long":106.728916},{"is_transit":false,"station_id":"SDM","distance":1994,"i_lat":-6.296963,"line":6,"station_name":"Sudimara","time":4,"i_long":106.712277,"transit":false},{"line":6,"time":6,"transit":false,"is_transit":false,"i_lat":-6.314823,"distance":4566,"station_id":"RU","station_name":"Rawa Buntu","i_long":106.675475},{"distance":2413,"station_id":"SRP","station_name":"Serpong","i_long":106.66566,"i_lat":-6.319871,"transit":false,"line":6,"is_transit":false,"time":4},{"distance":1784,"line":3,"station_name":"Cisauk","station_id":"CSK","is_transit":false,"time":4,"transit":false,"i_lat":-6.32484,"i_long":106.640411},{"station_id":"CC","is_transit":false,"distance":2519,"transit":false,"station_name":"Cicayur","time":4,"i_lat":-6.329547,"i_long":106.617853,"line":3},{"station_name":"Parung Panjang","i_lat":-6.3441410000000005,"time":8,"is_transit":false,"transit":false,"distance":5968,"line":6,"station_id":"PRP","i_long":106.568863},{"time":9,"station_name":"Cilejit","i_lat":-6.354349,"is_transit":false,"line":3,"distance":7025,"transit":false,"station_id":"CJT","i_long":106.508482},{"station_id":"DAR","is_transit":false,"time":6,"station_name":"Daru","i_lat":-6.338021,"line":0,"transit":false,"distance":2675,"i_long":106.491338}]]}