{"data":[[{"distance":0,"i_lat":-6.215091,"is_transit":false,"station_id":"JNG","line":1,"time":0,"station_name":"Jatinegara","transit":false,"i_long":106.86807400000001},{"is_transit":false,"distance":1377,"i_lat":-6.212485,"station_name":"Matraman","station_id":"MTR","transit":false,"time":2,"i_long":106.858896,"line":1},{"line":2,"i_lat":-6.209883,"time":2,"station_id":"MRI","distance":1275,"station_name":"Manggarai","transit":true,"i_long":106.84912,"is_transit":true},{"time":4,"is_transit":false,"station_name":"Cikini","i_lat":-6.198556,"i_long":106.840169,"station_id":"CKI","distance":1590,"line":2,"transit":false},{"i_long":106.832183,"distance":1750,"station_name":"Gondangdia","is_transit":false,"time":3,"transit":false,"i_lat":-6.186295,"line":2,"station_id":"GDD"}],[{"line":1,"transit":false,"distance":0,"i_lat":-6.215091,"time":0,"i_long":106.86807400000001,"station_id":"JNG","is_transit":false,"station_name":"Jatinegara"},{"station_name":"Pondok Jati","i_long":106.861737,"time":2,"station_id":"POK","is_transit":false,"line":11,"i_lat":-6.209188,"distance":1236,"transit":false},{"transit":false,"distance":1829,"i_long":106.855437,"time":2,"i_lat":-6.193792,"is_transit":false,"line":11,"station_id":"KMT","station_name":"Kramat"},{"distance":973,"station_id":"GST","i_long":106.850107,"line":11,"time":1,"is_transit":false,"transit":false,"station_name":"Gang Sentiong","i_lat":-6.185975},{"i_long":106.84368,"i_lat":-6.174784,"station_name":"Pasar Senen","distance":1567,"station_id":"PSE","transit":false,"line":11,"is_transit":false,"time":8},{"station_name":"Kemayoran","station_id":"KMO","is_transit":false,"transit":false,"i_long":106.839204,"time":4,"i_lat":-6.161728,"line":11,"distance":1436},{"time":5,"is_transit":false,"i_lat":-6.14505,"distance":1901,"station_name":"Rajawali","line":11,"transit":false,"station_id":"RJW","i_long":106.836569},{"station_name":"Kampung Bandan","i_long":106.826365,"station_id":"KPB","distance":1444,"transit":true,"line":4,"i_lat":-6.132549,"time":3,"is_transit":true},{"station_id":"JAKK","is_transit":true,"distance":1364,"transit":true,"i_lat":-6.137569,"line":2,"time":3,"i_long":106.812439,"station_name":"Jakarta Kota"},{"i_lat":-6.141205,"line":2,"i_long":106.820901,"time":4,"transit":false,"station_id":"JAY","is_transit":false,"distance":1264,"station_name":"Jayakarta"},{"is_transit":false,"station_name":"Manggabesar","i_lat":-6.149769,"line":2,"distance":1080,"time":2,"transit":false,"i_long":106.82482,"station_id":"MGB"},{"is_transit":false,"station_id":"SW","distance":906,"time":2,"line":2,"transit":false,"i_lat":-6.160725,"station_name":"Sawah Besar","i_long":106.827103},{"transit":false,"time":2,"i_lat":-6.166716,"line":2,"distance":1149,"station_id":"JUA","is_transit":false,"i_long":106.828284,"station_name":"Juanda"},{"i_lat":-6.186295,"time":4,"station_id":"GDD","is_transit":false,"station_name":"Gondangdia","transit":false,"i_long":106.832183,"line":2,"distance":2015}],[{"i_lat":-6.215091,"i_long":106.86807400000001,"station_id":"JNG","is_transit":false,"line":1,"time":0,"station_name":"Jatinegara","distance":0,"transit":false},{"time":2,"i_lat":-6.212485,"distance":1377,"station_id":"MTR","is_transit":false,"transit":false,"i_long":106.858896,"line":1,"station_name":"Matraman"},{"i_long":106.84912,"line":2,"distance":1275,"station_id":"MRI","time":2,"is_transit":false,"i_lat":-6.209883,"transit":false,"station_name":"Manggarai"},{"station_name":"Sudirman","distance":3186,"transit":false,"i_long":106.822649,"i_lat":-6.202263,"line":1,"station_id":"SUD","time":4,"is_transit":false},{"i_lat":-6.201433,"is_transit":false,"time":1,"distance":280,"station_name":"Sudirman Baru","line":1,"station_id":"SUDB","transit":false,"i_long":106.819881},{"distance":471,"i_lat":-6.20132,"is_transit":false,"station_id":"KAT","station_name":"Karet","line":1,"time":1,"transit":false,"i_long":106.816351},{"is_transit":false,"i_long":106.811091,"line":1,"time":5,"transit":false,"station_name":"Tanah Abang","station_id":"THB","distance":2029,"i_lat":-6.185545},{"station_id":"DU","i_long":106.800832,"i_lat":-6.155215,"time":8,"transit":false,"distance":3632,"station_name":"Duri","is_transit":false,"line":1},{"transit":false,"time":4,"station_name":"Angke","i_long":106.79867,"i_lat":-6.144674,"line":1,"distance":1230,"station_id":"AK","is_transit":false},{"i_lat":-6.132549,"i_long":106.826365,"station_name":"Kampung Bandan","transit":true,"line":4,"time":9,"distance":4102,"station_id":"KPB","is_transit":true},{"station_id":"JAKK","time":3,"transit":true,"is_transit":true,"i_lat":-6.137569,"station_name":"Jakarta Kota","line":2,"i_long":106.812439,"distance":1364},{"i_lat":-6.141205,"distance":1264,"is_transit":false,"time":4,"station_name":"Jayakarta","line":2,"station_id":"JAY","i_long":106.820901,"transit":false},{"time":2,"station_id":"MGB","transit":false,"i_lat":-6.149769,"station_name":"Manggabesar","is_transit":false,"distance":1080,"i_long":106.82482,"line":2},{"transit":false,"i_long":106.827103,"line":2,"station_name":"Sawah Besar","is_transit":false,"distance":906,"i_lat":-6.160725,"time":2,"station_id":"SW"},{"distance":1149,"line":2,"is_transit":false,"transit":false,"i_lat":-6.166716,"time":2,"station_id":"JUA","station_name":"Juanda","i_long":106.828284},{"is_transit":false,"distance":2015,"line":2,"i_lat":-6.186295,"i_long":106.832183,"station_name":"Gondangdia","station_id":"GDD","time":4,"transit":false}],[{"line":1,"time":0,"station_id":"JNG","is_transit":false,"transit":false,"distance":0,"i_lat":-6.215091,"station_name":"Jatinegara","i_long":106.86807400000001},{"time":2,"i_lat":-6.209188,"station_name":"Pondok Jati","line":11,"is_transit":false,"i_long":106.861737,"station_id":"POK","distance":1236,"transit":false},{"station_id":"KMT","station_name":"Kramat","i_long":106.855437,"i_lat":-6.193792,"line":11,"transit":false,"distance":1829,"time":2,"is_transit":false},{"i_long":106.850107,"is_transit":false,"distance":973,"station_id":"GST","transit":false,"i_lat":-6.185975,"line":11,"time":1,"station_name":"Gang Sentiong"},{"station_name":"Pasar Senen","i_lat":-6.174784,"i_long":106.84368,"is_transit":false,"line":11,"distance":1567,"station_id":"PSE","transit":false,"time":8},{"is_transit":false,"i_lat":-6.161728,"station_id":"KMO","line":11,"time":4,"transit":false,"i_long":106.839204,"distance":1436,"station_name":"Kemayoran"},{"time":5,"transit":false,"is_transit":false,"i_long":106.836569,"station_id":"RJW","line":11,"station_name":"Rajawali","i_lat":-6.14505,"distance":1901},{"station_id":"KPB","i_lat":-6.132549,"distance":1444,"line":4,"is_transit":true,"transit":true,"i_long":106.826365,"time":3,"station_name":"Kampung Bandan"},{"i_long":106.79867,"line":1,"time":9,"is_transit":false,"i_lat":-6.144674,"distance":4102,"transit":false,"station_id":"AK","station_name":"Angke"},{"station_name":"Duri","station_id":"DU","time":4,"distance":1230,"transit":false,"is_transit":false,"i_lat":-6.155215,"i_long":106.800832,"line":1},{"line":1,"station_id":"THB","is_transit":false,"distance":3632,"i_long":106.811091,"time":8,"transit":false,"i_lat":-6.185545,"station_name":"Tanah Abang"},{"is_transit":false,"time":5,"transit":false,"line":1,"station_name":"Karet","i_long":106.816351,"i_lat":-6.20132,"distance":2029,"station_id":"KAT"},{"station_id":"SUDB","i_lat":-6.201433,"station_name":"Sudirman Baru","transit":false,"time":1,"distance":471,"i_long":106.819881,"line":1,"is_transit":false},{"distance":280,"time":1,"station_id":"SUD","i_lat":-6.202263,"line":1,"station_name":"Sudirman","is_transit":false,"i_long":106.822649,"transit":false},{"line":2,"station_id":"MRI","station_name":"Manggarai","is_transit":true,"i_long":106.84912,"i_lat":-6.209883,"transit":true,"distance":3186,"time":4},{"line":2,"i_long":106.840169,"is_transit":false,"distance":1590,"time":4,"i_lat":-6.198556,"station_name":"Cikini","station_id":"CKI","transit":false},{"transit":false,"i_long":106.832183,"time":3,"station_id":"GDD","station_name":"Gondangdia","is_transit":false,"i_lat":-6.186295,"distance":1750,"line":2}]]}