{"data":[[{"i_lat":-6.215091,"time":0,"distance":0,"station_id":"JNG","is_transit":false,"line":1,"transit":false,"station_name":"Jatinegara","i_long":106.86807400000001},{"transit":false,"distance":1377,"i_lat":-6.212485,"line":1,"i_long":106.858896,"station_name":"Matraman","station_id":"MTR","time":2,"is_transit":false},{"station_id":"MRI","i_long":106.84912,"time":2,"i_lat":-6.209883,"is_transit":false,"line":2,"distance":1275,"station_name":"Manggarai","transit":false},{"distance":3186,"station_id":"SUD","line":1,"i_lat":-6.202263,"transit":false,"station_name":"Sudirman","is_transit":false,"i_long":106.822649,"time":4},{"distance":280,"i_lat":-6.201433,"station_name":"Sudirman Baru","is_transit":false,"station_id":"SUDB","transit":false,"i_long":106.819881,"time":1,"line":1},{"distance":471,"line":1,"time":1,"station_id":"KAT","station_name":"Karet","is_transit":false,"transit":false,"i_lat":-6.20132,"i_long":106.816351},{"line":1,"time":5,"is_transit":true,"i_lat":-6.185545,"station_name":"Tanah Abang","distance":2029,"transit":true,"i_long":106.811091,"station_id":"THB"},{"i_long":106.79689,"time":6,"station_id":"PLM","line":6,"i_lat":-6.207404,"station_name":"Palmerah","distance":3191,"is_transit":false,"transit":false},{"station_name":"Kebayoran","distance":3737,"i_lat":-6.237242,"is_transit":false,"transit":false,"i_long":106.780334,"time":7,"line":6,"station_id":"KBY"},{"i_lat":-6.276362,"is_transit":false,"distance":6218,"i_long":106.74273,"transit":false,"station_name":"Pondokranji","time":8,"station_id":"PDJ","line":6},{"i_long":106.728916,"station_id":"JMU","is_transit":false,"transit":false,"distance":2179,"time":3,"station_name":"Jurangmangu","i_lat":-6.288927,"line":6},{"station_id":"SDM","is_transit":false,"transit":false,"i_lat":-6.296963,"distance":1994,"time":4,"station_name":"Sudimara","i_long":106.712277,"line":6},{"distance":4566,"station_name":"Rawa Buntu","is_transit":false,"transit":false,"i_long":106.675475,"i_lat":-6.314823,"time":6,"line":6,"station_id":"RU"},{"line":6,"distance":2413,"station_name":"Serpong","is_transit":false,"i_lat":-6.319871,"station_id":"SRP","time":4,"transit":false,"i_long":106.66566},{"station_id":"CSK","i_long":106.640411,"station_name":"Cisauk","line":3,"distance":1784,"i_lat":-6.32484,"time":4,"is_transit":false,"transit":false},{"transit":false,"i_long":106.617853,"distance":2519,"station_name":"Cicayur","line":3,"i_lat":-6.329547,"station_id":"CC","time":4,"is_transit":false},{"distance":5968,"i_long":106.568863,"is_transit":false,"time":8,"station_id":"PRP","transit":false,"line":6,"station_name":"Parung Panjang","i_lat":-6.3441410000000005},{"is_transit":false,"distance":7025,"time":9,"line":3,"station_id":"CJT","i_long":106.508482,"transit":false,"station_name":"Cilejit","i_lat":-6.354349},{"station_name":"Daru","i_lat":-6.338021,"is_transit":false,"i_long":106.491338,"line":0,"transit":false,"distance":2675,"time":6,"station_id":"DAR"}],[{"i_long":106.86807400000001,"distance":0,"station_id":"JNG","time":0,"transit":false,"station_name":"Jatinegara","i_lat":-6.215091,"line":1,"is_transit":false},{"transit":false,"is_transit":false,"distance":1236,"time":2,"station_name":"Pondok Jati","station_id":"POK","i_lat":-6.209188,"line":11,"i_long":106.861737},{"station_name":"Kramat","time":2,"distance":1829,"is_transit":false,"station_id":"KMT","transit":false,"i_lat":-6.193792,"i_long":106.855437,"line":11},{"is_transit":false,"line":11,"station_id":"GST","i_long":106.850107,"distance":973,"transit":false,"station_name":"Gang Sentiong","i_lat":-6.185975,"time":1},{"transit":false,"station_name":"Pasar Senen","line":11,"station_id":"PSE","time":8,"i_lat":-6.174784,"distance":1567,"is_transit":false,"i_long":106.84368},{"transit":false,"distance":1436,"i_lat":-6.161728,"station_name":"Kemayoran","is_transit":false,"i_long":106.839204,"line":11,"time":4,"station_id":"KMO"},{"time":5,"station_name":"Rajawali","is_transit":false,"transit":false,"i_lat":-6.14505,"distance":1901,"station_id":"RJW","i_long":106.836569,"line":11},{"line":4,"i_long":106.826365,"time":3,"distance":1444,"station_name":"Kampung Bandan","station_id":"KPB","transit":true,"i_lat":-6.132549,"is_transit":true},{"station_name":"Angke","line":1,"distance":4102,"is_transit":false,"station_id":"AK","time":9,"transit":false,"i_lat":-6.144674,"i_long":106.79867},{"i_lat":-6.155215,"station_name":"Duri","i_long":106.800832,"time":4,"is_transit":false,"line":1,"transit":false,"distance":1230,"station_id":"DU"},{"i_lat":-6.185545,"transit":true,"distance":3632,"is_transit":true,"line":1,"i_long":106.811091,"time":8,"station_name":"Tanah Abang","station_id":"THB"},{"transit":false,"i_long":106.79689,"i_lat":-6.207404,"time":6,"station_id":"PLM","is_transit":false,"line":6,"distance":3191,"station_name":"Palmerah"},{"i_long":106.780334,"is_transit":false,"distance":3737,"transit":false,"station_id":"KBY","line":6,"time":7,"station_name":"Kebayoran","i_lat":-6.237242},{"distance":6218,"station_name":"Pondokranji","is_transit":false,"transit":false,"time":8,"station_id":"PDJ","i_lat":-6.276362,"i_long":106.74273,"line":6},{"is_transit":false,"transit":false,"line":6,"station_name":"Jurangmangu","station_id":"JMU","time":3,"i_long":106.728916,"i_lat":-6.288927,"distance":2179},{"i_long":106.712277,"station_name":"Sudimara","distance":1994,"line":6,"is_transit":false,"transit":false,"station_id":"SDM","time":4,"i_lat":-6.296963},{"line":6,"transit":false,"time":6,"distance":4566,"is_transit":false,"station_name":"Rawa Buntu","station_id":"RU","i_lat":-6.314823,"i_long":106.675475},{"station_name":"Serpong","i_lat":-6.319871,"is_transit":false,"station_id":"SRP","line":6,"i_long":106.66566,"distance":2413,"transit":false,"time":4},{"transit":false,"i_lat":-6.32484,"line":3,"time":4,"station_id":"CSK","station_name":"Cisauk","i_long":106.640411,"is_transit":false,"distance":1784},{"i_lat":-6.329547,"time":4,"station_id":"CC","is_transit":false,"distance":2519,"i_long":106.617853,"line":3,"station_name":"Cicayur","transit":false},{"transit":false,"line":6,"is_transit":false,"station_name":"Parung Panjang","distance":5968,"station_id":"PRP","i_lat":-6.3441410000000005,"i_long":106.568863,"time":8},{"transit":false,"line":3,"is_transit":false,"station_id":"CJT","i_lat":-6.354349,"distance":7025,"station_name":"Cilejit","i_long":106.508482,"time":9},{"distance":2675,"i_long":106.491338,"is_transit":false,"time":6,"line":0,"i_lat":-6.338021,"transit":false,"station_id":"DAR","station_name":"Daru"}],[{"is_transit":false,"station_id":"JNG","time":0,"transit":false,"distance":0,"station_name":"Jatinegara","i_lat":-6.215091,"i_long":106.86807400000001,"line":1},{"transit":false,"time":2,"i_lat":-6.212485,"i_long":106.858896,"line":1,"distance":1377,"station_name":"Matraman","station_id":"MTR","is_transit":false},{"i_lat":-6.209883,"transit":true,"is_transit":true,"time":2,"station_name":"Manggarai","i_long":106.84912,"line":2,"station_id":"MRI","distance":1275},{"time":4,"station_name":"Cikini","i_long":106.840169,"line":2,"distance":1590,"is_transit":false,"transit":false,"i_lat":-6.198556,"station_id":"CKI"},{"i_long":106.832183,"is_transit":false,"station_id":"GDD","line":2,"distance":1750,"i_lat":-6.186295,"transit":false,"station_name":"Gondangdia","time":3},{"station_name":"Juanda","i_lat":-6.166716,"time":4,"is_transit":false,"distance":2015,"station_id":"JUA","i_long":106.828284,"line":2,"transit":false},{"time":2,"station_name":"Sawah Besar","i_long":106.827103,"distance":1149,"transit":false,"is_transit":false,"station_id":"SW","i_lat":-6.160725,"line":2},{"transit":false,"time":2,"i_long":106.82482,"station_id":"MGB","is_transit":false,"line":2,"station_name":"Manggabesar","distance":906,"i_lat":-6.149769},{"is_transit":false,"station_name":"Jayakarta","line":2,"station_id":"JAY","transit":false,"i_lat":-6.141205,"time":2,"distance":1080,"i_long":106.820901},{"i_lat":-6.137569,"line":2,"transit":true,"i_long":106.812439,"is_transit":true,"station_name":"Jakarta Kota","time":4,"station_id":"JAKK","distance":1264},{"station_id":"KPB","station_name":"Kampung Bandan","is_transit":true,"i_lat":-6.132549,"time":3,"transit":true,"distance":1364,"i_long":106.826365,"line":4},{"i_long":106.79867,"time":9,"transit":false,"is_transit":false,"station_name":"Angke","line":1,"station_id":"AK","distance":4102,"i_lat":-6.144674},{"distance":1230,"i_lat":-6.155215,"station_id":"DU","transit":false,"i_long":106.800832,"time":4,"station_name":"Duri","line":1,"is_transit":false},{"i_long":106.811091,"transit":true,"station_name":"Tanah Abang","i_lat":-6.185545,"distance":3632,"is_transit":true,"line":1,"station_id":"THB","time":8},{"i_lat":-6.207404,"distance":3191,"transit":false,"is_transit":false,"line":6,"station_name":"Palmerah","station_id":"PLM","i_long":106.79689,"time":6},{"distance":3737,"line":6,"station_id":"KBY","transit":false,"is_transit":false,"i_lat":-6.237242,"i_long":106.780334,"time":7,"station_name":"Kebayoran"},{"distance":6218,"i_lat":-6.276362,"transit":false,"i_long":106.74273,"station_id":"PDJ","is_transit":false,"time":8,"station_name":"Pondokranji","line":6},{"distance":2179,"station_name":"Jurangmangu","station_id":"JMU","time":3,"line":6,"is_transit":false,"transit":false,"i_long":106.728916,"i_lat":-6.288927},{"station_id":"SDM","time":4,"transit":false,"distance":1994,"line":6,"is_transit":false,"station_name":"Sudimara","i_long":106.712277,"i_lat":-6.296963},{"is_transit":false,"time":6,"transit":false,"line":6,"i_lat":-6.314823,"station_id":"RU","station_name":"Rawa Buntu","i_long":106.675475,"distance":4566},{"line":6,"is_transit":false,"station_name":"Serpong","i_lat":-6.319871,"transit":false,"i_long":106.66566,"station_id":"SRP","distance":2413,"time":4},{"distance":1784,"station_id":"CSK","time":4,"is_transit":false,"i_lat":-6.32484,"transit":false,"station_name":"Cisauk","i_long":106.640411,"line":3},{"is_transit":false,"i_long":106.617853,"station_name":"Cicayur","distance":2519,"time":4,"transit":false,"line":3,"i_lat":-6.329547,"station_id":"CC"},{"is_transit":false,"i_long":106.568863,"line":6,"station_id":"PRP","distance":5968,"station_name":"Parung Panjang","i_lat":-6.3441410000000005,"time":8,"transit":false},{"is_transit":false,"distance":7025,"time":9,"station_id":"CJT","i_lat":-6.354349,"line":3,"station_name":"Cilejit","i_long":106.508482,"transit":false},{"is_transit":false,"station_name":"Daru","i_long":106.491338,"station_id":"DAR","distance":2675,"i_lat":-6.338021,"line":0,"time":6,"transit":false}],[{"is_transit":false,"time":0,"station_id":"JNG","i_lat":-6.215091,"transit":false,"i_long":106.86807400000001,"line":1,"distance":0,"station_name":"Jatinegara"},{"i_long":106.861737,"line":11,"time":2,"transit":false,"station_id":"POK","distance":1236,"station_name":"Pondok Jati","i_lat":-6.209188,"is_transit":false},{"distance":1829,"transit":false,"station_id":"KMT","i_lat":-6.193792,"is_transit":false,"line":11,"time":2,"i_long":106.855437,"station_name":"Kramat"},{"line":11,"station_id":"GST","transit":false,"i_lat":-6.185975,"distance":973,"time":1,"is_transit":false,"station_name":"Gang Sentiong","i_long":106.850107},{"transit":false,"station_name":"Pasar Senen","station_id":"PSE","i_long":106.84368,"line":11,"i_lat":-6.174784,"is_transit":false,"time":8,"distance":1567},{"is_transit":false,"transit":false,"i_lat":-6.161728,"station_name":"Kemayoran","i_long":106.839204,"time":4,"distance":1436,"line":11,"station_id":"KMO"},{"i_long":106.836569,"time":5,"line":11,"i_lat":-6.14505,"is_transit":false,"distance":1901,"station_id":"RJW","transit":false,"station_name":"Rajawali"},{"transit":true,"station_id":"KPB","i_long":106.826365,"is_transit":true,"i_lat":-6.132549,"distance":1444,"station_name":"Kampung Bandan","time":3,"line":4},{"transit":true,"is_transit":true,"distance":1364,"i_long":106.812439,"station_id":"JAKK","i_lat":-6.137569,"line":2,"station_name":"Jakarta Kota","time":3},{"is_transit":false,"distance":1264,"line":2,"station_id":"JAY","time":4,"i_lat":-6.141205,"station_name":"Jayakarta","i_long":106.820901,"transit":false},{"i_long":106.82482,"station_name":"Manggabesar","line":2,"station_id":"MGB","transit":false,"time":2,"distance":1080,"is_transit":false,"i_lat":-6.149769},{"station_name":"Sawah Besar","i_long":106.827103,"time":2,"station_id":"SW","i_lat":-6.160725,"line":2,"transit":false,"is_transit":false,"distance":906},{"distance":1149,"i_lat":-6.166716,"i_long":106.828284,"line":2,"time":2,"station_name":"Juanda","transit":false,"is_transit":false,"station_id":"JUA"},{"station_name":"Gondangdia","station_id":"GDD","is_transit":false,"i_lat":-6.186295,"line":2,"i_long":106.832183,"transit":false,"time":4,"distance":2015},{"transit":false,"is_transit":false,"station_id":"CKI","distance":1750,"i_lat":-6.198556,"i_long":106.840169,"time":3,"line":2,"station_name":"Cikini"},{"distance":1590,"i_lat":-6.209883,"i_long":106.84912,"station_id":"MRI","line":2,"is_transit":true,"transit":true,"station_name":"Manggarai","time":4},{"is_transit":false,"time":4,"distance":3186,"i_long":106.822649,"transit":false,"station_name":"Sudirman","i_lat":-6.202263,"line":1,"station_id":"SUD"},{"station_name":"Sudirman Baru","i_long":106.819881,"line":1,"distance":280,"i_lat":-6.201433,"transit":false,"is_transit":false,"station_id":"SUDB","time":1},{"time":1,"i_lat":-6.20132,"transit":false,"station_id":"KAT","station_name":"Karet","is_transit":false,"distance":471,"i_long":106.816351,"line":1},{"station_name":"Tanah Abang","is_transit":true,"station_id":"THB","time":5,"transit":true,"distance":2029,"i_lat":-6.185545,"i_long":106.811091,"line":1},{"is_transit":false,"station_name":"Palmerah","i_lat":-6.207404,"time":6,"station_id":"PLM","i_long":106.79689,"transit":false,"distance":3191,"line":6},{"time":7,"station_name":"Kebayoran","i_lat":-6.237242,"line":6,"is_transit":false,"i_long":106.780334,"transit":false,"distance":3737,"station_id":"KBY"},{"time":8,"i_long":106.74273,"station_name":"Pondokranji","transit":false,"is_transit":false,"station_id":"PDJ","i_lat":-6.276362,"line":6,"distance":6218},{"distance":2179,"station_name":"Jurangmangu","time":3,"station_id":"JMU","line":6,"i_lat":-6.288927,"is_transit":false,"transit":false,"i_long":106.728916},{"i_lat":-6.296963,"time":4,"transit":false,"station_id":"SDM","station_name":"Sudimara","is_transit":false,"distance":1994,"i_long":106.712277,"line":6},{"i_long":106.675475,"is_transit":false,"distance":4566,"line":6,"i_lat":-6.314823,"transit":false,"station_id":"RU","time":6,"station_name":"Rawa Buntu"},{"transit":false,"is_transit":false,"distance":2413,"line":6,"i_lat":-6.319871,"station_id":"SRP","station_name":"Serpong","time":4,"i_long":106.66566},{"time":4,"i_lat":-6.32484,"is_transit":false,"line":3,"transit":false,"station_id":"CSK","distance":1784,"station_name":"Cisauk","i_long":106.640411},{"i_lat":-6.329547,"distance":2519,"is_transit":false,"station_name":"Cicayur","time":4,"transit":false,"line":3,"station_id":"CC","i_long":106.617853},{"transit":false,"time":8,"i_lat":-6.3441410000000005,"line":6,"is_transit":false,"i_long":106.568863,"station_name":"Parung Panjang","station_id":"PRP","distance":5968},{"distance":7025,"is_transit":false,"station_name":"Cilejit","i_lat":-6.354349,"time":9,"line":3,"transit":false,"i_long":106.508482,"station_id":"CJT"},{"transit":false,"distance":2675,"station_name":"Daru","is_transit":false,"station_id":"DAR","i_lat":-6.338021,"line":0,"time":6,"i_long":106.491338}]]}