{"data":[[{"line":1,"station_name":"Jatinegara","transit":false,"time":0,"is_transit":false,"i_lat":-6.215091,"i_long":106.86807400000001,"distance":0,"station_id":"JNG"},{"station_name":"Matraman","is_transit":false,"i_lat":-6.212485,"line":1,"station_id":"MTR","distance":1377,"time":2,"transit":false,"i_long":106.858896},{"i_lat":-6.209883,"station_name":"Manggarai","time":2,"is_transit":true,"i_long":106.84912,"transit":true,"distance":1275,"station_id":"MRI","line":2},{"i_long":106.857948,"distance":2610,"transit":false,"is_transit":false,"station_id":"TEB","i_lat":-6.226659,"station_name":"Tebet","time":4,"line":2},{"transit":false,"station_id":"CW","station_name":"Cawang","distance":1230,"is_transit":false,"i_lat":-6.242512,"i_long":106.856607,"line":2,"time":2},{"transit":false,"station_name":"Duren Kalibata","is_transit":false,"i_long":106.85449,"line":2,"distance":1546,"i_lat":-6.255332,"station_id":"DRN","time":3},{"is_transit":false,"transit":false,"station_name":"Pasar Minggu Baru","distance":824,"time":2,"i_lat":-6.263214,"i_long":106.851577,"line":2,"station_id":"PSMB"},{"is_transit":false,"line":2,"station_id":"PSM","time":2,"transit":false,"i_lat":-6.2842400000000005,"station_name":"Pasar Minggu","i_long":106.843999,"distance":2380},{"station_name":"Tanjung Barat","station_id":"TNT","is_transit":false,"i_lat":-6.3080680000000005,"transit":false,"distance":2820,"time":4,"line":2,"i_long":106.838896},{"time":3,"is_transit":false,"i_lat":-6.330363,"i_long":106.832616,"transit":false,"line":2,"station_id":"LNA","station_name":"Lenteng Agung","distance":2671},{"line":2,"station_id":"UP","is_transit":false,"station_name":"Univ. Pancasila","transit":false,"distance":1029,"i_lat":-6.339291,"i_long":106.834175,"time":2},{"transit":false,"station_id":"UI","time":3,"i_long":106.831474,"is_transit":false,"station_name":"Univ. Indonesia","i_lat":-6.360749,"distance":2264,"line":2},{"station_name":"Pondok Cina","station_id":"POC","distance":1109,"time":2,"i_lat":-6.369073,"i_long":106.831114,"is_transit":false,"line":2,"transit":false}],[{"transit":false,"i_lat":-6.215091,"station_name":"Jatinegara","is_transit":false,"station_id":"JNG","distance":0,"i_long":106.86807400000001,"line":1,"time":0},{"i_long":106.861737,"time":2,"transit":false,"distance":1236,"station_id":"POK","is_transit":false,"i_lat":-6.209188,"line":11,"station_name":"Pondok Jati"},{"i_long":106.855437,"is_transit":false,"line":11,"station_name":"Kramat","station_id":"KMT","time":2,"transit":false,"distance":1829,"i_lat":-6.193792},{"i_lat":-6.185975,"i_long":106.850107,"distance":973,"transit":false,"station_id":"GST","station_name":"Gang Sentiong","is_transit":false,"time":1,"line":11},{"transit":false,"station_id":"PSE","distance":1567,"i_long":106.84368,"line":11,"is_transit":false,"station_name":"Pasar Senen","time":8,"i_lat":-6.174784},{"time":4,"is_transit":false,"station_id":"KMO","station_name":"Kemayoran","transit":false,"line":11,"distance":1436,"i_long":106.839204,"i_lat":-6.161728},{"station_name":"Rajawali","i_long":106.836569,"transit":false,"distance":1901,"time":5,"station_id":"RJW","i_lat":-6.14505,"line":11,"is_transit":false},{"transit":true,"time":3,"station_id":"KPB","is_transit":true,"i_lat":-6.132549,"line":4,"i_long":106.826365,"station_name":"Kampung Bandan","distance":1444},{"transit":false,"distance":4102,"time":9,"i_long":106.79867,"station_name":"Angke","station_id":"AK","line":1,"is_transit":false,"i_lat":-6.144674},{"station_id":"DU","distance":1230,"is_transit":false,"station_name":"Duri","i_lat":-6.155215,"i_long":106.800832,"line":1,"time":4,"transit":false},{"line":1,"is_transit":false,"i_long":106.811091,"station_name":"Tanah Abang","i_lat":-6.185545,"distance":3632,"station_id":"THB","transit":false,"time":8},{"i_long":106.816351,"station_id":"KAT","distance":2029,"i_lat":-6.20132,"is_transit":false,"time":5,"transit":false,"line":1,"station_name":"Karet"},{"distance":471,"station_name":"Sudirman Baru","station_id":"SUDB","i_lat":-6.201433,"line":1,"is_transit":false,"time":1,"transit":false,"i_long":106.819881},{"is_transit":false,"station_id":"SUD","time":1,"distance":280,"line":1,"transit":false,"station_name":"Sudirman","i_lat":-6.202263,"i_long":106.822649},{"station_name":"Manggarai","transit":true,"distance":3186,"i_long":106.84912,"is_transit":true,"time":4,"line":2,"i_lat":-6.209883,"station_id":"MRI"},{"line":2,"station_id":"TEB","distance":2610,"i_long":106.857948,"is_transit":false,"transit":false,"station_name":"Tebet","time":4,"i_lat":-6.226659},{"time":2,"station_name":"Cawang","line":2,"is_transit":false,"distance":1230,"transit":false,"station_id":"CW","i_lat":-6.242512,"i_long":106.856607},{"i_long":106.85449,"i_lat":-6.255332,"time":3,"station_name":"Duren Kalibata","transit":false,"station_id":"DRN","is_transit":false,"line":2,"distance":1546},{"station_name":"Pasar Minggu Baru","time":2,"line":2,"distance":824,"transit":false,"station_id":"PSMB","i_lat":-6.263214,"is_transit":false,"i_long":106.851577},{"transit":false,"is_transit":false,"station_name":"Pasar Minggu","distance":2380,"time":2,"i_lat":-6.2842400000000005,"station_id":"PSM","i_long":106.843999,"line":2},{"line":2,"distance":2820,"station_name":"Tanjung Barat","transit":false,"time":4,"is_transit":false,"i_lat":-6.3080680000000005,"station_id":"TNT","i_long":106.838896},{"distance":2671,"station_id":"LNA","transit":false,"is_transit":false,"station_name":"Lenteng Agung","line":2,"time":3,"i_lat":-6.330363,"i_long":106.832616},{"distance":1029,"line":2,"station_name":"Univ. Pancasila","transit":false,"station_id":"UP","is_transit":false,"i_lat":-6.339291,"i_long":106.834175,"time":2},{"transit":false,"line":2,"i_long":106.831474,"station_id":"UI","i_lat":-6.360749,"station_name":"Univ. Indonesia","time":3,"is_transit":false,"distance":2264},{"station_name":"Pondok Cina","is_transit":false,"time":2,"line":2,"station_id":"POC","transit":false,"i_long":106.831114,"distance":1109,"i_lat":-6.369073}],[{"is_transit":false,"i_lat":-6.215091,"transit":false,"station_id":"JNG","time":0,"i_long":106.86807400000001,"line":1,"distance":0,"station_name":"Jatinegara"},{"station_id":"POK","station_name":"Pondok Jati","i_long":106.861737,"i_lat":-6.209188,"time":2,"distance":1236,"is_transit":false,"line":11,"transit":false},{"is_transit":false,"distance":1829,"i_long":106.855437,"transit":false,"i_lat":-6.193792,"time":2,"station_id":"KMT","line":11,"station_name":"Kramat"},{"is_transit":false,"i_long":106.850107,"line":11,"i_lat":-6.185975,"time":1,"transit":false,"station_id":"GST","station_name":"Gang Sentiong","distance":973},{"transit":false,"station_name":"Pasar Senen","i_long":106.84368,"station_id":"PSE","is_transit":false,"line":11,"distance":1567,"i_lat":-6.174784,"time":8},{"distance":1436,"line":11,"time":4,"transit":false,"station_id":"KMO","i_lat":-6.161728,"station_name":"Kemayoran","i_long":106.839204,"is_transit":false},{"line":11,"station_id":"RJW","distance":1901,"i_lat":-6.14505,"station_name":"Rajawali","is_transit":false,"time":5,"transit":false,"i_long":106.836569},{"time":3,"station_id":"KPB","station_name":"Kampung Bandan","line":4,"i_lat":-6.132549,"transit":true,"distance":1444,"is_transit":true,"i_long":106.826365},{"station_id":"JAKK","i_lat":-6.137569,"station_name":"Jakarta Kota","line":2,"distance":1364,"i_long":106.812439,"time":3,"transit":true,"is_transit":true},{"station_name":"Jayakarta","station_id":"JAY","distance":1264,"line":2,"i_lat":-6.141205,"i_long":106.820901,"transit":false,"time":4,"is_transit":false},{"time":2,"i_long":106.82482,"line":2,"station_id":"MGB","is_transit":false,"i_lat":-6.149769,"transit":false,"station_name":"Manggabesar","distance":1080},{"i_long":106.827103,"station_name":"Sawah Besar","time":2,"transit":false,"line":2,"distance":906,"i_lat":-6.160725,"station_id":"SW","is_transit":false},{"i_lat":-6.166716,"line":2,"transit":false,"i_long":106.828284,"station_name":"Juanda","time":2,"station_id":"JUA","distance":1149,"is_transit":false},{"station_id":"GDD","i_lat":-6.186295,"transit":false,"i_long":106.832183,"time":4,"station_name":"Gondangdia","line":2,"distance":2015,"is_transit":false},{"station_id":"CKI","i_long":106.840169,"line":2,"is_transit":false,"time":3,"distance":1750,"i_lat":-6.198556,"station_name":"Cikini","transit":false},{"transit":false,"distance":1590,"is_transit":false,"time":4,"station_name":"Manggarai","i_long":106.84912,"station_id":"MRI","i_lat":-6.209883,"line":2},{"transit":false,"station_id":"TEB","i_long":106.857948,"is_transit":false,"time":4,"line":2,"station_name":"Tebet","distance":2610,"i_lat":-6.226659},{"is_transit":false,"i_long":106.856607,"i_lat":-6.242512,"station_name":"Cawang","time":2,"line":2,"station_id":"CW","distance":1230,"transit":false},{"station_id":"DRN","time":3,"transit":false,"is_transit":false,"i_long":106.85449,"i_lat":-6.255332,"station_name":"Duren Kalibata","distance":1546,"line":2},{"station_id":"PSMB","distance":824,"station_name":"Pasar Minggu Baru","time":2,"line":2,"transit":false,"i_lat":-6.263214,"i_long":106.851577,"is_transit":false},{"time":2,"transit":false,"distance":2380,"i_long":106.843999,"station_name":"Pasar Minggu","is_transit":false,"i_lat":-6.2842400000000005,"station_id":"PSM","line":2},{"time":4,"is_transit":false,"distance":2820,"i_long":106.838896,"station_name":"Tanjung Barat","station_id":"TNT","i_lat":-6.3080680000000005,"line":2,"transit":false},{"i_long":106.832616,"is_transit":false,"station_id":"LNA","transit":false,"i_lat":-6.330363,"time":3,"station_name":"Lenteng Agung","distance":2671,"line":2},{"i_lat":-6.339291,"distance":1029,"i_long":106.834175,"line":2,"station_name":"Univ. Pancasila","transit":false,"station_id":"UP","is_transit":false,"time":2},{"time":3,"distance":2264,"i_lat":-6.360749,"i_long":106.831474,"station_name":"Univ. Indonesia","station_id":"UI","transit":false,"line":2,"is_transit":false},{"line":2,"station_name":"Pondok Cina","is_transit":false,"distance":1109,"time":2,"i_lat":-6.369073,"station_id":"POC","i_long":106.831114,"transit":false}]]}