{"data":[[{"transit":false,"is_transit":false,"time":0,"distance":0,"station_name":"Jatinegara","i_lat":-6.215091,"i_long":106.86807400000001,"line":1,"station_id":"JNG"},{"i_long":106.861737,"time":2,"distance":1236,"transit":false,"is_transit":false,"station_name":"Pondok Jati","station_id":"POK","line":11,"i_lat":-6.209188}],[{"time":0,"i_lat":-6.215091,"i_long":106.86807400000001,"station_name":"Jatinegara","is_transit":false,"line":1,"transit":false,"station_id":"JNG","distance":0},{"transit":false,"line":1,"i_long":106.858896,"is_transit":false,"time":2,"i_lat":-6.212485,"station_id":"MTR","distance":1377,"station_name":"Matraman"},{"time":2,"i_long":106.84912,"is_transit":false,"station_id":"MRI","distance":1275,"i_lat":-6.209883,"line":2,"station_name":"Manggarai","transit":false},{"is_transit":false,"line":1,"station_name":"Sudirman","time":4,"i_lat":-6.202263,"distance":3186,"i_long":106.822649,"station_id":"SUD","transit":false},{"distance":280,"transit":false,"station_name":"Sudirman Baru","is_transit":false,"i_lat":-6.201433,"line":1,"i_long":106.819881,"station_id":"SUDB","time":1},{"is_transit":false,"transit":false,"line":1,"station_id":"KAT","distance":471,"i_lat":-6.20132,"time":1,"i_long":106.816351,"station_name":"Karet"},{"station_id":"THB","is_transit":false,"station_name":"Tanah Abang","i_lat":-6.185545,"i_long":106.811091,"transit":false,"line":1,"distance":2029,"time":5},{"station_id":"DU","i_long":106.800832,"distance":3632,"station_name":"Duri","i_lat":-6.155215,"transit":false,"is_transit":false,"time":8,"line":1},{"i_long":106.79867,"line":1,"station_name":"Angke","time":4,"i_lat":-6.144674,"is_transit":false,"distance":1230,"station_id":"AK","transit":false},{"line":4,"station_name":"Kampung Bandan","i_long":106.826365,"time":9,"i_lat":-6.132549,"distance":4102,"station_id":"KPB","is_transit":true,"transit":true},{"distance":1444,"line":11,"i_lat":-6.14505,"station_id":"RJW","is_transit":false,"time":3,"transit":false,"station_name":"Rajawali","i_long":106.836569},{"i_long":106.839204,"station_name":"Kemayoran","line":11,"station_id":"KMO","distance":1901,"transit":false,"is_transit":false,"i_lat":-6.161728,"time":5},{"i_long":106.84368,"transit":false,"line":11,"time":4,"i_lat":-6.174784,"is_transit":false,"station_id":"PSE","station_name":"Pasar Senen","distance":1436},{"station_name":"Gang Sentiong","i_long":106.850107,"station_id":"GST","transit":false,"distance":1567,"i_lat":-6.185975,"line":11,"time":8,"is_transit":false},{"transit":false,"time":1,"line":11,"distance":973,"i_long":106.855437,"station_name":"Kramat","i_lat":-6.193792,"is_transit":false,"station_id":"KMT"},{"distance":1829,"station_id":"POK","station_name":"Pondok Jati","i_lat":-6.209188,"line":11,"is_transit":false,"transit":false,"time":2,"i_long":106.861737}],[{"is_transit":false,"distance":0,"i_lat":-6.215091,"transit":false,"station_name":"Jatinegara","time":0,"station_id":"JNG","i_long":106.86807400000001,"line":1},{"station_id":"MTR","transit":false,"time":2,"is_transit":false,"station_name":"Matraman","i_lat":-6.212485,"distance":1377,"i_long":106.858896,"line":1},{"station_name":"Manggarai","i_lat":-6.209883,"distance":1275,"time":2,"station_id":"MRI","is_transit":true,"line":2,"transit":true,"i_long":106.84912},{"i_lat":-6.198556,"line":2,"distance":1590,"transit":false,"time":4,"station_id":"CKI","is_transit":false,"station_name":"Cikini","i_long":106.840169},{"station_id":"GDD","is_transit":false,"time":3,"transit":false,"distance":1750,"i_lat":-6.186295,"i_long":106.832183,"station_name":"Gondangdia","line":2},{"time":4,"is_transit":false,"i_long":106.828284,"station_id":"JUA","distance":2015,"line":2,"transit":false,"i_lat":-6.166716,"station_name":"Juanda"},{"transit":false,"station_name":"Sawah Besar","i_long":106.827103,"i_lat":-6.160725,"time":2,"is_transit":false,"station_id":"SW","distance":1149,"line":2},{"time":2,"is_transit":false,"line":2,"i_long":106.82482,"transit":false,"station_name":"Manggabesar","i_lat":-6.149769,"station_id":"MGB","distance":906},{"distance":1080,"line":2,"time":2,"i_lat":-6.141205,"station_id":"JAY","station_name":"Jayakarta","i_long":106.820901,"is_transit":false,"transit":false},{"is_transit":true,"transit":true,"time":4,"i_lat":-6.137569,"station_id":"JAKK","distance":1264,"line":2,"i_long":106.812439,"station_name":"Jakarta Kota"},{"line":4,"i_lat":-6.132549,"station_id":"KPB","transit":true,"station_name":"Kampung Bandan","i_long":106.826365,"is_transit":true,"distance":1364,"time":3},{"station_name":"Rajawali","distance":1444,"transit":false,"time":3,"is_transit":false,"station_id":"RJW","i_long":106.836569,"i_lat":-6.14505,"line":11},{"line":11,"station_id":"KMO","is_transit":false,"i_lat":-6.161728,"distance":1901,"time":5,"transit":false,"i_long":106.839204,"station_name":"Kemayoran"},{"transit":false,"i_long":106.84368,"distance":1436,"line":11,"station_id":"PSE","i_lat":-6.174784,"time":4,"is_transit":false,"station_name":"Pasar Senen"},{"transit":false,"station_name":"Gang Sentiong","distance":1567,"station_id":"GST","is_transit":false,"time":8,"i_long":106.850107,"line":11,"i_lat":-6.185975},{"station_id":"KMT","transit":false,"line":11,"distance":973,"i_long":106.855437,"time":1,"station_name":"Kramat","is_transit":false,"i_lat":-6.193792},{"is_transit":false,"distance":1829,"time":2,"station_name":"Pondok Jati","i_lat":-6.209188,"i_long":106.861737,"station_id":"POK","transit":false,"line":11}]]}