{"data":[[{"transit":false,"time":0,"i_long":106.86807400000001,"is_transit":false,"line":1,"distance":0,"station_name":"Jatinegara","station_id":"JNG","i_lat":-6.215091},{"i_lat":-6.209188,"i_long":106.861737,"time":2,"transit":false,"line":11,"is_transit":false,"station_name":"Pondok Jati","distance":1236,"station_id":"POK"},{"line":11,"time":2,"is_transit":false,"i_lat":-6.193792,"station_name":"Kramat","i_long":106.855437,"transit":false,"distance":1829,"station_id":"KMT"},{"station_name":"Gang Sentiong","distance":973,"i_lat":-6.185975,"is_transit":false,"i_long":106.850107,"line":11,"time":1,"station_id":"GST","transit":false},{"transit":false,"time":8,"station_id":"PSE","i_long":106.84368,"station_name":"Pasar Senen","is_transit":false,"line":11,"distance":1567,"i_lat":-6.174784},{"i_long":106.839204,"distance":1436,"transit":false,"is_transit":false,"time":4,"i_lat":-6.161728,"line":11,"station_name":"Kemayoran","station_id":"KMO"},{"station_id":"RJW","time":5,"transit":false,"station_name":"Rajawali","i_long":106.836569,"distance":1901,"line":11,"is_transit":false,"i_lat":-6.14505}],[{"line":1,"station_name":"Jatinegara","time":0,"station_id":"JNG","transit":false,"distance":0,"i_long":106.86807400000001,"i_lat":-6.215091,"is_transit":false},{"station_name":"Matraman","time":2,"is_transit":false,"distance":1377,"i_lat":-6.212485,"i_long":106.858896,"transit":false,"station_id":"MTR","line":1},{"i_lat":-6.209883,"transit":false,"is_transit":false,"distance":1275,"station_name":"Manggarai","line":2,"time":2,"station_id":"MRI","i_long":106.84912},{"time":4,"is_transit":false,"distance":3186,"station_id":"SUD","station_name":"Sudirman","line":1,"transit":false,"i_lat":-6.202263,"i_long":106.822649},{"station_name":"Sudirman Baru","distance":280,"i_lat":-6.201433,"station_id":"SUDB","is_transit":false,"i_long":106.819881,"line":1,"transit":false,"time":1},{"station_id":"KAT","station_name":"Karet","is_transit":false,"time":1,"i_long":106.816351,"line":1,"i_lat":-6.20132,"distance":471,"transit":false},{"time":5,"transit":false,"station_name":"Tanah Abang","i_lat":-6.185545,"i_long":106.811091,"is_transit":false,"station_id":"THB","line":1,"distance":2029},{"station_name":"Duri","is_transit":false,"line":1,"transit":false,"time":8,"distance":3632,"station_id":"DU","i_lat":-6.155215,"i_long":106.800832},{"is_transit":false,"line":1,"station_id":"AK","time":4,"i_lat":-6.144674,"i_long":106.79867,"station_name":"Angke","distance":1230,"transit":false},{"station_id":"KPB","distance":4102,"line":4,"is_transit":true,"time":9,"transit":true,"i_lat":-6.132549,"i_long":106.826365,"station_name":"Kampung Bandan"},{"i_lat":-6.14505,"time":3,"line":11,"transit":false,"station_name":"Rajawali","distance":1444,"station_id":"RJW","i_long":106.836569,"is_transit":false}],[{"is_transit":false,"i_lat":-6.215091,"transit":false,"time":0,"distance":0,"line":1,"station_id":"JNG","station_name":"Jatinegara","i_long":106.86807400000001},{"is_transit":false,"i_lat":-6.212485,"i_long":106.858896,"distance":1377,"station_name":"Matraman","transit":false,"time":2,"station_id":"MTR","line":1},{"time":2,"station_name":"Manggarai","distance":1275,"station_id":"MRI","transit":true,"line":2,"i_long":106.84912,"i_lat":-6.209883,"is_transit":true},{"station_name":"Cikini","distance":1590,"station_id":"CKI","i_long":106.840169,"line":2,"transit":false,"time":4,"i_lat":-6.198556,"is_transit":false},{"distance":1750,"is_transit":false,"station_id":"GDD","i_lat":-6.186295,"transit":false,"i_long":106.832183,"line":2,"station_name":"Gondangdia","time":3},{"i_lat":-6.166716,"time":4,"station_id":"JUA","distance":2015,"line":2,"transit":false,"is_transit":false,"i_long":106.828284,"station_name":"Juanda"},{"station_id":"SW","station_name":"Sawah Besar","distance":1149,"i_long":106.827103,"transit":false,"is_transit":false,"time":2,"i_lat":-6.160725,"line":2},{"distance":906,"i_lat":-6.149769,"station_name":"Manggabesar","i_long":106.82482,"line":2,"station_id":"MGB","transit":false,"time":2,"is_transit":false},{"is_transit":false,"station_name":"Jayakarta","distance":1080,"station_id":"JAY","i_long":106.820901,"line":2,"transit":false,"i_lat":-6.141205,"time":2},{"transit":true,"distance":1264,"time":4,"line":2,"i_lat":-6.137569,"station_name":"Jakarta Kota","is_transit":true,"station_id":"JAKK","i_long":106.812439},{"i_lat":-6.132549,"i_long":106.826365,"time":3,"distance":1364,"line":4,"station_id":"KPB","is_transit":true,"station_name":"Kampung Bandan","transit":true},{"is_transit":false,"station_id":"RJW","transit":false,"station_name":"Rajawali","i_long":106.836569,"distance":1444,"line":11,"time":3,"i_lat":-6.14505}]]}