{"data":[[{"is_transit":false,"time":0,"transit":false,"station_name":"Jatinegara","line":1,"distance":0,"i_lat":-6.215091,"station_id":"JNG","i_long":106.86807400000001},{"distance":1377,"station_id":"MTR","line":1,"i_long":106.858896,"station_name":"Matraman","is_transit":false,"transit":false,"time":2,"i_lat":-6.212485},{"i_lat":-6.209883,"time":2,"station_name":"Manggarai","i_long":106.84912,"transit":false,"line":2,"is_transit":false,"distance":1275,"station_id":"MRI"},{"distance":3186,"i_lat":-6.202263,"line":1,"station_id":"SUD","time":4,"station_name":"Sudirman","transit":false,"is_transit":false,"i_long":106.822649},{"i_long":106.819881,"line":1,"station_id":"SUDB","i_lat":-6.201433,"transit":false,"distance":280,"station_name":"Sudirman Baru","time":1,"is_transit":false},{"line":1,"i_lat":-6.20132,"is_transit":false,"time":1,"station_name":"Karet","i_long":106.816351,"distance":471,"station_id":"KAT","transit":false},{"transit":true,"distance":2029,"is_transit":true,"time":5,"i_long":106.811091,"station_id":"THB","i_lat":-6.185545,"station_name":"Tanah Abang","line":1},{"is_transit":false,"transit":false,"line":6,"station_name":"Palmerah","station_id":"PLM","distance":3191,"i_lat":-6.207404,"time":6,"i_long":106.79689},{"station_name":"Kebayoran","transit":false,"is_transit":false,"distance":3737,"i_lat":-6.237242,"i_long":106.780334,"line":6,"time":7,"station_id":"KBY"},{"station_id":"PDJ","i_lat":-6.276362,"i_long":106.74273,"line":6,"is_transit":false,"station_name":"Pondokranji","distance":6218,"transit":false,"time":8},{"i_lat":-6.288927,"station_id":"JMU","transit":false,"line":6,"i_long":106.728916,"station_name":"Jurangmangu","time":3,"is_transit":false,"distance":2179}],[{"transit":false,"station_name":"Jatinegara","is_transit":false,"line":1,"station_id":"JNG","distance":0,"time":0,"i_lat":-6.215091,"i_long":106.86807400000001},{"distance":1236,"is_transit":false,"transit":false,"line":11,"station_name":"Pondok Jati","station_id":"POK","i_lat":-6.209188,"i_long":106.861737,"time":2},{"station_id":"KMT","transit":false,"i_long":106.855437,"distance":1829,"is_transit":false,"station_name":"Kramat","i_lat":-6.193792,"time":2,"line":11},{"station_id":"GST","i_lat":-6.185975,"distance":973,"line":11,"is_transit":false,"transit":false,"time":1,"station_name":"Gang Sentiong","i_long":106.850107},{"i_long":106.84368,"line":11,"i_lat":-6.174784,"station_name":"Pasar Senen","time":8,"distance":1567,"station_id":"PSE","transit":false,"is_transit":false},{"time":4,"line":11,"is_transit":false,"distance":1436,"transit":false,"station_id":"KMO","i_lat":-6.161728,"i_long":106.839204,"station_name":"Kemayoran"},{"time":5,"i_long":106.836569,"distance":1901,"transit":false,"station_id":"RJW","station_name":"Rajawali","is_transit":false,"i_lat":-6.14505,"line":11},{"distance":1444,"station_id":"KPB","transit":true,"i_lat":-6.132549,"time":3,"line":4,"i_long":106.826365,"station_name":"Kampung Bandan","is_transit":true},{"station_id":"AK","is_transit":false,"station_name":"Angke","i_long":106.79867,"transit":false,"line":1,"distance":4102,"time":9,"i_lat":-6.144674},{"i_long":106.800832,"is_transit":false,"station_id":"DU","transit":false,"distance":1230,"time":4,"line":1,"station_name":"Duri","i_lat":-6.155215},{"i_lat":-6.185545,"line":1,"i_long":106.811091,"transit":true,"is_transit":true,"time":8,"distance":3632,"station_name":"Tanah Abang","station_id":"THB"},{"station_name":"Palmerah","i_lat":-6.207404,"line":6,"i_long":106.79689,"distance":3191,"time":6,"station_id":"PLM","transit":false,"is_transit":false},{"station_id":"KBY","transit":false,"line":6,"i_long":106.780334,"i_lat":-6.237242,"is_transit":false,"distance":3737,"time":7,"station_name":"Kebayoran"},{"i_lat":-6.276362,"distance":6218,"transit":false,"is_transit":false,"station_id":"PDJ","station_name":"Pondokranji","i_long":106.74273,"time":8,"line":6},{"i_long":106.728916,"line":6,"station_name":"Jurangmangu","station_id":"JMU","is_transit":false,"time":3,"distance":2179,"transit":false,"i_lat":-6.288927}],[{"is_transit":false,"station_id":"JNG","distance":0,"transit":false,"station_name":"Jatinegara","i_lat":-6.215091,"time":0,"line":1,"i_long":106.86807400000001},{"station_name":"Matraman","time":2,"transit":false,"i_lat":-6.212485,"distance":1377,"is_transit":false,"i_long":106.858896,"station_id":"MTR","line":1},{"station_id":"MRI","i_lat":-6.209883,"is_transit":true,"i_long":106.84912,"transit":true,"line":2,"station_name":"Manggarai","distance":1275,"time":2},{"i_long":106.840169,"line":2,"time":4,"station_name":"Cikini","station_id":"CKI","transit":false,"i_lat":-6.198556,"is_transit":false,"distance":1590},{"station_name":"Gondangdia","i_long":106.832183,"line":2,"station_id":"GDD","time":3,"transit":false,"i_lat":-6.186295,"is_transit":false,"distance":1750},{"transit":false,"station_name":"Juanda","is_transit":false,"station_id":"JUA","i_lat":-6.166716,"distance":2015,"line":2,"time":4,"i_long":106.828284},{"i_long":106.827103,"i_lat":-6.160725,"distance":1149,"station_name":"Sawah Besar","time":2,"line":2,"transit":false,"is_transit":false,"station_id":"SW"},{"distance":906,"is_transit":false,"station_id":"MGB","time":2,"transit":false,"i_lat":-6.149769,"line":2,"station_name":"Manggabesar","i_long":106.82482},{"i_long":106.820901,"station_name":"Jayakarta","transit":false,"time":2,"distance":1080,"i_lat":-6.141205,"station_id":"JAY","line":2,"is_transit":false},{"transit":true,"station_name":"Jakarta Kota","i_lat":-6.137569,"distance":1264,"is_transit":true,"i_long":106.812439,"station_id":"JAKK","line":2,"time":4},{"time":3,"i_long":106.826365,"i_lat":-6.132549,"station_name":"Kampung Bandan","station_id":"KPB","transit":true,"distance":1364,"line":4,"is_transit":true},{"distance":4102,"station_id":"AK","line":1,"is_transit":false,"time":9,"i_lat":-6.144674,"transit":false,"i_long":106.79867,"station_name":"Angke"},{"distance":1230,"transit":false,"time":4,"station_name":"Duri","station_id":"DU","i_lat":-6.155215,"line":1,"is_transit":false,"i_long":106.800832},{"time":8,"is_transit":true,"station_name":"Tanah Abang","i_long":106.811091,"line":1,"distance":3632,"station_id":"THB","transit":true,"i_lat":-6.185545},{"station_name":"Palmerah","time":6,"distance":3191,"line":6,"i_long":106.79689,"transit":false,"i_lat":-6.207404,"station_id":"PLM","is_transit":false},{"i_lat":-6.237242,"station_name":"Kebayoran","i_long":106.780334,"distance":3737,"is_transit":false,"time":7,"station_id":"KBY","transit":false,"line":6},{"i_long":106.74273,"transit":false,"line":6,"i_lat":-6.276362,"station_id":"PDJ","time":8,"is_transit":false,"distance":6218,"station_name":"Pondokranji"},{"i_long":106.728916,"line":6,"station_name":"Jurangmangu","time":3,"distance":2179,"i_lat":-6.288927,"transit":false,"is_transit":false,"station_id":"JMU"}],[{"distance":0,"i_lat":-6.215091,"line":1,"time":0,"station_id":"JNG","station_name":"Jatinegara","i_long":106.86807400000001,"transit":false,"is_transit":false},{"line":11,"time":2,"distance":1236,"is_transit":false,"transit":false,"station_name":"Pondok Jati","i_lat":-6.209188,"station_id":"POK","i_long":106.861737},{"is_transit":false,"station_id":"KMT","distance":1829,"time":2,"transit":false,"station_name":"Kramat","i_long":106.855437,"line":11,"i_lat":-6.193792},{"station_id":"GST","transit":false,"is_transit":false,"distance":973,"station_name":"Gang Sentiong","i_long":106.850107,"line":11,"i_lat":-6.185975,"time":1},{"i_long":106.84368,"transit":false,"line":11,"time":8,"station_name":"Pasar Senen","is_transit":false,"distance":1567,"station_id":"PSE","i_lat":-6.174784},{"time":4,"transit":false,"station_name":"Kemayoran","i_lat":-6.161728,"i_long":106.839204,"station_id":"KMO","line":11,"is_transit":false,"distance":1436},{"i_lat":-6.14505,"i_long":106.836569,"station_name":"Rajawali","is_transit":false,"time":5,"station_id":"RJW","line":11,"distance":1901,"transit":false},{"i_lat":-6.132549,"time":3,"is_transit":true,"transit":true,"distance":1444,"i_long":106.826365,"station_id":"KPB","line":4,"station_name":"Kampung Bandan"},{"i_lat":-6.137569,"transit":true,"i_long":106.812439,"is_transit":true,"station_id":"JAKK","station_name":"Jakarta Kota","distance":1364,"line":2,"time":3},{"distance":1264,"transit":false,"time":4,"i_long":106.820901,"line":2,"is_transit":false,"station_id":"JAY","i_lat":-6.141205,"station_name":"Jayakarta"},{"i_lat":-6.149769,"transit":false,"is_transit":false,"i_long":106.82482,"station_name":"Manggabesar","time":2,"distance":1080,"station_id":"MGB","line":2},{"line":2,"station_name":"Sawah Besar","i_lat":-6.160725,"time":2,"transit":false,"is_transit":false,"i_long":106.827103,"distance":906,"station_id":"SW"},{"line":2,"time":2,"i_long":106.828284,"distance":1149,"station_name":"Juanda","i_lat":-6.166716,"is_transit":false,"station_id":"JUA","transit":false},{"i_lat":-6.186295,"line":2,"transit":false,"station_name":"Gondangdia","distance":2015,"station_id":"GDD","i_long":106.832183,"is_transit":false,"time":4},{"distance":1750,"time":3,"station_id":"CKI","transit":false,"line":2,"i_lat":-6.198556,"station_name":"Cikini","i_long":106.840169,"is_transit":false},{"line":2,"station_id":"MRI","is_transit":true,"i_long":106.84912,"transit":true,"i_lat":-6.209883,"time":4,"distance":1590,"station_name":"Manggarai"},{"transit":false,"time":4,"is_transit":false,"distance":3186,"station_id":"SUD","station_name":"Sudirman","i_lat":-6.202263,"i_long":106.822649,"line":1},{"station_name":"Sudirman Baru","distance":280,"i_lat":-6.201433,"line":1,"is_transit":false,"i_long":106.819881,"station_id":"SUDB","transit":false,"time":1},{"is_transit":false,"station_id":"KAT","station_name":"Karet","transit":false,"time":1,"i_lat":-6.20132,"line":1,"i_long":106.816351,"distance":471},{"i_lat":-6.185545,"distance":2029,"line":1,"is_transit":true,"station_id":"THB","i_long":106.811091,"time":5,"transit":true,"station_name":"Tanah Abang"},{"time":6,"transit":false,"is_transit":false,"i_lat":-6.207404,"station_name":"Palmerah","distance":3191,"i_long":106.79689,"line":6,"station_id":"PLM"},{"transit":false,"distance":3737,"is_transit":false,"time":7,"station_id":"KBY","i_lat":-6.237242,"i_long":106.780334,"station_name":"Kebayoran","line":6},{"station_id":"PDJ","station_name":"Pondokranji","time":8,"i_lat":-6.276362,"transit":false,"i_long":106.74273,"is_transit":false,"line":6,"distance":6218},{"distance":2179,"i_lat":-6.288927,"time":3,"transit":false,"station_name":"Jurangmangu","station_id":"JMU","line":6,"is_transit":false,"i_long":106.728916}]]}