{"data":[[{"time":0,"line":0,"distance":0,"i_long":106.86807400000001,"transit":false,"station_id":"JNG","station_name":"Jatinegara","i_lat":-6.215091,"is_transit":true},{"i_long":106.858896,"distance":1377,"time":2,"is_transit":false,"i_lat":-6.212485,"station_name":"Matraman","line":1,"transit":false,"station_id":"MTR"},{"time":2,"i_long":106.84912,"line":0,"distance":1275,"station_name":"Manggarai","transit":false,"is_transit":true,"i_lat":-6.209883,"station_id":"MRI"},{"is_transit":false,"station_id":"SUD","station_name":"Sudirman","distance":3186,"line":1,"transit":false,"i_lat":-6.202263,"time":4,"i_long":106.822649},{"time":1,"transit":false,"station_id":"SUDB","is_transit":false,"line":1,"i_long":106.819881,"station_name":"Sudirman Baru","i_lat":-6.201433,"distance":280},{"station_id":"KAT","distance":471,"time":1,"transit":false,"i_lat":-6.20132,"is_transit":false,"i_long":106.816351,"station_name":"Karet","line":1},{"i_long":106.811091,"line":1,"i_lat":-6.185545,"station_name":"Tanah Abang","station_id":"THB","transit":true,"is_transit":true,"time":5,"distance":2029},{"station_id":"PLM","i_lat":-6.207404,"station_name":"Palmerah","line":6,"i_long":106.79689,"time":6,"distance":3191,"transit":false,"is_transit":false},{"i_lat":-6.237242,"station_name":"Kebayoran","is_transit":false,"line":6,"transit":false,"i_long":106.780334,"distance":3737,"station_id":"KBY","time":7},{"transit":false,"is_transit":false,"station_name":"Pondokranji","i_lat":-6.276362,"distance":6218,"i_long":106.74273,"station_id":"PDJ","line":6,"time":8},{"is_transit":false,"time":3,"i_long":106.728916,"line":6,"station_name":"Jurangmangu","transit":false,"distance":2179,"station_id":"JMU","i_lat":-6.288927},{"station_name":"Sudimara","distance":1994,"is_transit":false,"transit":false,"i_lat":-6.296963,"i_long":106.712277,"time":4,"station_id":"SDM","line":6},{"line":6,"i_lat":-6.314823,"station_id":"RU","station_name":"Rawa Buntu","time":6,"distance":4566,"is_transit":false,"i_long":106.675475,"transit":false},{"is_transit":false,"i_lat":-6.319871,"distance":2413,"line":6,"time":4,"transit":false,"station_name":"Serpong","i_long":106.66566,"station_id":"SRP"},{"station_name":"Cisauk","is_transit":false,"i_lat":-6.32484,"line":0,"distance":1784,"i_long":106.640411,"time":4,"transit":false,"station_id":"CSK"},{"line":0,"time":4,"station_name":"Cicayur","station_id":"CC","is_transit":false,"distance":2519,"i_long":106.617853,"i_lat":-6.329547,"transit":false},{"transit":false,"i_long":106.568863,"i_lat":-6.3441410000000005,"line":6,"station_name":"Parung Panjang","station_id":"PRP","is_transit":false,"time":8,"distance":5968},{"station_id":"CJT","is_transit":false,"line":0,"time":9,"transit":false,"i_lat":-6.354349,"i_long":106.508482,"station_name":"Cilejit","distance":7025},{"line":0,"station_id":"DAR","station_name":"Daru","is_transit":false,"time":6,"distance":2675,"transit":false,"i_lat":-6.338021,"i_long":106.491338},{"transit":false,"is_transit":false,"distance":3902,"line":6,"station_name":"Tenjo","i_long":106.460812,"time":5,"station_id":"TEJ","i_lat":-6.327251},{"i_lat":-6.328533,"station_id":"TGS","station_name":"Tigaraksa","i_long":106.425991,"transit":false,"line":6,"time":5,"distance":2974,"is_transit":false},{"distance":2651,"station_name":"Cikoya","is_transit":false,"i_lat":-6.33561,"transit":false,"i_long":106.411216,"line":0,"station_id":"CKY","time":3},{"is_transit":false,"i_long":106.394373,"line":6,"station_name":"Maja","station_id":"MJ","i_lat":-6.332307,"time":4,"distance":1853,"transit":false},{"transit":false,"is_transit":false,"station_id":"CTR","distance":7293,"station_name":"Citeras","i_long":106.332092,"line":0,"time":10,"i_lat":-6.334892}],[{"time":0,"transit":false,"station_id":"JNG","distance":0,"line":0,"station_name":"Jatinegara","is_transit":true,"i_lat":-6.215091,"i_long":106.86807400000001},{"i_long":106.861737,"i_lat":-6.209188,"line":11,"time":2,"station_name":"Pondok Jati","is_transit":false,"transit":false,"distance":1236,"station_id":"POK"},{"line":11,"time":2,"i_long":106.855437,"station_name":"Kramat","is_transit":false,"distance":1829,"transit":false,"i_lat":-6.193792,"station_id":"KMT"},{"is_transit":false,"i_long":106.850107,"i_lat":-6.185975,"distance":973,"line":11,"time":1,"transit":false,"station_id":"GST","station_name":"Gang Sentiong"},{"line":11,"is_transit":false,"station_name":"Pasar Senen","transit":false,"station_id":"PSE","time":8,"distance":1567,"i_lat":-6.174784,"i_long":106.84368},{"station_id":"KMO","line":11,"station_name":"Kemayoran","i_long":106.839204,"distance":1436,"transit":false,"time":4,"is_transit":false,"i_lat":-6.161728},{"distance":1901,"transit":false,"time":5,"line":11,"i_long":106.836569,"station_id":"RJW","station_name":"Rajawali","i_lat":-6.14505,"is_transit":false},{"is_transit":true,"i_lat":-6.132549,"station_id":"KPB","distance":1444,"transit":true,"time":3,"i_long":106.826365,"station_name":"Kampung Bandan","line":0},{"transit":false,"time":9,"station_id":"AK","is_transit":false,"distance":4102,"i_lat":-6.144674,"i_long":106.79867,"station_name":"Angke","line":0},{"transit":true,"i_long":106.800832,"station_id":"DU","time":4,"line":1,"station_name":"Duri","is_transit":true,"i_lat":-6.155215,"distance":1230},{"time":8,"transit":true,"is_transit":true,"i_long":106.811091,"line":1,"station_id":"THB","distance":3632,"station_name":"Tanah Abang","i_lat":-6.185545},{"i_long":106.79689,"transit":false,"line":6,"is_transit":false,"i_lat":-6.207404,"station_id":"PLM","station_name":"Palmerah","time":6,"distance":3191},{"i_lat":-6.237242,"i_long":106.780334,"line":6,"time":7,"distance":3737,"station_id":"KBY","station_name":"Kebayoran","is_transit":false,"transit":false},{"distance":6218,"i_long":106.74273,"i_lat":-6.276362,"line":6,"transit":false,"is_transit":false,"time":8,"station_id":"PDJ","station_name":"Pondokranji"},{"station_name":"Jurangmangu","i_long":106.728916,"is_transit":false,"line":6,"station_id":"JMU","i_lat":-6.288927,"transit":false,"distance":2179,"time":3},{"is_transit":false,"i_long":106.712277,"time":4,"distance":1994,"line":6,"transit":false,"i_lat":-6.296963,"station_id":"SDM","station_name":"Sudimara"},{"i_long":106.675475,"transit":false,"station_id":"RU","distance":4566,"station_name":"Rawa Buntu","time":6,"line":6,"is_transit":false,"i_lat":-6.314823},{"is_transit":false,"i_long":106.66566,"time":4,"distance":2413,"line":6,"station_name":"Serpong","transit":false,"i_lat":-6.319871,"station_id":"SRP"},{"is_transit":false,"time":4,"line":0,"i_long":106.640411,"station_id":"CSK","i_lat":-6.32484,"transit":false,"distance":1784,"station_name":"Cisauk"},{"i_lat":-6.329547,"time":4,"i_long":106.617853,"is_transit":false,"transit":false,"station_name":"Cicayur","distance":2519,"line":0,"station_id":"CC"},{"distance":5968,"i_long":106.568863,"is_transit":false,"time":8,"transit":false,"station_id":"PRP","station_name":"Parung Panjang","i_lat":-6.3441410000000005,"line":6},{"station_id":"CJT","is_transit":false,"distance":7025,"i_long":106.508482,"time":9,"i_lat":-6.354349,"transit":false,"station_name":"Cilejit","line":0},{"line":0,"distance":2675,"station_name":"Daru","is_transit":false,"transit":false,"i_lat":-6.338021,"time":6,"station_id":"DAR","i_long":106.491338},{"station_id":"TEJ","is_transit":false,"time":5,"station_name":"Tenjo","distance":3902,"i_lat":-6.327251,"i_long":106.460812,"line":6,"transit":false},{"station_name":"Tigaraksa","time":5,"distance":2974,"is_transit":false,"transit":false,"station_id":"TGS","i_lat":-6.328533,"i_long":106.425991,"line":6},{"time":3,"distance":2651,"i_lat":-6.33561,"line":0,"transit":false,"i_long":106.411216,"is_transit":false,"station_id":"CKY","station_name":"Cikoya"},{"i_lat":-6.332307,"distance":1853,"station_id":"MJ","is_transit":false,"time":4,"i_long":106.394373,"station_name":"Maja","line":6,"transit":false},{"is_transit":false,"line":0,"transit":false,"station_id":"CTR","i_lat":-6.334892,"station_name":"Citeras","time":10,"i_long":106.332092,"distance":7293}],[{"line":0,"i_long":106.86807400000001,"station_id":"JNG","station_name":"Jatinegara","time":0,"distance":0,"is_transit":true,"i_lat":-6.215091,"transit":false},{"distance":1377,"transit":false,"line":1,"station_name":"Matraman","i_lat":-6.212485,"i_long":106.858896,"is_transit":false,"station_id":"MTR","time":2},{"distance":1275,"time":2,"line":0,"is_transit":true,"i_lat":-6.209883,"transit":true,"station_id":"MRI","station_name":"Manggarai","i_long":106.84912},{"distance":1590,"station_id":"CKI","is_transit":false,"station_name":"Cikini","transit":false,"time":4,"i_long":106.840169,"line":0,"i_lat":-6.198556},{"i_lat":-6.186295,"distance":1750,"transit":false,"line":2,"station_name":"Gondangdia","is_transit":false,"station_id":"GDD","i_long":106.832183,"time":3},{"station_id":"JUA","station_name":"Juanda","transit":false,"distance":2015,"is_transit":false,"i_lat":-6.166716,"line":2,"time":4,"i_long":106.828284},{"line":2,"is_transit":false,"distance":1149,"transit":false,"i_lat":-6.160725,"station_name":"Sawah Besar","time":2,"i_long":106.827103,"station_id":"SW"},{"distance":906,"station_id":"MGB","station_name":"Manggabesar","is_transit":false,"i_lat":-6.149769,"line":2,"time":2,"i_long":106.82482,"transit":false},{"station_name":"Jayakarta","i_long":106.820901,"is_transit":false,"i_lat":-6.141205,"line":7,"distance":1080,"station_id":"JAY","time":2,"transit":false},{"station_id":"JAKK","i_long":106.812439,"station_name":"Jakarta Kota","i_lat":-6.137569,"transit":true,"time":4,"is_transit":true,"distance":1264,"line":0},{"i_long":106.826365,"time":3,"distance":1364,"transit":false,"i_lat":-6.132549,"line":0,"station_id":"KPB","station_name":"Kampung Bandan","is_transit":true},{"i_lat":-6.144674,"station_name":"Angke","station_id":"AK","transit":false,"i_long":106.79867,"time":9,"is_transit":false,"line":0,"distance":4102},{"is_transit":true,"i_lat":-6.155215,"station_id":"DU","line":1,"time":4,"transit":true,"station_name":"Duri","i_long":106.800832,"distance":1230},{"distance":3632,"is_transit":true,"station_id":"THB","time":8,"transit":true,"i_lat":-6.185545,"line":1,"station_name":"Tanah Abang","i_long":106.811091},{"time":6,"distance":3191,"i_lat":-6.207404,"station_id":"PLM","station_name":"Palmerah","i_long":106.79689,"line":6,"is_transit":false,"transit":false},{"station_name":"Kebayoran","station_id":"KBY","is_transit":false,"distance":3737,"i_lat":-6.237242,"transit":false,"i_long":106.780334,"time":7,"line":6},{"i_long":106.74273,"time":8,"transit":false,"station_id":"PDJ","station_name":"Pondokranji","i_lat":-6.276362,"is_transit":false,"distance":6218,"line":6},{"time":3,"station_id":"JMU","transit":false,"distance":2179,"station_name":"Jurangmangu","is_transit":false,"i_lat":-6.288927,"i_long":106.728916,"line":6},{"time":4,"is_transit":false,"i_lat":-6.296963,"i_long":106.712277,"line":6,"station_id":"SDM","distance":1994,"station_name":"Sudimara","transit":false},{"i_lat":-6.314823,"line":6,"time":6,"station_name":"Rawa Buntu","distance":4566,"i_long":106.675475,"transit":false,"is_transit":false,"station_id":"RU"},{"station_id":"SRP","time":4,"transit":false,"line":6,"is_transit":false,"station_name":"Serpong","i_long":106.66566,"distance":2413,"i_lat":-6.319871},{"is_transit":false,"transit":false,"i_lat":-6.32484,"time":4,"i_long":106.640411,"line":0,"station_id":"CSK","distance":1784,"station_name":"Cisauk"},{"time":4,"i_lat":-6.329547,"is_transit":false,"line":0,"i_long":106.617853,"station_name":"Cicayur","transit":false,"distance":2519,"station_id":"CC"},{"i_long":106.568863,"distance":5968,"i_lat":-6.3441410000000005,"line":6,"transit":false,"station_name":"Parung Panjang","station_id":"PRP","is_transit":false,"time":8},{"is_transit":false,"line":0,"station_name":"Cilejit","time":9,"distance":7025,"i_lat":-6.354349,"i_long":106.508482,"station_id":"CJT","transit":false},{"station_name":"Daru","time":6,"transit":false,"station_id":"DAR","distance":2675,"i_lat":-6.338021,"is_transit":false,"i_long":106.491338,"line":0},{"i_lat":-6.327251,"time":5,"line":6,"station_name":"Tenjo","distance":3902,"station_id":"TEJ","transit":false,"i_long":106.460812,"is_transit":false},{"line":6,"station_name":"Tigaraksa","i_lat":-6.328533,"is_transit":false,"distance":2974,"i_long":106.425991,"transit":false,"station_id":"TGS","time":5},{"line":0,"time":3,"station_id":"CKY","i_long":106.411216,"i_lat":-6.33561,"station_name":"Cikoya","is_transit":false,"distance":2651,"transit":false},{"time":4,"distance":1853,"station_name":"Maja","i_lat":-6.332307,"line":6,"is_transit":false,"station_id":"MJ","transit":false,"i_long":106.394373},{"station_name":"Citeras","station_id":"CTR","is_transit":false,"i_lat":-6.334892,"i_long":106.332092,"time":10,"distance":7293,"line":0,"transit":false}],[{"line":0,"is_transit":true,"distance":0,"station_id":"JNG","i_long":106.86807400000001,"transit":false,"station_name":"Jatinegara","time":0,"i_lat":-6.215091},{"station_id":"POK","station_name":"Pondok Jati","i_lat":-6.209188,"i_long":106.861737,"distance":1236,"is_transit":false,"time":2,"line":11,"transit":false},{"i_lat":-6.193792,"is_transit":false,"distance":1829,"time":2,"transit":false,"station_name":"Kramat","i_long":106.855437,"station_id":"KMT","line":11},{"transit":false,"i_long":106.850107,"distance":973,"station_id":"GST","i_lat":-6.185975,"line":11,"is_transit":false,"station_name":"Gang Sentiong","time":1},{"distance":1567,"station_name":"Pasar Senen","station_id":"PSE","is_transit":false,"time":8,"i_long":106.84368,"transit":false,"i_lat":-6.174784,"line":11},{"line":11,"station_id":"KMO","is_transit":false,"distance":1436,"transit":false,"time":4,"i_long":106.839204,"i_lat":-6.161728,"station_name":"Kemayoran"},{"distance":1901,"station_name":"Rajawali","i_lat":-6.14505,"time":5,"transit":false,"station_id":"RJW","line":11,"i_long":106.836569,"is_transit":false},{"i_long":106.826365,"distance":1444,"line":0,"station_id":"KPB","i_lat":-6.132549,"is_transit":true,"station_name":"Kampung Bandan","time":3,"transit":true},{"i_long":106.812439,"is_transit":true,"i_lat":-6.137569,"station_name":"Jakarta Kota","line":0,"time":3,"station_id":"JAKK","distance":1364,"transit":true},{"transit":false,"station_id":"JAY","distance":1264,"i_lat":-6.141205,"is_transit":false,"station_name":"Jayakarta","time":4,"i_long":106.820901,"line":7},{"distance":1080,"station_name":"Manggabesar","time":2,"station_id":"MGB","is_transit":false,"transit":false,"i_lat":-6.149769,"i_long":106.82482,"line":2},{"line":2,"i_lat":-6.160725,"i_long":106.827103,"station_id":"SW","distance":906,"station_name":"Sawah Besar","transit":false,"time":2,"is_transit":false},{"i_long":106.828284,"i_lat":-6.166716,"transit":false,"station_name":"Juanda","is_transit":false,"station_id":"JUA","line":2,"time":2,"distance":1149},{"distance":2015,"i_lat":-6.186295,"is_transit":false,"transit":false,"i_long":106.832183,"line":2,"station_name":"Gondangdia","time":4,"station_id":"GDD"},{"transit":false,"station_id":"CKI","distance":1750,"i_long":106.840169,"i_lat":-6.198556,"station_name":"Cikini","is_transit":false,"line":0,"time":3},{"station_id":"MRI","transit":true,"distance":1590,"is_transit":true,"i_long":106.84912,"line":0,"station_name":"Manggarai","time":4,"i_lat":-6.209883},{"transit":false,"time":4,"distance":3186,"station_name":"Sudirman","i_lat":-6.202263,"station_id":"SUD","i_long":106.822649,"line":1,"is_transit":false},{"i_long":106.819881,"line":1,"station_name":"Sudirman Baru","is_transit":false,"station_id":"SUDB","time":1,"distance":280,"transit":false,"i_lat":-6.201433},{"is_transit":false,"line":1,"station_name":"Karet","time":1,"station_id":"KAT","i_long":106.816351,"distance":471,"i_lat":-6.20132,"transit":false},{"station_id":"THB","distance":2029,"i_lat":-6.185545,"transit":true,"station_name":"Tanah Abang","i_long":106.811091,"is_transit":true,"time":5,"line":1},{"is_transit":false,"distance":3191,"i_long":106.79689,"station_id":"PLM","station_name":"Palmerah","transit":false,"time":6,"i_lat":-6.207404,"line":6},{"station_name":"Kebayoran","time":7,"station_id":"KBY","distance":3737,"transit":false,"i_lat":-6.237242,"line":6,"i_long":106.780334,"is_transit":false},{"station_name":"Pondokranji","i_long":106.74273,"transit":false,"is_transit":false,"time":8,"i_lat":-6.276362,"station_id":"PDJ","line":6,"distance":6218},{"line":6,"station_id":"JMU","station_name":"Jurangmangu","transit":false,"i_long":106.728916,"time":3,"is_transit":false,"distance":2179,"i_lat":-6.288927},{"is_transit":false,"transit":false,"time":4,"i_long":106.712277,"distance":1994,"station_name":"Sudimara","line":6,"i_lat":-6.296963,"station_id":"SDM"},{"is_transit":false,"distance":4566,"transit":false,"station_id":"RU","i_lat":-6.314823,"station_name":"Rawa Buntu","time":6,"i_long":106.675475,"line":6},{"line":6,"distance":2413,"station_id":"SRP","i_lat":-6.319871,"is_transit":false,"time":4,"transit":false,"i_long":106.66566,"station_name":"Serpong"},{"transit":false,"i_lat":-6.32484,"station_name":"Cisauk","i_long":106.640411,"distance":1784,"line":0,"is_transit":false,"station_id":"CSK","time":4},{"i_lat":-6.329547,"transit":false,"station_id":"CC","line":0,"time":4,"station_name":"Cicayur","i_long":106.617853,"distance":2519,"is_transit":false},{"line":6,"is_transit":false,"i_long":106.568863,"time":8,"distance":5968,"station_id":"PRP","i_lat":-6.3441410000000005,"station_name":"Parung Panjang","transit":false},{"line":0,"i_lat":-6.354349,"station_id":"CJT","i_long":106.508482,"time":9,"distance":7025,"station_name":"Cilejit","transit":false,"is_transit":false},{"distance":2675,"time":6,"i_lat":-6.338021,"is_transit":false,"line":0,"i_long":106.491338,"station_name":"Daru","transit":false,"station_id":"DAR"},{"i_long":106.460812,"station_id":"TEJ","line":6,"is_transit":false,"station_name":"Tenjo","time":5,"transit":false,"distance":3902,"i_lat":-6.327251},{"station_id":"TGS","is_transit":false,"transit":false,"distance":2974,"i_lat":-6.328533,"station_name":"Tigaraksa","time":5,"i_long":106.425991,"line":6},{"i_long":106.411216,"line":0,"is_transit":false,"time":3,"station_name":"Cikoya","distance":2651,"transit":false,"i_lat":-6.33561,"station_id":"CKY"},{"is_transit":false,"distance":1853,"i_lat":-6.332307,"line":6,"i_long":106.394373,"station_name":"Maja","station_id":"MJ","time":4,"transit":false},{"transit":false,"is_transit":false,"station_id":"CTR","i_lat":-6.334892,"line":0,"distance":7293,"i_long":106.332092,"station_name":"Citeras","time":10}]]}