{"data":[[{"station_id":"JNG","station_name":"Jatinegara","i_long":106.86807400000001,"line":1,"is_transit":false,"distance":0,"i_lat":-6.215091,"transit":false,"time":0},{"station_name":"Matraman","is_transit":false,"i_lat":-6.212485,"station_id":"MTR","time":2,"transit":false,"distance":1377,"i_long":106.858896,"line":1},{"station_name":"Manggarai","line":2,"i_long":106.84912,"transit":true,"i_lat":-6.209883,"distance":1275,"is_transit":true,"time":2,"station_id":"MRI"},{"is_transit":false,"station_id":"TEB","station_name":"Tebet","distance":2610,"i_long":106.857948,"transit":false,"i_lat":-6.226659,"line":2,"time":4},{"is_transit":false,"distance":1230,"i_lat":-6.242512,"transit":false,"time":2,"i_long":106.856607,"station_id":"CW","line":2,"station_name":"Cawang"},{"i_lat":-6.255332,"is_transit":false,"distance":1546,"line":2,"time":3,"station_id":"DRN","i_long":106.85449,"station_name":"Duren Kalibata","transit":false},{"time":2,"i_lat":-6.263214,"station_name":"Pasar Minggu Baru","distance":824,"is_transit":false,"station_id":"PSMB","transit":false,"line":2,"i_long":106.851577},{"i_long":106.843999,"time":2,"transit":false,"is_transit":false,"distance":2380,"station_name":"Pasar Minggu","station_id":"PSM","i_lat":-6.2842400000000005,"line":2},{"station_name":"Tanjung Barat","i_lat":-6.3080680000000005,"station_id":"TNT","distance":2820,"transit":false,"line":2,"time":4,"i_long":106.838896,"is_transit":false},{"line":2,"station_id":"LNA","station_name":"Lenteng Agung","transit":false,"distance":2671,"time":3,"i_lat":-6.330363,"is_transit":false,"i_long":106.832616},{"station_id":"UP","transit":false,"time":2,"distance":1029,"i_long":106.834175,"is_transit":false,"line":2,"station_name":"Univ. Pancasila","i_lat":-6.339291},{"i_long":106.831474,"station_name":"Univ. Indonesia","i_lat":-6.360749,"distance":2264,"transit":false,"is_transit":false,"station_id":"UI","time":3,"line":2},{"distance":1109,"transit":false,"i_lat":-6.369073,"station_name":"Pondok Cina","time":2,"i_long":106.831114,"line":2,"station_id":"POC","is_transit":false},{"distance":2727,"line":2,"time":4,"transit":false,"station_name":"Depokbaru","station_id":"DPB","i_lat":-6.391065,"i_long":106.819451,"is_transit":false},{"station_name":"Depok","is_transit":false,"time":3,"i_lat":-6.405256,"i_long":106.816926,"line":2,"transit":false,"distance":1584,"station_id":"DP"},{"station_name":"Citayam","time":6,"i_long":106.800298,"transit":true,"is_transit":true,"i_lat":-6.448811,"distance":5084,"line":2,"station_id":"CTA"},{"is_transit":false,"station_name":"Pondok Rajeg","time":0,"transit":false,"i_lat":-6.460735,"line":21,"distance":0,"station_id":"PDRG","i_long":106.824374}],[{"transit":false,"line":1,"time":0,"station_id":"JNG","is_transit":false,"i_lat":-6.215091,"distance":0,"station_name":"Jatinegara","i_long":106.86807400000001},{"time":2,"is_transit":false,"i_long":106.861737,"station_id":"POK","station_name":"Pondok Jati","transit":false,"distance":1236,"i_lat":-6.209188,"line":11},{"time":2,"i_lat":-6.193792,"distance":1829,"station_id":"KMT","i_long":106.855437,"transit":false,"line":11,"is_transit":false,"station_name":"Kramat"},{"is_transit":false,"i_lat":-6.185975,"i_long":106.850107,"line":11,"transit":false,"station_id":"GST","distance":973,"station_name":"Gang Sentiong","time":1},{"line":11,"i_lat":-6.174784,"time":8,"station_name":"Pasar Senen","distance":1567,"is_transit":false,"station_id":"PSE","transit":false,"i_long":106.84368},{"distance":1436,"is_transit":false,"transit":false,"i_lat":-6.161728,"station_id":"KMO","station_name":"Kemayoran","time":4,"i_long":106.839204,"line":11},{"distance":1901,"station_name":"Rajawali","time":5,"is_transit":false,"i_long":106.836569,"transit":false,"line":11,"station_id":"RJW","i_lat":-6.14505},{"distance":1444,"station_name":"Kampung Bandan","line":4,"station_id":"KPB","is_transit":true,"time":3,"i_long":106.826365,"transit":true,"i_lat":-6.132549},{"station_id":"AK","time":9,"distance":4102,"line":1,"is_transit":false,"transit":false,"i_lat":-6.144674,"station_name":"Angke","i_long":106.79867},{"transit":false,"is_transit":false,"i_long":106.800832,"station_id":"DU","distance":1230,"line":1,"time":4,"station_name":"Duri","i_lat":-6.155215},{"i_lat":-6.185545,"i_long":106.811091,"line":1,"is_transit":false,"station_name":"Tanah Abang","distance":3632,"transit":false,"station_id":"THB","time":8},{"time":5,"distance":2029,"transit":false,"i_lat":-6.20132,"line":1,"is_transit":false,"station_id":"KAT","i_long":106.816351,"station_name":"Karet"},{"is_transit":false,"transit":false,"i_long":106.819881,"station_id":"SUDB","time":1,"line":1,"distance":471,"station_name":"Sudirman Baru","i_lat":-6.201433},{"station_id":"SUD","is_transit":false,"line":1,"i_long":106.822649,"time":1,"distance":280,"i_lat":-6.202263,"station_name":"Sudirman","transit":false},{"station_name":"Manggarai","time":4,"line":2,"transit":true,"i_lat":-6.209883,"station_id":"MRI","i_long":106.84912,"distance":3186,"is_transit":true},{"distance":2610,"transit":false,"station_name":"Tebet","i_long":106.857948,"line":2,"station_id":"TEB","is_transit":false,"i_lat":-6.226659,"time":4},{"is_transit":false,"station_id":"CW","i_lat":-6.242512,"distance":1230,"time":2,"station_name":"Cawang","line":2,"i_long":106.856607,"transit":false},{"i_lat":-6.255332,"time":3,"is_transit":false,"distance":1546,"i_long":106.85449,"line":2,"transit":false,"station_id":"DRN","station_name":"Duren Kalibata"},{"i_lat":-6.263214,"distance":824,"transit":false,"station_name":"Pasar Minggu Baru","is_transit":false,"i_long":106.851577,"line":2,"station_id":"PSMB","time":2},{"i_long":106.843999,"time":2,"distance":2380,"station_id":"PSM","line":2,"transit":false,"i_lat":-6.2842400000000005,"is_transit":false,"station_name":"Pasar Minggu"},{"transit":false,"is_transit":false,"station_name":"Tanjung Barat","i_long":106.838896,"distance":2820,"station_id":"TNT","time":4,"i_lat":-6.3080680000000005,"line":2},{"station_id":"LNA","station_name":"Lenteng Agung","transit":false,"i_lat":-6.330363,"line":2,"time":3,"distance":2671,"is_transit":false,"i_long":106.832616},{"station_name":"Univ. Pancasila","time":2,"i_lat":-6.339291,"is_transit":false,"line":2,"i_long":106.834175,"station_id":"UP","transit":false,"distance":1029},{"i_long":106.831474,"line":2,"is_transit":false,"i_lat":-6.360749,"station_name":"Univ. Indonesia","station_id":"UI","time":3,"distance":2264,"transit":false},{"is_transit":false,"i_lat":-6.369073,"distance":1109,"station_id":"POC","station_name":"Pondok Cina","transit":false,"line":2,"i_long":106.831114,"time":2},{"station_name":"Depokbaru","station_id":"DPB","i_long":106.819451,"i_lat":-6.391065,"is_transit":false,"transit":false,"distance":2727,"time":4,"line":2},{"i_long":106.816926,"line":2,"is_transit":false,"distance":1584,"time":3,"station_name":"Depok","station_id":"DP","i_lat":-6.405256,"transit":false},{"distance":5084,"i_long":106.800298,"line":2,"is_transit":true,"transit":true,"station_id":"CTA","time":6,"station_name":"Citayam","i_lat":-6.448811},{"station_name":"Pondok Rajeg","distance":0,"transit":false,"i_long":106.824374,"is_transit":false,"line":21,"station_id":"PDRG","time":0,"i_lat":-6.460735}],[{"is_transit":false,"i_long":106.86807400000001,"line":1,"time":0,"i_lat":-6.215091,"distance":0,"station_name":"Jatinegara","transit":false,"station_id":"JNG"},{"time":2,"is_transit":false,"distance":1236,"line":11,"i_lat":-6.209188,"transit":false,"station_name":"Pondok Jati","station_id":"POK","i_long":106.861737},{"i_long":106.855437,"is_transit":false,"distance":1829,"station_name":"Kramat","transit":false,"time":2,"i_lat":-6.193792,"line":11,"station_id":"KMT"},{"distance":973,"i_lat":-6.185975,"station_id":"GST","line":11,"is_transit":false,"transit":false,"i_long":106.850107,"station_name":"Gang Sentiong","time":1},{"station_name":"Pasar Senen","transit":false,"time":8,"station_id":"PSE","distance":1567,"i_long":106.84368,"i_lat":-6.174784,"line":11,"is_transit":false},{"time":4,"line":11,"station_name":"Kemayoran","transit":false,"is_transit":false,"distance":1436,"i_lat":-6.161728,"i_long":106.839204,"station_id":"KMO"},{"station_id":"RJW","transit":false,"is_transit":false,"distance":1901,"i_lat":-6.14505,"line":11,"time":5,"station_name":"Rajawali","i_long":106.836569},{"transit":true,"station_name":"Kampung Bandan","i_long":106.826365,"distance":1444,"time":3,"i_lat":-6.132549,"line":4,"station_id":"KPB","is_transit":true},{"time":3,"distance":1364,"transit":true,"station_name":"Jakarta Kota","line":2,"i_lat":-6.137569,"is_transit":true,"i_long":106.812439,"station_id":"JAKK"},{"time":4,"i_lat":-6.141205,"station_name":"Jayakarta","station_id":"JAY","distance":1264,"i_long":106.820901,"line":2,"is_transit":false,"transit":false},{"station_id":"MGB","time":2,"line":2,"is_transit":false,"distance":1080,"transit":false,"i_lat":-6.149769,"station_name":"Manggabesar","i_long":106.82482},{"is_transit":false,"time":2,"i_lat":-6.160725,"transit":false,"i_long":106.827103,"distance":906,"line":2,"station_name":"Sawah Besar","station_id":"SW"},{"line":2,"time":2,"i_long":106.828284,"i_lat":-6.166716,"transit":false,"distance":1149,"station_id":"JUA","station_name":"Juanda","is_transit":false},{"transit":false,"station_name":"Gondangdia","i_lat":-6.186295,"time":4,"station_id":"GDD","i_long":106.832183,"is_transit":false,"line":2,"distance":2015},{"is_transit":false,"transit":false,"time":3,"station_id":"CKI","line":2,"station_name":"Cikini","i_lat":-6.198556,"i_long":106.840169,"distance":1750},{"time":4,"distance":1590,"i_lat":-6.209883,"i_long":106.84912,"line":2,"station_name":"Manggarai","is_transit":false,"station_id":"MRI","transit":false},{"station_name":"Tebet","is_transit":false,"distance":2610,"line":2,"transit":false,"station_id":"TEB","i_long":106.857948,"time":4,"i_lat":-6.226659},{"distance":1230,"time":2,"line":2,"i_lat":-6.242512,"is_transit":false,"station_id":"CW","i_long":106.856607,"station_name":"Cawang","transit":false},{"distance":1546,"station_id":"DRN","transit":false,"time":3,"i_long":106.85449,"line":2,"station_name":"Duren Kalibata","is_transit":false,"i_lat":-6.255332},{"is_transit":false,"transit":false,"time":2,"line":2,"i_long":106.851577,"distance":824,"station_id":"PSMB","station_name":"Pasar Minggu Baru","i_lat":-6.263214},{"line":2,"station_name":"Pasar Minggu","station_id":"PSM","transit":false,"is_transit":false,"distance":2380,"time":2,"i_long":106.843999,"i_lat":-6.2842400000000005},{"transit":false,"i_lat":-6.3080680000000005,"i_long":106.838896,"distance":2820,"line":2,"time":4,"station_id":"TNT","is_transit":false,"station_name":"Tanjung Barat"},{"line":2,"transit":false,"distance":2671,"station_name":"Lenteng Agung","is_transit":false,"i_long":106.832616,"time":3,"station_id":"LNA","i_lat":-6.330363},{"i_long":106.834175,"station_id":"UP","station_name":"Univ. Pancasila","distance":1029,"line":2,"is_transit":false,"transit":false,"time":2,"i_lat":-6.339291},{"transit":false,"i_lat":-6.360749,"station_name":"Univ. Indonesia","i_long":106.831474,"station_id":"UI","distance":2264,"is_transit":false,"time":3,"line":2},{"i_long":106.831114,"is_transit":false,"time":2,"transit":false,"distance":1109,"station_name":"Pondok Cina","i_lat":-6.369073,"station_id":"POC","line":2},{"station_name":"Depokbaru","station_id":"DPB","line":2,"i_lat":-6.391065,"time":4,"transit":false,"i_long":106.819451,"is_transit":false,"distance":2727},{"is_transit":false,"i_lat":-6.405256,"station_name":"Depok","i_long":106.816926,"transit":false,"station_id":"DP","line":2,"time":3,"distance":1584},{"time":6,"i_long":106.800298,"station_name":"Citayam","line":2,"station_id":"CTA","i_lat":-6.448811,"transit":true,"distance":5084,"is_transit":true},{"i_long":106.824374,"station_name":"Pondok Rajeg","transit":false,"time":0,"station_id":"PDRG","distance":0,"i_lat":-6.460735,"is_transit":false,"line":21}]]}