{"data":[[{"station_id":"JNG","station_name":"Jatinegara","time":0,"i_lat":-6.215091,"line":1,"distance":0,"is_transit":false,"transit":false,"i_long":106.86807400000001},{"station_name":"Matraman","time":2,"station_id":"MTR","is_transit":false,"transit":false,"distance":1377,"i_lat":-6.212485,"i_long":106.858896,"line":1},{"station_name":"Manggarai","line":2,"i_lat":-6.209883,"is_transit":true,"i_long":106.84912,"station_id":"MRI","time":2,"transit":true,"distance":1275},{"station_name":"Tebet","i_long":106.857948,"transit":false,"station_id":"TEB","is_transit":false,"time":4,"line":2,"distance":2610,"i_lat":-6.226659},{"transit":false,"line":2,"i_long":106.856607,"time":2,"station_name":"Cawang","distance":1230,"station_id":"CW","i_lat":-6.242512,"is_transit":false},{"i_long":106.85449,"line":2,"station_name":"Duren Kalibata","time":3,"station_id":"DRN","i_lat":-6.255332,"distance":1546,"is_transit":false,"transit":false},{"transit":false,"distance":824,"is_transit":false,"i_long":106.851577,"station_name":"Pasar Minggu Baru","station_id":"PSMB","time":2,"line":2,"i_lat":-6.263214},{"station_name":"Pasar Minggu","time":2,"distance":2380,"i_lat":-6.2842400000000005,"i_long":106.843999,"station_id":"PSM","transit":false,"line":2,"is_transit":false},{"distance":2820,"i_lat":-6.3080680000000005,"station_name":"Tanjung Barat","is_transit":false,"station_id":"TNT","time":4,"i_long":106.838896,"transit":false,"line":2},{"time":3,"is_transit":false,"distance":2671,"i_long":106.832616,"line":2,"station_name":"Lenteng Agung","i_lat":-6.330363,"transit":false,"station_id":"LNA"},{"is_transit":false,"transit":false,"i_lat":-6.339291,"station_id":"UP","time":2,"distance":1029,"station_name":"Univ. Pancasila","i_long":106.834175,"line":2},{"transit":false,"station_name":"Univ. Indonesia","is_transit":false,"time":3,"station_id":"UI","i_lat":-6.360749,"i_long":106.831474,"distance":2264,"line":2}],[{"time":0,"transit":false,"is_transit":false,"station_id":"JNG","station_name":"Jatinegara","i_lat":-6.215091,"i_long":106.86807400000001,"line":1,"distance":0},{"i_long":106.861737,"transit":false,"station_id":"POK","time":2,"line":11,"is_transit":false,"i_lat":-6.209188,"distance":1236,"station_name":"Pondok Jati"},{"time":2,"station_name":"Kramat","is_transit":false,"i_lat":-6.193792,"i_long":106.855437,"line":11,"station_id":"KMT","distance":1829,"transit":false},{"transit":false,"i_lat":-6.185975,"distance":973,"is_transit":false,"i_long":106.850107,"time":1,"station_id":"GST","station_name":"Gang Sentiong","line":11},{"is_transit":false,"time":8,"line":11,"i_lat":-6.174784,"station_id":"PSE","i_long":106.84368,"transit":false,"distance":1567,"station_name":"Pasar Senen"},{"time":4,"distance":1436,"is_transit":false,"i_long":106.839204,"station_name":"Kemayoran","line":11,"transit":false,"i_lat":-6.161728,"station_id":"KMO"},{"is_transit":false,"i_lat":-6.14505,"i_long":106.836569,"time":5,"station_name":"Rajawali","line":11,"distance":1901,"transit":false,"station_id":"RJW"},{"transit":true,"is_transit":true,"station_id":"KPB","station_name":"Kampung Bandan","i_long":106.826365,"i_lat":-6.132549,"time":3,"distance":1444,"line":4},{"is_transit":false,"distance":4102,"line":1,"i_lat":-6.144674,"i_long":106.79867,"transit":false,"station_name":"Angke","station_id":"AK","time":9},{"i_lat":-6.155215,"transit":false,"time":4,"station_name":"Duri","distance":1230,"line":1,"station_id":"DU","i_long":106.800832,"is_transit":false},{"distance":3632,"i_lat":-6.185545,"i_long":106.811091,"time":8,"line":1,"transit":false,"station_id":"THB","station_name":"Tanah Abang","is_transit":false},{"line":1,"station_id":"KAT","transit":false,"station_name":"Karet","is_transit":false,"distance":2029,"i_long":106.816351,"i_lat":-6.20132,"time":5},{"time":1,"distance":471,"i_long":106.819881,"i_lat":-6.201433,"station_id":"SUDB","line":1,"transit":false,"is_transit":false,"station_name":"Sudirman Baru"},{"is_transit":false,"i_lat":-6.202263,"station_name":"Sudirman","distance":280,"i_long":106.822649,"time":1,"line":1,"transit":false,"station_id":"SUD"},{"transit":true,"station_name":"Manggarai","is_transit":true,"station_id":"MRI","distance":3186,"i_long":106.84912,"time":4,"line":2,"i_lat":-6.209883},{"is_transit":false,"station_name":"Tebet","i_long":106.857948,"line":2,"distance":2610,"transit":false,"station_id":"TEB","time":4,"i_lat":-6.226659},{"distance":1230,"is_transit":false,"i_lat":-6.242512,"station_name":"Cawang","i_long":106.856607,"line":2,"transit":false,"time":2,"station_id":"CW"},{"is_transit":false,"distance":1546,"line":2,"station_id":"DRN","transit":false,"time":3,"i_long":106.85449,"station_name":"Duren Kalibata","i_lat":-6.255332},{"station_name":"Pasar Minggu Baru","time":2,"is_transit":false,"station_id":"PSMB","i_long":106.851577,"transit":false,"line":2,"distance":824,"i_lat":-6.263214},{"i_long":106.843999,"station_name":"Pasar Minggu","time":2,"station_id":"PSM","i_lat":-6.2842400000000005,"distance":2380,"is_transit":false,"line":2,"transit":false},{"is_transit":false,"i_lat":-6.3080680000000005,"time":4,"i_long":106.838896,"station_id":"TNT","station_name":"Tanjung Barat","distance":2820,"transit":false,"line":2},{"time":3,"station_name":"Lenteng Agung","station_id":"LNA","is_transit":false,"i_lat":-6.330363,"i_long":106.832616,"line":2,"transit":false,"distance":2671},{"transit":false,"is_transit":false,"i_lat":-6.339291,"line":2,"i_long":106.834175,"distance":1029,"time":2,"station_id":"UP","station_name":"Univ. Pancasila"},{"i_lat":-6.360749,"station_id":"UI","transit":false,"station_name":"Univ. Indonesia","i_long":106.831474,"time":3,"distance":2264,"line":2,"is_transit":false}],[{"station_name":"Jatinegara","is_transit":false,"distance":0,"transit":false,"i_lat":-6.215091,"time":0,"line":1,"i_long":106.86807400000001,"station_id":"JNG"},{"transit":false,"i_lat":-6.209188,"time":2,"is_transit":false,"station_name":"Pondok Jati","station_id":"POK","i_long":106.861737,"line":11,"distance":1236},{"i_long":106.855437,"station_id":"KMT","time":2,"is_transit":false,"distance":1829,"line":11,"station_name":"Kramat","transit":false,"i_lat":-6.193792},{"i_long":106.850107,"transit":false,"time":1,"i_lat":-6.185975,"distance":973,"station_name":"Gang Sentiong","station_id":"GST","is_transit":false,"line":11},{"is_transit":false,"station_name":"Pasar Senen","i_long":106.84368,"station_id":"PSE","distance":1567,"transit":false,"time":8,"line":11,"i_lat":-6.174784},{"i_long":106.839204,"station_id":"KMO","time":4,"distance":1436,"is_transit":false,"station_name":"Kemayoran","line":11,"transit":false,"i_lat":-6.161728},{"distance":1901,"transit":false,"station_id":"RJW","station_name":"Rajawali","is_transit":false,"i_lat":-6.14505,"i_long":106.836569,"time":5,"line":11},{"transit":true,"distance":1444,"is_transit":true,"time":3,"line":4,"station_id":"KPB","i_lat":-6.132549,"i_long":106.826365,"station_name":"Kampung Bandan"},{"station_name":"Jakarta Kota","station_id":"JAKK","i_long":106.812439,"line":2,"i_lat":-6.137569,"transit":true,"distance":1364,"is_transit":true,"time":3},{"station_name":"Jayakarta","line":2,"transit":false,"i_long":106.820901,"i_lat":-6.141205,"time":4,"is_transit":false,"distance":1264,"station_id":"JAY"},{"i_lat":-6.149769,"distance":1080,"i_long":106.82482,"station_id":"MGB","line":2,"station_name":"Manggabesar","transit":false,"is_transit":false,"time":2},{"i_long":106.827103,"station_name":"Sawah Besar","time":2,"line":2,"distance":906,"transit":false,"is_transit":false,"station_id":"SW","i_lat":-6.160725},{"transit":false,"station_name":"Juanda","time":2,"distance":1149,"i_long":106.828284,"is_transit":false,"line":2,"i_lat":-6.166716,"station_id":"JUA"},{"time":4,"is_transit":false,"distance":2015,"i_long":106.832183,"station_name":"Gondangdia","i_lat":-6.186295,"transit":false,"station_id":"GDD","line":2},{"i_lat":-6.198556,"is_transit":false,"time":3,"i_long":106.840169,"transit":false,"distance":1750,"station_name":"Cikini","line":2,"station_id":"CKI"},{"distance":1590,"transit":false,"i_lat":-6.209883,"is_transit":false,"time":4,"i_long":106.84912,"station_name":"Manggarai","station_id":"MRI","line":2},{"station_name":"Tebet","line":2,"station_id":"TEB","is_transit":false,"transit":false,"i_lat":-6.226659,"time":4,"i_long":106.857948,"distance":2610},{"time":2,"transit":false,"distance":1230,"i_lat":-6.242512,"is_transit":false,"station_id":"CW","i_long":106.856607,"line":2,"station_name":"Cawang"},{"is_transit":false,"station_id":"DRN","transit":false,"station_name":"Duren Kalibata","time":3,"distance":1546,"i_long":106.85449,"line":2,"i_lat":-6.255332},{"transit":false,"station_id":"PSMB","distance":824,"station_name":"Pasar Minggu Baru","is_transit":false,"time":2,"i_lat":-6.263214,"i_long":106.851577,"line":2},{"distance":2380,"i_long":106.843999,"line":2,"is_transit":false,"time":2,"i_lat":-6.2842400000000005,"transit":false,"station_id":"PSM","station_name":"Pasar Minggu"},{"line":2,"station_id":"TNT","i_long":106.838896,"distance":2820,"transit":false,"station_name":"Tanjung Barat","is_transit":false,"i_lat":-6.3080680000000005,"time":4},{"station_id":"LNA","time":3,"i_lat":-6.330363,"i_long":106.832616,"line":2,"transit":false,"distance":2671,"is_transit":false,"station_name":"Lenteng Agung"},{"distance":1029,"i_lat":-6.339291,"i_long":106.834175,"line":2,"station_name":"Univ. Pancasila","station_id":"UP","transit":false,"is_transit":false,"time":2},{"distance":2264,"i_lat":-6.360749,"station_name":"Univ. Indonesia","is_transit":false,"station_id":"UI","i_long":106.831474,"transit":false,"line":2,"time":3}]]}