{"data":[[{"is_transit":true,"distance":0,"time":0,"line":0,"i_long":106.86807400000001,"i_lat":-6.215091,"station_name":"Jatinegara","transit":false,"station_id":"JNG"},{"station_id":"MTR","transit":false,"is_transit":false,"i_lat":-6.212485,"i_long":106.858896,"line":1,"distance":1377,"time":2,"station_name":"Matraman"},{"distance":1275,"i_long":106.84912,"station_id":"MRI","station_name":"Manggarai","transit":false,"i_lat":-6.209883,"is_transit":true,"time":2,"line":0},{"is_transit":false,"i_lat":-6.202263,"i_long":106.822649,"line":1,"time":4,"transit":false,"station_id":"SUD","distance":3186,"station_name":"Sudirman"},{"distance":280,"i_long":106.819881,"is_transit":false,"transit":false,"line":1,"time":1,"station_id":"SUDB","station_name":"Sudirman Baru","i_lat":-6.201433},{"transit":false,"time":1,"i_long":106.816351,"i_lat":-6.20132,"line":1,"is_transit":false,"station_id":"KAT","distance":471,"station_name":"Karet"},{"is_transit":true,"time":5,"distance":2029,"i_lat":-6.185545,"line":1,"station_name":"Tanah Abang","station_id":"THB","transit":true,"i_long":106.811091},{"time":6,"line":6,"distance":3191,"station_name":"Palmerah","is_transit":false,"i_lat":-6.207404,"station_id":"PLM","transit":false,"i_long":106.79689},{"station_id":"KBY","i_lat":-6.237242,"i_long":106.780334,"time":7,"is_transit":false,"line":6,"distance":3737,"station_name":"Kebayoran","transit":false},{"is_transit":false,"station_name":"Pondokranji","i_long":106.74273,"time":8,"i_lat":-6.276362,"distance":6218,"station_id":"PDJ","transit":false,"line":6},{"station_id":"JMU","distance":2179,"i_lat":-6.288927,"time":3,"is_transit":false,"station_name":"Jurangmangu","transit":false,"i_long":106.728916,"line":6}],[{"i_long":106.86807400000001,"line":0,"station_name":"Jatinegara","distance":0,"station_id":"JNG","is_transit":true,"time":0,"transit":false,"i_lat":-6.215091},{"i_long":106.861737,"line":11,"is_transit":false,"time":2,"station_name":"Pondok Jati","i_lat":-6.209188,"station_id":"POK","distance":1236,"transit":false},{"i_lat":-6.193792,"line":11,"distance":1829,"station_id":"KMT","time":2,"station_name":"Kramat","i_long":106.855437,"is_transit":false,"transit":false},{"distance":973,"time":1,"station_name":"Gang Sentiong","i_lat":-6.185975,"transit":false,"is_transit":false,"station_id":"GST","i_long":106.850107,"line":11},{"station_name":"Pasar Senen","transit":false,"line":11,"i_long":106.84368,"time":8,"is_transit":false,"station_id":"PSE","distance":1567,"i_lat":-6.174784},{"i_lat":-6.161728,"is_transit":false,"time":4,"station_id":"KMO","station_name":"Kemayoran","line":11,"distance":1436,"transit":false,"i_long":106.839204},{"time":5,"station_id":"RJW","distance":1901,"transit":false,"i_long":106.836569,"line":11,"is_transit":false,"station_name":"Rajawali","i_lat":-6.14505},{"station_id":"KPB","is_transit":true,"i_lat":-6.132549,"distance":1444,"time":3,"station_name":"Kampung Bandan","i_long":106.826365,"line":0,"transit":true},{"i_lat":-6.144674,"transit":false,"line":0,"i_long":106.79867,"station_name":"Angke","station_id":"AK","distance":4102,"is_transit":false,"time":9},{"is_transit":true,"line":1,"distance":1230,"station_name":"Duri","transit":true,"station_id":"DU","i_lat":-6.155215,"i_long":106.800832,"time":4},{"distance":3632,"station_name":"Tanah Abang","time":8,"transit":true,"i_lat":-6.185545,"station_id":"THB","line":1,"i_long":106.811091,"is_transit":true},{"station_name":"Palmerah","i_long":106.79689,"transit":false,"line":6,"is_transit":false,"station_id":"PLM","i_lat":-6.207404,"distance":3191,"time":6},{"i_lat":-6.237242,"station_name":"Kebayoran","time":7,"is_transit":false,"distance":3737,"i_long":106.780334,"transit":false,"line":6,"station_id":"KBY"},{"station_name":"Pondokranji","i_long":106.74273,"i_lat":-6.276362,"is_transit":false,"line":6,"station_id":"PDJ","time":8,"distance":6218,"transit":false},{"is_transit":false,"line":6,"station_name":"Jurangmangu","distance":2179,"i_lat":-6.288927,"time":3,"station_id":"JMU","i_long":106.728916,"transit":false}],[{"i_lat":-6.215091,"is_transit":true,"station_id":"JNG","transit":false,"distance":0,"time":0,"station_name":"Jatinegara","i_long":106.86807400000001,"line":0},{"i_long":106.858896,"station_id":"MTR","is_transit":false,"time":2,"transit":false,"distance":1377,"station_name":"Matraman","i_lat":-6.212485,"line":1},{"is_transit":true,"i_lat":-6.209883,"i_long":106.84912,"station_id":"MRI","line":0,"distance":1275,"time":2,"transit":true,"station_name":"Manggarai"},{"distance":1590,"station_id":"CKI","station_name":"Cikini","line":0,"is_transit":false,"time":4,"i_long":106.840169,"i_lat":-6.198556,"transit":false},{"is_transit":false,"time":3,"i_lat":-6.186295,"station_name":"Gondangdia","line":2,"station_id":"GDD","transit":false,"i_long":106.832183,"distance":1750},{"station_id":"JUA","station_name":"Juanda","transit":false,"i_long":106.828284,"line":2,"is_transit":false,"time":4,"distance":2015,"i_lat":-6.166716},{"is_transit":false,"time":2,"transit":false,"i_long":106.827103,"line":2,"distance":1149,"i_lat":-6.160725,"station_name":"Sawah Besar","station_id":"SW"},{"transit":false,"distance":906,"time":2,"i_lat":-6.149769,"line":2,"station_id":"MGB","is_transit":false,"i_long":106.82482,"station_name":"Manggabesar"},{"i_long":106.820901,"time":2,"station_id":"JAY","is_transit":false,"transit":false,"i_lat":-6.141205,"station_name":"Jayakarta","line":7,"distance":1080},{"i_lat":-6.137569,"is_transit":true,"distance":1264,"station_name":"Jakarta Kota","station_id":"JAKK","time":4,"transit":true,"line":0,"i_long":106.812439},{"station_name":"Kampung Bandan","transit":false,"time":3,"i_long":106.826365,"is_transit":true,"i_lat":-6.132549,"distance":1364,"station_id":"KPB","line":0},{"transit":false,"time":9,"i_lat":-6.144674,"i_long":106.79867,"is_transit":false,"station_id":"AK","line":0,"station_name":"Angke","distance":4102},{"i_long":106.800832,"line":1,"station_id":"DU","station_name":"Duri","distance":1230,"transit":true,"is_transit":true,"time":4,"i_lat":-6.155215},{"station_name":"Tanah Abang","station_id":"THB","i_long":106.811091,"is_transit":true,"distance":3632,"time":8,"i_lat":-6.185545,"transit":true,"line":1},{"distance":3191,"i_long":106.79689,"line":6,"transit":false,"station_id":"PLM","station_name":"Palmerah","time":6,"i_lat":-6.207404,"is_transit":false},{"is_transit":false,"i_lat":-6.237242,"station_id":"KBY","station_name":"Kebayoran","distance":3737,"i_long":106.780334,"line":6,"time":7,"transit":false},{"distance":6218,"transit":false,"is_transit":false,"time":8,"i_lat":-6.276362,"line":6,"station_id":"PDJ","i_long":106.74273,"station_name":"Pondokranji"},{"station_id":"JMU","line":6,"transit":false,"is_transit":false,"distance":2179,"i_lat":-6.288927,"i_long":106.728916,"station_name":"Jurangmangu","time":3}],[{"i_long":106.86807400000001,"station_id":"JNG","is_transit":true,"line":0,"transit":false,"time":0,"distance":0,"station_name":"Jatinegara","i_lat":-6.215091},{"i_long":106.861737,"distance":1236,"line":11,"is_transit":false,"time":2,"i_lat":-6.209188,"transit":false,"station_id":"POK","station_name":"Pondok Jati"},{"is_transit":false,"i_long":106.855437,"station_id":"KMT","transit":false,"station_name":"Kramat","time":2,"line":11,"distance":1829,"i_lat":-6.193792},{"line":11,"is_transit":false,"distance":973,"station_name":"Gang Sentiong","transit":false,"time":1,"i_long":106.850107,"station_id":"GST","i_lat":-6.185975},{"station_id":"PSE","time":8,"i_long":106.84368,"distance":1567,"transit":false,"i_lat":-6.174784,"is_transit":false,"line":11,"station_name":"Pasar Senen"},{"station_name":"Kemayoran","line":11,"i_lat":-6.161728,"station_id":"KMO","time":4,"distance":1436,"is_transit":false,"i_long":106.839204,"transit":false},{"station_id":"RJW","transit":false,"distance":1901,"i_long":106.836569,"station_name":"Rajawali","is_transit":false,"i_lat":-6.14505,"line":11,"time":5},{"is_transit":true,"i_lat":-6.132549,"transit":true,"time":3,"station_id":"KPB","station_name":"Kampung Bandan","distance":1444,"i_long":106.826365,"line":0},{"time":3,"transit":true,"station_id":"JAKK","line":0,"distance":1364,"station_name":"Jakarta Kota","is_transit":true,"i_long":106.812439,"i_lat":-6.137569},{"is_transit":false,"i_lat":-6.141205,"i_long":106.820901,"station_id":"JAY","distance":1264,"transit":false,"time":4,"line":7,"station_name":"Jayakarta"},{"line":2,"i_lat":-6.149769,"is_transit":false,"station_id":"MGB","distance":1080,"station_name":"Manggabesar","transit":false,"time":2,"i_long":106.82482},{"time":2,"i_lat":-6.160725,"line":2,"station_id":"SW","distance":906,"transit":false,"i_long":106.827103,"station_name":"Sawah Besar","is_transit":false},{"line":2,"i_long":106.828284,"station_name":"Juanda","transit":false,"is_transit":false,"distance":1149,"time":2,"station_id":"JUA","i_lat":-6.166716},{"distance":2015,"station_id":"GDD","i_lat":-6.186295,"transit":false,"station_name":"Gondangdia","time":4,"i_long":106.832183,"line":2,"is_transit":false},{"i_lat":-6.198556,"is_transit":false,"station_name":"Cikini","transit":false,"time":3,"i_long":106.840169,"station_id":"CKI","distance":1750,"line":0},{"station_name":"Manggarai","i_lat":-6.209883,"line":0,"is_transit":true,"distance":1590,"time":4,"transit":true,"station_id":"MRI","i_long":106.84912},{"transit":false,"i_long":106.822649,"time":4,"line":1,"i_lat":-6.202263,"station_id":"SUD","is_transit":false,"station_name":"Sudirman","distance":3186},{"i_long":106.819881,"transit":false,"distance":280,"i_lat":-6.201433,"line":1,"is_transit":false,"time":1,"station_name":"Sudirman Baru","station_id":"SUDB"},{"line":1,"station_name":"Karet","transit":false,"is_transit":false,"station_id":"KAT","time":1,"i_lat":-6.20132,"distance":471,"i_long":106.816351},{"transit":true,"is_transit":true,"station_name":"Tanah Abang","i_long":106.811091,"time":5,"i_lat":-6.185545,"station_id":"THB","distance":2029,"line":1},{"time":6,"distance":3191,"transit":false,"station_id":"PLM","station_name":"Palmerah","is_transit":false,"i_long":106.79689,"i_lat":-6.207404,"line":6},{"is_transit":false,"i_long":106.780334,"line":6,"i_lat":-6.237242,"time":7,"station_name":"Kebayoran","distance":3737,"station_id":"KBY","transit":false},{"i_long":106.74273,"transit":false,"station_id":"PDJ","line":6,"distance":6218,"station_name":"Pondokranji","is_transit":false,"time":8,"i_lat":-6.276362},{"station_name":"Jurangmangu","station_id":"JMU","i_lat":-6.288927,"is_transit":false,"time":3,"transit":false,"i_long":106.728916,"line":6,"distance":2179}]]}