{"data":[[{"time":0,"station_id":"JNG","transit":false,"distance":0,"line":1,"i_lat":-6.215091,"station_name":"Jatinegara","i_long":106.86807400000001,"is_transit":false},{"station_name":"Pondok Jati","distance":1236,"i_long":106.861737,"transit":false,"i_lat":-6.209188,"time":2,"is_transit":false,"station_id":"POK","line":11},{"station_name":"Kramat","distance":1829,"i_long":106.855437,"station_id":"KMT","transit":false,"is_transit":false,"i_lat":-6.193792,"line":11,"time":2},{"transit":false,"station_name":"Gang Sentiong","time":1,"line":11,"station_id":"GST","distance":973,"is_transit":false,"i_lat":-6.185975,"i_long":106.850107},{"transit":false,"is_transit":false,"distance":1567,"station_name":"Pasar Senen","station_id":"PSE","time":8,"i_long":106.84368,"i_lat":-6.174784,"line":11}],[{"is_transit":false,"distance":0,"station_id":"JNG","time":0,"i_lat":-6.215091,"i_long":106.86807400000001,"station_name":"Jatinegara","line":1,"transit":false},{"i_long":106.858896,"station_name":"Matraman","is_transit":false,"distance":1377,"time":2,"line":1,"transit":false,"i_lat":-6.212485,"station_id":"MTR"},{"is_transit":false,"distance":1275,"station_id":"MRI","i_lat":-6.209883,"line":2,"i_long":106.84912,"time":2,"station_name":"Manggarai","transit":false},{"distance":3186,"time":4,"i_long":106.822649,"station_id":"SUD","station_name":"Sudirman","transit":false,"is_transit":false,"i_lat":-6.202263,"line":1},{"i_long":106.819881,"line":1,"is_transit":false,"i_lat":-6.201433,"distance":280,"transit":false,"time":1,"station_id":"SUDB","station_name":"Sudirman Baru"},{"transit":false,"distance":471,"line":1,"station_name":"Karet","i_lat":-6.20132,"station_id":"KAT","is_transit":false,"time":1,"i_long":106.816351},{"i_lat":-6.185545,"line":1,"is_transit":false,"transit":false,"station_name":"Tanah Abang","time":5,"station_id":"THB","distance":2029,"i_long":106.811091},{"distance":3632,"time":8,"i_lat":-6.155215,"transit":false,"is_transit":false,"station_id":"DU","line":1,"i_long":106.800832,"station_name":"Duri"},{"i_long":106.79867,"i_lat":-6.144674,"line":1,"distance":1230,"transit":false,"is_transit":false,"station_id":"AK","station_name":"Angke","time":4},{"station_id":"KPB","is_transit":true,"distance":4102,"transit":true,"time":9,"i_long":106.826365,"station_name":"Kampung Bandan","i_lat":-6.132549,"line":4},{"time":3,"transit":false,"i_lat":-6.14505,"line":11,"station_id":"RJW","i_long":106.836569,"station_name":"Rajawali","is_transit":false,"distance":1444},{"distance":1901,"i_long":106.839204,"is_transit":false,"line":11,"time":5,"transit":false,"station_id":"KMO","i_lat":-6.161728,"station_name":"Kemayoran"},{"transit":false,"is_transit":false,"station_id":"PSE","line":11,"distance":1436,"i_lat":-6.174784,"time":4,"i_long":106.84368,"station_name":"Pasar Senen"}],[{"station_id":"JNG","distance":0,"transit":false,"i_long":106.86807400000001,"line":1,"i_lat":-6.215091,"time":0,"is_transit":false,"station_name":"Jatinegara"},{"is_transit":false,"line":1,"time":2,"station_id":"MTR","i_long":106.858896,"station_name":"Matraman","distance":1377,"i_lat":-6.212485,"transit":false},{"is_transit":true,"time":2,"distance":1275,"transit":true,"i_lat":-6.209883,"station_id":"MRI","i_long":106.84912,"line":2,"station_name":"Manggarai"},{"is_transit":false,"distance":1590,"i_long":106.840169,"station_id":"CKI","line":2,"i_lat":-6.198556,"transit":false,"time":4,"station_name":"Cikini"},{"station_name":"Gondangdia","station_id":"GDD","time":3,"line":2,"is_transit":false,"distance":1750,"i_lat":-6.186295,"transit":false,"i_long":106.832183},{"i_long":106.828284,"station_name":"Juanda","i_lat":-6.166716,"time":4,"is_transit":false,"station_id":"JUA","distance":2015,"line":2,"transit":false},{"time":2,"is_transit":false,"i_long":106.827103,"distance":1149,"line":2,"transit":false,"station_name":"Sawah Besar","i_lat":-6.160725,"station_id":"SW"},{"line":2,"time":2,"i_lat":-6.149769,"i_long":106.82482,"transit":false,"distance":906,"station_name":"Manggabesar","station_id":"MGB","is_transit":false},{"transit":false,"line":2,"is_transit":false,"time":2,"distance":1080,"i_long":106.820901,"i_lat":-6.141205,"station_id":"JAY","station_name":"Jayakarta"},{"is_transit":true,"time":4,"station_id":"JAKK","i_lat":-6.137569,"i_long":106.812439,"station_name":"Jakarta Kota","transit":true,"line":2,"distance":1264},{"is_transit":true,"station_name":"Kampung Bandan","distance":1364,"i_long":106.826365,"time":3,"i_lat":-6.132549,"line":4,"station_id":"KPB","transit":true},{"station_name":"Rajawali","time":3,"line":11,"transit":false,"is_transit":false,"i_long":106.836569,"station_id":"RJW","i_lat":-6.14505,"distance":1444},{"station_name":"Kemayoran","station_id":"KMO","is_transit":false,"transit":false,"i_lat":-6.161728,"distance":1901,"i_long":106.839204,"time":5,"line":11},{"i_lat":-6.174784,"line":11,"time":4,"station_name":"Pasar Senen","is_transit":false,"station_id":"PSE","i_long":106.84368,"distance":1436,"transit":false}]]}