{"data":[[{"i_long":106.86807400000001,"distance":0,"transit":false,"time":0,"line":1,"station_id":"JNG","i_lat":-6.215091,"station_name":"Jatinegara"},{"i_long":106.899548,"distance":3395,"transit":false,"time":3,"line":1,"station_id":"KLD","i_lat":-6.2135,"station_name":"Klender"},{"i_long":106.922662,"distance":3100,"transit":false,"time":2,"line":1,"station_id":"BUA","i_lat":-6.215568,"station_name":"Buaran"},{"i_long":106.939679,"distance":1305,"transit":false,"time":1,"line":1,"station_id":"KLDB","i_lat":-6.217455,"station_name":"Klenderbaru"},{"i_long":106.951283,"distance":1385,"transit":false,"time":8,"line":1,"station_id":"CUK","i_lat":-6.219053,"station_name":"Cakung"},{"i_long":106.977657,"distance":3097,"transit":false,"time":3,"line":1,"station_id":"KRI","i_lat":-6.224515,"station_name":"Kranji"},{"i_long":106.997013,"distance":2520,"transit":false,"time":4,"line":1,"station_id":"BKS","i_lat":-6.236616,"station_name":"Bekasi"},{"i_long":107.016735,"distance":2368,"transit":false,"time":2,"line":1,"station_id":"BKST","i_lat":-6.248029,"station_name":"Bekasi Timur"},{"i_long":107.055722,"distance":4460,"transit":false,"time":7,"line":1,"station_id":"TB","i_lat":-6.258864,"station_name":"Tambun"},{"i_long":107.083084,"distance":3420,"transit":false,"time":3,"line":1,"station_id":"CIT","i_lat":-6.261877,"station_name":"Cibitung"},{"i_long":107.093313,"distance":2800,"transit":false,"time":2,"line":1,"station_id":"TLM","i_lat":-6.262938,"station_name":"Metland Telaga Murni"},{"i_long":107.144613,"distance":3689,"transit":false,"time":4,"line":1,"station_id":"CKR","i_lat":-6.2553149999999995,"station_name":"Cikarang"}]]}