{"data":[[{"i_lat":-6.215091,"i_long":106.86807400000001,"line":0,"station_id":"JNG","transit":false,"distance":0,"station_name":"Jatinegara","time":0,"is_transit":true},{"distance":1377,"time":2,"station_id":"MTR","is_transit":false,"line":1,"station_name":"Matraman","i_lat":-6.212485,"transit":false,"i_long":106.858896},{"i_long":106.84912,"line":0,"transit":false,"i_lat":-6.209883,"station_name":"Manggarai","distance":1275,"station_id":"MRI","time":2,"is_transit":true},{"station_id":"SUD","transit":false,"is_transit":false,"i_lat":-6.202263,"station_name":"Sudirman","i_long":106.822649,"time":4,"distance":3186,"line":1},{"line":1,"distance":280,"station_name":"Sudirman Baru","transit":false,"i_lat":-6.201433,"time":1,"station_id":"SUDB","is_transit":false,"i_long":106.819881},{"i_lat":-6.20132,"line":1,"time":1,"distance":471,"station_id":"KAT","i_long":106.816351,"transit":false,"station_name":"Karet","is_transit":false},{"station_id":"THB","line":1,"is_transit":true,"i_lat":-6.185545,"i_long":106.811091,"station_name":"Tanah Abang","time":5,"distance":2029,"transit":false},{"distance":3632,"i_long":106.800832,"station_id":"DU","station_name":"Duri","time":8,"line":1,"i_lat":-6.155215,"transit":true,"is_transit":true},{"station_id":"GGL","time":3,"station_name":"Grogol","distance":1700,"i_lat":-6.162021,"is_transit":false,"i_long":106.788277,"line":5,"transit":false},{"line":5,"station_id":"PSG","transit":false,"distance":2036,"is_transit":false,"time":2,"station_name":"Pesing","i_long":106.771379,"i_lat":-6.161433},{"station_name":"Taman Kota","time":2,"is_transit":false,"i_long":106.756522,"line":5,"station_id":"TKO","distance":1614,"i_lat":-6.1587309999999995,"transit":false},{"line":0,"transit":false,"is_transit":false,"i_lat":-6.159876,"station_id":"BOI","station_name":"Bojongindah","distance":2334,"time":2,"i_long":106.737035},{"is_transit":false,"station_name":"Rawa Buaya","transit":false,"station_id":"RW","time":4,"i_lat":-6.162758,"line":5,"distance":1152,"i_long":106.723064},{"transit":false,"time":3,"i_long":106.701612,"station_id":"KDS","line":5,"is_transit":false,"distance":2504,"i_lat":-6.166068,"station_name":"Kalideres"},{"line":5,"transit":false,"is_transit":false,"i_lat":-6.169933,"distance":2548,"station_id":"PI","time":3,"station_name":"Poris","i_long":106.679458},{"station_name":"Batuceper","time":3,"i_lat":-6.171811,"i_long":106.665036,"distance":1834,"line":0,"transit":false,"station_id":"BPR","is_transit":false},{"station_id":"TTI","i_lat":-6.17331,"line":5,"distance":2028,"transit":false,"station_name":"Tanah Tinggi","time":3,"is_transit":false,"i_long":106.64657}],[{"i_long":106.86807400000001,"transit":false,"distance":0,"is_transit":true,"i_lat":-6.215091,"line":0,"station_id":"JNG","time":0,"station_name":"Jatinegara"},{"station_name":"Pondok Jati","distance":1236,"is_transit":false,"i_long":106.861737,"line":11,"station_id":"POK","transit":false,"time":2,"i_lat":-6.209188},{"time":2,"is_transit":false,"station_id":"KMT","distance":1829,"station_name":"Kramat","line":11,"i_lat":-6.193792,"transit":false,"i_long":106.855437},{"is_transit":false,"station_name":"Gang Sentiong","distance":973,"i_long":106.850107,"station_id":"GST","i_lat":-6.185975,"line":11,"time":1,"transit":false},{"station_name":"Pasar Senen","time":8,"is_transit":false,"i_lat":-6.174784,"line":11,"distance":1567,"transit":false,"station_id":"PSE","i_long":106.84368},{"distance":1436,"is_transit":false,"station_id":"KMO","time":4,"i_long":106.839204,"line":11,"i_lat":-6.161728,"transit":false,"station_name":"Kemayoran"},{"station_name":"Rajawali","distance":1901,"i_lat":-6.14505,"line":11,"is_transit":false,"i_long":106.836569,"station_id":"RJW","transit":false,"time":5},{"is_transit":true,"i_lat":-6.132549,"distance":1444,"i_long":106.826365,"time":3,"line":0,"station_id":"KPB","transit":true,"station_name":"Kampung Bandan"},{"time":9,"station_name":"Angke","is_transit":false,"station_id":"AK","i_long":106.79867,"i_lat":-6.144674,"line":0,"transit":false,"distance":4102},{"line":1,"distance":1230,"time":4,"i_long":106.800832,"transit":true,"station_name":"Duri","is_transit":true,"i_lat":-6.155215,"station_id":"DU"},{"station_id":"GGL","i_long":106.788277,"station_name":"Grogol","i_lat":-6.162021,"distance":1700,"time":3,"transit":false,"is_transit":false,"line":5},{"i_lat":-6.161433,"station_name":"Pesing","is_transit":false,"transit":false,"time":2,"station_id":"PSG","line":5,"i_long":106.771379,"distance":2036},{"i_lat":-6.1587309999999995,"distance":1614,"i_long":106.756522,"is_transit":false,"time":2,"station_id":"TKO","transit":false,"line":5,"station_name":"Taman Kota"},{"time":2,"transit":false,"i_long":106.737035,"distance":2334,"i_lat":-6.159876,"is_transit":false,"station_id":"BOI","station_name":"Bojongindah","line":0},{"time":4,"i_long":106.723064,"station_name":"Rawa Buaya","i_lat":-6.162758,"station_id":"RW","distance":1152,"is_transit":false,"transit":false,"line":5},{"i_long":106.701612,"station_name":"Kalideres","time":3,"is_transit":false,"distance":2504,"station_id":"KDS","transit":false,"i_lat":-6.166068,"line":5},{"is_transit":false,"station_name":"Poris","time":3,"i_lat":-6.169933,"station_id":"PI","transit":false,"line":5,"i_long":106.679458,"distance":2548},{"is_transit":false,"distance":1834,"i_lat":-6.171811,"station_id":"BPR","transit":false,"station_name":"Batuceper","time":3,"i_long":106.665036,"line":0},{"distance":2028,"is_transit":false,"station_id":"TTI","transit":false,"time":3,"i_lat":-6.17331,"station_name":"Tanah Tinggi","i_long":106.64657,"line":5}],[{"line":0,"station_id":"JNG","i_lat":-6.215091,"time":0,"transit":false,"i_long":106.86807400000001,"distance":0,"is_transit":true,"station_name":"Jatinegara"},{"i_lat":-6.212485,"station_id":"MTR","transit":false,"distance":1377,"line":1,"i_long":106.858896,"time":2,"is_transit":false,"station_name":"Matraman"},{"is_transit":true,"i_long":106.84912,"station_id":"MRI","station_name":"Manggarai","line":0,"i_lat":-6.209883,"time":2,"transit":true,"distance":1275},{"line":0,"station_id":"CKI","transit":false,"is_transit":false,"distance":1590,"time":4,"station_name":"Cikini","i_lat":-6.198556,"i_long":106.840169},{"station_name":"Gondangdia","is_transit":false,"distance":1750,"line":2,"time":3,"i_lat":-6.186295,"station_id":"GDD","i_long":106.832183,"transit":false},{"time":4,"station_name":"Juanda","i_long":106.828284,"station_id":"JUA","i_lat":-6.166716,"line":2,"transit":false,"distance":2015,"is_transit":false},{"time":2,"i_lat":-6.160725,"transit":false,"is_transit":false,"distance":1149,"station_name":"Sawah Besar","line":2,"i_long":106.827103,"station_id":"SW"},{"distance":906,"time":2,"i_lat":-6.149769,"transit":false,"station_name":"Manggabesar","is_transit":false,"line":2,"station_id":"MGB","i_long":106.82482},{"line":7,"distance":1080,"is_transit":false,"transit":false,"station_name":"Jayakarta","i_long":106.820901,"station_id":"JAY","i_lat":-6.141205,"time":2},{"line":0,"transit":true,"distance":1264,"time":4,"is_transit":true,"i_lat":-6.137569,"i_long":106.812439,"station_name":"Jakarta Kota","station_id":"JAKK"},{"line":0,"is_transit":true,"transit":false,"distance":1364,"i_long":106.826365,"station_name":"Kampung Bandan","time":3,"station_id":"KPB","i_lat":-6.132549},{"transit":false,"station_name":"Angke","i_lat":-6.144674,"time":9,"distance":4102,"station_id":"AK","line":0,"i_long":106.79867,"is_transit":false},{"distance":1230,"station_name":"Duri","i_long":106.800832,"line":1,"station_id":"DU","time":4,"transit":true,"is_transit":true,"i_lat":-6.155215},{"transit":false,"line":5,"station_id":"GGL","time":3,"station_name":"Grogol","distance":1700,"is_transit":false,"i_lat":-6.162021,"i_long":106.788277},{"i_lat":-6.161433,"station_name":"Pesing","distance":2036,"line":5,"station_id":"PSG","i_long":106.771379,"transit":false,"time":2,"is_transit":false},{"is_transit":false,"i_lat":-6.1587309999999995,"i_long":106.756522,"station_name":"Taman Kota","line":5,"transit":false,"time":2,"station_id":"TKO","distance":1614},{"station_name":"Bojongindah","i_lat":-6.159876,"distance":2334,"time":2,"transit":false,"is_transit":false,"line":0,"station_id":"BOI","i_long":106.737035},{"station_name":"Rawa Buaya","is_transit":false,"station_id":"RW","distance":1152,"i_long":106.723064,"i_lat":-6.162758,"time":4,"transit":false,"line":5},{"i_lat":-6.166068,"i_long":106.701612,"time":3,"line":5,"is_transit":false,"transit":false,"station_id":"KDS","distance":2504,"station_name":"Kalideres"},{"distance":2548,"i_lat":-6.169933,"i_long":106.679458,"line":5,"time":3,"is_transit":false,"station_id":"PI","station_name":"Poris","transit":false},{"time":3,"distance":1834,"i_long":106.665036,"line":0,"station_id":"BPR","is_transit":false,"i_lat":-6.171811,"transit":false,"station_name":"Batuceper"},{"i_long":106.64657,"station_id":"TTI","time":3,"is_transit":false,"distance":2028,"station_name":"Tanah Tinggi","transit":false,"line":5,"i_lat":-6.17331}],[{"is_transit":true,"line":0,"station_name":"Jatinegara","station_id":"JNG","transit":false,"time":0,"i_lat":-6.215091,"distance":0,"i_long":106.86807400000001},{"distance":1236,"transit":false,"station_name":"Pondok Jati","i_long":106.861737,"line":11,"station_id":"POK","i_lat":-6.209188,"time":2,"is_transit":false},{"distance":1829,"station_id":"KMT","i_lat":-6.193792,"transit":false,"station_name":"Kramat","is_transit":false,"time":2,"i_long":106.855437,"line":11},{"distance":973,"line":11,"is_transit":false,"i_long":106.850107,"transit":false,"station_name":"Gang Sentiong","station_id":"GST","time":1,"i_lat":-6.185975},{"station_id":"PSE","is_transit":false,"i_long":106.84368,"transit":false,"distance":1567,"station_name":"Pasar Senen","i_lat":-6.174784,"line":11,"time":8},{"station_name":"Kemayoran","time":4,"distance":1436,"station_id":"KMO","line":11,"transit":false,"i_lat":-6.161728,"i_long":106.839204,"is_transit":false},{"i_long":106.836569,"station_id":"RJW","is_transit":false,"line":11,"distance":1901,"transit":false,"station_name":"Rajawali","time":5,"i_lat":-6.14505},{"transit":true,"i_long":106.826365,"line":0,"time":3,"distance":1444,"station_id":"KPB","station_name":"Kampung Bandan","i_lat":-6.132549,"is_transit":true},{"is_transit":true,"line":0,"i_long":106.812439,"i_lat":-6.137569,"distance":1364,"station_id":"JAKK","time":3,"station_name":"Jakarta Kota","transit":true},{"is_transit":false,"line":7,"time":4,"station_name":"Jayakarta","i_long":106.820901,"station_id":"JAY","i_lat":-6.141205,"transit":false,"distance":1264},{"station_id":"MGB","time":2,"line":2,"distance":1080,"i_lat":-6.149769,"i_long":106.82482,"is_transit":false,"station_name":"Manggabesar","transit":false},{"i_long":106.827103,"line":2,"station_id":"SW","i_lat":-6.160725,"transit":false,"station_name":"Sawah Besar","is_transit":false,"distance":906,"time":2},{"i_lat":-6.166716,"i_long":106.828284,"is_transit":false,"station_id":"JUA","time":2,"station_name":"Juanda","line":2,"transit":false,"distance":1149},{"station_id":"GDD","time":4,"line":2,"is_transit":false,"transit":false,"station_name":"Gondangdia","i_lat":-6.186295,"distance":2015,"i_long":106.832183},{"station_name":"Cikini","transit":false,"i_lat":-6.198556,"distance":1750,"i_long":106.840169,"station_id":"CKI","line":0,"is_transit":false,"time":3},{"time":4,"transit":true,"station_id":"MRI","is_transit":true,"i_lat":-6.209883,"i_long":106.84912,"line":0,"distance":1590,"station_name":"Manggarai"},{"is_transit":false,"distance":3186,"station_name":"Sudirman","transit":false,"i_lat":-6.202263,"line":1,"i_long":106.822649,"station_id":"SUD","time":4},{"is_transit":false,"i_lat":-6.201433,"i_long":106.819881,"station_name":"Sudirman Baru","transit":false,"distance":280,"time":1,"line":1,"station_id":"SUDB"},{"transit":false,"distance":471,"station_id":"KAT","i_lat":-6.20132,"line":1,"time":1,"is_transit":false,"station_name":"Karet","i_long":106.816351},{"i_lat":-6.185545,"i_long":106.811091,"station_id":"THB","is_transit":true,"station_name":"Tanah Abang","time":5,"line":1,"transit":false,"distance":2029},{"station_id":"DU","i_lat":-6.155215,"i_long":106.800832,"transit":true,"station_name":"Duri","is_transit":true,"distance":3632,"line":1,"time":8},{"is_transit":false,"distance":1700,"i_long":106.788277,"line":5,"transit":false,"time":3,"i_lat":-6.162021,"station_id":"GGL","station_name":"Grogol"},{"station_id":"PSG","i_lat":-6.161433,"station_name":"Pesing","time":2,"transit":false,"distance":2036,"i_long":106.771379,"line":5,"is_transit":false},{"distance":1614,"line":5,"station_id":"TKO","transit":false,"i_lat":-6.1587309999999995,"is_transit":false,"station_name":"Taman Kota","time":2,"i_long":106.756522},{"station_name":"Bojongindah","i_lat":-6.159876,"is_transit":false,"line":0,"transit":false,"distance":2334,"i_long":106.737035,"station_id":"BOI","time":2},{"is_transit":false,"transit":false,"station_id":"RW","line":5,"i_long":106.723064,"station_name":"Rawa Buaya","time":4,"distance":1152,"i_lat":-6.162758},{"station_id":"KDS","transit":false,"station_name":"Kalideres","distance":2504,"is_transit":false,"time":3,"i_long":106.701612,"i_lat":-6.166068,"line":5},{"line":5,"transit":false,"i_lat":-6.169933,"time":3,"station_id":"PI","station_name":"Poris","distance":2548,"i_long":106.679458,"is_transit":false},{"i_lat":-6.171811,"time":3,"line":0,"i_long":106.665036,"station_id":"BPR","transit":false,"is_transit":false,"station_name":"Batuceper","distance":1834},{"i_lat":-6.17331,"distance":2028,"transit":false,"station_name":"Tanah Tinggi","time":3,"line":5,"is_transit":false,"i_long":106.64657,"station_id":"TTI"}]]}