{"data":[[{"i_long":106.86807400000001,"station_name":"Jatinegara","line":1,"transit":false,"distance":0,"is_transit":false,"station_id":"JNG","i_lat":-6.215091,"time":0},{"time":2,"station_name":"Matraman","line":1,"is_transit":false,"station_id":"MTR","i_lat":-6.212485,"distance":1377,"i_long":106.858896,"transit":false},{"line":2,"distance":1275,"transit":true,"time":2,"is_transit":true,"station_id":"MRI","i_lat":-6.209883,"i_long":106.84912,"station_name":"Manggarai"},{"time":4,"transit":false,"distance":1590,"station_name":"Cikini","i_long":106.840169,"i_lat":-6.198556,"station_id":"CKI","line":2,"is_transit":false},{"line":2,"distance":1750,"station_name":"Gondangdia","station_id":"GDD","is_transit":false,"i_long":106.832183,"i_lat":-6.186295,"transit":false,"time":3}],[{"time":0,"line":1,"distance":0,"is_transit":false,"i_lat":-6.215091,"i_long":106.86807400000001,"transit":false,"station_name":"Jatinegara","station_id":"JNG"},{"is_transit":false,"i_long":106.861737,"station_id":"POK","line":11,"transit":false,"time":2,"station_name":"Pondok Jati","distance":1236,"i_lat":-6.209188},{"transit":false,"time":2,"i_lat":-6.193792,"station_id":"KMT","is_transit":false,"station_name":"Kramat","i_long":106.855437,"distance":1829,"line":11},{"is_transit":false,"time":1,"station_id":"GST","i_long":106.850107,"distance":973,"transit":false,"i_lat":-6.185975,"line":11,"station_name":"Gang Sentiong"},{"i_long":106.84368,"time":8,"i_lat":-6.174784,"line":11,"station_id":"PSE","station_name":"Pasar Senen","transit":false,"is_transit":false,"distance":1567},{"line":11,"transit":false,"distance":1436,"time":4,"i_lat":-6.161728,"is_transit":false,"station_name":"Kemayoran","i_long":106.839204,"station_id":"KMO"},{"time":5,"station_id":"RJW","distance":1901,"station_name":"Rajawali","transit":false,"is_transit":false,"i_lat":-6.14505,"i_long":106.836569,"line":11},{"time":3,"transit":true,"i_long":106.826365,"is_transit":true,"line":4,"distance":1444,"i_lat":-6.132549,"station_name":"Kampung Bandan","station_id":"KPB"},{"line":2,"station_name":"Jakarta Kota","time":3,"distance":1364,"is_transit":true,"transit":true,"i_lat":-6.137569,"i_long":106.812439,"station_id":"JAKK"},{"i_lat":-6.141205,"time":4,"is_transit":false,"line":2,"distance":1264,"station_id":"JAY","station_name":"Jayakarta","i_long":106.820901,"transit":false},{"transit":false,"i_lat":-6.149769,"time":2,"station_name":"Manggabesar","is_transit":false,"station_id":"MGB","i_long":106.82482,"line":2,"distance":1080},{"is_transit":false,"time":2,"i_long":106.827103,"distance":906,"i_lat":-6.160725,"transit":false,"station_name":"Sawah Besar","line":2,"station_id":"SW"},{"station_id":"JUA","time":2,"station_name":"Juanda","i_lat":-6.166716,"is_transit":false,"line":2,"distance":1149,"i_long":106.828284,"transit":false},{"i_long":106.832183,"distance":2015,"is_transit":false,"i_lat":-6.186295,"transit":false,"station_id":"GDD","station_name":"Gondangdia","time":4,"line":2}],[{"station_name":"Jatinegara","distance":0,"i_long":106.86807400000001,"time":0,"transit":false,"i_lat":-6.215091,"line":1,"is_transit":false,"station_id":"JNG"},{"station_name":"Matraman","distance":1377,"time":2,"transit":false,"line":1,"i_long":106.858896,"station_id":"MTR","is_transit":false,"i_lat":-6.212485},{"time":2,"i_lat":-6.209883,"station_id":"MRI","i_long":106.84912,"transit":false,"distance":1275,"line":2,"station_name":"Manggarai","is_transit":false},{"station_id":"SUD","distance":3186,"i_long":106.822649,"station_name":"Sudirman","transit":false,"time":4,"i_lat":-6.202263,"line":1,"is_transit":false},{"station_name":"Sudirman Baru","distance":280,"time":1,"is_transit":false,"i_lat":-6.201433,"transit":false,"station_id":"SUDB","i_long":106.819881,"line":1},{"is_transit":false,"station_name":"Karet","transit":false,"station_id":"KAT","time":1,"distance":471,"i_lat":-6.20132,"i_long":106.816351,"line":1},{"i_lat":-6.185545,"distance":2029,"is_transit":false,"station_id":"THB","i_long":106.811091,"time":5,"station_name":"Tanah Abang","transit":false,"line":1},{"station_id":"DU","i_long":106.800832,"station_name":"Duri","distance":3632,"line":1,"i_lat":-6.155215,"transit":false,"is_transit":false,"time":8},{"i_long":106.79867,"is_transit":false,"i_lat":-6.144674,"time":4,"line":1,"distance":1230,"station_name":"Angke","transit":false,"station_id":"AK"},{"station_id":"KPB","time":9,"is_transit":true,"line":4,"distance":4102,"transit":true,"i_long":106.826365,"station_name":"Kampung Bandan","i_lat":-6.132549},{"i_long":106.812439,"line":2,"transit":true,"station_name":"Jakarta Kota","i_lat":-6.137569,"is_transit":true,"time":3,"station_id":"JAKK","distance":1364},{"i_lat":-6.141205,"line":2,"station_id":"JAY","time":4,"i_long":106.820901,"station_name":"Jayakarta","is_transit":false,"distance":1264,"transit":false},{"i_long":106.82482,"station_id":"MGB","distance":1080,"i_lat":-6.149769,"time":2,"is_transit":false,"station_name":"Manggabesar","transit":false,"line":2},{"station_id":"SW","distance":906,"i_long":106.827103,"time":2,"is_transit":false,"line":2,"transit":false,"station_name":"Sawah Besar","i_lat":-6.160725},{"station_id":"JUA","transit":false,"i_long":106.828284,"i_lat":-6.166716,"line":2,"time":2,"station_name":"Juanda","distance":1149,"is_transit":false},{"station_name":"Gondangdia","i_lat":-6.186295,"line":2,"is_transit":false,"i_long":106.832183,"transit":false,"time":4,"station_id":"GDD","distance":2015}],[{"station_id":"JNG","i_long":106.86807400000001,"distance":0,"transit":false,"time":0,"station_name":"Jatinegara","is_transit":false,"i_lat":-6.215091,"line":1},{"time":2,"distance":1236,"i_lat":-6.209188,"station_name":"Pondok Jati","is_transit":false,"line":11,"i_long":106.861737,"transit":false,"station_id":"POK"},{"station_name":"Kramat","distance":1829,"is_transit":false,"line":11,"i_lat":-6.193792,"i_long":106.855437,"time":2,"station_id":"KMT","transit":false},{"line":11,"station_id":"GST","time":1,"transit":false,"station_name":"Gang Sentiong","i_lat":-6.185975,"is_transit":false,"i_long":106.850107,"distance":973},{"transit":false,"line":11,"time":8,"station_name":"Pasar Senen","station_id":"PSE","i_lat":-6.174784,"is_transit":false,"i_long":106.84368,"distance":1567},{"station_name":"Kemayoran","line":11,"i_lat":-6.161728,"time":4,"distance":1436,"i_long":106.839204,"transit":false,"station_id":"KMO","is_transit":false},{"i_long":106.836569,"station_name":"Rajawali","time":5,"i_lat":-6.14505,"line":11,"is_transit":false,"transit":false,"station_id":"RJW","distance":1901},{"distance":1444,"station_name":"Kampung Bandan","is_transit":true,"i_lat":-6.132549,"time":3,"i_long":106.826365,"transit":true,"station_id":"KPB","line":4},{"station_name":"Angke","transit":false,"i_lat":-6.144674,"station_id":"AK","time":9,"distance":4102,"line":1,"is_transit":false,"i_long":106.79867},{"station_id":"DU","i_lat":-6.155215,"transit":false,"line":1,"is_transit":false,"distance":1230,"time":4,"station_name":"Duri","i_long":106.800832},{"i_long":106.811091,"station_name":"Tanah Abang","i_lat":-6.185545,"is_transit":false,"transit":false,"station_id":"THB","line":1,"distance":3632,"time":8},{"transit":false,"is_transit":false,"i_lat":-6.20132,"i_long":106.816351,"time":5,"station_name":"Karet","line":1,"station_id":"KAT","distance":2029},{"line":1,"transit":false,"is_transit":false,"time":1,"i_lat":-6.201433,"station_name":"Sudirman Baru","station_id":"SUDB","i_long":106.819881,"distance":471},{"i_long":106.822649,"station_name":"Sudirman","is_transit":false,"transit":false,"time":1,"distance":280,"i_lat":-6.202263,"station_id":"SUD","line":1},{"i_lat":-6.209883,"distance":3186,"station_id":"MRI","line":2,"time":4,"is_transit":true,"i_long":106.84912,"station_name":"Manggarai","transit":true},{"station_name":"Cikini","is_transit":false,"station_id":"CKI","distance":1590,"i_long":106.840169,"line":2,"time":4,"transit":false,"i_lat":-6.198556},{"station_id":"GDD","is_transit":false,"station_name":"Gondangdia","time":3,"i_long":106.832183,"distance":1750,"transit":false,"i_lat":-6.186295,"line":2}]]}