{"data":[[{"line":1,"distance":0,"station_id":"JNG","station_name":"Jatinegara","time":0,"transit":false,"i_lat":-6.215091,"i_long":106.86807400000001,"is_transit":false},{"time":2,"station_id":"MTR","is_transit":false,"station_name":"Matraman","line":1,"i_lat":-6.212485,"i_long":106.858896,"distance":1377,"transit":false},{"is_transit":false,"station_id":"MRI","i_lat":-6.209883,"line":2,"station_name":"Manggarai","i_long":106.84912,"time":2,"distance":1275,"transit":false},{"transit":false,"i_long":106.822649,"i_lat":-6.202263,"distance":3186,"time":4,"station_id":"SUD","station_name":"Sudirman","is_transit":false,"line":1},{"distance":280,"i_lat":-6.201433,"i_long":106.819881,"transit":false,"station_id":"SUDB","is_transit":false,"time":1,"line":1,"station_name":"Sudirman Baru"},{"distance":471,"transit":false,"line":1,"i_lat":-6.20132,"station_id":"KAT","time":1,"station_name":"Karet","is_transit":false,"i_long":106.816351},{"is_transit":false,"distance":2029,"i_lat":-6.185545,"i_long":106.811091,"line":1,"transit":false,"time":5,"station_id":"THB","station_name":"Tanah Abang"},{"station_name":"Duri","transit":true,"station_id":"DU","time":8,"is_transit":true,"i_long":106.800832,"line":1,"i_lat":-6.155215,"distance":3632},{"is_transit":false,"line":5,"transit":false,"time":3,"i_long":106.788277,"station_id":"GGL","i_lat":-6.162021,"distance":1700,"station_name":"Grogol"},{"i_long":106.771379,"is_transit":false,"line":5,"transit":false,"station_id":"PSG","distance":2036,"time":2,"i_lat":-6.161433,"station_name":"Pesing"},{"time":2,"station_id":"TKO","transit":false,"line":5,"station_name":"Taman Kota","is_transit":false,"i_long":106.756522,"distance":1614,"i_lat":-6.1587309999999995},{"distance":2334,"transit":false,"station_id":"BOI","time":2,"i_long":106.737035,"line":5,"station_name":"Bojongindah","i_lat":-6.159876,"is_transit":false},{"line":5,"transit":false,"station_id":"RW","station_name":"Rawa Buaya","distance":1152,"time":4,"is_transit":false,"i_lat":-6.162758,"i_long":106.723064},{"is_transit":false,"i_lat":-6.166068,"i_long":106.701612,"station_name":"Kalideres","time":3,"distance":2504,"transit":false,"station_id":"KDS","line":5},{"i_long":106.679458,"distance":2548,"time":3,"line":5,"transit":false,"is_transit":false,"station_id":"PI","i_lat":-6.169933,"station_name":"Poris"},{"station_name":"Batuceper","distance":1834,"i_lat":-6.171811,"line":5,"is_transit":false,"time":3,"station_id":"BPR","i_long":106.665036,"transit":false}],[{"line":1,"time":0,"i_lat":-6.215091,"station_name":"Jatinegara","distance":0,"transit":false,"station_id":"JNG","i_long":106.86807400000001,"is_transit":false},{"is_transit":false,"line":11,"station_id":"POK","i_long":106.861737,"distance":1236,"transit":false,"station_name":"Pondok Jati","time":2,"i_lat":-6.209188},{"station_name":"Kramat","time":2,"station_id":"KMT","distance":1829,"i_long":106.855437,"line":11,"i_lat":-6.193792,"transit":false,"is_transit":false},{"time":1,"transit":false,"distance":973,"i_lat":-6.185975,"line":11,"i_long":106.850107,"station_id":"GST","station_name":"Gang Sentiong","is_transit":false},{"i_lat":-6.174784,"transit":false,"is_transit":false,"station_name":"Pasar Senen","i_long":106.84368,"line":11,"station_id":"PSE","time":8,"distance":1567},{"i_lat":-6.161728,"i_long":106.839204,"line":11,"distance":1436,"station_id":"KMO","is_transit":false,"time":4,"transit":false,"station_name":"Kemayoran"},{"distance":1901,"time":5,"i_long":106.836569,"transit":false,"is_transit":false,"station_id":"RJW","line":11,"station_name":"Rajawali","i_lat":-6.14505},{"i_long":106.826365,"transit":true,"station_id":"KPB","is_transit":true,"i_lat":-6.132549,"time":3,"line":4,"distance":1444,"station_name":"Kampung Bandan"},{"time":9,"distance":4102,"transit":false,"is_transit":false,"line":1,"station_name":"Angke","i_long":106.79867,"i_lat":-6.144674,"station_id":"AK"},{"line":1,"station_name":"Duri","i_lat":-6.155215,"i_long":106.800832,"distance":1230,"is_transit":true,"station_id":"DU","time":4,"transit":true},{"station_name":"Grogol","station_id":"GGL","time":3,"line":5,"transit":false,"i_long":106.788277,"distance":1700,"is_transit":false,"i_lat":-6.162021},{"i_long":106.771379,"transit":false,"station_name":"Pesing","is_transit":false,"distance":2036,"line":5,"station_id":"PSG","time":2,"i_lat":-6.161433},{"time":2,"line":5,"transit":false,"station_id":"TKO","is_transit":false,"i_lat":-6.1587309999999995,"i_long":106.756522,"station_name":"Taman Kota","distance":1614},{"is_transit":false,"line":5,"station_id":"BOI","time":2,"i_lat":-6.159876,"i_long":106.737035,"station_name":"Bojongindah","transit":false,"distance":2334},{"i_lat":-6.162758,"line":5,"transit":false,"i_long":106.723064,"time":4,"station_id":"RW","is_transit":false,"distance":1152,"station_name":"Rawa Buaya"},{"station_name":"Kalideres","station_id":"KDS","i_long":106.701612,"is_transit":false,"distance":2504,"time":3,"line":5,"i_lat":-6.166068,"transit":false},{"line":5,"distance":2548,"transit":false,"time":3,"i_lat":-6.169933,"i_long":106.679458,"station_name":"Poris","station_id":"PI","is_transit":false},{"station_name":"Batuceper","station_id":"BPR","transit":false,"is_transit":false,"distance":1834,"i_lat":-6.171811,"i_long":106.665036,"time":3,"line":5}],[{"transit":false,"distance":0,"time":0,"is_transit":false,"station_id":"JNG","i_lat":-6.215091,"line":1,"station_name":"Jatinegara","i_long":106.86807400000001},{"i_long":106.858896,"transit":false,"i_lat":-6.212485,"station_name":"Matraman","station_id":"MTR","time":2,"distance":1377,"is_transit":false,"line":1},{"transit":true,"i_lat":-6.209883,"station_id":"MRI","time":2,"is_transit":true,"i_long":106.84912,"distance":1275,"station_name":"Manggarai","line":2},{"i_long":106.840169,"station_name":"Cikini","is_transit":false,"transit":false,"station_id":"CKI","time":4,"i_lat":-6.198556,"line":2,"distance":1590},{"transit":false,"station_id":"GDD","line":2,"distance":1750,"station_name":"Gondangdia","i_lat":-6.186295,"i_long":106.832183,"is_transit":false,"time":3},{"i_lat":-6.166716,"distance":2015,"i_long":106.828284,"station_id":"JUA","line":2,"transit":false,"is_transit":false,"station_name":"Juanda","time":4},{"is_transit":false,"line":2,"station_name":"Sawah Besar","i_long":106.827103,"distance":1149,"station_id":"SW","i_lat":-6.160725,"transit":false,"time":2},{"line":2,"transit":false,"i_lat":-6.149769,"station_name":"Manggabesar","station_id":"MGB","is_transit":false,"i_long":106.82482,"distance":906,"time":2},{"transit":false,"distance":1080,"line":2,"time":2,"station_name":"Jayakarta","is_transit":false,"i_lat":-6.141205,"station_id":"JAY","i_long":106.820901},{"time":4,"station_id":"JAKK","distance":1264,"transit":true,"i_long":106.812439,"line":2,"i_lat":-6.137569,"is_transit":true,"station_name":"Jakarta Kota"},{"i_long":106.826365,"line":4,"distance":1364,"transit":true,"is_transit":true,"time":3,"i_lat":-6.132549,"station_name":"Kampung Bandan","station_id":"KPB"},{"line":1,"i_long":106.79867,"transit":false,"distance":4102,"station_name":"Angke","is_transit":false,"time":9,"station_id":"AK","i_lat":-6.144674},{"station_id":"DU","distance":1230,"transit":true,"is_transit":true,"station_name":"Duri","time":4,"i_long":106.800832,"line":1,"i_lat":-6.155215},{"station_id":"GGL","i_lat":-6.162021,"i_long":106.788277,"transit":false,"is_transit":false,"line":5,"time":3,"distance":1700,"station_name":"Grogol"},{"station_name":"Pesing","i_lat":-6.161433,"station_id":"PSG","i_long":106.771379,"transit":false,"is_transit":false,"time":2,"line":5,"distance":2036},{"time":2,"is_transit":false,"distance":1614,"transit":false,"station_name":"Taman Kota","station_id":"TKO","i_lat":-6.1587309999999995,"i_long":106.756522,"line":5},{"is_transit":false,"line":5,"distance":2334,"station_name":"Bojongindah","transit":false,"i_long":106.737035,"time":2,"station_id":"BOI","i_lat":-6.159876},{"i_lat":-6.162758,"distance":1152,"transit":false,"station_id":"RW","station_name":"Rawa Buaya","is_transit":false,"i_long":106.723064,"time":4,"line":5},{"i_long":106.701612,"line":5,"station_name":"Kalideres","station_id":"KDS","is_transit":false,"distance":2504,"transit":false,"time":3,"i_lat":-6.166068},{"transit":false,"station_id":"PI","distance":2548,"station_name":"Poris","is_transit":false,"i_lat":-6.169933,"time":3,"line":5,"i_long":106.679458},{"station_name":"Batuceper","time":3,"transit":false,"i_lat":-6.171811,"distance":1834,"is_transit":false,"i_long":106.665036,"station_id":"BPR","line":5}],[{"station_id":"JNG","i_lat":-6.215091,"is_transit":false,"i_long":106.86807400000001,"transit":false,"line":1,"station_name":"Jatinegara","distance":0,"time":0},{"i_long":106.861737,"line":11,"time":2,"station_name":"Pondok Jati","transit":false,"station_id":"POK","i_lat":-6.209188,"distance":1236,"is_transit":false},{"station_name":"Kramat","i_long":106.855437,"line":11,"station_id":"KMT","time":2,"transit":false,"i_lat":-6.193792,"distance":1829,"is_transit":false},{"transit":false,"station_name":"Gang Sentiong","station_id":"GST","is_transit":false,"i_lat":-6.185975,"distance":973,"line":11,"time":1,"i_long":106.850107},{"i_long":106.84368,"i_lat":-6.174784,"distance":1567,"station_name":"Pasar Senen","time":8,"line":11,"transit":false,"is_transit":false,"station_id":"PSE"},{"distance":1436,"station_id":"KMO","is_transit":false,"time":4,"transit":false,"i_lat":-6.161728,"line":11,"station_name":"Kemayoran","i_long":106.839204},{"i_long":106.836569,"station_name":"Rajawali","transit":false,"time":5,"distance":1901,"i_lat":-6.14505,"station_id":"RJW","line":11,"is_transit":false},{"station_name":"Kampung Bandan","time":3,"i_lat":-6.132549,"distance":1444,"is_transit":true,"i_long":106.826365,"station_id":"KPB","line":4,"transit":true},{"time":3,"i_long":106.812439,"i_lat":-6.137569,"station_name":"Jakarta Kota","station_id":"JAKK","transit":true,"distance":1364,"line":2,"is_transit":true},{"distance":1264,"station_id":"JAY","line":2,"is_transit":false,"time":4,"i_lat":-6.141205,"transit":false,"i_long":106.820901,"station_name":"Jayakarta"},{"distance":1080,"transit":false,"station_name":"Manggabesar","time":2,"station_id":"MGB","i_lat":-6.149769,"line":2,"is_transit":false,"i_long":106.82482},{"time":2,"is_transit":false,"station_name":"Sawah Besar","i_long":106.827103,"line":2,"distance":906,"station_id":"SW","transit":false,"i_lat":-6.160725},{"station_name":"Juanda","distance":1149,"time":2,"line":2,"i_long":106.828284,"transit":false,"i_lat":-6.166716,"station_id":"JUA","is_transit":false},{"i_lat":-6.186295,"station_name":"Gondangdia","i_long":106.832183,"distance":2015,"is_transit":false,"transit":false,"station_id":"GDD","time":4,"line":2},{"i_long":106.840169,"transit":false,"line":2,"i_lat":-6.198556,"station_id":"CKI","time":3,"distance":1750,"station_name":"Cikini","is_transit":false},{"time":4,"station_id":"MRI","line":2,"station_name":"Manggarai","i_long":106.84912,"i_lat":-6.209883,"transit":true,"is_transit":true,"distance":1590},{"station_name":"Sudirman","line":1,"transit":false,"is_transit":false,"i_long":106.822649,"station_id":"SUD","distance":3186,"time":4,"i_lat":-6.202263},{"line":1,"time":1,"distance":280,"station_name":"Sudirman Baru","transit":false,"is_transit":false,"i_lat":-6.201433,"station_id":"SUDB","i_long":106.819881},{"is_transit":false,"transit":false,"distance":471,"station_id":"KAT","station_name":"Karet","time":1,"i_long":106.816351,"line":1,"i_lat":-6.20132},{"transit":false,"station_id":"THB","station_name":"Tanah Abang","distance":2029,"is_transit":false,"i_long":106.811091,"line":1,"i_lat":-6.185545,"time":5},{"i_long":106.800832,"transit":true,"line":1,"station_name":"Duri","time":8,"station_id":"DU","distance":3632,"is_transit":true,"i_lat":-6.155215},{"time":3,"transit":false,"station_name":"Grogol","i_lat":-6.162021,"i_long":106.788277,"station_id":"GGL","line":5,"is_transit":false,"distance":1700},{"i_lat":-6.161433,"i_long":106.771379,"station_name":"Pesing","is_transit":false,"station_id":"PSG","time":2,"line":5,"distance":2036,"transit":false},{"i_lat":-6.1587309999999995,"time":2,"transit":false,"is_transit":false,"distance":1614,"i_long":106.756522,"station_id":"TKO","line":5,"station_name":"Taman Kota"},{"i_lat":-6.159876,"transit":false,"i_long":106.737035,"is_transit":false,"station_id":"BOI","station_name":"Bojongindah","distance":2334,"line":5,"time":2},{"distance":1152,"transit":false,"time":4,"i_long":106.723064,"line":5,"is_transit":false,"station_id":"RW","i_lat":-6.162758,"station_name":"Rawa Buaya"},{"i_lat":-6.166068,"transit":false,"is_transit":false,"i_long":106.701612,"station_name":"Kalideres","time":3,"distance":2504,"station_id":"KDS","line":5},{"line":5,"station_name":"Poris","i_lat":-6.169933,"transit":false,"time":3,"is_transit":false,"i_long":106.679458,"distance":2548,"station_id":"PI"},{"distance":1834,"time":3,"station_id":"BPR","station_name":"Batuceper","transit":false,"is_transit":false,"i_long":106.665036,"line":5,"i_lat":-6.171811}]]}