{"data":[[{"i_long":106.86807400000001,"distance":0,"station_id":"JNG","station_name":"Jatinegara","is_transit":true,"time":0,"line":0,"transit":false,"i_lat":-6.215091},{"distance":1377,"station_id":"MTR","transit":false,"time":2,"i_lat":-6.212485,"i_long":106.858896,"line":1,"station_name":"Matraman","is_transit":false},{"time":2,"distance":1275,"i_lat":-6.209883,"transit":false,"station_id":"MRI","station_name":"Manggarai","is_transit":true,"i_long":106.84912,"line":0},{"time":4,"station_name":"Sudirman","i_long":106.822649,"station_id":"SUD","is_transit":false,"line":1,"i_lat":-6.202263,"transit":false,"distance":3186},{"transit":false,"is_transit":false,"time":1,"line":1,"i_long":106.819881,"i_lat":-6.201433,"station_id":"SUDB","station_name":"Sudirman Baru","distance":280},{"distance":471,"i_lat":-6.20132,"station_name":"Karet","transit":false,"line":1,"time":1,"station_id":"KAT","i_long":106.816351,"is_transit":false},{"station_name":"Tanah Abang","distance":2029,"is_transit":true,"i_lat":-6.185545,"line":1,"time":5,"transit":false,"i_long":106.811091,"station_id":"THB"},{"line":1,"is_transit":true,"transit":true,"i_long":106.800832,"time":8,"station_id":"DU","station_name":"Duri","distance":3632,"i_lat":-6.155215},{"line":5,"time":3,"distance":1700,"transit":false,"i_lat":-6.162021,"i_long":106.788277,"station_name":"Grogol","station_id":"GGL","is_transit":false},{"time":2,"is_transit":false,"transit":false,"station_name":"Pesing","distance":2036,"i_lat":-6.161433,"station_id":"PSG","line":5,"i_long":106.771379},{"i_long":106.756522,"line":5,"i_lat":-6.1587309999999995,"time":2,"transit":false,"station_name":"Taman Kota","is_transit":false,"station_id":"TKO","distance":1614},{"is_transit":false,"transit":false,"i_lat":-6.159876,"line":0,"station_name":"Bojongindah","time":2,"i_long":106.737035,"distance":2334,"station_id":"BOI"},{"station_name":"Rawa Buaya","is_transit":false,"i_long":106.723064,"time":4,"transit":false,"i_lat":-6.162758,"line":5,"distance":1152,"station_id":"RW"},{"i_lat":-6.166068,"station_name":"Kalideres","line":5,"transit":false,"i_long":106.701612,"station_id":"KDS","is_transit":false,"distance":2504,"time":3},{"station_id":"PI","line":5,"i_lat":-6.169933,"time":3,"i_long":106.679458,"transit":false,"station_name":"Poris","is_transit":false,"distance":2548},{"station_name":"Batuceper","is_transit":false,"distance":1834,"station_id":"BPR","transit":false,"line":0,"i_lat":-6.171811,"time":3,"i_long":106.665036}],[{"transit":false,"line":0,"station_id":"JNG","time":0,"i_lat":-6.215091,"is_transit":true,"i_long":106.86807400000001,"station_name":"Jatinegara","distance":0},{"time":2,"line":11,"transit":false,"station_id":"POK","is_transit":false,"distance":1236,"i_lat":-6.209188,"i_long":106.861737,"station_name":"Pondok Jati"},{"time":2,"station_name":"Kramat","distance":1829,"i_lat":-6.193792,"transit":false,"is_transit":false,"i_long":106.855437,"line":11,"station_id":"KMT"},{"i_long":106.850107,"line":11,"station_id":"GST","distance":973,"time":1,"is_transit":false,"transit":false,"i_lat":-6.185975,"station_name":"Gang Sentiong"},{"transit":false,"station_name":"Pasar Senen","time":8,"i_lat":-6.174784,"station_id":"PSE","is_transit":false,"i_long":106.84368,"line":11,"distance":1567},{"station_id":"KMO","is_transit":false,"i_lat":-6.161728,"time":4,"distance":1436,"transit":false,"i_long":106.839204,"station_name":"Kemayoran","line":11},{"line":11,"i_lat":-6.14505,"station_name":"Rajawali","time":5,"station_id":"RJW","transit":false,"is_transit":false,"distance":1901,"i_long":106.836569},{"distance":1444,"station_name":"Kampung Bandan","transit":true,"station_id":"KPB","i_long":106.826365,"i_lat":-6.132549,"time":3,"is_transit":true,"line":0},{"station_name":"Angke","station_id":"AK","time":9,"transit":false,"i_lat":-6.144674,"i_long":106.79867,"line":0,"is_transit":false,"distance":4102},{"distance":1230,"line":1,"i_long":106.800832,"station_name":"Duri","station_id":"DU","is_transit":true,"time":4,"transit":true,"i_lat":-6.155215},{"station_name":"Grogol","transit":false,"is_transit":false,"i_long":106.788277,"line":5,"time":3,"i_lat":-6.162021,"distance":1700,"station_id":"GGL"},{"transit":false,"i_long":106.771379,"time":2,"line":5,"station_name":"Pesing","i_lat":-6.161433,"station_id":"PSG","is_transit":false,"distance":2036},{"station_name":"Taman Kota","station_id":"TKO","i_long":106.756522,"time":2,"distance":1614,"line":5,"i_lat":-6.1587309999999995,"transit":false,"is_transit":false},{"time":2,"station_id":"BOI","is_transit":false,"transit":false,"station_name":"Bojongindah","i_long":106.737035,"distance":2334,"i_lat":-6.159876,"line":0},{"distance":1152,"station_id":"RW","station_name":"Rawa Buaya","i_lat":-6.162758,"i_long":106.723064,"time":4,"transit":false,"line":5,"is_transit":false},{"i_lat":-6.166068,"time":3,"distance":2504,"i_long":106.701612,"station_id":"KDS","station_name":"Kalideres","line":5,"transit":false,"is_transit":false},{"station_name":"Poris","i_lat":-6.169933,"i_long":106.679458,"is_transit":false,"line":5,"distance":2548,"time":3,"transit":false,"station_id":"PI"},{"distance":1834,"station_name":"Batuceper","transit":false,"i_long":106.665036,"station_id":"BPR","is_transit":false,"time":3,"i_lat":-6.171811,"line":0}],[{"line":0,"transit":false,"distance":0,"i_lat":-6.215091,"station_id":"JNG","i_long":106.86807400000001,"is_transit":true,"time":0,"station_name":"Jatinegara"},{"i_lat":-6.212485,"time":2,"transit":false,"line":1,"i_long":106.858896,"is_transit":false,"distance":1377,"station_name":"Matraman","station_id":"MTR"},{"i_long":106.84912,"line":0,"distance":1275,"station_name":"Manggarai","station_id":"MRI","transit":true,"time":2,"i_lat":-6.209883,"is_transit":true},{"is_transit":false,"station_id":"CKI","transit":false,"station_name":"Cikini","time":4,"distance":1590,"i_lat":-6.198556,"line":0,"i_long":106.840169},{"line":2,"is_transit":false,"transit":false,"i_lat":-6.186295,"i_long":106.832183,"station_name":"Gondangdia","time":3,"distance":1750,"station_id":"GDD"},{"i_long":106.828284,"time":4,"distance":2015,"station_id":"JUA","transit":false,"is_transit":false,"i_lat":-6.166716,"line":2,"station_name":"Juanda"},{"time":2,"i_long":106.827103,"distance":1149,"transit":false,"station_name":"Sawah Besar","station_id":"SW","is_transit":false,"i_lat":-6.160725,"line":2},{"transit":false,"i_lat":-6.149769,"i_long":106.82482,"time":2,"station_id":"MGB","is_transit":false,"line":2,"station_name":"Manggabesar","distance":906},{"station_id":"JAY","i_lat":-6.141205,"station_name":"Jayakarta","i_long":106.820901,"transit":false,"line":7,"distance":1080,"is_transit":false,"time":2},{"time":4,"i_long":106.812439,"station_id":"JAKK","is_transit":true,"distance":1264,"i_lat":-6.137569,"transit":true,"line":0,"station_name":"Jakarta Kota"},{"i_lat":-6.132549,"time":3,"line":0,"station_id":"KPB","station_name":"Kampung Bandan","transit":false,"distance":1364,"is_transit":true,"i_long":106.826365},{"is_transit":false,"station_name":"Angke","i_lat":-6.144674,"time":9,"distance":4102,"i_long":106.79867,"line":0,"transit":false,"station_id":"AK"},{"station_name":"Duri","i_lat":-6.155215,"transit":true,"distance":1230,"time":4,"is_transit":true,"i_long":106.800832,"line":1,"station_id":"DU"},{"time":3,"is_transit":false,"i_long":106.788277,"station_name":"Grogol","transit":false,"i_lat":-6.162021,"line":5,"station_id":"GGL","distance":1700},{"station_name":"Pesing","station_id":"PSG","time":2,"distance":2036,"transit":false,"i_lat":-6.161433,"line":5,"i_long":106.771379,"is_transit":false},{"station_name":"Taman Kota","i_lat":-6.1587309999999995,"is_transit":false,"line":5,"distance":1614,"station_id":"TKO","time":2,"transit":false,"i_long":106.756522},{"is_transit":false,"i_lat":-6.159876,"transit":false,"distance":2334,"i_long":106.737035,"line":0,"station_id":"BOI","station_name":"Bojongindah","time":2},{"is_transit":false,"station_id":"RW","distance":1152,"time":4,"transit":false,"i_lat":-6.162758,"i_long":106.723064,"line":5,"station_name":"Rawa Buaya"},{"transit":false,"line":5,"station_id":"KDS","i_long":106.701612,"i_lat":-6.166068,"station_name":"Kalideres","distance":2504,"time":3,"is_transit":false},{"time":3,"i_lat":-6.169933,"distance":2548,"line":5,"transit":false,"station_name":"Poris","i_long":106.679458,"is_transit":false,"station_id":"PI"},{"station_id":"BPR","i_lat":-6.171811,"i_long":106.665036,"time":3,"transit":false,"station_name":"Batuceper","is_transit":false,"distance":1834,"line":0}],[{"station_id":"JNG","distance":0,"transit":false,"i_lat":-6.215091,"line":0,"station_name":"Jatinegara","time":0,"i_long":106.86807400000001,"is_transit":true},{"is_transit":false,"time":2,"distance":1236,"transit":false,"line":11,"i_lat":-6.209188,"i_long":106.861737,"station_id":"POK","station_name":"Pondok Jati"},{"is_transit":false,"i_long":106.855437,"station_name":"Kramat","time":2,"distance":1829,"transit":false,"i_lat":-6.193792,"line":11,"station_id":"KMT"},{"transit":false,"distance":973,"is_transit":false,"i_long":106.850107,"line":11,"station_name":"Gang Sentiong","station_id":"GST","time":1,"i_lat":-6.185975},{"transit":false,"station_id":"PSE","station_name":"Pasar Senen","distance":1567,"i_long":106.84368,"is_transit":false,"line":11,"i_lat":-6.174784,"time":8},{"transit":false,"is_transit":false,"time":4,"i_long":106.839204,"station_name":"Kemayoran","station_id":"KMO","distance":1436,"line":11,"i_lat":-6.161728},{"station_name":"Rajawali","distance":1901,"is_transit":false,"station_id":"RJW","line":11,"i_lat":-6.14505,"transit":false,"time":5,"i_long":106.836569},{"is_transit":true,"line":0,"time":3,"transit":true,"i_lat":-6.132549,"station_id":"KPB","station_name":"Kampung Bandan","distance":1444,"i_long":106.826365},{"station_id":"JAKK","is_transit":true,"i_lat":-6.137569,"i_long":106.812439,"distance":1364,"line":0,"station_name":"Jakarta Kota","transit":true,"time":3},{"is_transit":false,"i_long":106.820901,"time":4,"station_name":"Jayakarta","i_lat":-6.141205,"distance":1264,"line":7,"transit":false,"station_id":"JAY"},{"time":2,"is_transit":false,"i_long":106.82482,"station_name":"Manggabesar","transit":false,"i_lat":-6.149769,"distance":1080,"line":2,"station_id":"MGB"},{"is_transit":false,"i_lat":-6.160725,"station_id":"SW","station_name":"Sawah Besar","time":2,"distance":906,"transit":false,"i_long":106.827103,"line":2},{"is_transit":false,"time":2,"line":2,"i_long":106.828284,"transit":false,"station_id":"JUA","i_lat":-6.166716,"distance":1149,"station_name":"Juanda"},{"station_id":"GDD","i_lat":-6.186295,"distance":2015,"i_long":106.832183,"is_transit":false,"station_name":"Gondangdia","transit":false,"line":2,"time":4},{"station_id":"CKI","transit":false,"is_transit":false,"i_long":106.840169,"distance":1750,"station_name":"Cikini","i_lat":-6.198556,"time":3,"line":0},{"distance":1590,"i_lat":-6.209883,"is_transit":true,"i_long":106.84912,"station_name":"Manggarai","line":0,"station_id":"MRI","transit":true,"time":4},{"station_name":"Sudirman","transit":false,"time":4,"station_id":"SUD","i_lat":-6.202263,"line":1,"is_transit":false,"i_long":106.822649,"distance":3186},{"line":1,"i_lat":-6.201433,"station_id":"SUDB","station_name":"Sudirman Baru","is_transit":false,"time":1,"transit":false,"i_long":106.819881,"distance":280},{"is_transit":false,"time":1,"station_name":"Karet","line":1,"station_id":"KAT","i_long":106.816351,"transit":false,"distance":471,"i_lat":-6.20132},{"station_name":"Tanah Abang","time":5,"station_id":"THB","i_lat":-6.185545,"distance":2029,"is_transit":true,"i_long":106.811091,"line":1,"transit":false},{"is_transit":true,"line":1,"station_id":"DU","distance":3632,"i_long":106.800832,"transit":true,"station_name":"Duri","time":8,"i_lat":-6.155215},{"time":3,"station_id":"GGL","distance":1700,"i_lat":-6.162021,"i_long":106.788277,"line":5,"is_transit":false,"station_name":"Grogol","transit":false},{"station_id":"PSG","time":2,"distance":2036,"transit":false,"i_long":106.771379,"is_transit":false,"i_lat":-6.161433,"station_name":"Pesing","line":5},{"i_long":106.756522,"station_id":"TKO","transit":false,"station_name":"Taman Kota","line":5,"is_transit":false,"time":2,"distance":1614,"i_lat":-6.1587309999999995},{"time":2,"station_name":"Bojongindah","i_lat":-6.159876,"i_long":106.737035,"line":0,"station_id":"BOI","is_transit":false,"distance":2334,"transit":false},{"line":5,"i_long":106.723064,"time":4,"station_id":"RW","is_transit":false,"station_name":"Rawa Buaya","distance":1152,"transit":false,"i_lat":-6.162758},{"time":3,"i_lat":-6.166068,"i_long":106.701612,"station_name":"Kalideres","is_transit":false,"line":5,"distance":2504,"station_id":"KDS","transit":false},{"distance":2548,"is_transit":false,"station_id":"PI","station_name":"Poris","transit":false,"i_long":106.679458,"line":5,"time":3,"i_lat":-6.169933},{"transit":false,"station_id":"BPR","time":3,"i_long":106.665036,"distance":1834,"line":0,"station_name":"Batuceper","i_lat":-6.171811,"is_transit":false}]]}