{"data":[[{"line":1,"i_long":106.86807400000001,"transit":false,"distance":0,"is_transit":false,"time":0,"station_id":"JNG","i_lat":-6.215091,"station_name":"Jatinegara"},{"distance":1377,"line":1,"time":2,"i_lat":-6.212485,"station_name":"Matraman","transit":false,"i_long":106.858896,"station_id":"MTR","is_transit":false},{"distance":1275,"time":2,"station_id":"MRI","i_long":106.84912,"transit":true,"i_lat":-6.209883,"line":2,"station_name":"Manggarai","is_transit":true},{"line":2,"distance":2610,"time":4,"station_name":"Tebet","i_long":106.857948,"is_transit":false,"i_lat":-6.226659,"station_id":"TEB","transit":false},{"transit":false,"line":2,"i_lat":-6.242512,"i_long":106.856607,"time":2,"distance":1230,"station_name":"Cawang","station_id":"CW","is_transit":false},{"distance":1546,"is_transit":false,"station_id":"DRN","station_name":"Duren Kalibata","i_lat":-6.255332,"i_long":106.85449,"time":3,"line":2,"transit":false},{"station_id":"PSMB","is_transit":false,"time":2,"station_name":"Pasar Minggu Baru","i_lat":-6.263214,"i_long":106.851577,"distance":824,"line":2,"transit":false},{"station_id":"PSM","is_transit":false,"i_lat":-6.2842400000000005,"i_long":106.843999,"time":2,"transit":false,"line":2,"distance":2380,"station_name":"Pasar Minggu"},{"is_transit":false,"station_id":"TNT","transit":false,"i_lat":-6.3080680000000005,"line":2,"station_name":"Tanjung Barat","i_long":106.838896,"distance":2820,"time":4},{"time":3,"i_long":106.832616,"distance":2671,"station_name":"Lenteng Agung","is_transit":false,"station_id":"LNA","line":2,"transit":false,"i_lat":-6.330363},{"station_name":"Univ. Pancasila","is_transit":false,"time":2,"transit":false,"distance":1029,"i_long":106.834175,"i_lat":-6.339291,"line":2,"station_id":"UP"},{"station_name":"Univ. Indonesia","station_id":"UI","transit":false,"line":2,"i_long":106.831474,"i_lat":-6.360749,"time":3,"distance":2264,"is_transit":false},{"station_name":"Pondok Cina","is_transit":false,"transit":false,"station_id":"POC","time":2,"i_lat":-6.369073,"distance":1109,"i_long":106.831114,"line":2},{"line":2,"station_id":"DPB","time":4,"distance":2727,"station_name":"Depokbaru","i_lat":-6.391065,"i_long":106.819451,"is_transit":false,"transit":false},{"transit":false,"station_id":"DP","i_lat":-6.405256,"i_long":106.816926,"time":3,"distance":1584,"is_transit":false,"line":2,"station_name":"Depok"},{"time":6,"distance":5084,"transit":true,"station_name":"Citayam","station_id":"CTA","is_transit":true,"line":2,"i_long":106.800298,"i_lat":-6.448811},{"time":0,"line":21,"station_id":"PDRG","transit":false,"distance":0,"i_long":106.824374,"is_transit":false,"station_name":"Pondok Rajeg","i_lat":-6.460735}],[{"distance":0,"i_lat":-6.215091,"station_name":"Jatinegara","transit":false,"time":0,"is_transit":false,"i_long":106.86807400000001,"station_id":"JNG","line":1},{"line":11,"time":2,"station_id":"POK","is_transit":false,"transit":false,"i_lat":-6.209188,"i_long":106.861737,"station_name":"Pondok Jati","distance":1236},{"line":11,"station_id":"KMT","distance":1829,"is_transit":false,"transit":false,"time":2,"station_name":"Kramat","i_lat":-6.193792,"i_long":106.855437},{"time":1,"station_name":"Gang Sentiong","transit":false,"distance":973,"is_transit":false,"i_long":106.850107,"line":11,"station_id":"GST","i_lat":-6.185975},{"i_lat":-6.174784,"i_long":106.84368,"time":8,"line":11,"distance":1567,"is_transit":false,"station_name":"Pasar Senen","station_id":"PSE","transit":false},{"is_transit":false,"station_id":"KMO","line":11,"distance":1436,"time":4,"transit":false,"station_name":"Kemayoran","i_lat":-6.161728,"i_long":106.839204},{"i_long":106.836569,"station_name":"Rajawali","i_lat":-6.14505,"distance":1901,"transit":false,"time":5,"line":11,"is_transit":false,"station_id":"RJW"},{"distance":1444,"time":3,"transit":true,"i_lat":-6.132549,"line":4,"is_transit":true,"i_long":106.826365,"station_id":"KPB","station_name":"Kampung Bandan"},{"line":1,"distance":4102,"is_transit":false,"station_id":"AK","station_name":"Angke","i_long":106.79867,"i_lat":-6.144674,"transit":false,"time":9},{"time":4,"distance":1230,"is_transit":false,"transit":false,"station_id":"DU","i_long":106.800832,"i_lat":-6.155215,"line":1,"station_name":"Duri"},{"i_lat":-6.185545,"line":1,"distance":3632,"station_id":"THB","station_name":"Tanah Abang","time":8,"is_transit":false,"i_long":106.811091,"transit":false},{"i_lat":-6.20132,"distance":2029,"time":5,"station_name":"Karet","line":1,"station_id":"KAT","is_transit":false,"transit":false,"i_long":106.816351},{"station_id":"SUDB","is_transit":false,"i_lat":-6.201433,"time":1,"station_name":"Sudirman Baru","i_long":106.819881,"line":1,"transit":false,"distance":471},{"line":1,"time":1,"is_transit":false,"station_name":"Sudirman","transit":false,"distance":280,"station_id":"SUD","i_long":106.822649,"i_lat":-6.202263},{"distance":3186,"i_lat":-6.209883,"time":4,"station_id":"MRI","i_long":106.84912,"transit":true,"line":2,"is_transit":true,"station_name":"Manggarai"},{"i_long":106.857948,"station_id":"TEB","line":2,"is_transit":false,"transit":false,"time":4,"distance":2610,"station_name":"Tebet","i_lat":-6.226659},{"distance":1230,"station_name":"Cawang","i_long":106.856607,"i_lat":-6.242512,"line":2,"transit":false,"station_id":"CW","is_transit":false,"time":2},{"i_long":106.85449,"line":2,"station_id":"DRN","i_lat":-6.255332,"distance":1546,"is_transit":false,"station_name":"Duren Kalibata","time":3,"transit":false},{"i_long":106.851577,"distance":824,"time":2,"is_transit":false,"transit":false,"line":2,"i_lat":-6.263214,"station_name":"Pasar Minggu Baru","station_id":"PSMB"},{"distance":2380,"station_id":"PSM","station_name":"Pasar Minggu","i_long":106.843999,"is_transit":false,"line":2,"i_lat":-6.2842400000000005,"transit":false,"time":2},{"line":2,"i_lat":-6.3080680000000005,"i_long":106.838896,"station_id":"TNT","distance":2820,"transit":false,"is_transit":false,"station_name":"Tanjung Barat","time":4},{"i_long":106.832616,"line":2,"station_name":"Lenteng Agung","is_transit":false,"station_id":"LNA","time":3,"transit":false,"distance":2671,"i_lat":-6.330363},{"i_long":106.834175,"time":2,"distance":1029,"station_name":"Univ. Pancasila","i_lat":-6.339291,"line":2,"is_transit":false,"station_id":"UP","transit":false},{"station_id":"UI","transit":false,"i_long":106.831474,"time":3,"is_transit":false,"station_name":"Univ. Indonesia","i_lat":-6.360749,"distance":2264,"line":2},{"time":2,"distance":1109,"transit":false,"station_id":"POC","is_transit":false,"i_long":106.831114,"line":2,"i_lat":-6.369073,"station_name":"Pondok Cina"},{"station_name":"Depokbaru","i_long":106.819451,"distance":2727,"i_lat":-6.391065,"time":4,"station_id":"DPB","transit":false,"line":2,"is_transit":false},{"distance":1584,"line":2,"station_id":"DP","station_name":"Depok","i_lat":-6.405256,"time":3,"transit":false,"is_transit":false,"i_long":106.816926},{"station_id":"CTA","is_transit":true,"i_lat":-6.448811,"time":6,"distance":5084,"station_name":"Citayam","line":2,"i_long":106.800298,"transit":true},{"distance":0,"time":0,"station_id":"PDRG","line":21,"transit":false,"station_name":"Pondok Rajeg","i_lat":-6.460735,"is_transit":false,"i_long":106.824374}],[{"i_long":106.86807400000001,"i_lat":-6.215091,"station_id":"JNG","distance":0,"line":1,"time":0,"is_transit":false,"transit":false,"station_name":"Jatinegara"},{"station_id":"POK","time":2,"i_long":106.861737,"distance":1236,"i_lat":-6.209188,"transit":false,"is_transit":false,"station_name":"Pondok Jati","line":11},{"line":11,"i_long":106.855437,"station_name":"Kramat","transit":false,"station_id":"KMT","is_transit":false,"time":2,"i_lat":-6.193792,"distance":1829},{"transit":false,"i_long":106.850107,"line":11,"time":1,"distance":973,"is_transit":false,"station_name":"Gang Sentiong","i_lat":-6.185975,"station_id":"GST"},{"station_name":"Pasar Senen","station_id":"PSE","time":8,"distance":1567,"i_lat":-6.174784,"i_long":106.84368,"line":11,"is_transit":false,"transit":false},{"is_transit":false,"transit":false,"line":11,"i_lat":-6.161728,"i_long":106.839204,"time":4,"station_name":"Kemayoran","distance":1436,"station_id":"KMO"},{"station_id":"RJW","is_transit":false,"line":11,"i_long":106.836569,"transit":false,"distance":1901,"time":5,"station_name":"Rajawali","i_lat":-6.14505},{"station_id":"KPB","is_transit":true,"station_name":"Kampung Bandan","distance":1444,"i_long":106.826365,"i_lat":-6.132549,"line":4,"transit":true,"time":3},{"is_transit":true,"transit":true,"station_name":"Jakarta Kota","i_long":106.812439,"i_lat":-6.137569,"distance":1364,"line":2,"station_id":"JAKK","time":3},{"station_id":"JAY","line":2,"station_name":"Jayakarta","distance":1264,"time":4,"is_transit":false,"transit":false,"i_long":106.820901,"i_lat":-6.141205},{"distance":1080,"station_id":"MGB","is_transit":false,"i_lat":-6.149769,"line":2,"i_long":106.82482,"station_name":"Manggabesar","transit":false,"time":2},{"station_id":"SW","is_transit":false,"station_name":"Sawah Besar","transit":false,"i_lat":-6.160725,"i_long":106.827103,"line":2,"time":2,"distance":906},{"line":2,"is_transit":false,"station_name":"Juanda","time":2,"i_lat":-6.166716,"station_id":"JUA","transit":false,"i_long":106.828284,"distance":1149},{"line":2,"distance":2015,"station_name":"Gondangdia","transit":false,"i_lat":-6.186295,"time":4,"station_id":"GDD","is_transit":false,"i_long":106.832183},{"station_name":"Cikini","station_id":"CKI","transit":false,"time":3,"i_lat":-6.198556,"line":2,"i_long":106.840169,"distance":1750,"is_transit":false},{"transit":false,"is_transit":false,"distance":1590,"i_long":106.84912,"station_id":"MRI","i_lat":-6.209883,"station_name":"Manggarai","line":2,"time":4},{"station_name":"Tebet","station_id":"TEB","distance":2610,"i_long":106.857948,"line":2,"time":4,"is_transit":false,"transit":false,"i_lat":-6.226659},{"station_id":"CW","i_lat":-6.242512,"line":2,"i_long":106.856607,"station_name":"Cawang","time":2,"distance":1230,"transit":false,"is_transit":false},{"transit":false,"time":3,"is_transit":false,"i_lat":-6.255332,"i_long":106.85449,"line":2,"station_id":"DRN","distance":1546,"station_name":"Duren Kalibata"},{"station_id":"PSMB","i_lat":-6.263214,"line":2,"distance":824,"transit":false,"i_long":106.851577,"is_transit":false,"station_name":"Pasar Minggu Baru","time":2},{"station_id":"PSM","time":2,"line":2,"distance":2380,"i_lat":-6.2842400000000005,"transit":false,"is_transit":false,"station_name":"Pasar Minggu","i_long":106.843999},{"transit":false,"station_name":"Tanjung Barat","i_long":106.838896,"line":2,"distance":2820,"i_lat":-6.3080680000000005,"station_id":"TNT","time":4,"is_transit":false},{"station_name":"Lenteng Agung","transit":false,"time":3,"is_transit":false,"i_long":106.832616,"distance":2671,"i_lat":-6.330363,"station_id":"LNA","line":2},{"time":2,"station_id":"UP","transit":false,"i_lat":-6.339291,"station_name":"Univ. Pancasila","line":2,"is_transit":false,"i_long":106.834175,"distance":1029},{"station_id":"UI","station_name":"Univ. Indonesia","line":2,"distance":2264,"i_lat":-6.360749,"is_transit":false,"time":3,"transit":false,"i_long":106.831474},{"line":2,"i_long":106.831114,"is_transit":false,"station_name":"Pondok Cina","distance":1109,"time":2,"transit":false,"station_id":"POC","i_lat":-6.369073},{"i_lat":-6.391065,"line":2,"distance":2727,"time":4,"station_id":"DPB","is_transit":false,"station_name":"Depokbaru","transit":false,"i_long":106.819451},{"i_lat":-6.405256,"transit":false,"time":3,"station_id":"DP","is_transit":false,"line":2,"station_name":"Depok","distance":1584,"i_long":106.816926},{"is_transit":true,"distance":5084,"i_lat":-6.448811,"station_name":"Citayam","line":2,"i_long":106.800298,"time":6,"station_id":"CTA","transit":true},{"distance":0,"station_name":"Pondok Rajeg","transit":false,"line":21,"i_long":106.824374,"is_transit":false,"station_id":"PDRG","time":0,"i_lat":-6.460735}]]}