{"data":[[{"transit":false,"is_transit":false,"i_lat":-6.215091,"line":1,"time":0,"distance":0,"i_long":106.86807400000001,"station_name":"Jatinegara","station_id":"JNG"},{"station_id":"POK","transit":false,"i_lat":-6.209188,"is_transit":false,"time":2,"distance":1236,"i_long":106.861737,"line":11,"station_name":"Pondok Jati"}],[{"i_long":106.86807400000001,"distance":0,"transit":false,"is_transit":false,"station_name":"Jatinegara","station_id":"JNG","i_lat":-6.215091,"line":1,"time":0},{"line":1,"time":2,"i_long":106.858896,"station_name":"Matraman","transit":false,"is_transit":false,"i_lat":-6.212485,"station_id":"MTR","distance":1377},{"station_name":"Manggarai","line":2,"i_lat":-6.209883,"is_transit":false,"station_id":"MRI","transit":false,"distance":1275,"i_long":106.84912,"time":2},{"distance":3186,"line":1,"is_transit":false,"time":4,"station_id":"SUD","i_long":106.822649,"station_name":"Sudirman","transit":false,"i_lat":-6.202263},{"is_transit":false,"line":1,"station_name":"Sudirman Baru","distance":280,"i_long":106.819881,"station_id":"SUDB","i_lat":-6.201433,"transit":false,"time":1},{"line":1,"distance":471,"is_transit":false,"i_long":106.816351,"i_lat":-6.20132,"station_name":"Karet","station_id":"KAT","time":1,"transit":false},{"transit":false,"station_id":"THB","distance":2029,"is_transit":false,"time":5,"station_name":"Tanah Abang","i_lat":-6.185545,"i_long":106.811091,"line":1},{"line":1,"i_lat":-6.155215,"transit":false,"is_transit":false,"i_long":106.800832,"time":8,"distance":3632,"station_name":"Duri","station_id":"DU"},{"station_name":"Angke","is_transit":false,"time":4,"transit":false,"distance":1230,"station_id":"AK","line":1,"i_long":106.79867,"i_lat":-6.144674},{"is_transit":true,"transit":true,"line":4,"time":9,"station_name":"Kampung Bandan","i_long":106.826365,"i_lat":-6.132549,"distance":4102,"station_id":"KPB"},{"station_id":"RJW","distance":1444,"station_name":"Rajawali","transit":false,"time":3,"line":11,"is_transit":false,"i_long":106.836569,"i_lat":-6.14505},{"line":11,"transit":false,"station_name":"Kemayoran","i_long":106.839204,"distance":1901,"i_lat":-6.161728,"station_id":"KMO","is_transit":false,"time":5},{"station_id":"PSE","i_long":106.84368,"station_name":"Pasar Senen","is_transit":false,"time":4,"transit":false,"line":11,"distance":1436,"i_lat":-6.174784},{"line":11,"station_id":"GST","transit":false,"i_lat":-6.185975,"i_long":106.850107,"station_name":"Gang Sentiong","is_transit":false,"time":8,"distance":1567},{"time":1,"i_long":106.855437,"distance":973,"transit":false,"line":11,"station_id":"KMT","i_lat":-6.193792,"station_name":"Kramat","is_transit":false},{"i_long":106.861737,"distance":1829,"station_id":"POK","station_name":"Pondok Jati","is_transit":false,"i_lat":-6.209188,"transit":false,"time":2,"line":11}],[{"time":0,"station_name":"Jatinegara","is_transit":false,"i_lat":-6.215091,"transit":false,"station_id":"JNG","i_long":106.86807400000001,"line":1,"distance":0},{"station_id":"MTR","is_transit":false,"time":2,"line":1,"station_name":"Matraman","i_long":106.858896,"i_lat":-6.212485,"transit":false,"distance":1377},{"line":2,"i_long":106.84912,"station_id":"MRI","distance":1275,"station_name":"Manggarai","transit":true,"time":2,"is_transit":true,"i_lat":-6.209883},{"transit":false,"i_long":106.840169,"is_transit":false,"distance":1590,"station_id":"CKI","station_name":"Cikini","line":2,"time":4,"i_lat":-6.198556},{"time":3,"transit":false,"is_transit":false,"i_lat":-6.186295,"distance":1750,"i_long":106.832183,"line":2,"station_id":"GDD","station_name":"Gondangdia"},{"distance":2015,"station_name":"Juanda","time":4,"i_long":106.828284,"i_lat":-6.166716,"transit":false,"is_transit":false,"line":2,"station_id":"JUA"},{"line":2,"station_name":"Sawah Besar","transit":false,"is_transit":false,"distance":1149,"i_lat":-6.160725,"station_id":"SW","i_long":106.827103,"time":2},{"station_id":"MGB","line":2,"time":2,"is_transit":false,"distance":906,"i_lat":-6.149769,"transit":false,"station_name":"Manggabesar","i_long":106.82482},{"time":2,"distance":1080,"i_long":106.820901,"i_lat":-6.141205,"is_transit":false,"station_id":"JAY","line":2,"transit":false,"station_name":"Jayakarta"},{"time":4,"i_lat":-6.137569,"i_long":106.812439,"line":2,"station_name":"Jakarta Kota","transit":true,"is_transit":true,"distance":1264,"station_id":"JAKK"},{"is_transit":true,"station_id":"KPB","i_lat":-6.132549,"time":3,"line":4,"i_long":106.826365,"station_name":"Kampung Bandan","transit":true,"distance":1364},{"distance":1444,"is_transit":false,"station_name":"Rajawali","station_id":"RJW","i_long":106.836569,"i_lat":-6.14505,"transit":false,"time":3,"line":11},{"time":5,"station_name":"Kemayoran","transit":false,"distance":1901,"station_id":"KMO","is_transit":false,"i_lat":-6.161728,"i_long":106.839204,"line":11},{"station_name":"Pasar Senen","distance":1436,"line":11,"i_long":106.84368,"is_transit":false,"station_id":"PSE","transit":false,"i_lat":-6.174784,"time":4},{"time":8,"distance":1567,"line":11,"transit":false,"is_transit":false,"i_lat":-6.185975,"i_long":106.850107,"station_name":"Gang Sentiong","station_id":"GST"},{"distance":973,"time":1,"station_name":"Kramat","transit":false,"is_transit":false,"station_id":"KMT","line":11,"i_long":106.855437,"i_lat":-6.193792},{"i_long":106.861737,"station_name":"Pondok Jati","distance":1829,"line":11,"transit":false,"time":2,"i_lat":-6.209188,"is_transit":false,"station_id":"POK"}]]}