{"data":[[{"is_transit":false,"i_long":106.828284,"time":0,"distance":0,"line":2,"transit":false,"i_lat":-6.166716,"station_id":"JUA","station_name":"Juanda"},{"i_long":106.832183,"transit":false,"station_id":"GDD","distance":2015,"station_name":"Gondangdia","time":4,"line":2,"is_transit":false,"i_lat":-6.186295},{"distance":1750,"is_transit":false,"transit":false,"i_lat":-6.198556,"line":0,"i_long":106.840169,"station_id":"CKI","time":3,"station_name":"Cikini"},{"i_long":106.84912,"station_name":"Manggarai","time":4,"transit":true,"distance":1590,"station_id":"MRI","i_lat":-6.209883,"line":0,"is_transit":true},{"distance":3186,"time":4,"i_lat":-6.202263,"station_id":"SUD","i_long":106.822649,"line":1,"station_name":"Sudirman","is_transit":false,"transit":false},{"line":1,"station_name":"Sudirman Baru","distance":280,"time":1,"is_transit":false,"i_long":106.819881,"station_id":"SUDB","transit":false,"i_lat":-6.201433},{"transit":false,"i_lat":-6.20132,"station_name":"Karet","is_transit":false,"i_long":106.816351,"station_id":"KAT","time":1,"line":1,"distance":471},{"distance":2029,"transit":true,"i_lat":-6.185545,"station_id":"THB","station_name":"Tanah Abang","time":5,"i_long":106.811091,"line":1,"is_transit":true},{"is_transit":false,"distance":3191,"time":6,"i_long":106.79689,"transit":false,"i_lat":-6.207404,"station_name":"Palmerah","station_id":"PLM","line":6},{"i_long":106.780334,"distance":3737,"time":7,"station_name":"Kebayoran","is_transit":false,"i_lat":-6.237242,"station_id":"KBY","line":6,"transit":false},{"line":6,"station_id":"PDJ","distance":6218,"transit":false,"time":8,"is_transit":false,"station_name":"Pondokranji","i_lat":-6.276362,"i_long":106.74273},{"time":3,"i_long":106.728916,"station_name":"Jurangmangu","transit":false,"line":6,"is_transit":false,"distance":2179,"i_lat":-6.288927,"station_id":"JMU"},{"is_transit":false,"i_long":106.712277,"station_id":"SDM","i_lat":-6.296963,"station_name":"Sudimara","transit":false,"time":4,"distance":1994,"line":6},{"distance":4566,"line":6,"i_lat":-6.314823,"station_name":"Rawa Buntu","station_id":"RU","time":6,"transit":false,"is_transit":false,"i_long":106.675475},{"i_lat":-6.319871,"line":6,"is_transit":false,"time":4,"station_name":"Serpong","i_long":106.66566,"station_id":"SRP","transit":false,"distance":2413},{"station_name":"Cisauk","distance":1784,"i_lat":-6.32484,"i_long":106.640411,"station_id":"CSK","is_transit":false,"transit":false,"time":4,"line":0},{"is_transit":false,"i_lat":-6.329547,"transit":false,"line":0,"i_long":106.617853,"time":4,"station_name":"Cicayur","distance":2519,"station_id":"CC"},{"time":8,"station_id":"PRP","transit":false,"station_name":"Parung Panjang","is_transit":false,"distance":5968,"i_lat":-6.3441410000000005,"line":6,"i_long":106.568863},{"i_long":106.508482,"line":0,"time":9,"i_lat":-6.354349,"station_id":"CJT","is_transit":false,"distance":7025,"transit":false,"station_name":"Cilejit"},{"transit":false,"i_lat":-6.338021,"distance":2675,"line":0,"is_transit":false,"station_id":"DAR","time":6,"station_name":"Daru","i_long":106.491338},{"station_id":"TEJ","line":6,"transit":false,"i_lat":-6.327251,"time":5,"is_transit":false,"distance":3902,"i_long":106.460812,"station_name":"Tenjo"},{"time":5,"station_id":"TGS","i_long":106.425991,"distance":2974,"station_name":"Tigaraksa","line":6,"i_lat":-6.328533,"transit":false,"is_transit":false},{"time":3,"line":0,"is_transit":false,"i_long":106.411216,"transit":false,"station_id":"CKY","station_name":"Cikoya","distance":2651,"i_lat":-6.33561},{"distance":1853,"is_transit":false,"i_lat":-6.332307,"time":4,"line":6,"transit":false,"i_long":106.394373,"station_id":"MJ","station_name":"Maja"},{"is_transit":false,"transit":false,"i_lat":-6.334892,"station_id":"CTR","i_long":106.332092,"line":0,"distance":7293,"station_name":"Citeras","time":10}],[{"time":0,"i_lat":-6.166716,"line":2,"station_id":"JUA","station_name":"Juanda","transit":false,"distance":0,"i_long":106.828284,"is_transit":false},{"station_id":"SW","distance":1149,"transit":false,"time":2,"station_name":"Sawah Besar","i_lat":-6.160725,"i_long":106.827103,"line":2,"is_transit":false},{"i_long":106.82482,"time":2,"is_transit":false,"station_name":"Manggabesar","station_id":"MGB","line":2,"transit":false,"i_lat":-6.149769,"distance":906},{"distance":1080,"transit":false,"station_name":"Jayakarta","station_id":"JAY","i_long":106.820901,"line":7,"is_transit":false,"time":2,"i_lat":-6.141205},{"station_name":"Jakarta Kota","time":4,"i_long":106.812439,"is_transit":true,"i_lat":-6.137569,"distance":1264,"transit":true,"station_id":"JAKK","line":0},{"time":3,"line":0,"station_name":"Kampung Bandan","is_transit":true,"distance":1364,"i_lat":-6.132549,"station_id":"KPB","transit":false,"i_long":106.826365},{"station_id":"AK","distance":4102,"station_name":"Angke","time":9,"line":0,"i_lat":-6.144674,"is_transit":false,"transit":false,"i_long":106.79867},{"transit":true,"time":4,"i_long":106.800832,"i_lat":-6.155215,"is_transit":true,"station_name":"Duri","line":1,"distance":1230,"station_id":"DU"},{"line":1,"time":8,"i_lat":-6.185545,"i_long":106.811091,"station_name":"Tanah Abang","distance":3632,"transit":true,"station_id":"THB","is_transit":true},{"is_transit":false,"time":6,"station_id":"PLM","distance":3191,"line":6,"i_lat":-6.207404,"i_long":106.79689,"transit":false,"station_name":"Palmerah"},{"time":7,"station_id":"KBY","distance":3737,"is_transit":false,"station_name":"Kebayoran","i_long":106.780334,"transit":false,"line":6,"i_lat":-6.237242},{"transit":false,"station_id":"PDJ","i_lat":-6.276362,"station_name":"Pondokranji","i_long":106.74273,"is_transit":false,"time":8,"line":6,"distance":6218},{"station_id":"JMU","distance":2179,"transit":false,"is_transit":false,"i_lat":-6.288927,"i_long":106.728916,"line":6,"station_name":"Jurangmangu","time":3},{"time":4,"distance":1994,"is_transit":false,"i_long":106.712277,"line":6,"i_lat":-6.296963,"station_name":"Sudimara","transit":false,"station_id":"SDM"},{"station_id":"RU","station_name":"Rawa Buntu","transit":false,"is_transit":false,"i_lat":-6.314823,"line":6,"distance":4566,"time":6,"i_long":106.675475},{"distance":2413,"i_long":106.66566,"transit":false,"time":4,"line":6,"is_transit":false,"station_id":"SRP","station_name":"Serpong","i_lat":-6.319871},{"is_transit":false,"time":4,"station_name":"Cisauk","transit":false,"station_id":"CSK","i_lat":-6.32484,"i_long":106.640411,"distance":1784,"line":0},{"i_long":106.617853,"distance":2519,"line":0,"station_name":"Cicayur","is_transit":false,"i_lat":-6.329547,"transit":false,"time":4,"station_id":"CC"},{"station_name":"Parung Panjang","time":8,"distance":5968,"is_transit":false,"line":6,"transit":false,"station_id":"PRP","i_lat":-6.3441410000000005,"i_long":106.568863},{"distance":7025,"is_transit":false,"transit":false,"i_long":106.508482,"time":9,"line":0,"i_lat":-6.354349,"station_id":"CJT","station_name":"Cilejit"},{"line":0,"station_name":"Daru","i_lat":-6.338021,"station_id":"DAR","time":6,"transit":false,"is_transit":false,"i_long":106.491338,"distance":2675},{"time":5,"station_id":"TEJ","i_long":106.460812,"line":6,"distance":3902,"transit":false,"i_lat":-6.327251,"station_name":"Tenjo","is_transit":false},{"distance":2974,"i_long":106.425991,"station_name":"Tigaraksa","station_id":"TGS","line":6,"time":5,"transit":false,"i_lat":-6.328533,"is_transit":false},{"transit":false,"station_name":"Cikoya","distance":2651,"is_transit":false,"station_id":"CKY","i_lat":-6.33561,"i_long":106.411216,"time":3,"line":0},{"distance":1853,"time":4,"i_lat":-6.332307,"station_id":"MJ","transit":false,"i_long":106.394373,"line":6,"is_transit":false,"station_name":"Maja"},{"time":10,"distance":7293,"is_transit":false,"station_name":"Citeras","i_long":106.332092,"line":0,"transit":false,"station_id":"CTR","i_lat":-6.334892}],[{"distance":0,"station_id":"JUA","line":2,"i_long":106.828284,"station_name":"Juanda","is_transit":false,"i_lat":-6.166716,"time":0,"transit":false},{"i_long":106.832183,"time":4,"transit":false,"i_lat":-6.186295,"line":2,"station_name":"Gondangdia","is_transit":false,"station_id":"GDD","distance":2015},{"time":3,"is_transit":false,"i_lat":-6.198556,"transit":false,"station_name":"Cikini","i_long":106.840169,"station_id":"CKI","distance":1750,"line":0},{"line":0,"distance":1590,"is_transit":true,"transit":true,"i_lat":-6.209883,"i_long":106.84912,"station_id":"MRI","station_name":"Manggarai","time":4},{"i_long":106.858896,"line":1,"i_lat":-6.212485,"is_transit":false,"time":2,"station_id":"MTR","distance":1275,"transit":false,"station_name":"Matraman"},{"is_transit":true,"time":8,"line":0,"i_lat":-6.215091,"station_id":"JNG","distance":1377,"i_long":106.86807400000001,"transit":true,"station_name":"Jatinegara"},{"time":2,"distance":1236,"station_name":"Pondok Jati","transit":false,"i_lat":-6.209188,"i_long":106.861737,"line":11,"station_id":"POK","is_transit":false},{"i_lat":-6.193792,"distance":1829,"station_name":"Kramat","line":11,"station_id":"KMT","i_long":106.855437,"time":2,"is_transit":false,"transit":false},{"station_id":"GST","line":11,"time":1,"station_name":"Gang Sentiong","i_lat":-6.185975,"i_long":106.850107,"is_transit":false,"transit":false,"distance":973},{"transit":false,"station_id":"PSE","station_name":"Pasar Senen","i_lat":-6.174784,"line":11,"distance":1567,"i_long":106.84368,"is_transit":false,"time":8},{"station_id":"KMO","is_transit":false,"i_lat":-6.161728,"transit":false,"time":4,"i_long":106.839204,"line":11,"station_name":"Kemayoran","distance":1436},{"i_long":106.836569,"i_lat":-6.14505,"is_transit":false,"station_name":"Rajawali","distance":1901,"line":11,"time":5,"station_id":"RJW","transit":false},{"i_long":106.826365,"line":0,"time":3,"distance":1444,"station_name":"Kampung Bandan","transit":true,"i_lat":-6.132549,"station_id":"KPB","is_transit":true},{"distance":4102,"station_name":"Angke","station_id":"AK","transit":false,"line":0,"i_lat":-6.144674,"time":9,"i_long":106.79867,"is_transit":false},{"is_transit":true,"time":4,"i_lat":-6.155215,"line":1,"station_id":"DU","station_name":"Duri","distance":1230,"i_long":106.800832,"transit":true},{"time":8,"i_lat":-6.185545,"station_name":"Tanah Abang","station_id":"THB","line":1,"distance":3632,"i_long":106.811091,"transit":true,"is_transit":true},{"station_id":"PLM","is_transit":false,"station_name":"Palmerah","distance":3191,"transit":false,"time":6,"line":6,"i_long":106.79689,"i_lat":-6.207404},{"line":6,"station_id":"KBY","station_name":"Kebayoran","distance":3737,"i_lat":-6.237242,"is_transit":false,"transit":false,"i_long":106.780334,"time":7},{"i_lat":-6.276362,"transit":false,"is_transit":false,"time":8,"distance":6218,"line":6,"i_long":106.74273,"station_name":"Pondokranji","station_id":"PDJ"},{"line":6,"station_id":"JMU","station_name":"Jurangmangu","i_lat":-6.288927,"i_long":106.728916,"is_transit":false,"transit":false,"time":3,"distance":2179},{"time":4,"line":6,"transit":false,"is_transit":false,"i_lat":-6.296963,"station_name":"Sudimara","station_id":"SDM","i_long":106.712277,"distance":1994},{"station_id":"RU","is_transit":false,"line":6,"i_lat":-6.314823,"time":6,"transit":false,"distance":4566,"station_name":"Rawa Buntu","i_long":106.675475},{"line":6,"transit":false,"distance":2413,"station_id":"SRP","is_transit":false,"time":4,"i_lat":-6.319871,"i_long":106.66566,"station_name":"Serpong"},{"station_name":"Cisauk","transit":false,"distance":1784,"line":0,"i_lat":-6.32484,"time":4,"i_long":106.640411,"station_id":"CSK","is_transit":false},{"transit":false,"i_long":106.617853,"i_lat":-6.329547,"distance":2519,"line":0,"is_transit":false,"station_name":"Cicayur","time":4,"station_id":"CC"},{"station_name":"Parung Panjang","i_lat":-6.3441410000000005,"line":6,"station_id":"PRP","i_long":106.568863,"time":8,"is_transit":false,"distance":5968,"transit":false},{"station_name":"Cilejit","transit":false,"station_id":"CJT","time":9,"i_long":106.508482,"line":0,"is_transit":false,"distance":7025,"i_lat":-6.354349},{"line":0,"time":6,"distance":2675,"is_transit":false,"i_long":106.491338,"transit":false,"station_name":"Daru","station_id":"DAR","i_lat":-6.338021},{"station_id":"TEJ","distance":3902,"transit":false,"time":5,"is_transit":false,"line":6,"i_lat":-6.327251,"i_long":106.460812,"station_name":"Tenjo"},{"is_transit":false,"time":5,"transit":false,"i_lat":-6.328533,"line":6,"station_id":"TGS","distance":2974,"station_name":"Tigaraksa","i_long":106.425991},{"line":0,"station_name":"Cikoya","time":3,"i_long":106.411216,"distance":2651,"is_transit":false,"i_lat":-6.33561,"station_id":"CKY","transit":false},{"i_lat":-6.332307,"distance":1853,"station_name":"Maja","is_transit":false,"station_id":"MJ","time":4,"transit":false,"i_long":106.394373,"line":6},{"is_transit":false,"line":0,"time":10,"station_id":"CTR","i_lat":-6.334892,"transit":false,"distance":7293,"station_name":"Citeras","i_long":106.332092}],[{"i_long":106.828284,"line":2,"time":0,"i_lat":-6.166716,"station_id":"JUA","station_name":"Juanda","transit":false,"is_transit":false,"distance":0},{"transit":false,"station_id":"SW","line":2,"is_transit":false,"station_name":"Sawah Besar","distance":1149,"i_lat":-6.160725,"i_long":106.827103,"time":2},{"station_id":"MGB","is_transit":false,"line":2,"time":2,"distance":906,"transit":false,"station_name":"Manggabesar","i_lat":-6.149769,"i_long":106.82482},{"station_id":"JAY","time":2,"distance":1080,"is_transit":false,"station_name":"Jayakarta","transit":false,"i_lat":-6.141205,"i_long":106.820901,"line":7},{"time":4,"station_name":"Jakarta Kota","is_transit":true,"i_long":106.812439,"transit":true,"line":0,"station_id":"JAKK","distance":1264,"i_lat":-6.137569},{"transit":true,"station_name":"Kampung Bandan","station_id":"KPB","time":3,"i_lat":-6.132549,"distance":1364,"line":0,"is_transit":true,"i_long":106.826365},{"station_id":"RJW","time":3,"i_lat":-6.14505,"transit":false,"station_name":"Rajawali","i_long":106.836569,"line":11,"distance":1444,"is_transit":false},{"line":11,"is_transit":false,"station_name":"Kemayoran","i_lat":-6.161728,"station_id":"KMO","distance":1901,"transit":false,"i_long":106.839204,"time":5},{"station_name":"Pasar Senen","station_id":"PSE","distance":1436,"time":4,"i_lat":-6.174784,"line":11,"is_transit":false,"transit":false,"i_long":106.84368},{"station_id":"GST","i_long":106.850107,"distance":1567,"line":11,"i_lat":-6.185975,"time":8,"transit":false,"is_transit":false,"station_name":"Gang Sentiong"},{"station_id":"KMT","line":11,"time":1,"transit":false,"is_transit":false,"distance":973,"i_lat":-6.193792,"i_long":106.855437,"station_name":"Kramat"},{"station_name":"Pondok Jati","distance":1829,"station_id":"POK","is_transit":false,"time":2,"transit":false,"line":11,"i_lat":-6.209188,"i_long":106.861737},{"is_transit":true,"distance":1236,"transit":true,"i_long":106.86807400000001,"station_name":"Jatinegara","line":0,"time":9,"station_id":"JNG","i_lat":-6.215091},{"time":2,"is_transit":false,"transit":false,"station_id":"MTR","station_name":"Matraman","i_lat":-6.212485,"i_long":106.858896,"distance":1377,"line":1},{"time":2,"distance":1275,"line":0,"i_lat":-6.209883,"station_id":"MRI","station_name":"Manggarai","is_transit":true,"transit":false,"i_long":106.84912},{"transit":false,"i_long":106.822649,"station_id":"SUD","line":1,"station_name":"Sudirman","is_transit":false,"distance":3186,"i_lat":-6.202263,"time":4},{"i_long":106.819881,"i_lat":-6.201433,"station_id":"SUDB","time":1,"transit":false,"station_name":"Sudirman Baru","is_transit":false,"line":1,"distance":280},{"station_id":"KAT","is_transit":false,"station_name":"Karet","transit":false,"distance":471,"i_long":106.816351,"line":1,"time":1,"i_lat":-6.20132},{"time":5,"station_name":"Tanah Abang","is_transit":true,"i_long":106.811091,"transit":true,"line":1,"station_id":"THB","distance":2029,"i_lat":-6.185545},{"station_name":"Palmerah","is_transit":false,"time":6,"transit":false,"i_lat":-6.207404,"station_id":"PLM","line":6,"distance":3191,"i_long":106.79689},{"is_transit":false,"i_lat":-6.237242,"distance":3737,"time":7,"transit":false,"station_name":"Kebayoran","line":6,"station_id":"KBY","i_long":106.780334},{"transit":false,"i_long":106.74273,"station_id":"PDJ","time":8,"is_transit":false,"line":6,"station_name":"Pondokranji","i_lat":-6.276362,"distance":6218},{"distance":2179,"i_lat":-6.288927,"station_name":"Jurangmangu","transit":false,"station_id":"JMU","is_transit":false,"time":3,"line":6,"i_long":106.728916},{"line":6,"station_id":"SDM","distance":1994,"i_long":106.712277,"i_lat":-6.296963,"transit":false,"station_name":"Sudimara","time":4,"is_transit":false},{"time":6,"station_name":"Rawa Buntu","distance":4566,"transit":false,"station_id":"RU","i_lat":-6.314823,"is_transit":false,"i_long":106.675475,"line":6},{"line":6,"transit":false,"time":4,"i_lat":-6.319871,"station_id":"SRP","station_name":"Serpong","i_long":106.66566,"distance":2413,"is_transit":false},{"i_long":106.640411,"time":4,"is_transit":false,"station_name":"Cisauk","distance":1784,"transit":false,"line":0,"station_id":"CSK","i_lat":-6.32484},{"is_transit":false,"transit":false,"station_name":"Cicayur","i_lat":-6.329547,"station_id":"CC","time":4,"i_long":106.617853,"line":0,"distance":2519},{"is_transit":false,"distance":5968,"line":6,"i_lat":-6.3441410000000005,"transit":false,"time":8,"station_id":"PRP","station_name":"Parung Panjang","i_long":106.568863},{"transit":false,"i_lat":-6.354349,"line":0,"time":9,"is_transit":false,"station_name":"Cilejit","distance":7025,"station_id":"CJT","i_long":106.508482},{"station_id":"DAR","i_lat":-6.338021,"i_long":106.491338,"transit":false,"line":0,"time":6,"distance":2675,"is_transit":false,"station_name":"Daru"},{"i_long":106.460812,"time":5,"line":6,"station_name":"Tenjo","is_transit":false,"transit":false,"i_lat":-6.327251,"station_id":"TEJ","distance":3902},{"station_id":"TGS","i_lat":-6.328533,"is_transit":false,"i_long":106.425991,"station_name":"Tigaraksa","transit":false,"distance":2974,"time":5,"line":6},{"transit":false,"is_transit":false,"distance":2651,"station_id":"CKY","i_lat":-6.33561,"time":3,"station_name":"Cikoya","i_long":106.411216,"line":0},{"i_lat":-6.332307,"distance":1853,"station_id":"MJ","transit":false,"time":4,"is_transit":false,"i_long":106.394373,"line":6,"station_name":"Maja"},{"station_id":"CTR","line":0,"transit":false,"distance":7293,"is_transit":false,"station_name":"Citeras","time":10,"i_lat":-6.334892,"i_long":106.332092}]]}