{"data":[[{"transit":false,"i_long":106.828284,"distance":0,"is_transit":false,"i_lat":-6.166716,"station_name":"Juanda","station_id":"JUA","line":2,"time":0},{"station_id":"GDD","line":2,"is_transit":false,"station_name":"Gondangdia","distance":2015,"transit":false,"time":4,"i_lat":-6.186295,"i_long":106.832183},{"i_lat":-6.198556,"is_transit":false,"line":2,"distance":1750,"time":3,"i_long":106.840169,"station_name":"Cikini","transit":false,"station_id":"CKI"},{"station_name":"Manggarai","i_lat":-6.209883,"i_long":106.84912,"transit":false,"is_transit":false,"time":4,"line":2,"distance":1590,"station_id":"MRI"},{"distance":2610,"station_name":"Tebet","i_long":106.857948,"station_id":"TEB","time":4,"is_transit":false,"transit":false,"i_lat":-6.226659,"line":2},{"transit":false,"is_transit":false,"station_name":"Cawang","i_long":106.856607,"time":2,"station_id":"CW","line":2,"i_lat":-6.242512,"distance":1230},{"line":2,"distance":1546,"station_id":"DRN","i_long":106.85449,"time":3,"i_lat":-6.255332,"station_name":"Duren Kalibata","transit":false,"is_transit":false},{"line":2,"distance":824,"i_lat":-6.263214,"time":2,"station_name":"Pasar Minggu Baru","i_long":106.851577,"is_transit":false,"transit":false,"station_id":"PSMB"},{"transit":false,"distance":2380,"i_lat":-6.2842400000000005,"is_transit":false,"station_id":"PSM","station_name":"Pasar Minggu","time":2,"i_long":106.843999,"line":2},{"station_name":"Tanjung Barat","distance":2820,"is_transit":false,"line":2,"i_long":106.838896,"i_lat":-6.3080680000000005,"station_id":"TNT","time":4,"transit":false},{"station_name":"Lenteng Agung","time":3,"transit":false,"station_id":"LNA","i_long":106.832616,"is_transit":false,"line":2,"distance":2671,"i_lat":-6.330363},{"i_lat":-6.339291,"station_name":"Univ. Pancasila","time":2,"is_transit":false,"distance":1029,"transit":false,"station_id":"UP","i_long":106.834175,"line":2},{"time":3,"distance":2264,"line":2,"is_transit":false,"station_id":"UI","transit":false,"station_name":"Univ. Indonesia","i_lat":-6.360749,"i_long":106.831474},{"station_name":"Pondok Cina","transit":false,"is_transit":false,"i_lat":-6.369073,"line":2,"station_id":"POC","time":2,"i_long":106.831114,"distance":1109},{"i_lat":-6.391065,"is_transit":false,"transit":false,"distance":2727,"time":4,"line":2,"i_long":106.819451,"station_id":"DPB","station_name":"Depokbaru"},{"is_transit":false,"transit":false,"station_name":"Depok","line":2,"distance":1584,"time":3,"i_long":106.816926,"i_lat":-6.405256,"station_id":"DP"},{"station_id":"CTA","line":2,"i_lat":-6.448811,"i_long":106.800298,"is_transit":false,"station_name":"Citayam","transit":false,"distance":5084,"time":6},{"station_id":"BJD","line":2,"time":5,"i_long":106.792719,"i_lat":-6.493243,"station_name":"Bojonggede","distance":5197,"transit":false,"is_transit":false},{"line":2,"is_transit":false,"transit":false,"station_name":"Cilebut","distance":4331,"time":5,"i_lat":-6.530544,"station_id":"CLT","i_long":106.800016},{"i_lat":-6.594596,"time":9,"station_name":"Bogor","is_transit":false,"line":2,"transit":false,"i_long":106.790574,"station_id":"BOO","distance":7514}],[{"i_long":106.828284,"transit":false,"time":0,"is_transit":false,"station_name":"Juanda","i_lat":-6.166716,"line":2,"distance":0,"station_id":"JUA"},{"i_long":106.827103,"is_transit":false,"station_id":"SW","transit":false,"line":2,"station_name":"Sawah Besar","distance":1149,"i_lat":-6.160725,"time":2},{"i_long":106.82482,"line":2,"is_transit":false,"transit":false,"time":2,"distance":906,"station_id":"MGB","station_name":"Manggabesar","i_lat":-6.149769},{"distance":1080,"time":2,"i_long":106.820901,"is_transit":false,"transit":false,"station_id":"JAY","line":2,"station_name":"Jayakarta","i_lat":-6.141205},{"station_name":"Jakarta Kota","is_transit":true,"time":4,"line":2,"transit":true,"i_lat":-6.137569,"distance":1264,"i_long":106.812439,"station_id":"JAKK"},{"station_name":"Kampung Bandan","distance":1364,"transit":true,"is_transit":true,"station_id":"KPB","i_long":106.826365,"i_lat":-6.132549,"line":4,"time":3},{"i_long":106.79867,"line":1,"i_lat":-6.144674,"station_id":"AK","distance":4102,"station_name":"Angke","is_transit":false,"transit":false,"time":9},{"time":4,"station_name":"Duri","transit":false,"station_id":"DU","i_lat":-6.155215,"distance":1230,"i_long":106.800832,"line":1,"is_transit":false},{"time":8,"i_long":106.811091,"is_transit":false,"distance":3632,"station_name":"Tanah Abang","station_id":"THB","transit":false,"line":1,"i_lat":-6.185545},{"distance":2029,"station_name":"Karet","line":1,"i_lat":-6.20132,"is_transit":false,"transit":false,"i_long":106.816351,"time":5,"station_id":"KAT"},{"transit":false,"is_transit":false,"i_long":106.819881,"line":1,"station_name":"Sudirman Baru","i_lat":-6.201433,"distance":471,"station_id":"SUDB","time":1},{"line":1,"i_lat":-6.202263,"i_long":106.822649,"time":1,"is_transit":false,"distance":280,"station_id":"SUD","transit":false,"station_name":"Sudirman"},{"i_lat":-6.209883,"i_long":106.84912,"time":4,"is_transit":true,"transit":true,"line":2,"distance":3186,"station_id":"MRI","station_name":"Manggarai"},{"i_long":106.857948,"station_id":"TEB","line":2,"distance":2610,"i_lat":-6.226659,"station_name":"Tebet","transit":false,"time":4,"is_transit":false},{"distance":1230,"i_long":106.856607,"is_transit":false,"station_name":"Cawang","time":2,"line":2,"i_lat":-6.242512,"transit":false,"station_id":"CW"},{"i_lat":-6.255332,"i_long":106.85449,"line":2,"is_transit":false,"station_id":"DRN","time":3,"transit":false,"distance":1546,"station_name":"Duren Kalibata"},{"station_name":"Pasar Minggu Baru","distance":824,"i_lat":-6.263214,"i_long":106.851577,"time":2,"transit":false,"is_transit":false,"station_id":"PSMB","line":2},{"is_transit":false,"i_long":106.843999,"time":2,"station_name":"Pasar Minggu","i_lat":-6.2842400000000005,"line":2,"distance":2380,"transit":false,"station_id":"PSM"},{"distance":2820,"time":4,"is_transit":false,"i_lat":-6.3080680000000005,"i_long":106.838896,"station_id":"TNT","transit":false,"line":2,"station_name":"Tanjung Barat"},{"distance":2671,"i_long":106.832616,"station_id":"LNA","i_lat":-6.330363,"is_transit":false,"station_name":"Lenteng Agung","line":2,"time":3,"transit":false},{"station_id":"UP","is_transit":false,"distance":1029,"i_lat":-6.339291,"time":2,"i_long":106.834175,"transit":false,"line":2,"station_name":"Univ. Pancasila"},{"station_name":"Univ. Indonesia","time":3,"i_lat":-6.360749,"distance":2264,"i_long":106.831474,"transit":false,"line":2,"is_transit":false,"station_id":"UI"},{"distance":1109,"station_name":"Pondok Cina","i_lat":-6.369073,"i_long":106.831114,"time":2,"transit":false,"station_id":"POC","line":2,"is_transit":false},{"station_id":"DPB","station_name":"Depokbaru","i_long":106.819451,"is_transit":false,"i_lat":-6.391065,"transit":false,"line":2,"distance":2727,"time":4},{"is_transit":false,"distance":1584,"time":3,"transit":false,"station_id":"DP","line":2,"i_lat":-6.405256,"station_name":"Depok","i_long":106.816926},{"distance":5084,"station_name":"Citayam","i_long":106.800298,"time":6,"i_lat":-6.448811,"is_transit":false,"transit":false,"station_id":"CTA","line":2},{"is_transit":false,"time":5,"distance":5197,"i_lat":-6.493243,"station_name":"Bojonggede","i_long":106.792719,"line":2,"transit":false,"station_id":"BJD"},{"distance":4331,"time":5,"transit":false,"i_long":106.800016,"station_id":"CLT","is_transit":false,"i_lat":-6.530544,"line":2,"station_name":"Cilebut"},{"is_transit":false,"transit":false,"i_long":106.790574,"station_name":"Bogor","line":2,"i_lat":-6.594596,"time":9,"distance":7514,"station_id":"BOO"}],[{"distance":0,"station_id":"JUA","line":2,"i_long":106.828284,"station_name":"Juanda","transit":false,"time":0,"is_transit":false,"i_lat":-6.166716},{"is_transit":false,"i_long":106.827103,"transit":false,"time":2,"distance":1149,"station_id":"SW","station_name":"Sawah Besar","line":2,"i_lat":-6.160725},{"distance":906,"line":2,"time":2,"station_name":"Manggabesar","is_transit":false,"station_id":"MGB","i_lat":-6.149769,"transit":false,"i_long":106.82482},{"i_lat":-6.141205,"line":2,"station_id":"JAY","i_long":106.820901,"distance":1080,"is_transit":false,"station_name":"Jayakarta","time":2,"transit":false},{"is_transit":true,"distance":1264,"station_name":"Jakarta Kota","station_id":"JAKK","i_long":106.812439,"i_lat":-6.137569,"time":4,"transit":true,"line":2},{"i_long":106.826365,"line":4,"transit":true,"station_name":"Kampung Bandan","distance":1364,"is_transit":true,"time":3,"station_id":"KPB","i_lat":-6.132549},{"distance":1444,"is_transit":false,"transit":false,"time":3,"station_name":"Rajawali","line":11,"i_lat":-6.14505,"station_id":"RJW","i_long":106.836569},{"line":11,"distance":1901,"time":5,"i_lat":-6.161728,"station_id":"KMO","transit":false,"i_long":106.839204,"station_name":"Kemayoran","is_transit":false},{"i_long":106.84368,"distance":1436,"station_name":"Pasar Senen","line":11,"is_transit":false,"transit":false,"time":4,"i_lat":-6.174784,"station_id":"PSE"},{"i_long":106.850107,"distance":1567,"line":11,"transit":false,"station_id":"GST","time":8,"i_lat":-6.185975,"is_transit":false,"station_name":"Gang Sentiong"},{"distance":973,"line":11,"is_transit":false,"i_lat":-6.193792,"station_name":"Kramat","time":1,"station_id":"KMT","transit":false,"i_long":106.855437},{"i_lat":-6.209188,"is_transit":false,"station_id":"POK","distance":1829,"time":2,"transit":false,"station_name":"Pondok Jati","i_long":106.861737,"line":11},{"time":9,"i_long":106.86807400000001,"line":1,"station_name":"Jatinegara","is_transit":true,"i_lat":-6.215091,"distance":1236,"station_id":"JNG","transit":true},{"i_long":106.858896,"is_transit":false,"station_name":"Matraman","line":1,"time":2,"distance":1377,"transit":false,"station_id":"MTR","i_lat":-6.212485},{"distance":1275,"transit":true,"time":2,"station_name":"Manggarai","i_lat":-6.209883,"i_long":106.84912,"station_id":"MRI","line":2,"is_transit":true},{"distance":2610,"transit":false,"i_lat":-6.226659,"i_long":106.857948,"station_id":"TEB","station_name":"Tebet","time":4,"line":2,"is_transit":false},{"station_id":"CW","transit":false,"station_name":"Cawang","line":2,"i_lat":-6.242512,"i_long":106.856607,"is_transit":false,"time":2,"distance":1230},{"line":2,"station_id":"DRN","station_name":"Duren Kalibata","is_transit":false,"distance":1546,"time":3,"transit":false,"i_long":106.85449,"i_lat":-6.255332},{"station_name":"Pasar Minggu Baru","distance":824,"time":2,"i_lat":-6.263214,"transit":false,"i_long":106.851577,"line":2,"station_id":"PSMB","is_transit":false},{"distance":2380,"transit":false,"time":2,"line":2,"is_transit":false,"station_id":"PSM","station_name":"Pasar Minggu","i_long":106.843999,"i_lat":-6.2842400000000005},{"station_id":"TNT","line":2,"is_transit":false,"time":4,"distance":2820,"transit":false,"i_lat":-6.3080680000000005,"i_long":106.838896,"station_name":"Tanjung Barat"},{"transit":false,"is_transit":false,"i_lat":-6.330363,"distance":2671,"line":2,"station_name":"Lenteng Agung","station_id":"LNA","time":3,"i_long":106.832616},{"i_long":106.834175,"time":2,"line":2,"transit":false,"station_id":"UP","is_transit":false,"station_name":"Univ. Pancasila","distance":1029,"i_lat":-6.339291},{"station_name":"Univ. Indonesia","is_transit":false,"i_long":106.831474,"distance":2264,"transit":false,"line":2,"i_lat":-6.360749,"time":3,"station_id":"UI"},{"station_name":"Pondok Cina","transit":false,"time":2,"distance":1109,"i_lat":-6.369073,"i_long":106.831114,"line":2,"is_transit":false,"station_id":"POC"},{"station_name":"Depokbaru","time":4,"is_transit":false,"i_lat":-6.391065,"station_id":"DPB","i_long":106.819451,"distance":2727,"line":2,"transit":false},{"station_id":"DP","i_lat":-6.405256,"i_long":106.816926,"time":3,"station_name":"Depok","is_transit":false,"distance":1584,"transit":false,"line":2},{"is_transit":false,"station_name":"Citayam","station_id":"CTA","i_long":106.800298,"line":2,"distance":5084,"i_lat":-6.448811,"transit":false,"time":6},{"station_name":"Bojonggede","distance":5197,"is_transit":false,"time":5,"station_id":"BJD","i_lat":-6.493243,"i_long":106.792719,"line":2,"transit":false},{"line":2,"transit":false,"station_id":"CLT","i_long":106.800016,"time":5,"distance":4331,"station_name":"Cilebut","is_transit":false,"i_lat":-6.530544},{"station_id":"BOO","is_transit":false,"time":9,"i_long":106.790574,"distance":7514,"line":2,"station_name":"Bogor","transit":false,"i_lat":-6.594596}]]}