{"data":[[{"time":0,"distance":0,"station_name":"Juanda","i_lat":-6.166716,"station_id":"JUA","i_long":106.828284,"transit":false,"is_transit":false,"line":2},{"distance":2015,"i_lat":-6.186295,"is_transit":false,"station_name":"Gondangdia","line":2,"station_id":"GDD","time":4,"transit":false,"i_long":106.832183},{"i_lat":-6.198556,"line":2,"is_transit":false,"i_long":106.840169,"transit":false,"station_id":"CKI","distance":1750,"station_name":"Cikini","time":3},{"i_long":106.84912,"time":4,"is_transit":false,"line":2,"transit":false,"i_lat":-6.209883,"station_id":"MRI","distance":1590,"station_name":"Manggarai"},{"i_long":106.857948,"transit":false,"station_name":"Tebet","time":4,"station_id":"TEB","is_transit":false,"i_lat":-6.226659,"line":2,"distance":2610},{"time":2,"transit":false,"is_transit":false,"distance":1230,"line":2,"station_name":"Cawang","station_id":"CW","i_lat":-6.242512,"i_long":106.856607},{"station_id":"DRN","line":2,"is_transit":false,"transit":false,"station_name":"Duren Kalibata","time":3,"i_long":106.85449,"i_lat":-6.255332,"distance":1546},{"line":2,"station_name":"Pasar Minggu Baru","is_transit":false,"i_lat":-6.263214,"station_id":"PSMB","time":2,"i_long":106.851577,"distance":824,"transit":false},{"i_lat":-6.2842400000000005,"transit":false,"line":2,"station_id":"PSM","station_name":"Pasar Minggu","distance":2380,"time":2,"is_transit":false,"i_long":106.843999},{"i_long":106.838896,"line":2,"station_name":"Tanjung Barat","i_lat":-6.3080680000000005,"station_id":"TNT","distance":2820,"is_transit":false,"transit":false,"time":4},{"is_transit":false,"distance":2671,"station_id":"LNA","line":2,"station_name":"Lenteng Agung","transit":false,"i_long":106.832616,"i_lat":-6.330363,"time":3},{"i_long":106.834175,"distance":1029,"station_id":"UP","transit":false,"is_transit":false,"time":2,"station_name":"Univ. Pancasila","i_lat":-6.339291,"line":2},{"i_long":106.831474,"transit":false,"station_name":"Univ. Indonesia","station_id":"UI","line":2,"time":3,"is_transit":false,"distance":2264,"i_lat":-6.360749},{"transit":false,"station_id":"POC","is_transit":false,"i_lat":-6.369073,"line":2,"time":2,"distance":1109,"station_name":"Pondok Cina","i_long":106.831114},{"distance":2727,"time":4,"i_lat":-6.391065,"i_long":106.819451,"station_id":"DPB","is_transit":false,"station_name":"Depokbaru","line":2,"transit":false},{"is_transit":false,"station_id":"DP","time":3,"i_lat":-6.405256,"distance":1584,"i_long":106.816926,"line":2,"transit":false,"station_name":"Depok"},{"line":2,"station_name":"Citayam","transit":false,"i_lat":-6.448811,"station_id":"CTA","i_long":106.800298,"distance":5084,"is_transit":false,"time":6},{"is_transit":false,"distance":5197,"station_name":"Bojonggede","station_id":"BJD","i_lat":-6.493243,"i_long":106.792719,"time":5,"transit":false,"line":2},{"is_transit":false,"i_lat":-6.530544,"distance":4331,"station_name":"Cilebut","line":2,"i_long":106.800016,"transit":false,"time":5,"station_id":"CLT"},{"time":9,"station_name":"Bogor","i_lat":-6.594596,"line":2,"station_id":"BOO","transit":false,"is_transit":false,"i_long":106.790574,"distance":7514}],[{"i_long":106.828284,"time":0,"station_name":"Juanda","transit":false,"station_id":"JUA","distance":0,"is_transit":false,"line":2,"i_lat":-6.166716},{"i_lat":-6.160725,"transit":false,"station_name":"Sawah Besar","time":2,"is_transit":false,"distance":1149,"i_long":106.827103,"line":2,"station_id":"SW"},{"station_id":"MGB","i_long":106.82482,"line":2,"station_name":"Manggabesar","distance":906,"transit":false,"is_transit":false,"i_lat":-6.149769,"time":2},{"is_transit":false,"station_id":"JAY","transit":false,"line":2,"time":2,"station_name":"Jayakarta","i_lat":-6.141205,"distance":1080,"i_long":106.820901},{"time":4,"is_transit":true,"i_long":106.812439,"station_id":"JAKK","station_name":"Jakarta Kota","distance":1264,"transit":true,"i_lat":-6.137569,"line":2},{"is_transit":true,"station_name":"Kampung Bandan","i_lat":-6.132549,"line":4,"station_id":"KPB","time":3,"i_long":106.826365,"transit":true,"distance":1364},{"station_id":"AK","is_transit":false,"i_long":106.79867,"distance":4102,"time":9,"line":1,"station_name":"Angke","i_lat":-6.144674,"transit":false},{"station_name":"Duri","distance":1230,"is_transit":false,"i_long":106.800832,"i_lat":-6.155215,"transit":false,"time":4,"line":1,"station_id":"DU"},{"time":8,"line":1,"transit":false,"i_lat":-6.185545,"is_transit":false,"station_name":"Tanah Abang","distance":3632,"station_id":"THB","i_long":106.811091},{"is_transit":false,"distance":2029,"station_id":"KAT","line":1,"i_lat":-6.20132,"station_name":"Karet","transit":false,"i_long":106.816351,"time":5},{"transit":false,"i_long":106.819881,"station_name":"Sudirman Baru","distance":471,"station_id":"SUDB","i_lat":-6.201433,"line":1,"is_transit":false,"time":1},{"i_long":106.822649,"is_transit":false,"line":1,"distance":280,"station_name":"Sudirman","i_lat":-6.202263,"time":1,"station_id":"SUD","transit":false},{"station_name":"Manggarai","time":4,"i_long":106.84912,"station_id":"MRI","is_transit":true,"line":2,"distance":3186,"transit":true,"i_lat":-6.209883},{"time":4,"transit":false,"is_transit":false,"i_long":106.857948,"line":2,"station_id":"TEB","distance":2610,"i_lat":-6.226659,"station_name":"Tebet"},{"distance":1230,"i_lat":-6.242512,"time":2,"station_name":"Cawang","line":2,"i_long":106.856607,"station_id":"CW","is_transit":false,"transit":false},{"i_lat":-6.255332,"transit":false,"distance":1546,"is_transit":false,"time":3,"line":2,"station_id":"DRN","station_name":"Duren Kalibata","i_long":106.85449},{"time":2,"distance":824,"station_name":"Pasar Minggu Baru","transit":false,"is_transit":false,"i_lat":-6.263214,"line":2,"i_long":106.851577,"station_id":"PSMB"},{"transit":false,"is_transit":false,"station_id":"PSM","i_lat":-6.2842400000000005,"station_name":"Pasar Minggu","distance":2380,"i_long":106.843999,"line":2,"time":2},{"i_lat":-6.3080680000000005,"distance":2820,"is_transit":false,"station_name":"Tanjung Barat","transit":false,"time":4,"i_long":106.838896,"line":2,"station_id":"TNT"},{"time":3,"transit":false,"is_transit":false,"i_long":106.832616,"station_name":"Lenteng Agung","station_id":"LNA","i_lat":-6.330363,"line":2,"distance":2671},{"station_name":"Univ. Pancasila","station_id":"UP","i_long":106.834175,"time":2,"distance":1029,"is_transit":false,"transit":false,"i_lat":-6.339291,"line":2},{"time":3,"is_transit":false,"distance":2264,"station_id":"UI","i_lat":-6.360749,"line":2,"transit":false,"i_long":106.831474,"station_name":"Univ. Indonesia"},{"i_lat":-6.369073,"distance":1109,"time":2,"transit":false,"line":2,"station_name":"Pondok Cina","is_transit":false,"i_long":106.831114,"station_id":"POC"},{"i_lat":-6.391065,"station_id":"DPB","is_transit":false,"line":2,"i_long":106.819451,"transit":false,"station_name":"Depokbaru","distance":2727,"time":4},{"transit":false,"i_lat":-6.405256,"i_long":106.816926,"distance":1584,"time":3,"line":2,"station_name":"Depok","is_transit":false,"station_id":"DP"},{"i_lat":-6.448811,"station_name":"Citayam","i_long":106.800298,"time":6,"distance":5084,"is_transit":false,"station_id":"CTA","transit":false,"line":2},{"station_id":"BJD","transit":false,"distance":5197,"i_long":106.792719,"line":2,"is_transit":false,"i_lat":-6.493243,"time":5,"station_name":"Bojonggede"},{"is_transit":false,"line":2,"transit":false,"time":5,"i_lat":-6.530544,"station_id":"CLT","station_name":"Cilebut","i_long":106.800016,"distance":4331},{"station_name":"Bogor","station_id":"BOO","i_long":106.790574,"time":9,"is_transit":false,"transit":false,"line":2,"i_lat":-6.594596,"distance":7514}],[{"station_name":"Juanda","i_long":106.828284,"line":2,"is_transit":false,"transit":false,"time":0,"station_id":"JUA","distance":0,"i_lat":-6.166716},{"transit":false,"distance":1149,"time":2,"station_name":"Sawah Besar","is_transit":false,"line":2,"station_id":"SW","i_long":106.827103,"i_lat":-6.160725},{"time":2,"station_id":"MGB","distance":906,"i_long":106.82482,"line":2,"station_name":"Manggabesar","transit":false,"is_transit":false,"i_lat":-6.149769},{"distance":1080,"i_lat":-6.141205,"station_id":"JAY","line":2,"time":2,"transit":false,"is_transit":false,"station_name":"Jayakarta","i_long":106.820901},{"distance":1264,"station_name":"Jakarta Kota","time":4,"i_long":106.812439,"line":2,"station_id":"JAKK","i_lat":-6.137569,"transit":true,"is_transit":true},{"transit":true,"i_lat":-6.132549,"is_transit":true,"station_name":"Kampung Bandan","distance":1364,"i_long":106.826365,"station_id":"KPB","time":3,"line":4},{"line":11,"distance":1444,"station_id":"RJW","time":3,"transit":false,"is_transit":false,"station_name":"Rajawali","i_lat":-6.14505,"i_long":106.836569},{"i_long":106.839204,"time":5,"station_id":"KMO","transit":false,"line":11,"is_transit":false,"distance":1901,"station_name":"Kemayoran","i_lat":-6.161728},{"is_transit":false,"i_long":106.84368,"line":11,"time":4,"transit":false,"station_name":"Pasar Senen","distance":1436,"station_id":"PSE","i_lat":-6.174784},{"distance":1567,"is_transit":false,"station_id":"GST","transit":false,"time":8,"i_lat":-6.185975,"station_name":"Gang Sentiong","line":11,"i_long":106.850107},{"i_long":106.855437,"i_lat":-6.193792,"transit":false,"line":11,"distance":973,"station_id":"KMT","station_name":"Kramat","time":1,"is_transit":false},{"transit":false,"is_transit":false,"i_long":106.861737,"line":11,"station_name":"Pondok Jati","i_lat":-6.209188,"distance":1829,"time":2,"station_id":"POK"},{"time":9,"station_id":"JNG","transit":true,"is_transit":true,"i_long":106.86807400000001,"line":1,"distance":1236,"i_lat":-6.215091,"station_name":"Jatinegara"},{"station_id":"MTR","station_name":"Matraman","i_lat":-6.212485,"line":1,"transit":false,"distance":1377,"i_long":106.858896,"time":2,"is_transit":false},{"is_transit":true,"i_lat":-6.209883,"station_name":"Manggarai","time":2,"station_id":"MRI","transit":true,"i_long":106.84912,"line":2,"distance":1275},{"i_lat":-6.226659,"i_long":106.857948,"line":2,"distance":2610,"is_transit":false,"station_name":"Tebet","station_id":"TEB","time":4,"transit":false},{"is_transit":false,"i_lat":-6.242512,"line":2,"time":2,"station_id":"CW","transit":false,"i_long":106.856607,"distance":1230,"station_name":"Cawang"},{"i_long":106.85449,"time":3,"station_id":"DRN","is_transit":false,"line":2,"distance":1546,"transit":false,"station_name":"Duren Kalibata","i_lat":-6.255332},{"station_name":"Pasar Minggu Baru","i_long":106.851577,"line":2,"station_id":"PSMB","time":2,"transit":false,"distance":824,"is_transit":false,"i_lat":-6.263214},{"station_id":"PSM","time":2,"station_name":"Pasar Minggu","transit":false,"is_transit":false,"distance":2380,"i_lat":-6.2842400000000005,"i_long":106.843999,"line":2},{"station_id":"TNT","is_transit":false,"i_long":106.838896,"transit":false,"station_name":"Tanjung Barat","i_lat":-6.3080680000000005,"time":4,"line":2,"distance":2820},{"transit":false,"distance":2671,"i_lat":-6.330363,"line":2,"station_id":"LNA","is_transit":false,"station_name":"Lenteng Agung","i_long":106.832616,"time":3},{"station_id":"UP","line":2,"time":2,"i_long":106.834175,"station_name":"Univ. Pancasila","i_lat":-6.339291,"is_transit":false,"transit":false,"distance":1029},{"time":3,"transit":false,"station_name":"Univ. Indonesia","distance":2264,"station_id":"UI","i_long":106.831474,"is_transit":false,"line":2,"i_lat":-6.360749},{"i_lat":-6.369073,"time":2,"distance":1109,"i_long":106.831114,"is_transit":false,"transit":false,"station_name":"Pondok Cina","station_id":"POC","line":2},{"station_name":"Depokbaru","transit":false,"line":2,"station_id":"DPB","i_lat":-6.391065,"is_transit":false,"i_long":106.819451,"distance":2727,"time":4},{"station_id":"DP","i_long":106.816926,"station_name":"Depok","time":3,"is_transit":false,"i_lat":-6.405256,"line":2,"distance":1584,"transit":false},{"line":2,"station_name":"Citayam","i_long":106.800298,"distance":5084,"station_id":"CTA","transit":false,"time":6,"is_transit":false,"i_lat":-6.448811},{"station_name":"Bojonggede","transit":false,"time":5,"i_lat":-6.493243,"i_long":106.792719,"is_transit":false,"line":2,"distance":5197,"station_id":"BJD"},{"distance":4331,"station_id":"CLT","transit":false,"station_name":"Cilebut","i_lat":-6.530544,"i_long":106.800016,"line":2,"time":5,"is_transit":false},{"distance":7514,"time":9,"i_lat":-6.594596,"station_id":"BOO","transit":false,"station_name":"Bogor","line":2,"is_transit":false,"i_long":106.790574}]]}