{"data":[[{"i_long":106.828284,"i_lat":-6.166716,"line":2,"distance":0,"time":0,"transit":false,"station_id":"JUA","is_transit":false,"station_name":"Juanda"},{"time":2,"station_name":"Sawah Besar","i_lat":-6.160725,"line":2,"transit":false,"station_id":"SW","distance":1149,"is_transit":false,"i_long":106.827103},{"time":2,"station_name":"Manggabesar","i_lat":-6.149769,"i_long":106.82482,"line":2,"station_id":"MGB","distance":906,"transit":false,"is_transit":false},{"time":2,"is_transit":false,"station_name":"Jayakarta","transit":false,"i_long":106.820901,"distance":1080,"i_lat":-6.141205,"line":2,"station_id":"JAY"},{"transit":false,"station_name":"Jakarta Kota","i_lat":-6.137569,"i_long":106.812439,"line":2,"station_id":"JAKK","time":4,"is_transit":false,"distance":1264}],[{"station_name":"Juanda","transit":false,"i_long":106.828284,"is_transit":false,"distance":0,"i_lat":-6.166716,"time":0,"station_id":"JUA","line":2},{"i_long":106.832183,"station_id":"GDD","time":4,"station_name":"Gondangdia","is_transit":false,"distance":2015,"i_lat":-6.186295,"line":2,"transit":false},{"distance":1750,"line":2,"time":3,"station_name":"Cikini","is_transit":false,"transit":false,"i_lat":-6.198556,"station_id":"CKI","i_long":106.840169},{"is_transit":true,"line":2,"transit":true,"station_name":"Manggarai","distance":1590,"i_long":106.84912,"time":4,"station_id":"MRI","i_lat":-6.209883},{"distance":3186,"i_lat":-6.202263,"is_transit":false,"line":1,"transit":false,"station_name":"Sudirman","station_id":"SUD","time":4,"i_long":106.822649},{"station_name":"Sudirman Baru","i_long":106.819881,"time":1,"distance":280,"transit":false,"is_transit":false,"station_id":"SUDB","line":1,"i_lat":-6.201433},{"distance":471,"line":1,"time":1,"station_name":"Karet","station_id":"KAT","transit":false,"i_lat":-6.20132,"i_long":106.816351,"is_transit":false},{"is_transit":false,"transit":false,"station_name":"Tanah Abang","i_long":106.811091,"station_id":"THB","i_lat":-6.185545,"distance":2029,"line":1,"time":5},{"line":1,"station_name":"Duri","time":8,"transit":false,"is_transit":false,"distance":3632,"i_lat":-6.155215,"station_id":"DU","i_long":106.800832},{"i_long":106.79867,"distance":1230,"station_id":"AK","transit":false,"is_transit":false,"i_lat":-6.144674,"station_name":"Angke","time":4,"line":1},{"is_transit":true,"i_lat":-6.132549,"transit":true,"distance":4102,"station_id":"KPB","i_long":106.826365,"time":9,"line":4,"station_name":"Kampung Bandan"},{"is_transit":false,"i_long":106.812439,"distance":1364,"station_name":"Jakarta Kota","station_id":"JAKK","transit":false,"time":3,"line":2,"i_lat":-6.137569}],[{"i_lat":-6.166716,"station_name":"Juanda","line":2,"time":0,"station_id":"JUA","transit":false,"is_transit":false,"distance":0,"i_long":106.828284},{"i_lat":-6.186295,"line":2,"station_name":"Gondangdia","i_long":106.832183,"is_transit":false,"distance":2015,"transit":false,"station_id":"GDD","time":4},{"i_long":106.840169,"distance":1750,"i_lat":-6.198556,"time":3,"station_id":"CKI","station_name":"Cikini","is_transit":false,"transit":false,"line":2},{"station_name":"Manggarai","i_long":106.84912,"is_transit":true,"transit":true,"i_lat":-6.209883,"line":2,"time":4,"station_id":"MRI","distance":1590},{"is_transit":false,"time":2,"station_id":"MTR","distance":1275,"i_lat":-6.212485,"station_name":"Matraman","transit":false,"line":1,"i_long":106.858896},{"is_transit":true,"station_id":"JNG","transit":true,"i_lat":-6.215091,"line":1,"station_name":"Jatinegara","time":8,"i_long":106.86807400000001,"distance":1377},{"transit":false,"i_long":106.861737,"line":11,"time":2,"i_lat":-6.209188,"station_name":"Pondok Jati","distance":1236,"is_transit":false,"station_id":"POK"},{"station_id":"KMT","line":11,"is_transit":false,"distance":1829,"time":2,"station_name":"Kramat","i_lat":-6.193792,"i_long":106.855437,"transit":false},{"is_transit":false,"i_lat":-6.185975,"station_id":"GST","time":1,"line":11,"i_long":106.850107,"transit":false,"station_name":"Gang Sentiong","distance":973},{"i_long":106.84368,"line":11,"i_lat":-6.174784,"station_id":"PSE","station_name":"Pasar Senen","time":8,"is_transit":false,"transit":false,"distance":1567},{"i_lat":-6.161728,"is_transit":false,"distance":1436,"station_id":"KMO","line":11,"time":4,"station_name":"Kemayoran","transit":false,"i_long":106.839204},{"station_name":"Rajawali","is_transit":false,"distance":1901,"transit":false,"line":11,"i_lat":-6.14505,"time":5,"station_id":"RJW","i_long":106.836569},{"station_name":"Kampung Bandan","time":3,"station_id":"KPB","i_lat":-6.132549,"i_long":106.826365,"transit":true,"is_transit":true,"line":4,"distance":1444},{"i_lat":-6.137569,"distance":1364,"transit":false,"is_transit":false,"line":2,"station_name":"Jakarta Kota","i_long":106.812439,"time":3,"station_id":"JAKK"}]]}