{"data":[[{"station_name":"Juanda","is_transit":false,"station_id":"JUA","i_lat":-6.166716,"transit":false,"i_long":106.828284,"time":0,"distance":0,"line":2},{"transit":false,"time":4,"distance":2015,"i_lat":-6.186295,"is_transit":false,"station_id":"GDD","i_long":106.832183,"line":2,"station_name":"Gondangdia"},{"is_transit":false,"distance":1750,"station_name":"Cikini","i_long":106.840169,"transit":false,"time":3,"line":2,"i_lat":-6.198556,"station_id":"CKI"},{"station_name":"Manggarai","transit":true,"is_transit":true,"i_long":106.84912,"line":2,"time":4,"distance":1590,"i_lat":-6.209883,"station_id":"MRI"},{"i_long":106.822649,"time":4,"station_name":"Sudirman","is_transit":false,"i_lat":-6.202263,"station_id":"SUD","transit":false,"line":1,"distance":3186},{"is_transit":false,"distance":280,"station_name":"Sudirman Baru","transit":false,"station_id":"SUDB","i_lat":-6.201433,"time":1,"i_long":106.819881,"line":1},{"station_name":"Karet","distance":471,"i_lat":-6.20132,"time":1,"line":1,"is_transit":false,"station_id":"KAT","transit":false,"i_long":106.816351},{"is_transit":true,"station_name":"Tanah Abang","distance":2029,"i_lat":-6.185545,"time":5,"station_id":"THB","i_long":106.811091,"transit":true,"line":1},{"is_transit":false,"i_lat":-6.207404,"distance":3191,"time":6,"transit":false,"station_id":"PLM","station_name":"Palmerah","i_long":106.79689,"line":6},{"i_lat":-6.237242,"station_id":"KBY","is_transit":false,"station_name":"Kebayoran","time":7,"line":6,"i_long":106.780334,"distance":3737,"transit":false},{"is_transit":false,"station_id":"PDJ","time":8,"transit":false,"distance":6218,"i_lat":-6.276362,"line":6,"i_long":106.74273,"station_name":"Pondokranji"},{"distance":2179,"transit":false,"time":3,"i_long":106.728916,"station_name":"Jurangmangu","i_lat":-6.288927,"station_id":"JMU","line":6,"is_transit":false},{"station_id":"SDM","distance":1994,"station_name":"Sudimara","transit":false,"line":6,"is_transit":false,"i_long":106.712277,"time":4,"i_lat":-6.296963},{"line":6,"is_transit":false,"time":6,"distance":4566,"station_name":"Rawa Buntu","transit":false,"i_lat":-6.314823,"i_long":106.675475,"station_id":"RU"},{"i_lat":-6.319871,"station_id":"SRP","is_transit":false,"transit":false,"i_long":106.66566,"line":6,"time":4,"distance":2413,"station_name":"Serpong"},{"distance":1784,"transit":false,"station_id":"CSK","station_name":"Cisauk","time":4,"i_lat":-6.32484,"i_long":106.640411,"is_transit":false,"line":3},{"station_id":"CC","transit":false,"distance":2519,"station_name":"Cicayur","i_long":106.617853,"line":3,"is_transit":false,"time":4,"i_lat":-6.329547},{"line":6,"station_id":"PRP","station_name":"Parung Panjang","transit":false,"distance":5968,"is_transit":false,"i_lat":-6.3441410000000005,"i_long":106.568863,"time":8},{"station_id":"CJT","transit":false,"time":9,"line":3,"i_lat":-6.354349,"distance":7025,"i_long":106.508482,"station_name":"Cilejit","is_transit":false},{"distance":2675,"station_name":"Daru","i_lat":-6.338021,"station_id":"DAR","i_long":106.491338,"is_transit":false,"time":6,"line":0,"transit":false},{"i_lat":-6.327251,"line":6,"station_name":"Tenjo","distance":3902,"time":5,"transit":false,"is_transit":false,"station_id":"TEJ","i_long":106.460812},{"line":6,"distance":2974,"is_transit":false,"time":5,"transit":false,"station_name":"Tigaraksa","station_id":"TGS","i_lat":-6.328533,"i_long":106.425991},{"i_long":106.411216,"transit":false,"distance":2651,"line":3,"station_name":"Cikoya","time":3,"i_lat":-6.33561,"station_id":"CKY","is_transit":false},{"time":4,"station_name":"Maja","line":6,"station_id":"MJ","i_lat":-6.332307,"i_long":106.394373,"is_transit":false,"transit":false,"distance":1853},{"station_id":"CTR","i_lat":-6.334892,"time":10,"station_name":"Citeras","line":3,"is_transit":false,"i_long":106.332092,"distance":7293,"transit":false}],[{"station_name":"Juanda","transit":false,"i_lat":-6.166716,"line":2,"i_long":106.828284,"station_id":"JUA","time":0,"is_transit":false,"distance":0},{"is_transit":false,"station_name":"Sawah Besar","i_lat":-6.160725,"i_long":106.827103,"line":2,"station_id":"SW","transit":false,"distance":1149,"time":2},{"is_transit":false,"station_id":"MGB","time":2,"transit":false,"distance":906,"station_name":"Manggabesar","i_lat":-6.149769,"i_long":106.82482,"line":2},{"distance":1080,"time":2,"i_lat":-6.141205,"is_transit":false,"transit":false,"i_long":106.820901,"line":2,"station_name":"Jayakarta","station_id":"JAY"},{"station_name":"Jakarta Kota","is_transit":true,"station_id":"JAKK","transit":true,"i_lat":-6.137569,"distance":1264,"time":4,"line":2,"i_long":106.812439},{"distance":1364,"station_id":"KPB","is_transit":true,"time":3,"station_name":"Kampung Bandan","i_lat":-6.132549,"i_long":106.826365,"transit":true,"line":4},{"station_id":"AK","distance":4102,"i_lat":-6.144674,"i_long":106.79867,"line":1,"is_transit":false,"station_name":"Angke","time":9,"transit":false},{"is_transit":false,"transit":false,"i_lat":-6.155215,"i_long":106.800832,"time":4,"distance":1230,"station_id":"DU","line":1,"station_name":"Duri"},{"station_name":"Tanah Abang","distance":3632,"line":1,"i_long":106.811091,"station_id":"THB","time":8,"i_lat":-6.185545,"is_transit":true,"transit":true},{"station_name":"Palmerah","line":6,"transit":false,"distance":3191,"is_transit":false,"i_lat":-6.207404,"time":6,"i_long":106.79689,"station_id":"PLM"},{"station_id":"KBY","i_long":106.780334,"transit":false,"station_name":"Kebayoran","time":7,"i_lat":-6.237242,"distance":3737,"is_transit":false,"line":6},{"time":8,"is_transit":false,"station_name":"Pondokranji","i_long":106.74273,"distance":6218,"line":6,"station_id":"PDJ","transit":false,"i_lat":-6.276362},{"station_name":"Jurangmangu","time":3,"station_id":"JMU","i_long":106.728916,"distance":2179,"is_transit":false,"i_lat":-6.288927,"transit":false,"line":6},{"time":4,"is_transit":false,"distance":1994,"transit":false,"i_lat":-6.296963,"i_long":106.712277,"line":6,"station_name":"Sudimara","station_id":"SDM"},{"i_long":106.675475,"i_lat":-6.314823,"station_name":"Rawa Buntu","station_id":"RU","is_transit":false,"distance":4566,"transit":false,"time":6,"line":6},{"i_lat":-6.319871,"line":6,"station_name":"Serpong","i_long":106.66566,"station_id":"SRP","transit":false,"is_transit":false,"time":4,"distance":2413},{"time":4,"i_long":106.640411,"is_transit":false,"station_name":"Cisauk","station_id":"CSK","transit":false,"distance":1784,"i_lat":-6.32484,"line":3},{"transit":false,"station_id":"CC","is_transit":false,"i_lat":-6.329547,"distance":2519,"time":4,"i_long":106.617853,"station_name":"Cicayur","line":3},{"time":8,"line":6,"is_transit":false,"station_name":"Parung Panjang","transit":false,"distance":5968,"i_long":106.568863,"station_id":"PRP","i_lat":-6.3441410000000005},{"i_long":106.508482,"line":3,"is_transit":false,"transit":false,"distance":7025,"station_name":"Cilejit","station_id":"CJT","time":9,"i_lat":-6.354349},{"i_long":106.491338,"i_lat":-6.338021,"line":0,"transit":false,"station_name":"Daru","station_id":"DAR","is_transit":false,"distance":2675,"time":6},{"is_transit":false,"i_lat":-6.327251,"transit":false,"line":6,"i_long":106.460812,"distance":3902,"time":5,"station_id":"TEJ","station_name":"Tenjo"},{"time":5,"station_name":"Tigaraksa","distance":2974,"line":6,"i_lat":-6.328533,"is_transit":false,"transit":false,"i_long":106.425991,"station_id":"TGS"},{"station_id":"CKY","transit":false,"line":3,"station_name":"Cikoya","time":3,"i_lat":-6.33561,"i_long":106.411216,"distance":2651,"is_transit":false},{"is_transit":false,"line":6,"transit":false,"i_lat":-6.332307,"i_long":106.394373,"station_id":"MJ","time":4,"station_name":"Maja","distance":1853},{"station_name":"Citeras","transit":false,"i_long":106.332092,"distance":7293,"time":10,"line":3,"is_transit":false,"station_id":"CTR","i_lat":-6.334892}],[{"i_long":106.828284,"distance":0,"station_name":"Juanda","station_id":"JUA","line":2,"i_lat":-6.166716,"transit":false,"is_transit":false,"time":0},{"station_id":"GDD","line":2,"station_name":"Gondangdia","is_transit":false,"transit":false,"i_long":106.832183,"time":4,"distance":2015,"i_lat":-6.186295},{"station_id":"CKI","transit":false,"i_lat":-6.198556,"i_long":106.840169,"is_transit":false,"line":2,"station_name":"Cikini","distance":1750,"time":3},{"distance":1590,"station_name":"Manggarai","time":4,"i_lat":-6.209883,"i_long":106.84912,"station_id":"MRI","line":2,"is_transit":true,"transit":true},{"is_transit":false,"station_id":"MTR","i_lat":-6.212485,"distance":1275,"time":2,"transit":false,"line":1,"station_name":"Matraman","i_long":106.858896},{"transit":true,"i_lat":-6.215091,"i_long":106.86807400000001,"distance":1377,"station_id":"JNG","time":8,"station_name":"Jatinegara","is_transit":true,"line":1},{"line":11,"is_transit":false,"transit":false,"i_long":106.861737,"station_name":"Pondok Jati","time":2,"distance":1236,"station_id":"POK","i_lat":-6.209188},{"station_id":"KMT","station_name":"Kramat","line":11,"i_lat":-6.193792,"i_long":106.855437,"time":2,"transit":false,"is_transit":false,"distance":1829},{"transit":false,"is_transit":false,"distance":973,"i_lat":-6.185975,"time":1,"i_long":106.850107,"line":11,"station_id":"GST","station_name":"Gang Sentiong"},{"distance":1567,"line":11,"is_transit":false,"station_name":"Pasar Senen","transit":false,"i_lat":-6.174784,"station_id":"PSE","time":8,"i_long":106.84368},{"line":11,"station_id":"KMO","i_lat":-6.161728,"station_name":"Kemayoran","distance":1436,"time":4,"is_transit":false,"transit":false,"i_long":106.839204},{"time":5,"is_transit":false,"i_lat":-6.14505,"distance":1901,"transit":false,"i_long":106.836569,"line":11,"station_id":"RJW","station_name":"Rajawali"},{"distance":1444,"i_lat":-6.132549,"time":3,"i_long":106.826365,"transit":true,"station_name":"Kampung Bandan","line":4,"station_id":"KPB","is_transit":true},{"station_name":"Angke","transit":false,"line":1,"time":9,"i_lat":-6.144674,"i_long":106.79867,"station_id":"AK","distance":4102,"is_transit":false},{"station_id":"DU","time":4,"transit":false,"distance":1230,"station_name":"Duri","line":1,"i_lat":-6.155215,"is_transit":false,"i_long":106.800832},{"line":1,"distance":3632,"station_id":"THB","transit":true,"i_long":106.811091,"i_lat":-6.185545,"time":8,"station_name":"Tanah Abang","is_transit":true},{"station_id":"PLM","transit":false,"station_name":"Palmerah","i_lat":-6.207404,"i_long":106.79689,"time":6,"distance":3191,"line":6,"is_transit":false},{"time":7,"transit":false,"station_id":"KBY","is_transit":false,"distance":3737,"station_name":"Kebayoran","line":6,"i_lat":-6.237242,"i_long":106.780334},{"transit":false,"time":8,"line":6,"station_name":"Pondokranji","i_lat":-6.276362,"is_transit":false,"i_long":106.74273,"distance":6218,"station_id":"PDJ"},{"station_id":"JMU","transit":false,"distance":2179,"time":3,"line":6,"station_name":"Jurangmangu","i_long":106.728916,"i_lat":-6.288927,"is_transit":false},{"i_long":106.712277,"i_lat":-6.296963,"station_id":"SDM","transit":false,"is_transit":false,"distance":1994,"station_name":"Sudimara","line":6,"time":4},{"is_transit":false,"i_lat":-6.314823,"distance":4566,"line":6,"transit":false,"station_name":"Rawa Buntu","station_id":"RU","time":6,"i_long":106.675475},{"station_name":"Serpong","station_id":"SRP","line":6,"time":4,"transit":false,"i_lat":-6.319871,"distance":2413,"i_long":106.66566,"is_transit":false},{"i_long":106.640411,"transit":false,"is_transit":false,"distance":1784,"i_lat":-6.32484,"station_name":"Cisauk","time":4,"station_id":"CSK","line":3},{"station_id":"CC","line":3,"i_lat":-6.329547,"distance":2519,"station_name":"Cicayur","time":4,"transit":false,"is_transit":false,"i_long":106.617853},{"is_transit":false,"i_long":106.568863,"station_name":"Parung Panjang","time":8,"i_lat":-6.3441410000000005,"line":6,"transit":false,"station_id":"PRP","distance":5968},{"transit":false,"distance":7025,"station_name":"Cilejit","time":9,"i_long":106.508482,"station_id":"CJT","is_transit":false,"i_lat":-6.354349,"line":3},{"distance":2675,"time":6,"station_id":"DAR","station_name":"Daru","i_long":106.491338,"is_transit":false,"line":0,"i_lat":-6.338021,"transit":false},{"i_long":106.460812,"line":6,"is_transit":false,"time":5,"distance":3902,"station_name":"Tenjo","transit":false,"i_lat":-6.327251,"station_id":"TEJ"},{"station_name":"Tigaraksa","line":6,"i_lat":-6.328533,"i_long":106.425991,"time":5,"is_transit":false,"station_id":"TGS","transit":false,"distance":2974},{"distance":2651,"station_id":"CKY","time":3,"transit":false,"i_long":106.411216,"line":3,"i_lat":-6.33561,"is_transit":false,"station_name":"Cikoya"},{"i_long":106.394373,"transit":false,"time":4,"distance":1853,"station_id":"MJ","is_transit":false,"i_lat":-6.332307,"station_name":"Maja","line":6},{"distance":7293,"line":3,"time":10,"i_lat":-6.334892,"i_long":106.332092,"is_transit":false,"station_name":"Citeras","station_id":"CTR","transit":false}],[{"is_transit":false,"line":2,"station_name":"Juanda","time":0,"station_id":"JUA","transit":false,"distance":0,"i_lat":-6.166716,"i_long":106.828284},{"i_lat":-6.160725,"station_id":"SW","i_long":106.827103,"distance":1149,"line":2,"is_transit":false,"time":2,"transit":false,"station_name":"Sawah Besar"},{"transit":false,"station_id":"MGB","station_name":"Manggabesar","i_long":106.82482,"line":2,"distance":906,"is_transit":false,"i_lat":-6.149769,"time":2},{"time":2,"distance":1080,"station_id":"JAY","transit":false,"line":2,"station_name":"Jayakarta","i_long":106.820901,"i_lat":-6.141205,"is_transit":false},{"line":2,"i_lat":-6.137569,"distance":1264,"time":4,"is_transit":true,"station_id":"JAKK","transit":true,"station_name":"Jakarta Kota","i_long":106.812439},{"distance":1364,"i_lat":-6.132549,"i_long":106.826365,"station_name":"Kampung Bandan","transit":true,"line":4,"is_transit":true,"station_id":"KPB","time":3},{"station_name":"Rajawali","time":3,"distance":1444,"line":11,"transit":false,"i_long":106.836569,"i_lat":-6.14505,"is_transit":false,"station_id":"RJW"},{"time":5,"distance":1901,"line":11,"is_transit":false,"station_name":"Kemayoran","i_long":106.839204,"station_id":"KMO","i_lat":-6.161728,"transit":false},{"station_id":"PSE","time":4,"i_lat":-6.174784,"line":11,"transit":false,"is_transit":false,"station_name":"Pasar Senen","i_long":106.84368,"distance":1436},{"station_id":"GST","station_name":"Gang Sentiong","i_lat":-6.185975,"distance":1567,"line":11,"is_transit":false,"time":8,"transit":false,"i_long":106.850107},{"transit":false,"is_transit":false,"station_id":"KMT","distance":973,"i_long":106.855437,"time":1,"station_name":"Kramat","i_lat":-6.193792,"line":11},{"is_transit":false,"station_id":"POK","transit":false,"i_long":106.861737,"line":11,"station_name":"Pondok Jati","time":2,"distance":1829,"i_lat":-6.209188},{"time":9,"transit":true,"station_id":"JNG","station_name":"Jatinegara","line":1,"i_lat":-6.215091,"i_long":106.86807400000001,"is_transit":true,"distance":1236},{"time":2,"is_transit":false,"station_name":"Matraman","i_lat":-6.212485,"station_id":"MTR","transit":false,"i_long":106.858896,"line":1,"distance":1377},{"station_name":"Manggarai","i_lat":-6.209883,"is_transit":false,"station_id":"MRI","time":2,"transit":false,"distance":1275,"i_long":106.84912,"line":2},{"is_transit":false,"time":4,"i_lat":-6.202263,"station_name":"Sudirman","distance":3186,"i_long":106.822649,"station_id":"SUD","line":1,"transit":false},{"line":1,"time":1,"is_transit":false,"station_name":"Sudirman Baru","transit":false,"i_lat":-6.201433,"distance":280,"i_long":106.819881,"station_id":"SUDB"},{"i_lat":-6.20132,"line":1,"is_transit":false,"time":1,"station_name":"Karet","i_long":106.816351,"station_id":"KAT","transit":false,"distance":471},{"distance":2029,"station_name":"Tanah Abang","line":1,"is_transit":true,"time":5,"i_long":106.811091,"i_lat":-6.185545,"station_id":"THB","transit":true},{"time":6,"distance":3191,"station_name":"Palmerah","is_transit":false,"station_id":"PLM","i_lat":-6.207404,"i_long":106.79689,"transit":false,"line":6},{"distance":3737,"line":6,"i_long":106.780334,"transit":false,"time":7,"is_transit":false,"i_lat":-6.237242,"station_name":"Kebayoran","station_id":"KBY"},{"transit":false,"time":8,"station_name":"Pondokranji","i_lat":-6.276362,"i_long":106.74273,"line":6,"distance":6218,"is_transit":false,"station_id":"PDJ"},{"i_lat":-6.288927,"station_name":"Jurangmangu","distance":2179,"station_id":"JMU","transit":false,"time":3,"is_transit":false,"i_long":106.728916,"line":6},{"distance":1994,"i_long":106.712277,"transit":false,"time":4,"i_lat":-6.296963,"line":6,"station_name":"Sudimara","is_transit":false,"station_id":"SDM"},{"station_id":"RU","time":6,"line":6,"is_transit":false,"transit":false,"distance":4566,"station_name":"Rawa Buntu","i_lat":-6.314823,"i_long":106.675475},{"station_id":"SRP","line":6,"time":4,"i_lat":-6.319871,"transit":false,"is_transit":false,"station_name":"Serpong","i_long":106.66566,"distance":2413},{"transit":false,"i_long":106.640411,"line":3,"time":4,"is_transit":false,"distance":1784,"station_id":"CSK","station_name":"Cisauk","i_lat":-6.32484},{"i_long":106.617853,"line":3,"time":4,"distance":2519,"transit":false,"i_lat":-6.329547,"station_name":"Cicayur","is_transit":false,"station_id":"CC"},{"station_id":"PRP","distance":5968,"station_name":"Parung Panjang","time":8,"i_lat":-6.3441410000000005,"line":6,"is_transit":false,"transit":false,"i_long":106.568863},{"i_lat":-6.354349,"line":3,"distance":7025,"transit":false,"i_long":106.508482,"time":9,"station_name":"Cilejit","is_transit":false,"station_id":"CJT"},{"i_long":106.491338,"transit":false,"is_transit":false,"time":6,"station_name":"Daru","line":0,"station_id":"DAR","distance":2675,"i_lat":-6.338021},{"transit":false,"line":6,"station_id":"TEJ","time":5,"distance":3902,"i_lat":-6.327251,"is_transit":false,"i_long":106.460812,"station_name":"Tenjo"},{"i_long":106.425991,"time":5,"transit":false,"station_name":"Tigaraksa","i_lat":-6.328533,"line":6,"is_transit":false,"distance":2974,"station_id":"TGS"},{"transit":false,"station_name":"Cikoya","station_id":"CKY","i_lat":-6.33561,"i_long":106.411216,"line":3,"distance":2651,"is_transit":false,"time":3},{"time":4,"transit":false,"station_id":"MJ","is_transit":false,"distance":1853,"station_name":"Maja","i_lat":-6.332307,"line":6,"i_long":106.394373},{"transit":false,"station_name":"Citeras","time":10,"is_transit":false,"i_lat":-6.334892,"i_long":106.332092,"station_id":"CTR","distance":7293,"line":3}]]}