{"data":[[{"distance":0,"time":0,"station_id":"JUA","transit":false,"i_lat":-6.166716,"line":2,"is_transit":false,"station_name":"Juanda","i_long":106.828284},{"is_transit":false,"station_name":"Gondangdia","i_lat":-6.186295,"transit":false,"distance":2015,"time":4,"line":2,"i_long":106.832183,"station_id":"GDD"}],[{"is_transit":false,"station_id":"JUA","station_name":"Juanda","line":2,"i_lat":-6.166716,"time":0,"distance":0,"transit":false,"i_long":106.828284},{"i_lat":-6.160725,"transit":false,"station_name":"Sawah Besar","line":2,"is_transit":false,"distance":1149,"time":2,"station_id":"SW","i_long":106.827103},{"distance":906,"line":2,"station_id":"MGB","transit":false,"i_lat":-6.149769,"is_transit":false,"time":2,"i_long":106.82482,"station_name":"Manggabesar"},{"is_transit":false,"station_name":"Jayakarta","station_id":"JAY","distance":1080,"i_lat":-6.141205,"time":2,"i_long":106.820901,"line":2,"transit":false},{"station_id":"JAKK","line":2,"distance":1264,"i_long":106.812439,"time":4,"is_transit":true,"station_name":"Jakarta Kota","i_lat":-6.137569,"transit":true},{"transit":true,"line":4,"is_transit":true,"distance":1364,"station_name":"Kampung Bandan","station_id":"KPB","time":3,"i_lat":-6.132549,"i_long":106.826365},{"is_transit":false,"transit":false,"i_long":106.79867,"station_id":"AK","station_name":"Angke","time":9,"i_lat":-6.144674,"distance":4102,"line":1},{"distance":1230,"time":4,"line":1,"station_name":"Duri","i_lat":-6.155215,"station_id":"DU","transit":false,"i_long":106.800832,"is_transit":false},{"is_transit":false,"i_lat":-6.185545,"line":1,"station_name":"Tanah Abang","distance":3632,"time":8,"transit":false,"station_id":"THB","i_long":106.811091},{"line":1,"time":5,"is_transit":false,"transit":false,"station_id":"KAT","station_name":"Karet","i_long":106.816351,"distance":2029,"i_lat":-6.20132},{"i_long":106.819881,"is_transit":false,"station_name":"Sudirman Baru","i_lat":-6.201433,"line":1,"transit":false,"station_id":"SUDB","distance":471,"time":1},{"line":1,"distance":280,"transit":false,"i_lat":-6.202263,"time":1,"is_transit":false,"station_name":"Sudirman","i_long":106.822649,"station_id":"SUD"},{"station_name":"Manggarai","station_id":"MRI","distance":3186,"i_lat":-6.209883,"time":4,"line":2,"is_transit":true,"i_long":106.84912,"transit":true},{"transit":false,"is_transit":false,"time":4,"i_lat":-6.198556,"distance":1590,"station_name":"Cikini","i_long":106.840169,"line":2,"station_id":"CKI"},{"station_id":"GDD","transit":false,"station_name":"Gondangdia","time":3,"i_lat":-6.186295,"i_long":106.832183,"is_transit":false,"distance":1750,"line":2}],[{"time":0,"station_id":"JUA","is_transit":false,"distance":0,"station_name":"Juanda","i_long":106.828284,"line":2,"transit":false,"i_lat":-6.166716},{"distance":1149,"is_transit":false,"transit":false,"line":2,"i_long":106.827103,"i_lat":-6.160725,"time":2,"station_id":"SW","station_name":"Sawah Besar"},{"i_lat":-6.149769,"station_name":"Manggabesar","is_transit":false,"station_id":"MGB","line":2,"transit":false,"distance":906,"time":2,"i_long":106.82482},{"i_lat":-6.141205,"station_name":"Jayakarta","line":2,"transit":false,"station_id":"JAY","i_long":106.820901,"distance":1080,"time":2,"is_transit":false},{"transit":true,"station_name":"Jakarta Kota","i_lat":-6.137569,"station_id":"JAKK","i_long":106.812439,"line":2,"distance":1264,"is_transit":true,"time":4},{"i_long":106.826365,"is_transit":true,"station_id":"KPB","line":4,"distance":1364,"transit":true,"station_name":"Kampung Bandan","time":3,"i_lat":-6.132549},{"i_lat":-6.14505,"distance":1444,"i_long":106.836569,"station_id":"RJW","line":11,"is_transit":false,"time":3,"transit":false,"station_name":"Rajawali"},{"line":11,"distance":1901,"i_lat":-6.161728,"transit":false,"station_name":"Kemayoran","i_long":106.839204,"time":5,"is_transit":false,"station_id":"KMO"},{"i_long":106.84368,"station_name":"Pasar Senen","distance":1436,"line":11,"is_transit":false,"transit":false,"station_id":"PSE","i_lat":-6.174784,"time":4},{"station_id":"GST","i_long":106.850107,"station_name":"Gang Sentiong","i_lat":-6.185975,"line":11,"is_transit":false,"time":8,"transit":false,"distance":1567},{"station_id":"KMT","station_name":"Kramat","time":1,"i_lat":-6.193792,"line":11,"i_long":106.855437,"is_transit":false,"distance":973,"transit":false},{"time":2,"distance":1829,"i_lat":-6.209188,"station_id":"POK","station_name":"Pondok Jati","i_long":106.861737,"is_transit":false,"line":11,"transit":false},{"station_name":"Jatinegara","is_transit":true,"time":9,"distance":1236,"transit":true,"i_lat":-6.215091,"i_long":106.86807400000001,"station_id":"JNG","line":1},{"line":1,"time":2,"distance":1377,"station_name":"Matraman","i_lat":-6.212485,"i_long":106.858896,"transit":false,"station_id":"MTR","is_transit":false},{"station_name":"Manggarai","line":2,"i_lat":-6.209883,"i_long":106.84912,"distance":1275,"transit":true,"station_id":"MRI","time":2,"is_transit":true},{"i_long":106.840169,"station_id":"CKI","i_lat":-6.198556,"is_transit":false,"line":2,"transit":false,"station_name":"Cikini","time":4,"distance":1590},{"i_long":106.832183,"station_name":"Gondangdia","transit":false,"time":3,"is_transit":false,"distance":1750,"station_id":"GDD","line":2,"i_lat":-6.186295}]]}