{"data":[[{"i_long":106.828284,"time":0,"station_name":"Juanda","i_lat":-6.166716,"line":2,"is_transit":false,"distance":0,"station_id":"JUA","transit":false},{"distance":2015,"is_transit":false,"transit":false,"i_long":106.832183,"line":2,"station_name":"Gondangdia","i_lat":-6.186295,"station_id":"GDD","time":4},{"time":3,"line":2,"station_name":"Cikini","station_id":"CKI","i_long":106.840169,"transit":false,"i_lat":-6.198556,"is_transit":false,"distance":1750},{"is_transit":false,"station_name":"Manggarai","i_lat":-6.209883,"i_long":106.84912,"line":2,"time":4,"distance":1590,"station_id":"MRI","transit":false},{"station_id":"TEB","transit":false,"distance":2610,"station_name":"Tebet","time":4,"is_transit":false,"i_long":106.857948,"line":2,"i_lat":-6.226659},{"station_name":"Cawang","station_id":"CW","line":2,"transit":false,"distance":1230,"i_lat":-6.242512,"i_long":106.856607,"is_transit":false,"time":2},{"is_transit":false,"distance":1546,"station_name":"Duren Kalibata","time":3,"i_long":106.85449,"station_id":"DRN","i_lat":-6.255332,"transit":false,"line":2}],[{"transit":false,"station_id":"JUA","station_name":"Juanda","line":2,"is_transit":false,"i_lat":-6.166716,"i_long":106.828284,"time":0,"distance":0},{"time":2,"is_transit":false,"transit":false,"station_id":"SW","distance":1149,"station_name":"Sawah Besar","i_lat":-6.160725,"i_long":106.827103,"line":2},{"station_id":"MGB","i_lat":-6.149769,"time":2,"line":2,"station_name":"Manggabesar","is_transit":false,"transit":false,"distance":906,"i_long":106.82482},{"distance":1080,"transit":false,"is_transit":false,"time":2,"station_name":"Jayakarta","i_long":106.820901,"line":2,"station_id":"JAY","i_lat":-6.141205},{"distance":1264,"station_id":"JAKK","time":4,"station_name":"Jakarta Kota","i_lat":-6.137569,"i_long":106.812439,"transit":true,"line":2,"is_transit":true},{"transit":true,"i_long":106.826365,"time":3,"is_transit":true,"i_lat":-6.132549,"station_id":"KPB","station_name":"Kampung Bandan","line":4,"distance":1364},{"transit":false,"station_name":"Angke","distance":4102,"station_id":"AK","i_long":106.79867,"time":9,"is_transit":false,"i_lat":-6.144674,"line":1},{"is_transit":false,"station_id":"DU","i_lat":-6.155215,"distance":1230,"station_name":"Duri","time":4,"transit":false,"i_long":106.800832,"line":1},{"line":1,"transit":false,"i_lat":-6.185545,"i_long":106.811091,"is_transit":false,"station_name":"Tanah Abang","time":8,"station_id":"THB","distance":3632},{"distance":2029,"i_lat":-6.20132,"station_id":"KAT","i_long":106.816351,"is_transit":false,"station_name":"Karet","time":5,"line":1,"transit":false},{"transit":false,"time":1,"i_lat":-6.201433,"i_long":106.819881,"station_id":"SUDB","distance":471,"station_name":"Sudirman Baru","is_transit":false,"line":1},{"station_name":"Sudirman","is_transit":false,"station_id":"SUD","transit":false,"time":1,"line":1,"distance":280,"i_long":106.822649,"i_lat":-6.202263},{"is_transit":true,"station_id":"MRI","station_name":"Manggarai","time":4,"distance":3186,"i_lat":-6.209883,"i_long":106.84912,"line":2,"transit":true},{"i_lat":-6.226659,"distance":2610,"station_name":"Tebet","i_long":106.857948,"is_transit":false,"station_id":"TEB","line":2,"time":4,"transit":false},{"line":2,"transit":false,"station_name":"Cawang","time":2,"i_lat":-6.242512,"distance":1230,"station_id":"CW","is_transit":false,"i_long":106.856607},{"station_id":"DRN","transit":false,"i_lat":-6.255332,"distance":1546,"is_transit":false,"station_name":"Duren Kalibata","line":2,"time":3,"i_long":106.85449}],[{"i_long":106.828284,"transit":false,"is_transit":false,"distance":0,"line":2,"station_name":"Juanda","i_lat":-6.166716,"time":0,"station_id":"JUA"},{"station_name":"Sawah Besar","station_id":"SW","is_transit":false,"transit":false,"time":2,"line":2,"distance":1149,"i_lat":-6.160725,"i_long":106.827103},{"is_transit":false,"i_lat":-6.149769,"station_id":"MGB","i_long":106.82482,"transit":false,"station_name":"Manggabesar","line":2,"distance":906,"time":2},{"station_id":"JAY","distance":1080,"time":2,"is_transit":false,"transit":false,"i_lat":-6.141205,"i_long":106.820901,"station_name":"Jayakarta","line":2},{"station_name":"Jakarta Kota","time":4,"is_transit":true,"station_id":"JAKK","i_long":106.812439,"distance":1264,"i_lat":-6.137569,"transit":true,"line":2},{"transit":true,"is_transit":true,"distance":1364,"line":4,"station_id":"KPB","time":3,"i_lat":-6.132549,"i_long":106.826365,"station_name":"Kampung Bandan"},{"i_lat":-6.14505,"i_long":106.836569,"line":11,"station_name":"Rajawali","is_transit":false,"distance":1444,"station_id":"RJW","transit":false,"time":3},{"i_lat":-6.161728,"distance":1901,"time":5,"line":11,"is_transit":false,"transit":false,"station_id":"KMO","station_name":"Kemayoran","i_long":106.839204},{"is_transit":false,"distance":1436,"station_id":"PSE","station_name":"Pasar Senen","line":11,"i_lat":-6.174784,"i_long":106.84368,"transit":false,"time":4},{"is_transit":false,"transit":false,"time":8,"i_lat":-6.185975,"station_name":"Gang Sentiong","i_long":106.850107,"distance":1567,"line":11,"station_id":"GST"},{"distance":973,"is_transit":false,"station_id":"KMT","station_name":"Kramat","transit":false,"i_lat":-6.193792,"line":11,"time":1,"i_long":106.855437},{"distance":1829,"time":2,"is_transit":false,"transit":false,"station_id":"POK","line":11,"i_long":106.861737,"station_name":"Pondok Jati","i_lat":-6.209188},{"is_transit":true,"time":9,"station_id":"JNG","i_lat":-6.215091,"line":1,"distance":1236,"transit":true,"station_name":"Jatinegara","i_long":106.86807400000001},{"transit":false,"i_lat":-6.212485,"i_long":106.858896,"station_name":"Matraman","line":1,"distance":1377,"is_transit":false,"time":2,"station_id":"MTR"},{"time":2,"line":2,"transit":true,"station_id":"MRI","i_long":106.84912,"i_lat":-6.209883,"station_name":"Manggarai","is_transit":true,"distance":1275},{"distance":2610,"station_name":"Tebet","i_lat":-6.226659,"station_id":"TEB","is_transit":false,"i_long":106.857948,"line":2,"time":4,"transit":false},{"transit":false,"i_lat":-6.242512,"time":2,"station_id":"CW","station_name":"Cawang","line":2,"i_long":106.856607,"is_transit":false,"distance":1230},{"is_transit":false,"station_id":"DRN","station_name":"Duren Kalibata","line":2,"transit":false,"i_lat":-6.255332,"i_long":106.85449,"time":3,"distance":1546}]]}