{"data":[[{"i_lat":-6.166716,"i_long":106.828284,"line":2,"transit":false,"station_name":"Juanda","distance":0,"is_transit":false,"time":0,"station_id":"JUA"},{"station_name":"Gondangdia","distance":2015,"transit":false,"line":2,"station_id":"GDD","time":4,"i_lat":-6.186295,"i_long":106.832183,"is_transit":false},{"line":2,"i_lat":-6.198556,"station_id":"CKI","station_name":"Cikini","transit":false,"distance":1750,"time":3,"is_transit":false,"i_long":106.840169},{"is_transit":false,"line":2,"station_name":"Manggarai","i_lat":-6.209883,"station_id":"MRI","i_long":106.84912,"transit":false,"time":4,"distance":1590},{"distance":2610,"i_lat":-6.226659,"line":2,"time":4,"station_id":"TEB","transit":false,"i_long":106.857948,"station_name":"Tebet","is_transit":false},{"station_id":"CW","station_name":"Cawang","distance":1230,"line":2,"is_transit":false,"transit":false,"i_long":106.856607,"time":2,"i_lat":-6.242512},{"time":3,"i_lat":-6.255332,"is_transit":false,"station_id":"DRN","i_long":106.85449,"transit":false,"line":2,"distance":1546,"station_name":"Duren Kalibata"}],[{"transit":false,"line":2,"time":0,"station_name":"Juanda","i_lat":-6.166716,"station_id":"JUA","distance":0,"i_long":106.828284,"is_transit":false},{"time":2,"i_lat":-6.160725,"station_id":"SW","i_long":106.827103,"station_name":"Sawah Besar","is_transit":false,"distance":1149,"transit":false,"line":2},{"line":2,"distance":906,"time":2,"station_id":"MGB","is_transit":false,"transit":false,"i_long":106.82482,"i_lat":-6.149769,"station_name":"Manggabesar"},{"distance":1080,"line":2,"time":2,"station_id":"JAY","i_long":106.820901,"station_name":"Jayakarta","i_lat":-6.141205,"transit":false,"is_transit":false},{"is_transit":true,"i_lat":-6.137569,"i_long":106.812439,"line":2,"transit":true,"distance":1264,"station_id":"JAKK","station_name":"Jakarta Kota","time":4},{"transit":true,"line":4,"i_long":106.826365,"distance":1364,"time":3,"station_name":"Kampung Bandan","is_transit":true,"station_id":"KPB","i_lat":-6.132549},{"line":1,"distance":4102,"i_lat":-6.144674,"is_transit":false,"i_long":106.79867,"station_id":"AK","station_name":"Angke","transit":false,"time":9},{"distance":1230,"station_name":"Duri","line":1,"time":4,"transit":false,"i_long":106.800832,"i_lat":-6.155215,"station_id":"DU","is_transit":false},{"i_long":106.811091,"is_transit":false,"transit":false,"station_name":"Tanah Abang","line":1,"time":8,"distance":3632,"station_id":"THB","i_lat":-6.185545},{"line":1,"station_id":"KAT","i_lat":-6.20132,"transit":false,"time":5,"station_name":"Karet","is_transit":false,"i_long":106.816351,"distance":2029},{"distance":471,"time":1,"station_name":"Sudirman Baru","transit":false,"i_lat":-6.201433,"is_transit":false,"station_id":"SUDB","i_long":106.819881,"line":1},{"i_lat":-6.202263,"line":1,"station_name":"Sudirman","time":1,"is_transit":false,"distance":280,"i_long":106.822649,"transit":false,"station_id":"SUD"},{"transit":true,"station_id":"MRI","i_lat":-6.209883,"line":2,"station_name":"Manggarai","i_long":106.84912,"time":4,"is_transit":true,"distance":3186},{"transit":false,"is_transit":false,"distance":2610,"i_long":106.857948,"line":2,"i_lat":-6.226659,"station_id":"TEB","time":4,"station_name":"Tebet"},{"i_lat":-6.242512,"distance":1230,"time":2,"is_transit":false,"line":2,"transit":false,"station_id":"CW","i_long":106.856607,"station_name":"Cawang"},{"transit":false,"i_lat":-6.255332,"i_long":106.85449,"station_name":"Duren Kalibata","is_transit":false,"distance":1546,"time":3,"line":2,"station_id":"DRN"}],[{"station_name":"Juanda","line":2,"is_transit":false,"i_lat":-6.166716,"transit":false,"distance":0,"station_id":"JUA","i_long":106.828284,"time":0},{"is_transit":false,"i_long":106.827103,"transit":false,"i_lat":-6.160725,"line":2,"station_name":"Sawah Besar","distance":1149,"time":2,"station_id":"SW"},{"i_long":106.82482,"station_id":"MGB","line":2,"is_transit":false,"time":2,"distance":906,"station_name":"Manggabesar","i_lat":-6.149769,"transit":false},{"station_name":"Jayakarta","time":2,"is_transit":false,"distance":1080,"station_id":"JAY","i_long":106.820901,"transit":false,"i_lat":-6.141205,"line":2},{"line":2,"distance":1264,"station_name":"Jakarta Kota","i_lat":-6.137569,"i_long":106.812439,"transit":true,"station_id":"JAKK","is_transit":true,"time":4},{"station_id":"KPB","transit":true,"time":3,"distance":1364,"i_lat":-6.132549,"i_long":106.826365,"line":4,"is_transit":true,"station_name":"Kampung Bandan"},{"station_name":"Rajawali","is_transit":false,"distance":1444,"transit":false,"i_lat":-6.14505,"time":3,"line":11,"station_id":"RJW","i_long":106.836569},{"i_long":106.839204,"station_name":"Kemayoran","time":5,"i_lat":-6.161728,"line":11,"is_transit":false,"distance":1901,"transit":false,"station_id":"KMO"},{"station_id":"PSE","station_name":"Pasar Senen","i_lat":-6.174784,"is_transit":false,"time":4,"i_long":106.84368,"line":11,"transit":false,"distance":1436},{"distance":1567,"i_lat":-6.185975,"time":8,"i_long":106.850107,"station_id":"GST","line":11,"is_transit":false,"transit":false,"station_name":"Gang Sentiong"},{"line":11,"i_long":106.855437,"distance":973,"time":1,"is_transit":false,"transit":false,"i_lat":-6.193792,"station_name":"Kramat","station_id":"KMT"},{"is_transit":false,"station_id":"POK","line":11,"time":2,"i_lat":-6.209188,"transit":false,"distance":1829,"i_long":106.861737,"station_name":"Pondok Jati"},{"i_long":106.86807400000001,"i_lat":-6.215091,"transit":true,"line":1,"distance":1236,"time":9,"is_transit":true,"station_name":"Jatinegara","station_id":"JNG"},{"line":1,"station_name":"Matraman","distance":1377,"i_lat":-6.212485,"is_transit":false,"transit":false,"station_id":"MTR","i_long":106.858896,"time":2},{"is_transit":true,"station_name":"Manggarai","transit":true,"distance":1275,"i_lat":-6.209883,"station_id":"MRI","i_long":106.84912,"time":2,"line":2},{"time":4,"is_transit":false,"station_id":"TEB","i_lat":-6.226659,"i_long":106.857948,"station_name":"Tebet","transit":false,"distance":2610,"line":2},{"i_long":106.856607,"time":2,"i_lat":-6.242512,"line":2,"station_name":"Cawang","station_id":"CW","distance":1230,"transit":false,"is_transit":false},{"transit":false,"distance":1546,"i_long":106.85449,"station_name":"Duren Kalibata","station_id":"DRN","i_lat":-6.255332,"line":2,"is_transit":false,"time":3}]]}