{"data":[[{"station_name":"Juanda","i_lat":-6.166716,"station_id":"JUA","distance":0,"line":2,"is_transit":false,"time":0,"i_long":106.828284,"transit":false},{"station_name":"Gondangdia","transit":false,"distance":2015,"line":2,"i_lat":-6.186295,"station_id":"GDD","is_transit":false,"time":4,"i_long":106.832183},{"i_long":106.840169,"transit":false,"i_lat":-6.198556,"distance":1750,"line":2,"station_name":"Cikini","is_transit":false,"time":3,"station_id":"CKI"},{"station_id":"MRI","line":2,"time":4,"i_lat":-6.209883,"is_transit":false,"i_long":106.84912,"distance":1590,"station_name":"Manggarai","transit":false},{"line":2,"station_id":"TEB","is_transit":false,"i_long":106.857948,"transit":false,"distance":2610,"station_name":"Tebet","time":4,"i_lat":-6.226659},{"i_long":106.856607,"i_lat":-6.242512,"transit":false,"line":2,"is_transit":false,"station_id":"CW","time":2,"station_name":"Cawang","distance":1230},{"distance":1546,"i_long":106.85449,"line":2,"station_id":"DRN","i_lat":-6.255332,"station_name":"Duren Kalibata","transit":false,"time":3,"is_transit":false},{"station_name":"Pasar Minggu Baru","time":2,"line":2,"is_transit":false,"i_long":106.851577,"station_id":"PSMB","transit":false,"distance":824,"i_lat":-6.263214},{"station_name":"Pasar Minggu","transit":false,"is_transit":false,"time":2,"distance":2380,"station_id":"PSM","i_lat":-6.2842400000000005,"i_long":106.843999,"line":2},{"time":4,"distance":2820,"i_lat":-6.3080680000000005,"station_name":"Tanjung Barat","is_transit":false,"station_id":"TNT","transit":false,"i_long":106.838896,"line":2},{"i_long":106.832616,"distance":2671,"i_lat":-6.330363,"transit":false,"line":2,"station_id":"LNA","is_transit":false,"time":3,"station_name":"Lenteng Agung"},{"line":2,"transit":false,"station_id":"UP","station_name":"Univ. Pancasila","i_long":106.834175,"is_transit":false,"time":2,"distance":1029,"i_lat":-6.339291},{"station_id":"UI","transit":false,"time":3,"distance":2264,"station_name":"Univ. Indonesia","is_transit":false,"line":2,"i_lat":-6.360749,"i_long":106.831474},{"i_long":106.831114,"station_id":"POC","i_lat":-6.369073,"station_name":"Pondok Cina","time":2,"transit":false,"distance":1109,"is_transit":false,"line":2},{"station_name":"Depokbaru","transit":false,"is_transit":false,"time":4,"station_id":"DPB","i_lat":-6.391065,"i_long":106.819451,"distance":2727,"line":2},{"line":2,"is_transit":false,"distance":1584,"station_id":"DP","station_name":"Depok","i_long":106.816926,"transit":false,"time":3,"i_lat":-6.405256},{"transit":false,"i_long":106.800298,"distance":5084,"station_id":"CTA","line":2,"is_transit":false,"station_name":"Citayam","time":6,"i_lat":-6.448811},{"time":5,"is_transit":false,"i_lat":-6.493243,"distance":5197,"station_id":"BJD","i_long":106.792719,"line":2,"transit":false,"station_name":"Bojonggede"},{"station_name":"Cilebut","is_transit":false,"line":2,"transit":false,"time":5,"distance":4331,"i_long":106.800016,"i_lat":-6.530544,"station_id":"CLT"},{"i_long":106.790574,"station_id":"BOO","distance":7514,"station_name":"Bogor","time":9,"i_lat":-6.594596,"line":2,"is_transit":false,"transit":false}],[{"distance":0,"time":0,"transit":false,"station_id":"JUA","i_lat":-6.166716,"i_long":106.828284,"station_name":"Juanda","is_transit":false,"line":2},{"i_long":106.827103,"distance":1149,"is_transit":false,"i_lat":-6.160725,"line":2,"time":2,"station_id":"SW","transit":false,"station_name":"Sawah Besar"},{"line":2,"is_transit":false,"station_name":"Manggabesar","time":2,"distance":906,"i_long":106.82482,"transit":false,"station_id":"MGB","i_lat":-6.149769},{"station_name":"Jayakarta","i_lat":-6.141205,"transit":false,"station_id":"JAY","is_transit":false,"i_long":106.820901,"time":2,"line":2,"distance":1080},{"distance":1264,"i_long":106.812439,"station_name":"Jakarta Kota","time":4,"is_transit":true,"station_id":"JAKK","transit":true,"i_lat":-6.137569,"line":2},{"distance":1364,"station_id":"KPB","time":3,"station_name":"Kampung Bandan","transit":true,"is_transit":true,"i_lat":-6.132549,"i_long":106.826365,"line":4},{"is_transit":false,"station_name":"Angke","distance":4102,"line":1,"transit":false,"i_lat":-6.144674,"time":9,"i_long":106.79867,"station_id":"AK"},{"i_long":106.800832,"station_name":"Duri","i_lat":-6.155215,"time":4,"distance":1230,"transit":false,"station_id":"DU","line":1,"is_transit":false},{"station_name":"Tanah Abang","i_lat":-6.185545,"i_long":106.811091,"line":1,"time":8,"transit":false,"is_transit":false,"distance":3632,"station_id":"THB"},{"station_id":"KAT","station_name":"Karet","is_transit":false,"distance":2029,"time":5,"i_long":106.816351,"line":1,"i_lat":-6.20132,"transit":false},{"i_long":106.819881,"is_transit":false,"distance":471,"time":1,"station_name":"Sudirman Baru","line":1,"transit":false,"i_lat":-6.201433,"station_id":"SUDB"},{"i_long":106.822649,"station_name":"Sudirman","station_id":"SUD","line":1,"distance":280,"transit":false,"is_transit":false,"i_lat":-6.202263,"time":1},{"station_id":"MRI","transit":true,"i_lat":-6.209883,"line":2,"time":4,"is_transit":true,"distance":3186,"station_name":"Manggarai","i_long":106.84912},{"station_id":"TEB","distance":2610,"line":2,"time":4,"is_transit":false,"i_lat":-6.226659,"station_name":"Tebet","i_long":106.857948,"transit":false},{"is_transit":false,"i_lat":-6.242512,"i_long":106.856607,"transit":false,"station_name":"Cawang","time":2,"line":2,"distance":1230,"station_id":"CW"},{"line":2,"time":3,"transit":false,"station_name":"Duren Kalibata","station_id":"DRN","i_lat":-6.255332,"distance":1546,"i_long":106.85449,"is_transit":false},{"time":2,"transit":false,"i_long":106.851577,"i_lat":-6.263214,"is_transit":false,"distance":824,"station_id":"PSMB","line":2,"station_name":"Pasar Minggu Baru"},{"is_transit":false,"i_long":106.843999,"time":2,"i_lat":-6.2842400000000005,"station_name":"Pasar Minggu","transit":false,"distance":2380,"line":2,"station_id":"PSM"},{"line":2,"i_lat":-6.3080680000000005,"time":4,"station_id":"TNT","station_name":"Tanjung Barat","is_transit":false,"distance":2820,"i_long":106.838896,"transit":false},{"time":3,"station_name":"Lenteng Agung","i_long":106.832616,"station_id":"LNA","is_transit":false,"distance":2671,"line":2,"i_lat":-6.330363,"transit":false},{"distance":1029,"transit":false,"time":2,"station_id":"UP","station_name":"Univ. Pancasila","i_long":106.834175,"line":2,"is_transit":false,"i_lat":-6.339291},{"distance":2264,"i_long":106.831474,"station_name":"Univ. Indonesia","line":2,"time":3,"i_lat":-6.360749,"is_transit":false,"station_id":"UI","transit":false},{"transit":false,"is_transit":false,"i_lat":-6.369073,"i_long":106.831114,"station_id":"POC","time":2,"station_name":"Pondok Cina","line":2,"distance":1109},{"distance":2727,"station_name":"Depokbaru","transit":false,"time":4,"i_lat":-6.391065,"station_id":"DPB","is_transit":false,"line":2,"i_long":106.819451},{"i_lat":-6.405256,"station_name":"Depok","is_transit":false,"distance":1584,"transit":false,"i_long":106.816926,"line":2,"station_id":"DP","time":3},{"transit":false,"distance":5084,"i_long":106.800298,"time":6,"station_name":"Citayam","is_transit":false,"i_lat":-6.448811,"line":2,"station_id":"CTA"},{"distance":5197,"i_lat":-6.493243,"line":2,"is_transit":false,"time":5,"transit":false,"i_long":106.792719,"station_name":"Bojonggede","station_id":"BJD"},{"station_name":"Cilebut","transit":false,"time":5,"i_long":106.800016,"line":2,"station_id":"CLT","is_transit":false,"distance":4331,"i_lat":-6.530544},{"i_lat":-6.594596,"is_transit":false,"time":9,"distance":7514,"i_long":106.790574,"station_name":"Bogor","line":2,"transit":false,"station_id":"BOO"}],[{"i_long":106.828284,"line":2,"i_lat":-6.166716,"transit":false,"station_name":"Juanda","is_transit":false,"station_id":"JUA","time":0,"distance":0},{"i_long":106.827103,"line":2,"distance":1149,"i_lat":-6.160725,"transit":false,"station_name":"Sawah Besar","station_id":"SW","is_transit":false,"time":2},{"is_transit":false,"i_lat":-6.149769,"time":2,"line":2,"station_name":"Manggabesar","distance":906,"i_long":106.82482,"station_id":"MGB","transit":false},{"distance":1080,"station_name":"Jayakarta","station_id":"JAY","i_long":106.820901,"line":2,"time":2,"is_transit":false,"transit":false,"i_lat":-6.141205},{"time":4,"station_id":"JAKK","is_transit":true,"distance":1264,"transit":true,"line":2,"i_lat":-6.137569,"station_name":"Jakarta Kota","i_long":106.812439},{"transit":true,"i_lat":-6.132549,"time":3,"distance":1364,"line":4,"station_name":"Kampung Bandan","station_id":"KPB","i_long":106.826365,"is_transit":true},{"distance":1444,"is_transit":false,"station_id":"RJW","i_long":106.836569,"time":3,"line":11,"transit":false,"station_name":"Rajawali","i_lat":-6.14505},{"time":5,"distance":1901,"transit":false,"station_name":"Kemayoran","i_long":106.839204,"i_lat":-6.161728,"line":11,"station_id":"KMO","is_transit":false},{"is_transit":false,"distance":1436,"line":11,"transit":false,"i_long":106.84368,"time":4,"station_id":"PSE","station_name":"Pasar Senen","i_lat":-6.174784},{"transit":false,"time":8,"distance":1567,"i_lat":-6.185975,"line":11,"station_id":"GST","station_name":"Gang Sentiong","i_long":106.850107,"is_transit":false},{"station_id":"KMT","i_lat":-6.193792,"station_name":"Kramat","line":11,"is_transit":false,"distance":973,"i_long":106.855437,"transit":false,"time":1},{"i_long":106.861737,"transit":false,"station_id":"POK","line":11,"distance":1829,"station_name":"Pondok Jati","i_lat":-6.209188,"is_transit":false,"time":2},{"station_id":"JNG","i_long":106.86807400000001,"line":1,"is_transit":true,"distance":1236,"time":9,"transit":true,"i_lat":-6.215091,"station_name":"Jatinegara"},{"distance":1377,"i_lat":-6.212485,"station_name":"Matraman","i_long":106.858896,"line":1,"is_transit":false,"transit":false,"station_id":"MTR","time":2},{"is_transit":true,"station_id":"MRI","i_long":106.84912,"i_lat":-6.209883,"transit":true,"line":2,"time":2,"distance":1275,"station_name":"Manggarai"},{"i_long":106.857948,"station_name":"Tebet","distance":2610,"transit":false,"i_lat":-6.226659,"station_id":"TEB","time":4,"line":2,"is_transit":false},{"transit":false,"station_id":"CW","line":2,"i_long":106.856607,"time":2,"station_name":"Cawang","i_lat":-6.242512,"distance":1230,"is_transit":false},{"time":3,"station_name":"Duren Kalibata","distance":1546,"i_long":106.85449,"line":2,"station_id":"DRN","i_lat":-6.255332,"is_transit":false,"transit":false},{"station_id":"PSMB","transit":false,"i_long":106.851577,"i_lat":-6.263214,"line":2,"time":2,"is_transit":false,"distance":824,"station_name":"Pasar Minggu Baru"},{"time":2,"station_id":"PSM","i_long":106.843999,"station_name":"Pasar Minggu","transit":false,"distance":2380,"is_transit":false,"i_lat":-6.2842400000000005,"line":2},{"i_long":106.838896,"time":4,"station_name":"Tanjung Barat","i_lat":-6.3080680000000005,"is_transit":false,"distance":2820,"station_id":"TNT","line":2,"transit":false},{"time":3,"distance":2671,"i_lat":-6.330363,"is_transit":false,"i_long":106.832616,"transit":false,"line":2,"station_id":"LNA","station_name":"Lenteng Agung"},{"i_lat":-6.339291,"time":2,"line":2,"distance":1029,"station_id":"UP","is_transit":false,"station_name":"Univ. Pancasila","transit":false,"i_long":106.834175},{"transit":false,"line":2,"time":3,"station_id":"UI","i_lat":-6.360749,"i_long":106.831474,"is_transit":false,"station_name":"Univ. Indonesia","distance":2264},{"i_lat":-6.369073,"distance":1109,"line":2,"is_transit":false,"i_long":106.831114,"station_name":"Pondok Cina","transit":false,"station_id":"POC","time":2},{"is_transit":false,"transit":false,"distance":2727,"i_long":106.819451,"line":2,"i_lat":-6.391065,"station_id":"DPB","time":4,"station_name":"Depokbaru"},{"transit":false,"is_transit":false,"i_long":106.816926,"station_name":"Depok","line":2,"time":3,"distance":1584,"i_lat":-6.405256,"station_id":"DP"},{"transit":false,"i_lat":-6.448811,"line":2,"distance":5084,"i_long":106.800298,"time":6,"station_id":"CTA","station_name":"Citayam","is_transit":false},{"i_long":106.792719,"station_name":"Bojonggede","line":2,"is_transit":false,"i_lat":-6.493243,"distance":5197,"station_id":"BJD","time":5,"transit":false},{"i_lat":-6.530544,"station_id":"CLT","is_transit":false,"i_long":106.800016,"transit":false,"time":5,"distance":4331,"station_name":"Cilebut","line":2},{"station_name":"Bogor","is_transit":false,"time":9,"transit":false,"distance":7514,"i_lat":-6.594596,"i_long":106.790574,"line":2,"station_id":"BOO"}]]}