{"data":[[{"distance":0,"i_long":106.828284,"line":2,"station_name":"Juanda","i_lat":-6.166716,"station_id":"JUA","time":0,"transit":false,"is_transit":false},{"station_name":"Gondangdia","is_transit":false,"transit":false,"time":4,"i_lat":-6.186295,"i_long":106.832183,"line":2,"station_id":"GDD","distance":2015},{"time":3,"station_id":"CKI","is_transit":false,"transit":false,"i_lat":-6.198556,"line":2,"distance":1750,"station_name":"Cikini","i_long":106.840169},{"station_name":"Manggarai","is_transit":false,"time":4,"transit":false,"distance":1590,"station_id":"MRI","i_long":106.84912,"line":2,"i_lat":-6.209883}],[{"time":0,"transit":false,"distance":0,"station_id":"JUA","i_long":106.828284,"i_lat":-6.166716,"station_name":"Juanda","is_transit":false,"line":2},{"distance":1149,"station_name":"Sawah Besar","time":2,"i_lat":-6.160725,"i_long":106.827103,"station_id":"SW","is_transit":false,"line":2,"transit":false},{"i_long":106.82482,"line":2,"station_name":"Manggabesar","time":2,"distance":906,"is_transit":false,"transit":false,"i_lat":-6.149769,"station_id":"MGB"},{"distance":1080,"transit":false,"station_id":"JAY","line":2,"is_transit":false,"i_long":106.820901,"station_name":"Jayakarta","time":2,"i_lat":-6.141205},{"is_transit":true,"time":4,"station_id":"JAKK","station_name":"Jakarta Kota","transit":true,"i_lat":-6.137569,"i_long":106.812439,"distance":1264,"line":2},{"transit":true,"distance":1364,"i_lat":-6.132549,"line":4,"i_long":106.826365,"station_id":"KPB","time":3,"station_name":"Kampung Bandan","is_transit":true},{"station_name":"Angke","distance":4102,"is_transit":false,"time":9,"transit":false,"i_lat":-6.144674,"station_id":"AK","i_long":106.79867,"line":1},{"time":4,"i_long":106.800832,"station_id":"DU","is_transit":false,"line":1,"distance":1230,"station_name":"Duri","transit":false,"i_lat":-6.155215},{"time":8,"station_id":"THB","station_name":"Tanah Abang","is_transit":false,"distance":3632,"transit":false,"i_lat":-6.185545,"i_long":106.811091,"line":1},{"i_lat":-6.20132,"distance":2029,"is_transit":false,"i_long":106.816351,"station_name":"Karet","transit":false,"line":1,"station_id":"KAT","time":5},{"is_transit":false,"station_name":"Sudirman Baru","time":1,"transit":false,"i_long":106.819881,"station_id":"SUDB","i_lat":-6.201433,"distance":471,"line":1},{"time":1,"distance":280,"is_transit":false,"transit":false,"station_id":"SUD","station_name":"Sudirman","i_lat":-6.202263,"i_long":106.822649,"line":1},{"distance":3186,"station_id":"MRI","transit":false,"i_lat":-6.209883,"station_name":"Manggarai","i_long":106.84912,"line":2,"time":4,"is_transit":false}],[{"station_id":"JUA","i_lat":-6.166716,"distance":0,"station_name":"Juanda","is_transit":false,"i_long":106.828284,"transit":false,"line":2,"time":0},{"transit":false,"distance":1149,"station_id":"SW","i_long":106.827103,"is_transit":false,"station_name":"Sawah Besar","time":2,"line":2,"i_lat":-6.160725},{"station_name":"Manggabesar","is_transit":false,"time":2,"i_lat":-6.149769,"station_id":"MGB","i_long":106.82482,"distance":906,"transit":false,"line":2},{"i_long":106.820901,"i_lat":-6.141205,"line":2,"distance":1080,"station_name":"Jayakarta","transit":false,"is_transit":false,"time":2,"station_id":"JAY"},{"station_id":"JAKK","station_name":"Jakarta Kota","i_lat":-6.137569,"distance":1264,"transit":true,"is_transit":true,"i_long":106.812439,"line":2,"time":4},{"is_transit":true,"i_lat":-6.132549,"i_long":106.826365,"station_name":"Kampung Bandan","transit":true,"station_id":"KPB","distance":1364,"time":3,"line":4},{"i_long":106.836569,"station_name":"Rajawali","distance":1444,"station_id":"RJW","i_lat":-6.14505,"time":3,"line":11,"transit":false,"is_transit":false},{"time":5,"distance":1901,"is_transit":false,"i_long":106.839204,"station_name":"Kemayoran","station_id":"KMO","i_lat":-6.161728,"line":11,"transit":false},{"station_name":"Pasar Senen","distance":1436,"station_id":"PSE","i_long":106.84368,"line":11,"is_transit":false,"transit":false,"time":4,"i_lat":-6.174784},{"time":8,"transit":false,"distance":1567,"station_name":"Gang Sentiong","is_transit":false,"i_lat":-6.185975,"station_id":"GST","i_long":106.850107,"line":11},{"i_lat":-6.193792,"distance":973,"station_id":"KMT","is_transit":false,"station_name":"Kramat","time":1,"line":11,"i_long":106.855437,"transit":false},{"i_long":106.861737,"is_transit":false,"distance":1829,"station_name":"Pondok Jati","transit":false,"time":2,"station_id":"POK","line":11,"i_lat":-6.209188},{"station_name":"Jatinegara","distance":1236,"is_transit":true,"transit":true,"i_long":106.86807400000001,"time":9,"station_id":"JNG","line":1,"i_lat":-6.215091},{"station_name":"Matraman","is_transit":false,"transit":false,"i_long":106.858896,"time":2,"line":1,"station_id":"MTR","i_lat":-6.212485,"distance":1377},{"line":2,"station_id":"MRI","transit":false,"time":2,"station_name":"Manggarai","distance":1275,"is_transit":false,"i_lat":-6.209883,"i_long":106.84912}]]}