{"data":[[{"distance":0,"line":2,"i_long":106.828284,"station_name":"Juanda","i_lat":-6.166716,"station_id":"JUA","time":0,"transit":false,"is_transit":false},{"station_id":"SW","is_transit":false,"station_name":"Sawah Besar","distance":1149,"i_long":106.827103,"line":2,"time":2,"i_lat":-6.160725,"transit":false},{"time":2,"i_long":106.82482,"line":2,"transit":false,"is_transit":false,"i_lat":-6.149769,"distance":906,"station_name":"Manggabesar","station_id":"MGB"},{"distance":1080,"is_transit":false,"station_name":"Jayakarta","i_lat":-6.141205,"line":7,"transit":false,"time":2,"station_id":"JAY","i_long":106.820901},{"is_transit":true,"station_id":"JAKK","transit":false,"time":4,"station_name":"Jakarta Kota","distance":1264,"i_lat":-6.137569,"i_long":106.812439,"line":0}],[{"distance":0,"i_lat":-6.166716,"station_name":"Juanda","i_long":106.828284,"station_id":"JUA","transit":false,"is_transit":false,"line":2,"time":0},{"station_id":"GDD","time":4,"transit":false,"i_lat":-6.186295,"is_transit":false,"line":2,"station_name":"Gondangdia","distance":2015,"i_long":106.832183},{"station_name":"Cikini","time":3,"transit":false,"is_transit":false,"i_lat":-6.198556,"i_long":106.840169,"line":0,"station_id":"CKI","distance":1750},{"station_id":"MRI","i_long":106.84912,"distance":1590,"transit":true,"is_transit":true,"time":4,"line":0,"i_lat":-6.209883,"station_name":"Manggarai"},{"time":4,"distance":3186,"station_name":"Sudirman","is_transit":false,"transit":false,"i_long":106.822649,"i_lat":-6.202263,"line":1,"station_id":"SUD"},{"station_name":"Sudirman Baru","i_long":106.819881,"line":1,"transit":false,"time":1,"station_id":"SUDB","distance":280,"i_lat":-6.201433,"is_transit":false},{"station_name":"Karet","line":1,"transit":false,"is_transit":false,"i_long":106.816351,"time":1,"distance":471,"station_id":"KAT","i_lat":-6.20132},{"station_id":"THB","i_long":106.811091,"is_transit":true,"line":1,"time":5,"distance":2029,"transit":false,"station_name":"Tanah Abang","i_lat":-6.185545},{"transit":true,"i_lat":-6.155215,"i_long":106.800832,"time":8,"is_transit":true,"distance":3632,"station_name":"Duri","station_id":"DU","line":1},{"station_id":"AK","i_long":106.79867,"line":0,"transit":false,"time":4,"distance":1230,"is_transit":false,"station_name":"Angke","i_lat":-6.144674},{"i_lat":-6.132549,"is_transit":true,"station_name":"Kampung Bandan","transit":false,"time":9,"line":0,"distance":4102,"i_long":106.826365,"station_id":"KPB"},{"distance":1364,"i_long":106.812439,"station_id":"JAKK","i_lat":-6.137569,"station_name":"Jakarta Kota","time":3,"is_transit":true,"transit":false,"line":0}],[{"i_lat":-6.166716,"distance":0,"i_long":106.828284,"line":2,"is_transit":false,"transit":false,"station_name":"Juanda","station_id":"JUA","time":0},{"station_id":"GDD","i_long":106.832183,"i_lat":-6.186295,"time":4,"distance":2015,"is_transit":false,"station_name":"Gondangdia","transit":false,"line":2},{"i_lat":-6.198556,"distance":1750,"station_id":"CKI","time":3,"line":0,"station_name":"Cikini","is_transit":false,"i_long":106.840169,"transit":false},{"line":0,"i_lat":-6.209883,"station_id":"MRI","distance":1590,"station_name":"Manggarai","transit":true,"is_transit":true,"i_long":106.84912,"time":4},{"station_name":"Matraman","station_id":"MTR","i_long":106.858896,"transit":false,"i_lat":-6.212485,"is_transit":false,"distance":1275,"line":1,"time":2},{"is_transit":true,"i_long":106.86807400000001,"time":8,"station_id":"JNG","distance":1377,"station_name":"Jatinegara","line":0,"transit":true,"i_lat":-6.215091},{"time":2,"station_name":"Pondok Jati","i_long":106.861737,"line":11,"is_transit":false,"station_id":"POK","transit":false,"distance":1236,"i_lat":-6.209188},{"time":2,"is_transit":false,"line":11,"station_name":"Kramat","transit":false,"station_id":"KMT","i_long":106.855437,"i_lat":-6.193792,"distance":1829},{"transit":false,"distance":973,"station_name":"Gang Sentiong","is_transit":false,"i_long":106.850107,"line":11,"time":1,"i_lat":-6.185975,"station_id":"GST"},{"is_transit":false,"station_name":"Pasar Senen","transit":false,"i_lat":-6.174784,"line":11,"station_id":"PSE","time":8,"i_long":106.84368,"distance":1567},{"i_long":106.839204,"is_transit":false,"transit":false,"distance":1436,"i_lat":-6.161728,"line":11,"station_id":"KMO","time":4,"station_name":"Kemayoran"},{"transit":false,"i_long":106.836569,"station_id":"RJW","distance":1901,"is_transit":false,"line":11,"i_lat":-6.14505,"time":5,"station_name":"Rajawali"},{"transit":true,"station_id":"KPB","i_long":106.826365,"i_lat":-6.132549,"time":3,"station_name":"Kampung Bandan","line":0,"is_transit":true,"distance":1444},{"station_id":"JAKK","time":3,"transit":false,"station_name":"Jakarta Kota","i_lat":-6.137569,"line":0,"is_transit":true,"distance":1364,"i_long":106.812439}]]}