{"data":[[{"station_id":"JUA","is_transit":false,"i_lat":-6.166716,"transit":false,"i_long":106.828284,"line":2,"time":0,"distance":0,"station_name":"Juanda"},{"station_id":"SW","transit":false,"time":2,"distance":1149,"i_lat":-6.160725,"i_long":106.827103,"line":2,"is_transit":false,"station_name":"Sawah Besar"},{"station_id":"MGB","transit":false,"is_transit":false,"distance":906,"i_lat":-6.149769,"i_long":106.82482,"station_name":"Manggabesar","time":2,"line":2},{"distance":1080,"line":2,"transit":false,"station_id":"JAY","time":2,"i_lat":-6.141205,"i_long":106.820901,"station_name":"Jayakarta","is_transit":false},{"line":2,"time":4,"i_long":106.812439,"station_id":"JAKK","i_lat":-6.137569,"is_transit":true,"distance":1264,"station_name":"Jakarta Kota","transit":true},{"transit":true,"is_transit":true,"line":4,"time":3,"distance":1364,"i_lat":-6.132549,"i_long":106.826365,"station_id":"KPB","station_name":"Kampung Bandan"},{"station_name":"Angke","time":9,"station_id":"AK","is_transit":false,"i_lat":-6.144674,"distance":4102,"transit":false,"line":1,"i_long":106.79867}],[{"i_long":106.828284,"line":2,"station_name":"Juanda","time":0,"is_transit":false,"station_id":"JUA","distance":0,"transit":false,"i_lat":-6.166716},{"station_id":"GDD","transit":false,"distance":2015,"is_transit":false,"time":4,"i_lat":-6.186295,"station_name":"Gondangdia","i_long":106.832183,"line":2},{"time":3,"transit":false,"i_lat":-6.198556,"station_id":"CKI","station_name":"Cikini","line":2,"i_long":106.840169,"is_transit":false,"distance":1750},{"distance":1590,"transit":true,"is_transit":true,"station_name":"Manggarai","i_long":106.84912,"i_lat":-6.209883,"station_id":"MRI","time":4,"line":2},{"station_id":"SUD","station_name":"Sudirman","distance":3186,"time":4,"is_transit":false,"i_long":106.822649,"line":1,"i_lat":-6.202263,"transit":false},{"line":1,"station_name":"Sudirman Baru","is_transit":false,"transit":false,"i_long":106.819881,"distance":280,"i_lat":-6.201433,"time":1,"station_id":"SUDB"},{"transit":false,"time":1,"distance":471,"station_name":"Karet","i_lat":-6.20132,"station_id":"KAT","i_long":106.816351,"is_transit":false,"line":1},{"is_transit":false,"line":1,"distance":2029,"transit":false,"i_long":106.811091,"station_id":"THB","station_name":"Tanah Abang","i_lat":-6.185545,"time":5},{"distance":3632,"time":8,"transit":false,"line":1,"station_id":"DU","i_lat":-6.155215,"i_long":106.800832,"station_name":"Duri","is_transit":false},{"i_lat":-6.144674,"station_name":"Angke","transit":false,"i_long":106.79867,"distance":1230,"station_id":"AK","time":4,"line":1,"is_transit":false}],[{"line":2,"time":0,"station_name":"Juanda","station_id":"JUA","distance":0,"is_transit":false,"transit":false,"i_lat":-6.166716,"i_long":106.828284},{"distance":2015,"i_long":106.832183,"transit":false,"station_id":"GDD","station_name":"Gondangdia","time":4,"i_lat":-6.186295,"line":2,"is_transit":false},{"transit":false,"time":3,"i_long":106.840169,"distance":1750,"line":2,"station_id":"CKI","station_name":"Cikini","is_transit":false,"i_lat":-6.198556},{"station_name":"Manggarai","time":4,"i_long":106.84912,"line":2,"station_id":"MRI","transit":true,"distance":1590,"is_transit":true,"i_lat":-6.209883},{"time":2,"is_transit":false,"i_long":106.858896,"station_name":"Matraman","i_lat":-6.212485,"distance":1275,"transit":false,"line":1,"station_id":"MTR"},{"is_transit":true,"station_name":"Jatinegara","distance":1377,"i_long":106.86807400000001,"line":1,"station_id":"JNG","time":8,"i_lat":-6.215091,"transit":true},{"is_transit":false,"distance":1236,"station_name":"Pondok Jati","station_id":"POK","i_lat":-6.209188,"i_long":106.861737,"time":2,"transit":false,"line":11},{"is_transit":false,"i_lat":-6.193792,"distance":1829,"station_name":"Kramat","line":11,"i_long":106.855437,"transit":false,"time":2,"station_id":"KMT"},{"distance":973,"station_name":"Gang Sentiong","i_lat":-6.185975,"line":11,"station_id":"GST","transit":false,"is_transit":false,"i_long":106.850107,"time":1},{"i_long":106.84368,"time":8,"station_name":"Pasar Senen","transit":false,"station_id":"PSE","distance":1567,"is_transit":false,"line":11,"i_lat":-6.174784},{"i_lat":-6.161728,"transit":false,"station_name":"Kemayoran","time":4,"is_transit":false,"distance":1436,"i_long":106.839204,"line":11,"station_id":"KMO"},{"time":5,"i_long":106.836569,"line":11,"station_name":"Rajawali","distance":1901,"is_transit":false,"transit":false,"i_lat":-6.14505,"station_id":"RJW"},{"is_transit":true,"station_id":"KPB","transit":true,"line":4,"time":3,"station_name":"Kampung Bandan","i_lat":-6.132549,"distance":1444,"i_long":106.826365},{"time":9,"is_transit":false,"i_long":106.79867,"station_id":"AK","station_name":"Angke","distance":4102,"transit":false,"i_lat":-6.144674,"line":1}],[{"is_transit":false,"station_name":"Juanda","i_lat":-6.166716,"line":2,"station_id":"JUA","time":0,"i_long":106.828284,"transit":false,"distance":0},{"station_id":"SW","is_transit":false,"i_long":106.827103,"distance":1149,"time":2,"line":2,"station_name":"Sawah Besar","i_lat":-6.160725,"transit":false},{"station_name":"Manggabesar","distance":906,"is_transit":false,"i_long":106.82482,"i_lat":-6.149769,"transit":false,"time":2,"line":2,"station_id":"MGB"},{"time":2,"line":2,"transit":false,"i_lat":-6.141205,"is_transit":false,"station_id":"JAY","station_name":"Jayakarta","distance":1080,"i_long":106.820901},{"is_transit":true,"station_id":"JAKK","distance":1264,"line":2,"i_lat":-6.137569,"station_name":"Jakarta Kota","transit":true,"i_long":106.812439,"time":4},{"transit":true,"i_long":106.826365,"station_id":"KPB","station_name":"Kampung Bandan","distance":1364,"i_lat":-6.132549,"line":4,"is_transit":true,"time":3},{"i_long":106.836569,"is_transit":false,"line":11,"distance":1444,"station_name":"Rajawali","i_lat":-6.14505,"station_id":"RJW","time":3,"transit":false},{"station_name":"Kemayoran","time":5,"i_long":106.839204,"station_id":"KMO","is_transit":false,"line":11,"distance":1901,"transit":false,"i_lat":-6.161728},{"time":4,"is_transit":false,"transit":false,"i_long":106.84368,"line":11,"station_id":"PSE","distance":1436,"i_lat":-6.174784,"station_name":"Pasar Senen"},{"distance":1567,"i_lat":-6.185975,"time":8,"station_name":"Gang Sentiong","line":11,"i_long":106.850107,"station_id":"GST","is_transit":false,"transit":false},{"i_lat":-6.193792,"transit":false,"distance":973,"is_transit":false,"time":1,"line":11,"station_id":"KMT","station_name":"Kramat","i_long":106.855437},{"time":2,"station_name":"Pondok Jati","distance":1829,"is_transit":false,"transit":false,"i_lat":-6.209188,"line":11,"i_long":106.861737,"station_id":"POK"},{"transit":true,"distance":1236,"time":9,"line":1,"i_lat":-6.215091,"is_transit":true,"i_long":106.86807400000001,"station_id":"JNG","station_name":"Jatinegara"},{"is_transit":false,"distance":1377,"i_lat":-6.212485,"transit":false,"i_long":106.858896,"station_name":"Matraman","station_id":"MTR","time":2,"line":1},{"distance":1275,"time":2,"line":2,"station_id":"MRI","i_lat":-6.209883,"is_transit":false,"station_name":"Manggarai","transit":false,"i_long":106.84912},{"station_id":"SUD","i_long":106.822649,"station_name":"Sudirman","distance":3186,"time":4,"line":1,"is_transit":false,"transit":false,"i_lat":-6.202263},{"distance":280,"station_id":"SUDB","i_long":106.819881,"time":1,"transit":false,"is_transit":false,"station_name":"Sudirman Baru","i_lat":-6.201433,"line":1},{"i_lat":-6.20132,"distance":471,"time":1,"transit":false,"line":1,"station_name":"Karet","is_transit":false,"i_long":106.816351,"station_id":"KAT"},{"i_lat":-6.185545,"station_id":"THB","is_transit":false,"line":1,"i_long":106.811091,"transit":false,"station_name":"Tanah Abang","distance":2029,"time":5},{"transit":false,"i_lat":-6.155215,"i_long":106.800832,"distance":3632,"time":8,"line":1,"station_name":"Duri","is_transit":false,"station_id":"DU"},{"i_lat":-6.144674,"station_name":"Angke","i_long":106.79867,"time":4,"distance":1230,"is_transit":false,"station_id":"AK","transit":false,"line":1}]]}