{"data":[[{"station_name":"Juanda","time":0,"i_long":106.828284,"transit":false,"distance":0,"line":2,"station_id":"JUA","i_lat":-6.166716,"is_transit":false},{"i_lat":-6.160725,"station_id":"SW","line":2,"is_transit":false,"distance":1149,"transit":false,"station_name":"Sawah Besar","time":2,"i_long":106.827103},{"distance":906,"i_lat":-6.149769,"i_long":106.82482,"line":2,"station_id":"MGB","station_name":"Manggabesar","time":2,"is_transit":false,"transit":false},{"i_long":106.820901,"station_name":"Jayakarta","station_id":"JAY","distance":1080,"transit":false,"is_transit":false,"time":2,"i_lat":-6.141205,"line":2},{"i_lat":-6.137569,"i_long":106.812439,"distance":1264,"station_name":"Jakarta Kota","station_id":"JAKK","time":4,"transit":true,"line":2,"is_transit":true},{"is_transit":true,"time":3,"line":4,"station_name":"Kampung Bandan","i_lat":-6.132549,"station_id":"KPB","distance":1364,"i_long":106.826365,"transit":true},{"distance":4102,"transit":false,"i_lat":-6.144674,"line":1,"i_long":106.79867,"is_transit":false,"station_id":"AK","station_name":"Angke","time":9}],[{"transit":false,"is_transit":false,"station_id":"JUA","i_lat":-6.166716,"line":2,"distance":0,"time":0,"i_long":106.828284,"station_name":"Juanda"},{"is_transit":false,"station_id":"GDD","i_long":106.832183,"line":2,"transit":false,"distance":2015,"station_name":"Gondangdia","time":4,"i_lat":-6.186295},{"station_id":"CKI","transit":false,"is_transit":false,"time":3,"distance":1750,"line":2,"station_name":"Cikini","i_lat":-6.198556,"i_long":106.840169},{"station_name":"Manggarai","line":2,"time":4,"station_id":"MRI","transit":true,"i_long":106.84912,"i_lat":-6.209883,"distance":1590,"is_transit":true},{"i_long":106.822649,"i_lat":-6.202263,"line":1,"time":4,"station_name":"Sudirman","distance":3186,"transit":false,"station_id":"SUD","is_transit":false},{"i_long":106.819881,"is_transit":false,"distance":280,"station_id":"SUDB","line":1,"transit":false,"time":1,"i_lat":-6.201433,"station_name":"Sudirman Baru"},{"distance":471,"station_id":"KAT","is_transit":false,"time":1,"i_long":106.816351,"line":1,"station_name":"Karet","i_lat":-6.20132,"transit":false},{"is_transit":false,"station_id":"THB","line":1,"distance":2029,"station_name":"Tanah Abang","transit":false,"time":5,"i_lat":-6.185545,"i_long":106.811091},{"time":8,"distance":3632,"i_lat":-6.155215,"i_long":106.800832,"station_name":"Duri","station_id":"DU","line":1,"is_transit":false,"transit":false},{"line":1,"time":4,"distance":1230,"station_name":"Angke","transit":false,"i_lat":-6.144674,"is_transit":false,"station_id":"AK","i_long":106.79867}],[{"distance":0,"i_long":106.828284,"station_name":"Juanda","time":0,"line":2,"i_lat":-6.166716,"is_transit":false,"station_id":"JUA","transit":false},{"line":2,"station_name":"Gondangdia","i_long":106.832183,"time":4,"distance":2015,"i_lat":-6.186295,"station_id":"GDD","transit":false,"is_transit":false},{"i_lat":-6.198556,"transit":false,"distance":1750,"time":3,"station_name":"Cikini","station_id":"CKI","is_transit":false,"i_long":106.840169,"line":2},{"is_transit":true,"time":4,"i_lat":-6.209883,"line":2,"distance":1590,"i_long":106.84912,"station_name":"Manggarai","transit":true,"station_id":"MRI"},{"is_transit":false,"i_long":106.858896,"distance":1275,"station_id":"MTR","transit":false,"line":1,"station_name":"Matraman","time":2,"i_lat":-6.212485},{"station_id":"JNG","is_transit":true,"i_long":106.86807400000001,"station_name":"Jatinegara","distance":1377,"i_lat":-6.215091,"line":1,"transit":true,"time":8},{"i_long":106.861737,"is_transit":false,"station_id":"POK","i_lat":-6.209188,"station_name":"Pondok Jati","line":11,"transit":false,"time":2,"distance":1236},{"i_long":106.855437,"station_name":"Kramat","time":2,"distance":1829,"line":11,"is_transit":false,"station_id":"KMT","i_lat":-6.193792,"transit":false},{"transit":false,"station_id":"GST","station_name":"Gang Sentiong","i_long":106.850107,"distance":973,"time":1,"i_lat":-6.185975,"is_transit":false,"line":11},{"is_transit":false,"i_lat":-6.174784,"i_long":106.84368,"distance":1567,"station_name":"Pasar Senen","station_id":"PSE","line":11,"time":8,"transit":false},{"i_long":106.839204,"line":11,"transit":false,"is_transit":false,"time":4,"station_name":"Kemayoran","i_lat":-6.161728,"distance":1436,"station_id":"KMO"},{"station_id":"RJW","is_transit":false,"i_long":106.836569,"time":5,"distance":1901,"line":11,"station_name":"Rajawali","transit":false,"i_lat":-6.14505},{"time":3,"station_name":"Kampung Bandan","i_lat":-6.132549,"transit":true,"is_transit":true,"line":4,"i_long":106.826365,"distance":1444,"station_id":"KPB"},{"i_long":106.79867,"time":9,"is_transit":false,"station_id":"AK","station_name":"Angke","distance":4102,"i_lat":-6.144674,"line":1,"transit":false}],[{"station_id":"JUA","is_transit":false,"line":2,"station_name":"Juanda","time":0,"distance":0,"transit":false,"i_lat":-6.166716,"i_long":106.828284},{"line":2,"transit":false,"i_long":106.827103,"is_transit":false,"station_id":"SW","station_name":"Sawah Besar","time":2,"distance":1149,"i_lat":-6.160725},{"station_name":"Manggabesar","station_id":"MGB","i_long":106.82482,"transit":false,"distance":906,"i_lat":-6.149769,"line":2,"is_transit":false,"time":2},{"line":2,"i_long":106.820901,"is_transit":false,"distance":1080,"station_name":"Jayakarta","time":2,"station_id":"JAY","transit":false,"i_lat":-6.141205},{"line":2,"station_name":"Jakarta Kota","i_long":106.812439,"is_transit":true,"transit":true,"time":4,"station_id":"JAKK","distance":1264,"i_lat":-6.137569},{"distance":1364,"i_lat":-6.132549,"i_long":106.826365,"time":3,"line":4,"transit":true,"station_name":"Kampung Bandan","station_id":"KPB","is_transit":true},{"station_name":"Rajawali","is_transit":false,"time":3,"distance":1444,"transit":false,"i_long":106.836569,"station_id":"RJW","line":11,"i_lat":-6.14505},{"line":11,"i_long":106.839204,"station_id":"KMO","i_lat":-6.161728,"station_name":"Kemayoran","is_transit":false,"distance":1901,"time":5,"transit":false},{"transit":false,"time":4,"i_long":106.84368,"line":11,"i_lat":-6.174784,"station_name":"Pasar Senen","distance":1436,"station_id":"PSE","is_transit":false},{"transit":false,"i_long":106.850107,"is_transit":false,"distance":1567,"time":8,"i_lat":-6.185975,"line":11,"station_name":"Gang Sentiong","station_id":"GST"},{"transit":false,"is_transit":false,"distance":973,"station_name":"Kramat","i_long":106.855437,"time":1,"i_lat":-6.193792,"station_id":"KMT","line":11},{"i_lat":-6.209188,"transit":false,"station_name":"Pondok Jati","time":2,"station_id":"POK","i_long":106.861737,"line":11,"is_transit":false,"distance":1829},{"is_transit":true,"station_id":"JNG","time":9,"i_lat":-6.215091,"station_name":"Jatinegara","line":1,"i_long":106.86807400000001,"transit":true,"distance":1236},{"distance":1377,"station_id":"MTR","i_long":106.858896,"is_transit":false,"transit":false,"time":2,"station_name":"Matraman","i_lat":-6.212485,"line":1},{"i_long":106.84912,"time":2,"distance":1275,"transit":false,"is_transit":false,"station_id":"MRI","i_lat":-6.209883,"line":2,"station_name":"Manggarai"},{"station_id":"SUD","transit":false,"station_name":"Sudirman","i_lat":-6.202263,"line":1,"is_transit":false,"i_long":106.822649,"time":4,"distance":3186},{"time":1,"station_id":"SUDB","i_long":106.819881,"line":1,"station_name":"Sudirman Baru","distance":280,"is_transit":false,"transit":false,"i_lat":-6.201433},{"is_transit":false,"transit":false,"i_long":106.816351,"line":1,"time":1,"station_id":"KAT","i_lat":-6.20132,"distance":471,"station_name":"Karet"},{"line":1,"station_name":"Tanah Abang","is_transit":false,"i_lat":-6.185545,"i_long":106.811091,"distance":2029,"transit":false,"time":5,"station_id":"THB"},{"station_id":"DU","distance":3632,"i_long":106.800832,"station_name":"Duri","transit":false,"line":1,"is_transit":false,"i_lat":-6.155215,"time":8},{"station_name":"Angke","i_lat":-6.144674,"line":1,"time":4,"is_transit":false,"i_long":106.79867,"distance":1230,"station_id":"AK","transit":false}]]}