{"data":[[{"i_lat":-6.166716,"station_name":"Juanda","time":0,"is_transit":false,"station_id":"JUA","transit":false,"line":2,"i_long":106.828284,"distance":0},{"is_transit":false,"station_id":"GDD","time":4,"distance":2015,"station_name":"Gondangdia","transit":false,"i_long":106.832183,"line":2,"i_lat":-6.186295},{"line":0,"station_id":"CKI","transit":false,"distance":1750,"i_lat":-6.198556,"station_name":"Cikini","time":3,"is_transit":false,"i_long":106.840169},{"line":0,"i_long":106.84912,"station_id":"MRI","distance":1590,"station_name":"Manggarai","time":4,"i_lat":-6.209883,"transit":true,"is_transit":true},{"station_name":"Tebet","time":4,"distance":2610,"transit":false,"i_lat":-6.226659,"i_long":106.857948,"line":2,"is_transit":false,"station_id":"TEB"},{"distance":1230,"time":2,"transit":false,"i_lat":-6.242512,"i_long":106.856607,"station_id":"CW","is_transit":false,"line":0,"station_name":"Cawang"},{"distance":1546,"line":0,"is_transit":false,"time":3,"i_long":106.85449,"station_name":"Duren Kalibata","station_id":"DRN","transit":false,"i_lat":-6.255332}],[{"time":0,"station_name":"Juanda","distance":0,"i_lat":-6.166716,"i_long":106.828284,"line":2,"station_id":"JUA","is_transit":false,"transit":false},{"station_id":"SW","line":2,"distance":1149,"time":2,"station_name":"Sawah Besar","i_lat":-6.160725,"i_long":106.827103,"transit":false,"is_transit":false},{"distance":906,"i_lat":-6.149769,"time":2,"i_long":106.82482,"station_name":"Manggabesar","line":2,"station_id":"MGB","transit":false,"is_transit":false},{"time":2,"is_transit":false,"station_id":"JAY","distance":1080,"station_name":"Jayakarta","transit":false,"i_lat":-6.141205,"i_long":106.820901,"line":7},{"is_transit":true,"time":4,"station_id":"JAKK","line":0,"station_name":"Jakarta Kota","i_long":106.812439,"distance":1264,"transit":true,"i_lat":-6.137569},{"line":0,"i_lat":-6.132549,"is_transit":true,"time":3,"distance":1364,"transit":false,"station_name":"Kampung Bandan","station_id":"KPB","i_long":106.826365},{"transit":false,"is_transit":false,"i_long":106.79867,"i_lat":-6.144674,"distance":4102,"station_id":"AK","time":9,"station_name":"Angke","line":0},{"transit":true,"station_id":"DU","i_lat":-6.155215,"is_transit":true,"line":1,"time":4,"distance":1230,"i_long":106.800832,"station_name":"Duri"},{"station_id":"THB","time":8,"i_long":106.811091,"line":1,"i_lat":-6.185545,"transit":false,"station_name":"Tanah Abang","distance":3632,"is_transit":true},{"time":5,"distance":2029,"is_transit":false,"station_name":"Karet","i_lat":-6.20132,"i_long":106.816351,"transit":false,"line":1,"station_id":"KAT"},{"line":1,"time":1,"transit":false,"station_id":"SUDB","is_transit":false,"station_name":"Sudirman Baru","i_long":106.819881,"i_lat":-6.201433,"distance":471},{"transit":false,"i_lat":-6.202263,"is_transit":false,"time":1,"i_long":106.822649,"distance":280,"line":1,"station_id":"SUD","station_name":"Sudirman"},{"transit":true,"is_transit":true,"station_name":"Manggarai","i_lat":-6.209883,"line":0,"station_id":"MRI","distance":3186,"i_long":106.84912,"time":4},{"distance":2610,"is_transit":false,"station_id":"TEB","time":4,"station_name":"Tebet","transit":false,"i_long":106.857948,"line":2,"i_lat":-6.226659},{"distance":1230,"time":2,"i_long":106.856607,"is_transit":false,"i_lat":-6.242512,"line":0,"station_id":"CW","station_name":"Cawang","transit":false},{"i_lat":-6.255332,"transit":false,"is_transit":false,"station_id":"DRN","time":3,"distance":1546,"i_long":106.85449,"line":0,"station_name":"Duren Kalibata"}],[{"i_lat":-6.166716,"is_transit":false,"i_long":106.828284,"station_id":"JUA","station_name":"Juanda","time":0,"line":2,"distance":0,"transit":false},{"transit":false,"is_transit":false,"station_name":"Sawah Besar","distance":1149,"i_lat":-6.160725,"i_long":106.827103,"line":2,"station_id":"SW","time":2},{"i_lat":-6.149769,"line":2,"transit":false,"station_name":"Manggabesar","i_long":106.82482,"time":2,"distance":906,"is_transit":false,"station_id":"MGB"},{"i_lat":-6.141205,"transit":false,"line":7,"distance":1080,"time":2,"station_id":"JAY","is_transit":false,"station_name":"Jayakarta","i_long":106.820901},{"is_transit":true,"transit":true,"time":4,"i_long":106.812439,"distance":1264,"station_name":"Jakarta Kota","station_id":"JAKK","line":0,"i_lat":-6.137569},{"transit":true,"station_id":"KPB","is_transit":true,"station_name":"Kampung Bandan","i_long":106.826365,"time":3,"line":0,"i_lat":-6.132549,"distance":1364},{"time":3,"line":11,"station_id":"RJW","distance":1444,"is_transit":false,"i_lat":-6.14505,"station_name":"Rajawali","transit":false,"i_long":106.836569},{"line":11,"distance":1901,"is_transit":false,"station_name":"Kemayoran","transit":false,"station_id":"KMO","i_lat":-6.161728,"time":5,"i_long":106.839204},{"distance":1436,"transit":false,"i_lat":-6.174784,"station_name":"Pasar Senen","is_transit":false,"station_id":"PSE","line":11,"time":4,"i_long":106.84368},{"i_lat":-6.185975,"distance":1567,"line":11,"transit":false,"is_transit":false,"station_id":"GST","i_long":106.850107,"station_name":"Gang Sentiong","time":8},{"is_transit":false,"station_id":"KMT","transit":false,"i_long":106.855437,"i_lat":-6.193792,"line":11,"time":1,"station_name":"Kramat","distance":973},{"transit":false,"i_long":106.861737,"line":11,"i_lat":-6.209188,"distance":1829,"station_name":"Pondok Jati","station_id":"POK","is_transit":false,"time":2},{"is_transit":true,"i_lat":-6.215091,"station_id":"JNG","time":9,"i_long":106.86807400000001,"line":0,"station_name":"Jatinegara","distance":1236,"transit":true},{"is_transit":false,"distance":1377,"line":1,"time":2,"station_name":"Matraman","i_long":106.858896,"i_lat":-6.212485,"station_id":"MTR","transit":false},{"time":2,"station_name":"Manggarai","is_transit":true,"line":0,"transit":true,"distance":1275,"i_lat":-6.209883,"station_id":"MRI","i_long":106.84912},{"station_id":"TEB","i_lat":-6.226659,"is_transit":false,"line":2,"transit":false,"i_long":106.857948,"distance":2610,"station_name":"Tebet","time":4},{"is_transit":false,"transit":false,"time":2,"line":0,"station_name":"Cawang","distance":1230,"i_lat":-6.242512,"station_id":"CW","i_long":106.856607},{"time":3,"distance":1546,"line":0,"is_transit":false,"i_long":106.85449,"station_name":"Duren Kalibata","i_lat":-6.255332,"station_id":"DRN","transit":false}]]}