{"data":[[{"station_name":"Juanda","i_lat":-6.166716,"line":2,"is_transit":false,"transit":false,"station_id":"JUA","i_long":106.828284,"time":0,"distance":0},{"time":4,"station_name":"Gondangdia","distance":2015,"i_long":106.832183,"line":2,"transit":false,"is_transit":false,"station_id":"GDD","i_lat":-6.186295},{"transit":false,"line":2,"station_id":"CKI","i_lat":-6.198556,"time":3,"distance":1750,"station_name":"Cikini","is_transit":false,"i_long":106.840169},{"is_transit":true,"transit":true,"i_long":106.84912,"station_name":"Manggarai","distance":1590,"line":2,"station_id":"MRI","i_lat":-6.209883,"time":4},{"time":2,"i_lat":-6.212485,"distance":1275,"station_id":"MTR","i_long":106.858896,"transit":false,"is_transit":false,"line":1,"station_name":"Matraman"},{"i_lat":-6.215091,"station_name":"Jatinegara","i_long":106.86807400000001,"distance":1377,"transit":false,"time":8,"is_transit":false,"station_id":"JNG","line":1}],[{"station_name":"Juanda","transit":false,"is_transit":false,"station_id":"JUA","i_lat":-6.166716,"i_long":106.828284,"distance":0,"line":2,"time":0},{"distance":1149,"station_id":"SW","i_lat":-6.160725,"line":2,"i_long":106.827103,"is_transit":false,"station_name":"Sawah Besar","transit":false,"time":2},{"station_id":"MGB","is_transit":false,"station_name":"Manggabesar","time":2,"transit":false,"distance":906,"i_long":106.82482,"line":2,"i_lat":-6.149769},{"i_lat":-6.141205,"is_transit":false,"time":2,"transit":false,"station_id":"JAY","station_name":"Jayakarta","i_long":106.820901,"line":2,"distance":1080},{"i_lat":-6.137569,"transit":true,"distance":1264,"station_id":"JAKK","station_name":"Jakarta Kota","i_long":106.812439,"time":4,"is_transit":true,"line":2},{"transit":true,"distance":1364,"station_name":"Kampung Bandan","station_id":"KPB","time":3,"i_long":106.826365,"is_transit":true,"i_lat":-6.132549,"line":4},{"transit":false,"distance":1444,"i_lat":-6.14505,"line":11,"station_name":"Rajawali","time":3,"i_long":106.836569,"station_id":"RJW","is_transit":false},{"distance":1901,"is_transit":false,"i_long":106.839204,"transit":false,"station_id":"KMO","time":5,"station_name":"Kemayoran","line":11,"i_lat":-6.161728},{"i_long":106.84368,"transit":false,"is_transit":false,"station_name":"Pasar Senen","station_id":"PSE","distance":1436,"i_lat":-6.174784,"time":4,"line":11},{"i_long":106.850107,"station_id":"GST","distance":1567,"station_name":"Gang Sentiong","transit":false,"is_transit":false,"time":8,"line":11,"i_lat":-6.185975},{"station_id":"KMT","distance":973,"is_transit":false,"station_name":"Kramat","time":1,"i_long":106.855437,"line":11,"i_lat":-6.193792,"transit":false},{"i_lat":-6.209188,"station_id":"POK","station_name":"Pondok Jati","transit":false,"i_long":106.861737,"is_transit":false,"line":11,"time":2,"distance":1829},{"distance":1236,"line":1,"transit":false,"time":9,"station_name":"Jatinegara","station_id":"JNG","is_transit":false,"i_lat":-6.215091,"i_long":106.86807400000001}],[{"station_name":"Juanda","transit":false,"line":2,"is_transit":false,"time":0,"station_id":"JUA","i_lat":-6.166716,"i_long":106.828284,"distance":0},{"station_id":"SW","time":2,"transit":false,"i_long":106.827103,"line":2,"distance":1149,"station_name":"Sawah Besar","i_lat":-6.160725,"is_transit":false},{"time":2,"distance":906,"i_long":106.82482,"line":2,"station_name":"Manggabesar","is_transit":false,"station_id":"MGB","transit":false,"i_lat":-6.149769},{"time":2,"line":2,"i_lat":-6.141205,"is_transit":false,"distance":1080,"station_name":"Jayakarta","transit":false,"i_long":106.820901,"station_id":"JAY"},{"transit":true,"distance":1264,"station_id":"JAKK","station_name":"Jakarta Kota","is_transit":true,"i_long":106.812439,"time":4,"line":2,"i_lat":-6.137569},{"transit":true,"is_transit":true,"station_id":"KPB","station_name":"Kampung Bandan","line":4,"time":3,"distance":1364,"i_long":106.826365,"i_lat":-6.132549},{"i_lat":-6.144674,"transit":false,"station_name":"Angke","time":9,"i_long":106.79867,"is_transit":false,"station_id":"AK","line":1,"distance":4102},{"distance":1230,"station_name":"Duri","i_lat":-6.155215,"is_transit":false,"i_long":106.800832,"station_id":"DU","line":1,"time":4,"transit":false},{"transit":false,"distance":3632,"time":8,"station_name":"Tanah Abang","i_lat":-6.185545,"station_id":"THB","i_long":106.811091,"line":1,"is_transit":false},{"distance":2029,"time":5,"is_transit":false,"line":1,"i_long":106.816351,"transit":false,"i_lat":-6.20132,"station_id":"KAT","station_name":"Karet"},{"is_transit":false,"transit":false,"station_name":"Sudirman Baru","time":1,"station_id":"SUDB","distance":471,"i_long":106.819881,"line":1,"i_lat":-6.201433},{"distance":280,"station_name":"Sudirman","is_transit":false,"i_long":106.822649,"transit":false,"line":1,"time":1,"station_id":"SUD","i_lat":-6.202263},{"distance":3186,"i_lat":-6.209883,"transit":false,"time":4,"station_id":"MRI","i_long":106.84912,"is_transit":false,"station_name":"Manggarai","line":2},{"station_id":"MTR","transit":false,"time":2,"i_long":106.858896,"i_lat":-6.212485,"is_transit":false,"station_name":"Matraman","line":1,"distance":1275},{"is_transit":false,"transit":false,"station_name":"Jatinegara","time":8,"i_long":106.86807400000001,"station_id":"JNG","line":1,"i_lat":-6.215091,"distance":1377}],[{"line":2,"distance":0,"is_transit":false,"i_long":106.828284,"time":0,"station_id":"JUA","transit":false,"i_lat":-6.166716,"station_name":"Juanda"},{"is_transit":false,"i_lat":-6.186295,"transit":false,"station_name":"Gondangdia","time":4,"station_id":"GDD","distance":2015,"line":2,"i_long":106.832183},{"i_long":106.840169,"station_id":"CKI","station_name":"Cikini","line":2,"distance":1750,"i_lat":-6.198556,"transit":false,"time":3,"is_transit":false},{"line":2,"distance":1590,"transit":true,"station_name":"Manggarai","i_lat":-6.209883,"is_transit":true,"i_long":106.84912,"time":4,"station_id":"MRI"},{"station_name":"Sudirman","i_lat":-6.202263,"transit":false,"line":1,"is_transit":false,"time":4,"station_id":"SUD","distance":3186,"i_long":106.822649},{"line":1,"i_long":106.819881,"station_name":"Sudirman Baru","i_lat":-6.201433,"station_id":"SUDB","is_transit":false,"time":1,"transit":false,"distance":280},{"time":1,"is_transit":false,"distance":471,"station_id":"KAT","i_lat":-6.20132,"station_name":"Karet","i_long":106.816351,"transit":false,"line":1},{"time":5,"distance":2029,"station_id":"THB","transit":false,"is_transit":false,"i_long":106.811091,"station_name":"Tanah Abang","i_lat":-6.185545,"line":1},{"station_name":"Duri","i_long":106.800832,"line":1,"is_transit":false,"distance":3632,"i_lat":-6.155215,"transit":false,"time":8,"station_id":"DU"},{"station_id":"AK","line":1,"distance":1230,"station_name":"Angke","transit":false,"i_long":106.79867,"time":4,"is_transit":false,"i_lat":-6.144674},{"station_id":"KPB","is_transit":true,"distance":4102,"station_name":"Kampung Bandan","line":4,"i_long":106.826365,"i_lat":-6.132549,"time":9,"transit":true},{"transit":false,"station_id":"RJW","line":11,"is_transit":false,"distance":1444,"i_long":106.836569,"station_name":"Rajawali","time":3,"i_lat":-6.14505},{"distance":1901,"i_lat":-6.161728,"time":5,"station_id":"KMO","transit":false,"is_transit":false,"line":11,"station_name":"Kemayoran","i_long":106.839204},{"is_transit":false,"station_name":"Pasar Senen","station_id":"PSE","i_lat":-6.174784,"time":4,"i_long":106.84368,"transit":false,"distance":1436,"line":11},{"line":11,"is_transit":false,"distance":1567,"station_id":"GST","station_name":"Gang Sentiong","i_lat":-6.185975,"transit":false,"time":8,"i_long":106.850107},{"distance":973,"station_name":"Kramat","line":11,"is_transit":false,"i_long":106.855437,"i_lat":-6.193792,"time":1,"transit":false,"station_id":"KMT"},{"line":11,"is_transit":false,"station_name":"Pondok Jati","i_long":106.861737,"transit":false,"time":2,"distance":1829,"station_id":"POK","i_lat":-6.209188},{"time":9,"distance":1236,"transit":false,"station_name":"Jatinegara","i_long":106.86807400000001,"i_lat":-6.215091,"station_id":"JNG","line":1,"is_transit":false}]]}