{"data":[[{"transit":false,"distance":0,"i_long":106.828284,"station_id":"JUA","is_transit":false,"station_name":"Juanda","line":2,"time":0,"i_lat":-6.166716},{"time":2,"i_lat":-6.160725,"is_transit":false,"transit":false,"station_id":"SW","distance":1149,"station_name":"Sawah Besar","i_long":106.827103,"line":2},{"station_id":"MGB","i_lat":-6.149769,"station_name":"Manggabesar","distance":906,"is_transit":false,"transit":false,"time":2,"line":2,"i_long":106.82482},{"station_id":"JAY","transit":false,"i_lat":-6.141205,"time":2,"is_transit":false,"line":2,"station_name":"Jayakarta","distance":1080,"i_long":106.820901},{"station_id":"JAKK","is_transit":true,"distance":1264,"transit":true,"station_name":"Jakarta Kota","line":2,"i_lat":-6.137569,"i_long":106.812439,"time":4},{"i_lat":-6.132549,"time":3,"is_transit":true,"i_long":106.826365,"line":4,"transit":true,"distance":1364,"station_id":"KPB","station_name":"Kampung Bandan"},{"time":9,"station_name":"Angke","is_transit":false,"i_long":106.79867,"line":1,"transit":false,"distance":4102,"i_lat":-6.144674,"station_id":"AK"},{"station_name":"Duri","i_lat":-6.155215,"distance":1230,"time":4,"transit":true,"line":1,"i_long":106.800832,"is_transit":true,"station_id":"DU"},{"time":3,"distance":1700,"line":5,"i_lat":-6.162021,"is_transit":false,"transit":false,"i_long":106.788277,"station_name":"Grogol","station_id":"GGL"},{"is_transit":false,"station_id":"PSG","transit":false,"distance":2036,"station_name":"Pesing","line":5,"time":2,"i_lat":-6.161433,"i_long":106.771379},{"is_transit":false,"i_long":106.756522,"line":5,"transit":false,"distance":1614,"station_name":"Taman Kota","station_id":"TKO","time":2,"i_lat":-6.1587309999999995},{"time":2,"station_name":"Bojongindah","distance":2334,"i_lat":-6.159876,"i_long":106.737035,"line":5,"is_transit":false,"station_id":"BOI","transit":false},{"i_long":106.723064,"i_lat":-6.162758,"is_transit":false,"transit":false,"station_name":"Rawa Buaya","distance":1152,"line":5,"station_id":"RW","time":4},{"is_transit":false,"station_id":"KDS","i_long":106.701612,"station_name":"Kalideres","transit":false,"time":3,"distance":2504,"line":5,"i_lat":-6.166068},{"distance":2548,"time":3,"station_name":"Poris","i_lat":-6.169933,"i_long":106.679458,"is_transit":false,"station_id":"PI","transit":false,"line":5},{"station_name":"Batuceper","is_transit":false,"time":3,"transit":false,"distance":1834,"station_id":"BPR","i_lat":-6.171811,"i_long":106.665036,"line":5}],[{"distance":0,"station_id":"JUA","i_lat":-6.166716,"i_long":106.828284,"line":2,"station_name":"Juanda","transit":false,"is_transit":false,"time":0},{"i_lat":-6.186295,"transit":false,"time":4,"station_id":"GDD","line":2,"station_name":"Gondangdia","distance":2015,"i_long":106.832183,"is_transit":false},{"station_id":"CKI","i_long":106.840169,"line":2,"i_lat":-6.198556,"transit":false,"distance":1750,"is_transit":false,"station_name":"Cikini","time":3},{"time":4,"i_lat":-6.209883,"station_id":"MRI","i_long":106.84912,"is_transit":true,"distance":1590,"transit":true,"station_name":"Manggarai","line":2},{"transit":false,"distance":3186,"i_lat":-6.202263,"station_name":"Sudirman","i_long":106.822649,"station_id":"SUD","time":4,"line":1,"is_transit":false},{"is_transit":false,"time":1,"station_name":"Sudirman Baru","station_id":"SUDB","distance":280,"transit":false,"i_lat":-6.201433,"i_long":106.819881,"line":1},{"transit":false,"is_transit":false,"station_id":"KAT","i_long":106.816351,"i_lat":-6.20132,"station_name":"Karet","distance":471,"line":1,"time":1},{"is_transit":false,"i_lat":-6.185545,"transit":false,"time":5,"station_name":"Tanah Abang","line":1,"distance":2029,"station_id":"THB","i_long":106.811091},{"station_id":"DU","is_transit":true,"station_name":"Duri","transit":true,"time":8,"distance":3632,"line":1,"i_long":106.800832,"i_lat":-6.155215},{"station_id":"GGL","i_lat":-6.162021,"transit":false,"time":3,"line":5,"i_long":106.788277,"station_name":"Grogol","is_transit":false,"distance":1700},{"station_id":"PSG","is_transit":false,"i_lat":-6.161433,"transit":false,"i_long":106.771379,"distance":2036,"station_name":"Pesing","time":2,"line":5},{"i_long":106.756522,"time":2,"i_lat":-6.1587309999999995,"is_transit":false,"station_id":"TKO","transit":false,"line":5,"distance":1614,"station_name":"Taman Kota"},{"station_name":"Bojongindah","distance":2334,"is_transit":false,"i_lat":-6.159876,"station_id":"BOI","transit":false,"time":2,"line":5,"i_long":106.737035},{"station_name":"Rawa Buaya","i_long":106.723064,"time":4,"distance":1152,"is_transit":false,"station_id":"RW","transit":false,"i_lat":-6.162758,"line":5},{"time":3,"i_lat":-6.166068,"station_id":"KDS","i_long":106.701612,"line":5,"is_transit":false,"station_name":"Kalideres","distance":2504,"transit":false},{"station_id":"PI","line":5,"time":3,"transit":false,"distance":2548,"i_lat":-6.169933,"i_long":106.679458,"station_name":"Poris","is_transit":false},{"i_lat":-6.171811,"station_id":"BPR","station_name":"Batuceper","time":3,"is_transit":false,"distance":1834,"i_long":106.665036,"transit":false,"line":5}],[{"distance":0,"station_name":"Juanda","i_lat":-6.166716,"line":2,"station_id":"JUA","i_long":106.828284,"transit":false,"is_transit":false,"time":0},{"i_lat":-6.186295,"is_transit":false,"distance":2015,"line":2,"transit":false,"i_long":106.832183,"station_name":"Gondangdia","time":4,"station_id":"GDD"},{"is_transit":false,"i_long":106.840169,"line":2,"transit":false,"time":3,"station_id":"CKI","distance":1750,"i_lat":-6.198556,"station_name":"Cikini"},{"i_long":106.84912,"station_id":"MRI","station_name":"Manggarai","is_transit":true,"time":4,"line":2,"transit":true,"i_lat":-6.209883,"distance":1590},{"line":1,"distance":1275,"time":2,"is_transit":false,"transit":false,"station_id":"MTR","station_name":"Matraman","i_long":106.858896,"i_lat":-6.212485},{"station_name":"Jatinegara","line":1,"i_lat":-6.215091,"distance":1377,"station_id":"JNG","time":8,"is_transit":true,"i_long":106.86807400000001,"transit":true},{"is_transit":false,"time":2,"station_id":"POK","station_name":"Pondok Jati","distance":1236,"i_long":106.861737,"i_lat":-6.209188,"transit":false,"line":11},{"distance":1829,"time":2,"i_lat":-6.193792,"station_id":"KMT","station_name":"Kramat","is_transit":false,"i_long":106.855437,"line":11,"transit":false},{"line":11,"station_name":"Gang Sentiong","time":1,"distance":973,"transit":false,"i_lat":-6.185975,"i_long":106.850107,"station_id":"GST","is_transit":false},{"i_lat":-6.174784,"time":8,"station_name":"Pasar Senen","transit":false,"station_id":"PSE","is_transit":false,"i_long":106.84368,"line":11,"distance":1567},{"time":4,"is_transit":false,"i_long":106.839204,"line":11,"distance":1436,"i_lat":-6.161728,"station_name":"Kemayoran","transit":false,"station_id":"KMO"},{"line":11,"is_transit":false,"transit":false,"i_lat":-6.14505,"station_id":"RJW","i_long":106.836569,"distance":1901,"time":5,"station_name":"Rajawali"},{"distance":1444,"i_lat":-6.132549,"i_long":106.826365,"station_id":"KPB","station_name":"Kampung Bandan","line":4,"is_transit":true,"time":3,"transit":true},{"is_transit":false,"i_long":106.79867,"distance":4102,"time":9,"transit":false,"i_lat":-6.144674,"station_name":"Angke","line":1,"station_id":"AK"},{"distance":1230,"station_name":"Duri","line":1,"station_id":"DU","time":4,"transit":true,"i_long":106.800832,"i_lat":-6.155215,"is_transit":true},{"is_transit":false,"transit":false,"i_lat":-6.162021,"station_name":"Grogol","i_long":106.788277,"line":5,"time":3,"station_id":"GGL","distance":1700},{"line":5,"i_long":106.771379,"station_id":"PSG","i_lat":-6.161433,"station_name":"Pesing","distance":2036,"transit":false,"is_transit":false,"time":2},{"distance":1614,"i_lat":-6.1587309999999995,"is_transit":false,"transit":false,"time":2,"station_id":"TKO","station_name":"Taman Kota","i_long":106.756522,"line":5},{"station_id":"BOI","i_lat":-6.159876,"line":5,"is_transit":false,"station_name":"Bojongindah","time":2,"distance":2334,"transit":false,"i_long":106.737035},{"line":5,"i_lat":-6.162758,"i_long":106.723064,"is_transit":false,"station_name":"Rawa Buaya","transit":false,"distance":1152,"time":4,"station_id":"RW"},{"is_transit":false,"distance":2504,"transit":false,"station_id":"KDS","i_long":106.701612,"i_lat":-6.166068,"time":3,"line":5,"station_name":"Kalideres"},{"line":5,"time":3,"distance":2548,"i_long":106.679458,"station_name":"Poris","station_id":"PI","transit":false,"i_lat":-6.169933,"is_transit":false},{"i_lat":-6.171811,"line":5,"i_long":106.665036,"time":3,"station_id":"BPR","distance":1834,"is_transit":false,"station_name":"Batuceper","transit":false}],[{"station_name":"Juanda","time":0,"is_transit":false,"transit":false,"i_lat":-6.166716,"station_id":"JUA","i_long":106.828284,"line":2,"distance":0},{"is_transit":false,"line":2,"station_id":"SW","distance":1149,"time":2,"station_name":"Sawah Besar","i_lat":-6.160725,"i_long":106.827103,"transit":false},{"station_id":"MGB","time":2,"line":2,"transit":false,"i_long":106.82482,"distance":906,"i_lat":-6.149769,"station_name":"Manggabesar","is_transit":false},{"transit":false,"is_transit":false,"station_id":"JAY","i_lat":-6.141205,"i_long":106.820901,"line":2,"time":2,"station_name":"Jayakarta","distance":1080},{"line":2,"distance":1264,"transit":true,"station_name":"Jakarta Kota","i_lat":-6.137569,"time":4,"is_transit":true,"station_id":"JAKK","i_long":106.812439},{"line":4,"i_lat":-6.132549,"time":3,"distance":1364,"is_transit":true,"station_name":"Kampung Bandan","transit":true,"station_id":"KPB","i_long":106.826365},{"transit":false,"time":3,"station_id":"RJW","is_transit":false,"distance":1444,"i_long":106.836569,"station_name":"Rajawali","line":11,"i_lat":-6.14505},{"i_long":106.839204,"i_lat":-6.161728,"distance":1901,"time":5,"transit":false,"is_transit":false,"station_name":"Kemayoran","line":11,"station_id":"KMO"},{"i_long":106.84368,"line":11,"is_transit":false,"station_name":"Pasar Senen","distance":1436,"station_id":"PSE","time":4,"transit":false,"i_lat":-6.174784},{"station_id":"GST","time":8,"is_transit":false,"transit":false,"distance":1567,"line":11,"i_lat":-6.185975,"i_long":106.850107,"station_name":"Gang Sentiong"},{"line":11,"station_id":"KMT","is_transit":false,"time":1,"transit":false,"station_name":"Kramat","distance":973,"i_lat":-6.193792,"i_long":106.855437},{"line":11,"i_long":106.861737,"station_id":"POK","station_name":"Pondok Jati","distance":1829,"time":2,"transit":false,"is_transit":false,"i_lat":-6.209188},{"station_name":"Jatinegara","is_transit":true,"i_long":106.86807400000001,"time":9,"transit":true,"station_id":"JNG","line":1,"distance":1236,"i_lat":-6.215091},{"time":2,"station_id":"MTR","is_transit":false,"distance":1377,"i_long":106.858896,"line":1,"i_lat":-6.212485,"station_name":"Matraman","transit":false},{"i_lat":-6.209883,"distance":1275,"station_id":"MRI","is_transit":false,"station_name":"Manggarai","line":2,"transit":false,"time":2,"i_long":106.84912},{"station_id":"SUD","time":4,"is_transit":false,"i_lat":-6.202263,"i_long":106.822649,"station_name":"Sudirman","distance":3186,"line":1,"transit":false},{"line":1,"is_transit":false,"transit":false,"station_name":"Sudirman Baru","time":1,"station_id":"SUDB","i_lat":-6.201433,"distance":280,"i_long":106.819881},{"station_name":"Karet","line":1,"transit":false,"i_lat":-6.20132,"time":1,"distance":471,"station_id":"KAT","i_long":106.816351,"is_transit":false},{"i_long":106.811091,"distance":2029,"station_name":"Tanah Abang","station_id":"THB","i_lat":-6.185545,"time":5,"transit":false,"is_transit":false,"line":1},{"distance":3632,"station_id":"DU","line":1,"i_lat":-6.155215,"station_name":"Duri","time":8,"is_transit":true,"i_long":106.800832,"transit":true},{"station_name":"Grogol","i_long":106.788277,"station_id":"GGL","i_lat":-6.162021,"time":3,"line":5,"distance":1700,"transit":false,"is_transit":false},{"transit":false,"station_name":"Pesing","is_transit":false,"i_lat":-6.161433,"line":5,"distance":2036,"time":2,"station_id":"PSG","i_long":106.771379},{"time":2,"i_long":106.756522,"station_name":"Taman Kota","distance":1614,"is_transit":false,"station_id":"TKO","i_lat":-6.1587309999999995,"line":5,"transit":false},{"station_id":"BOI","is_transit":false,"time":2,"i_long":106.737035,"i_lat":-6.159876,"station_name":"Bojongindah","transit":false,"distance":2334,"line":5},{"i_lat":-6.162758,"line":5,"station_id":"RW","time":4,"transit":false,"i_long":106.723064,"distance":1152,"station_name":"Rawa Buaya","is_transit":false},{"is_transit":false,"transit":false,"station_id":"KDS","i_long":106.701612,"station_name":"Kalideres","time":3,"line":5,"i_lat":-6.166068,"distance":2504},{"line":5,"is_transit":false,"time":3,"station_id":"PI","transit":false,"distance":2548,"i_lat":-6.169933,"i_long":106.679458,"station_name":"Poris"},{"station_id":"BPR","is_transit":false,"transit":false,"line":5,"distance":1834,"i_long":106.665036,"i_lat":-6.171811,"time":3,"station_name":"Batuceper"}]]}