{"data":[[{"i_long":106.828284,"i_lat":-6.166716,"is_transit":false,"distance":0,"time":0,"transit":false,"station_name":"Juanda","station_id":"JUA","line":2},{"time":4,"station_id":"GDD","i_lat":-6.186295,"distance":2015,"station_name":"Gondangdia","i_long":106.832183,"transit":false,"line":2,"is_transit":false},{"line":2,"is_transit":false,"i_lat":-6.198556,"transit":false,"distance":1750,"i_long":106.840169,"station_name":"Cikini","time":3,"station_id":"CKI"},{"is_transit":false,"time":4,"station_id":"MRI","line":2,"distance":1590,"transit":false,"i_long":106.84912,"i_lat":-6.209883,"station_name":"Manggarai"},{"line":2,"distance":2610,"station_id":"TEB","is_transit":false,"time":4,"transit":false,"i_lat":-6.226659,"i_long":106.857948,"station_name":"Tebet"},{"i_long":106.856607,"line":2,"transit":false,"station_name":"Cawang","station_id":"CW","is_transit":false,"time":2,"distance":1230,"i_lat":-6.242512},{"line":2,"distance":1546,"station_name":"Duren Kalibata","i_long":106.85449,"time":3,"i_lat":-6.255332,"is_transit":false,"station_id":"DRN","transit":false},{"transit":false,"station_id":"PSMB","i_lat":-6.263214,"time":2,"is_transit":false,"line":2,"distance":824,"i_long":106.851577,"station_name":"Pasar Minggu Baru"},{"is_transit":false,"station_id":"PSM","station_name":"Pasar Minggu","i_long":106.843999,"line":2,"time":2,"transit":false,"distance":2380,"i_lat":-6.2842400000000005},{"time":4,"distance":2820,"line":2,"transit":false,"station_id":"TNT","is_transit":false,"station_name":"Tanjung Barat","i_long":106.838896,"i_lat":-6.3080680000000005},{"transit":false,"station_name":"Lenteng Agung","i_lat":-6.330363,"i_long":106.832616,"line":2,"distance":2671,"station_id":"LNA","time":3,"is_transit":false},{"distance":1029,"transit":false,"time":2,"station_name":"Univ. Pancasila","station_id":"UP","i_long":106.834175,"line":2,"is_transit":false,"i_lat":-6.339291}],[{"i_lat":-6.166716,"distance":0,"line":2,"time":0,"i_long":106.828284,"is_transit":false,"station_name":"Juanda","station_id":"JUA","transit":false},{"distance":1149,"time":2,"is_transit":false,"station_name":"Sawah Besar","station_id":"SW","i_lat":-6.160725,"line":2,"i_long":106.827103,"transit":false},{"distance":906,"i_long":106.82482,"time":2,"is_transit":false,"station_id":"MGB","transit":false,"station_name":"Manggabesar","line":2,"i_lat":-6.149769},{"station_id":"JAY","time":2,"line":2,"is_transit":false,"i_long":106.820901,"distance":1080,"i_lat":-6.141205,"station_name":"Jayakarta","transit":false},{"time":4,"line":2,"station_id":"JAKK","i_long":106.812439,"is_transit":true,"distance":1264,"transit":true,"station_name":"Jakarta Kota","i_lat":-6.137569},{"transit":true,"i_lat":-6.132549,"is_transit":true,"time":3,"station_name":"Kampung Bandan","station_id":"KPB","line":4,"distance":1364,"i_long":106.826365},{"transit":false,"is_transit":false,"station_id":"AK","time":9,"distance":4102,"line":1,"station_name":"Angke","i_lat":-6.144674,"i_long":106.79867},{"i_lat":-6.155215,"time":4,"station_id":"DU","i_long":106.800832,"transit":false,"distance":1230,"station_name":"Duri","is_transit":false,"line":1},{"distance":3632,"line":1,"transit":false,"station_name":"Tanah Abang","station_id":"THB","is_transit":false,"time":8,"i_lat":-6.185545,"i_long":106.811091},{"distance":2029,"station_name":"Karet","i_long":106.816351,"is_transit":false,"transit":false,"i_lat":-6.20132,"station_id":"KAT","time":5,"line":1},{"station_id":"SUDB","i_long":106.819881,"distance":471,"station_name":"Sudirman Baru","line":1,"i_lat":-6.201433,"time":1,"is_transit":false,"transit":false},{"transit":false,"station_name":"Sudirman","line":1,"time":1,"is_transit":false,"distance":280,"i_long":106.822649,"i_lat":-6.202263,"station_id":"SUD"},{"i_long":106.84912,"is_transit":true,"transit":true,"distance":3186,"i_lat":-6.209883,"line":2,"time":4,"station_id":"MRI","station_name":"Manggarai"},{"distance":2610,"station_name":"Tebet","station_id":"TEB","time":4,"i_lat":-6.226659,"line":2,"i_long":106.857948,"is_transit":false,"transit":false},{"time":2,"station_name":"Cawang","line":2,"i_long":106.856607,"transit":false,"i_lat":-6.242512,"is_transit":false,"distance":1230,"station_id":"CW"},{"distance":1546,"i_lat":-6.255332,"is_transit":false,"station_id":"DRN","time":3,"i_long":106.85449,"station_name":"Duren Kalibata","transit":false,"line":2},{"line":2,"transit":false,"is_transit":false,"distance":824,"i_long":106.851577,"time":2,"station_id":"PSMB","station_name":"Pasar Minggu Baru","i_lat":-6.263214},{"station_id":"PSM","i_lat":-6.2842400000000005,"i_long":106.843999,"line":2,"distance":2380,"transit":false,"station_name":"Pasar Minggu","is_transit":false,"time":2},{"line":2,"station_name":"Tanjung Barat","i_long":106.838896,"distance":2820,"transit":false,"time":4,"is_transit":false,"i_lat":-6.3080680000000005,"station_id":"TNT"},{"distance":2671,"station_name":"Lenteng Agung","line":2,"i_lat":-6.330363,"transit":false,"i_long":106.832616,"station_id":"LNA","is_transit":false,"time":3},{"i_lat":-6.339291,"is_transit":false,"time":2,"distance":1029,"station_name":"Univ. Pancasila","i_long":106.834175,"transit":false,"line":2,"station_id":"UP"}],[{"i_lat":-6.166716,"station_id":"JUA","i_long":106.828284,"time":0,"transit":false,"is_transit":false,"line":2,"distance":0,"station_name":"Juanda"},{"i_lat":-6.160725,"time":2,"line":2,"distance":1149,"i_long":106.827103,"station_id":"SW","station_name":"Sawah Besar","is_transit":false,"transit":false},{"distance":906,"is_transit":false,"time":2,"transit":false,"station_id":"MGB","line":2,"i_long":106.82482,"station_name":"Manggabesar","i_lat":-6.149769},{"station_id":"JAY","i_long":106.820901,"transit":false,"time":2,"station_name":"Jayakarta","line":2,"is_transit":false,"distance":1080,"i_lat":-6.141205},{"station_id":"JAKK","i_lat":-6.137569,"is_transit":true,"station_name":"Jakarta Kota","time":4,"i_long":106.812439,"line":2,"distance":1264,"transit":true},{"is_transit":true,"i_lat":-6.132549,"station_id":"KPB","i_long":106.826365,"station_name":"Kampung Bandan","line":4,"distance":1364,"transit":true,"time":3},{"time":3,"distance":1444,"i_lat":-6.14505,"transit":false,"is_transit":false,"station_name":"Rajawali","station_id":"RJW","line":11,"i_long":106.836569},{"station_id":"KMO","distance":1901,"is_transit":false,"i_lat":-6.161728,"station_name":"Kemayoran","i_long":106.839204,"line":11,"time":5,"transit":false},{"time":4,"i_long":106.84368,"i_lat":-6.174784,"station_id":"PSE","distance":1436,"transit":false,"is_transit":false,"station_name":"Pasar Senen","line":11},{"transit":false,"i_long":106.850107,"station_name":"Gang Sentiong","line":11,"station_id":"GST","time":8,"i_lat":-6.185975,"distance":1567,"is_transit":false},{"is_transit":false,"transit":false,"station_id":"KMT","station_name":"Kramat","line":11,"distance":973,"i_long":106.855437,"time":1,"i_lat":-6.193792},{"station_name":"Pondok Jati","is_transit":false,"i_long":106.861737,"line":11,"time":2,"distance":1829,"i_lat":-6.209188,"station_id":"POK","transit":false},{"time":9,"line":1,"station_name":"Jatinegara","station_id":"JNG","i_lat":-6.215091,"is_transit":true,"transit":true,"distance":1236,"i_long":106.86807400000001},{"i_long":106.858896,"station_name":"Matraman","line":1,"distance":1377,"is_transit":false,"transit":false,"time":2,"i_lat":-6.212485,"station_id":"MTR"},{"time":2,"is_transit":true,"i_long":106.84912,"station_name":"Manggarai","i_lat":-6.209883,"line":2,"station_id":"MRI","distance":1275,"transit":true},{"is_transit":false,"station_id":"TEB","i_long":106.857948,"line":2,"transit":false,"time":4,"station_name":"Tebet","i_lat":-6.226659,"distance":2610},{"line":2,"is_transit":false,"time":2,"transit":false,"distance":1230,"i_lat":-6.242512,"station_name":"Cawang","station_id":"CW","i_long":106.856607},{"station_name":"Duren Kalibata","station_id":"DRN","distance":1546,"i_lat":-6.255332,"line":2,"i_long":106.85449,"time":3,"is_transit":false,"transit":false},{"i_long":106.851577,"is_transit":false,"line":2,"distance":824,"station_name":"Pasar Minggu Baru","transit":false,"time":2,"station_id":"PSMB","i_lat":-6.263214},{"time":2,"i_long":106.843999,"is_transit":false,"station_name":"Pasar Minggu","line":2,"i_lat":-6.2842400000000005,"transit":false,"station_id":"PSM","distance":2380},{"is_transit":false,"time":4,"distance":2820,"line":2,"i_lat":-6.3080680000000005,"station_id":"TNT","transit":false,"i_long":106.838896,"station_name":"Tanjung Barat"},{"time":3,"is_transit":false,"station_name":"Lenteng Agung","station_id":"LNA","i_lat":-6.330363,"i_long":106.832616,"line":2,"distance":2671,"transit":false},{"i_lat":-6.339291,"time":2,"distance":1029,"line":2,"station_name":"Univ. Pancasila","is_transit":false,"station_id":"UP","transit":false,"i_long":106.834175}]]}