{"data":[[{"distance":0,"i_long":106.828284,"line":2,"station_name":"Juanda","transit":false,"time":0,"station_id":"JUA","is_transit":false,"i_lat":-6.166716},{"i_long":106.827103,"station_name":"Sawah Besar","time":2,"i_lat":-6.160725,"is_transit":false,"line":2,"distance":1149,"station_id":"SW","transit":false},{"transit":false,"station_id":"MGB","is_transit":false,"distance":906,"i_lat":-6.149769,"i_long":106.82482,"line":2,"time":2,"station_name":"Manggabesar"},{"distance":1080,"line":2,"transit":false,"i_long":106.820901,"i_lat":-6.141205,"is_transit":false,"time":2,"station_name":"Jayakarta","station_id":"JAY"},{"time":4,"line":2,"transit":true,"is_transit":true,"station_id":"JAKK","distance":1264,"i_lat":-6.137569,"i_long":106.812439,"station_name":"Jakarta Kota"},{"line":4,"station_name":"Kampung Bandan","is_transit":true,"time":3,"i_lat":-6.132549,"distance":1364,"transit":true,"station_id":"KPB","i_long":106.826365},{"i_lat":-6.144674,"station_id":"AK","is_transit":false,"distance":4102,"transit":false,"line":1,"time":9,"i_long":106.79867,"station_name":"Angke"},{"station_id":"DU","time":4,"i_lat":-6.155215,"station_name":"Duri","distance":1230,"i_long":106.800832,"line":1,"is_transit":true,"transit":true},{"line":5,"transit":false,"i_long":106.788277,"i_lat":-6.162021,"station_name":"Grogol","is_transit":false,"distance":1700,"time":3,"station_id":"GGL"},{"i_lat":-6.161433,"i_long":106.771379,"station_name":"Pesing","distance":2036,"transit":false,"line":5,"is_transit":false,"station_id":"PSG","time":2},{"station_id":"TKO","is_transit":false,"distance":1614,"i_lat":-6.1587309999999995,"time":2,"i_long":106.756522,"line":5,"station_name":"Taman Kota","transit":false},{"station_name":"Bojongindah","distance":2334,"i_long":106.737035,"station_id":"BOI","time":2,"i_lat":-6.159876,"line":5,"is_transit":false,"transit":false},{"is_transit":false,"station_name":"Rawa Buaya","transit":false,"i_lat":-6.162758,"distance":1152,"time":4,"i_long":106.723064,"line":5,"station_id":"RW"}],[{"i_long":106.828284,"station_id":"JUA","is_transit":false,"time":0,"line":2,"station_name":"Juanda","transit":false,"distance":0,"i_lat":-6.166716},{"distance":2015,"line":2,"i_lat":-6.186295,"station_id":"GDD","i_long":106.832183,"is_transit":false,"transit":false,"station_name":"Gondangdia","time":4},{"distance":1750,"i_long":106.840169,"station_name":"Cikini","transit":false,"i_lat":-6.198556,"time":3,"is_transit":false,"line":2,"station_id":"CKI"},{"station_name":"Manggarai","time":4,"station_id":"MRI","is_transit":true,"line":2,"transit":true,"distance":1590,"i_lat":-6.209883,"i_long":106.84912},{"i_lat":-6.202263,"i_long":106.822649,"line":1,"time":4,"transit":false,"is_transit":false,"distance":3186,"station_id":"SUD","station_name":"Sudirman"},{"is_transit":false,"line":1,"transit":false,"time":1,"station_id":"SUDB","i_long":106.819881,"station_name":"Sudirman Baru","i_lat":-6.201433,"distance":280},{"i_long":106.816351,"station_name":"Karet","i_lat":-6.20132,"line":1,"distance":471,"is_transit":false,"transit":false,"time":1,"station_id":"KAT"},{"transit":false,"line":1,"distance":2029,"time":5,"i_lat":-6.185545,"station_id":"THB","is_transit":false,"station_name":"Tanah Abang","i_long":106.811091},{"time":8,"station_name":"Duri","distance":3632,"transit":true,"station_id":"DU","i_long":106.800832,"line":1,"is_transit":true,"i_lat":-6.155215},{"i_long":106.788277,"time":3,"station_name":"Grogol","transit":false,"station_id":"GGL","i_lat":-6.162021,"line":5,"is_transit":false,"distance":1700},{"i_lat":-6.161433,"station_id":"PSG","is_transit":false,"transit":false,"i_long":106.771379,"time":2,"distance":2036,"station_name":"Pesing","line":5},{"station_id":"TKO","i_lat":-6.1587309999999995,"distance":1614,"time":2,"line":5,"is_transit":false,"station_name":"Taman Kota","transit":false,"i_long":106.756522},{"station_id":"BOI","station_name":"Bojongindah","transit":false,"i_lat":-6.159876,"line":5,"is_transit":false,"i_long":106.737035,"distance":2334,"time":2},{"station_id":"RW","i_long":106.723064,"line":5,"distance":1152,"transit":false,"station_name":"Rawa Buaya","i_lat":-6.162758,"is_transit":false,"time":4}],[{"station_name":"Juanda","time":0,"i_long":106.828284,"i_lat":-6.166716,"distance":0,"station_id":"JUA","is_transit":false,"transit":false,"line":2},{"distance":2015,"transit":false,"time":4,"station_name":"Gondangdia","i_long":106.832183,"i_lat":-6.186295,"is_transit":false,"line":2,"station_id":"GDD"},{"line":2,"time":3,"station_name":"Cikini","is_transit":false,"i_lat":-6.198556,"station_id":"CKI","distance":1750,"transit":false,"i_long":106.840169},{"distance":1590,"i_lat":-6.209883,"station_name":"Manggarai","line":2,"is_transit":true,"time":4,"transit":true,"i_long":106.84912,"station_id":"MRI"},{"distance":1275,"station_id":"MTR","line":1,"time":2,"station_name":"Matraman","i_lat":-6.212485,"is_transit":false,"i_long":106.858896,"transit":false},{"i_lat":-6.215091,"station_name":"Jatinegara","is_transit":true,"line":1,"transit":true,"time":8,"distance":1377,"station_id":"JNG","i_long":106.86807400000001},{"i_lat":-6.209188,"is_transit":false,"station_id":"POK","station_name":"Pondok Jati","distance":1236,"time":2,"i_long":106.861737,"line":11,"transit":false},{"transit":false,"i_lat":-6.193792,"i_long":106.855437,"distance":1829,"station_name":"Kramat","time":2,"line":11,"is_transit":false,"station_id":"KMT"},{"i_lat":-6.185975,"time":1,"station_name":"Gang Sentiong","i_long":106.850107,"distance":973,"is_transit":false,"line":11,"transit":false,"station_id":"GST"},{"i_lat":-6.174784,"i_long":106.84368,"station_name":"Pasar Senen","line":11,"station_id":"PSE","distance":1567,"transit":false,"is_transit":false,"time":8},{"station_name":"Kemayoran","station_id":"KMO","distance":1436,"i_lat":-6.161728,"i_long":106.839204,"line":11,"time":4,"transit":false,"is_transit":false},{"station_name":"Rajawali","distance":1901,"transit":false,"time":5,"i_long":106.836569,"i_lat":-6.14505,"line":11,"station_id":"RJW","is_transit":false},{"station_id":"KPB","distance":1444,"i_long":106.826365,"line":4,"station_name":"Kampung Bandan","is_transit":true,"transit":true,"time":3,"i_lat":-6.132549},{"i_lat":-6.144674,"i_long":106.79867,"transit":false,"line":1,"is_transit":false,"time":9,"station_id":"AK","distance":4102,"station_name":"Angke"},{"distance":1230,"station_name":"Duri","line":1,"i_lat":-6.155215,"time":4,"is_transit":true,"transit":true,"i_long":106.800832,"station_id":"DU"},{"i_lat":-6.162021,"time":3,"line":5,"is_transit":false,"station_id":"GGL","transit":false,"station_name":"Grogol","i_long":106.788277,"distance":1700},{"transit":false,"i_long":106.771379,"is_transit":false,"time":2,"i_lat":-6.161433,"distance":2036,"station_id":"PSG","line":5,"station_name":"Pesing"},{"station_name":"Taman Kota","i_lat":-6.1587309999999995,"transit":false,"i_long":106.756522,"time":2,"station_id":"TKO","distance":1614,"is_transit":false,"line":5},{"is_transit":false,"line":5,"station_id":"BOI","i_long":106.737035,"station_name":"Bojongindah","time":2,"i_lat":-6.159876,"transit":false,"distance":2334},{"is_transit":false,"i_long":106.723064,"station_id":"RW","line":5,"station_name":"Rawa Buaya","i_lat":-6.162758,"time":4,"distance":1152,"transit":false}],[{"time":0,"i_lat":-6.166716,"station_name":"Juanda","i_long":106.828284,"station_id":"JUA","is_transit":false,"line":2,"transit":false,"distance":0},{"time":2,"line":2,"station_name":"Sawah Besar","i_lat":-6.160725,"transit":false,"is_transit":false,"station_id":"SW","i_long":106.827103,"distance":1149},{"is_transit":false,"station_id":"MGB","i_lat":-6.149769,"station_name":"Manggabesar","transit":false,"time":2,"line":2,"i_long":106.82482,"distance":906},{"station_id":"JAY","station_name":"Jayakarta","i_lat":-6.141205,"distance":1080,"time":2,"transit":false,"i_long":106.820901,"is_transit":false,"line":2},{"i_lat":-6.137569,"station_id":"JAKK","is_transit":true,"line":2,"station_name":"Jakarta Kota","i_long":106.812439,"distance":1264,"time":4,"transit":true},{"station_name":"Kampung Bandan","transit":true,"distance":1364,"i_lat":-6.132549,"is_transit":true,"line":4,"i_long":106.826365,"time":3,"station_id":"KPB"},{"transit":false,"line":11,"is_transit":false,"distance":1444,"time":3,"station_name":"Rajawali","i_long":106.836569,"station_id":"RJW","i_lat":-6.14505},{"station_name":"Kemayoran","transit":false,"distance":1901,"is_transit":false,"i_long":106.839204,"time":5,"i_lat":-6.161728,"line":11,"station_id":"KMO"},{"time":4,"i_long":106.84368,"line":11,"transit":false,"station_id":"PSE","i_lat":-6.174784,"distance":1436,"station_name":"Pasar Senen","is_transit":false},{"time":8,"i_lat":-6.185975,"i_long":106.850107,"station_id":"GST","distance":1567,"line":11,"station_name":"Gang Sentiong","is_transit":false,"transit":false},{"transit":false,"i_long":106.855437,"line":11,"is_transit":false,"i_lat":-6.193792,"time":1,"distance":973,"station_name":"Kramat","station_id":"KMT"},{"i_long":106.861737,"distance":1829,"station_name":"Pondok Jati","time":2,"station_id":"POK","i_lat":-6.209188,"line":11,"is_transit":false,"transit":false},{"time":9,"station_id":"JNG","station_name":"Jatinegara","i_long":106.86807400000001,"line":1,"i_lat":-6.215091,"is_transit":true,"distance":1236,"transit":true},{"station_id":"MTR","i_lat":-6.212485,"transit":false,"line":1,"station_name":"Matraman","i_long":106.858896,"is_transit":false,"distance":1377,"time":2},{"is_transit":false,"time":2,"line":2,"i_long":106.84912,"transit":false,"station_id":"MRI","i_lat":-6.209883,"station_name":"Manggarai","distance":1275},{"distance":3186,"i_long":106.822649,"station_id":"SUD","line":1,"station_name":"Sudirman","time":4,"is_transit":false,"i_lat":-6.202263,"transit":false},{"station_name":"Sudirman Baru","station_id":"SUDB","is_transit":false,"distance":280,"line":1,"i_long":106.819881,"i_lat":-6.201433,"time":1,"transit":false},{"station_id":"KAT","is_transit":false,"i_long":106.816351,"line":1,"i_lat":-6.20132,"transit":false,"time":1,"distance":471,"station_name":"Karet"},{"is_transit":false,"transit":false,"time":5,"station_name":"Tanah Abang","line":1,"distance":2029,"station_id":"THB","i_lat":-6.185545,"i_long":106.811091},{"i_long":106.800832,"line":1,"station_id":"DU","time":8,"transit":true,"is_transit":true,"i_lat":-6.155215,"distance":3632,"station_name":"Duri"},{"i_long":106.788277,"station_name":"Grogol","is_transit":false,"distance":1700,"i_lat":-6.162021,"station_id":"GGL","time":3,"line":5,"transit":false},{"transit":false,"station_name":"Pesing","i_lat":-6.161433,"station_id":"PSG","time":2,"distance":2036,"i_long":106.771379,"is_transit":false,"line":5},{"time":2,"distance":1614,"line":5,"transit":false,"is_transit":false,"station_id":"TKO","i_lat":-6.1587309999999995,"i_long":106.756522,"station_name":"Taman Kota"},{"station_id":"BOI","i_long":106.737035,"line":5,"station_name":"Bojongindah","is_transit":false,"distance":2334,"i_lat":-6.159876,"time":2,"transit":false},{"distance":1152,"i_lat":-6.162758,"line":5,"time":4,"station_id":"RW","station_name":"Rawa Buaya","i_long":106.723064,"transit":false,"is_transit":false}]]}