{"data":[[{"transit":false,"station_id":"JUA","i_lat":-6.166716,"station_name":"Juanda","is_transit":false,"time":0,"i_long":106.828284,"line":2,"distance":0},{"time":4,"distance":2015,"station_name":"Gondangdia","i_long":106.832183,"is_transit":false,"i_lat":-6.186295,"transit":false,"station_id":"GDD","line":2},{"transit":false,"time":3,"distance":1750,"line":0,"station_id":"CKI","station_name":"Cikini","is_transit":false,"i_lat":-6.198556,"i_long":106.840169},{"time":4,"distance":1590,"is_transit":true,"transit":true,"i_long":106.84912,"station_id":"MRI","station_name":"Manggarai","line":0,"i_lat":-6.209883},{"station_id":"TEB","i_lat":-6.226659,"station_name":"Tebet","is_transit":false,"transit":false,"line":2,"time":4,"i_long":106.857948,"distance":2610},{"station_name":"Cawang","station_id":"CW","distance":1230,"i_long":106.856607,"line":0,"is_transit":false,"transit":false,"time":2,"i_lat":-6.242512},{"station_name":"Duren Kalibata","i_lat":-6.255332,"time":3,"line":0,"i_long":106.85449,"station_id":"DRN","is_transit":false,"transit":false,"distance":1546},{"transit":false,"i_lat":-6.263214,"line":2,"station_id":"PSMB","distance":824,"i_long":106.851577,"time":2,"is_transit":false,"station_name":"Pasar Minggu Baru"},{"is_transit":false,"i_long":106.843999,"time":2,"distance":2380,"line":2,"station_name":"Pasar Minggu","transit":false,"i_lat":-6.2842400000000005,"station_id":"PSM"},{"is_transit":false,"time":4,"line":2,"i_long":106.838896,"station_id":"TNT","i_lat":-6.3080680000000005,"transit":false,"distance":2820,"station_name":"Tanjung Barat"},{"i_lat":-6.330363,"time":3,"i_long":106.832616,"is_transit":false,"transit":false,"station_name":"Lenteng Agung","distance":2671,"line":2,"station_id":"LNA"},{"distance":1029,"i_long":106.834175,"is_transit":false,"time":2,"transit":false,"station_id":"UP","station_name":"Univ. Pancasila","i_lat":-6.339291,"line":2},{"station_id":"UI","is_transit":false,"distance":2264,"i_long":106.831474,"time":3,"i_lat":-6.360749,"transit":false,"station_name":"Univ. Indonesia","line":2},{"line":2,"distance":1109,"station_name":"Pondok Cina","is_transit":false,"transit":false,"i_lat":-6.369073,"time":2,"station_id":"POC","i_long":106.831114},{"station_id":"DPB","is_transit":false,"time":4,"station_name":"Depokbaru","distance":2727,"i_lat":-6.391065,"i_long":106.819451,"line":0,"transit":false},{"station_name":"Depok","time":3,"distance":1584,"is_transit":false,"transit":false,"station_id":"DP","i_lat":-6.405256,"i_long":106.816926,"line":0},{"time":6,"distance":5084,"i_lat":-6.448811,"line":1,"transit":false,"i_long":106.800298,"is_transit":true,"station_id":"CTA","station_name":"Citayam"},{"i_lat":-6.493243,"distance":5197,"station_id":"BJD","is_transit":false,"time":5,"i_long":106.792719,"station_name":"Bojonggede","line":0,"transit":false},{"is_transit":false,"line":0,"transit":false,"station_id":"CLT","i_lat":-6.530544,"station_name":"Cilebut","time":5,"i_long":106.800016,"distance":4331},{"line":1,"i_long":106.790574,"station_id":"BOO","station_name":"Bogor","time":9,"distance":7514,"is_transit":true,"i_lat":-6.594596,"transit":false}],[{"distance":0,"transit":false,"line":2,"station_name":"Juanda","i_lat":-6.166716,"i_long":106.828284,"is_transit":false,"station_id":"JUA","time":0},{"distance":1149,"time":2,"line":2,"is_transit":false,"i_lat":-6.160725,"transit":false,"station_id":"SW","station_name":"Sawah Besar","i_long":106.827103},{"distance":906,"station_id":"MGB","is_transit":false,"station_name":"Manggabesar","transit":false,"time":2,"i_long":106.82482,"line":2,"i_lat":-6.149769},{"i_lat":-6.141205,"distance":1080,"transit":false,"line":7,"station_name":"Jayakarta","is_transit":false,"station_id":"JAY","i_long":106.820901,"time":2},{"station_id":"JAKK","station_name":"Jakarta Kota","transit":true,"distance":1264,"is_transit":true,"i_lat":-6.137569,"line":0,"time":4,"i_long":106.812439},{"line":0,"is_transit":true,"distance":1364,"transit":false,"i_lat":-6.132549,"station_name":"Kampung Bandan","time":3,"i_long":106.826365,"station_id":"KPB"},{"distance":4102,"station_id":"AK","station_name":"Angke","is_transit":false,"i_lat":-6.144674,"line":0,"time":9,"i_long":106.79867,"transit":false},{"station_name":"Duri","i_long":106.800832,"is_transit":true,"i_lat":-6.155215,"line":1,"distance":1230,"station_id":"DU","time":4,"transit":true},{"station_id":"THB","i_long":106.811091,"station_name":"Tanah Abang","i_lat":-6.185545,"transit":false,"time":8,"is_transit":true,"distance":3632,"line":1},{"i_long":106.816351,"time":5,"distance":2029,"transit":false,"i_lat":-6.20132,"line":1,"station_id":"KAT","station_name":"Karet","is_transit":false},{"i_lat":-6.201433,"station_name":"Sudirman Baru","station_id":"SUDB","transit":false,"i_long":106.819881,"time":1,"is_transit":false,"line":1,"distance":471},{"is_transit":false,"i_lat":-6.202263,"station_id":"SUD","line":1,"time":1,"transit":false,"station_name":"Sudirman","i_long":106.822649,"distance":280},{"distance":3186,"is_transit":true,"station_id":"MRI","time":4,"transit":true,"i_lat":-6.209883,"line":0,"station_name":"Manggarai","i_long":106.84912},{"time":4,"distance":2610,"i_lat":-6.226659,"station_id":"TEB","station_name":"Tebet","i_long":106.857948,"line":2,"is_transit":false,"transit":false},{"station_name":"Cawang","station_id":"CW","is_transit":false,"distance":1230,"i_lat":-6.242512,"transit":false,"i_long":106.856607,"time":2,"line":0},{"i_long":106.85449,"time":3,"transit":false,"station_id":"DRN","station_name":"Duren Kalibata","i_lat":-6.255332,"is_transit":false,"distance":1546,"line":0},{"distance":824,"i_lat":-6.263214,"i_long":106.851577,"line":2,"time":2,"transit":false,"station_name":"Pasar Minggu Baru","is_transit":false,"station_id":"PSMB"},{"time":2,"is_transit":false,"i_lat":-6.2842400000000005,"i_long":106.843999,"line":2,"station_id":"PSM","distance":2380,"station_name":"Pasar Minggu","transit":false},{"i_lat":-6.3080680000000005,"line":2,"time":4,"station_name":"Tanjung Barat","distance":2820,"i_long":106.838896,"transit":false,"is_transit":false,"station_id":"TNT"},{"station_id":"LNA","time":3,"transit":false,"line":2,"is_transit":false,"station_name":"Lenteng Agung","i_long":106.832616,"distance":2671,"i_lat":-6.330363},{"is_transit":false,"transit":false,"i_lat":-6.339291,"time":2,"i_long":106.834175,"line":2,"station_id":"UP","distance":1029,"station_name":"Univ. Pancasila"},{"time":3,"i_lat":-6.360749,"is_transit":false,"line":2,"i_long":106.831474,"station_name":"Univ. Indonesia","transit":false,"distance":2264,"station_id":"UI"},{"i_long":106.831114,"distance":1109,"i_lat":-6.369073,"line":2,"transit":false,"station_name":"Pondok Cina","station_id":"POC","is_transit":false,"time":2},{"is_transit":false,"line":0,"station_name":"Depokbaru","time":4,"distance":2727,"i_lat":-6.391065,"i_long":106.819451,"station_id":"DPB","transit":false},{"station_name":"Depok","time":3,"transit":false,"station_id":"DP","distance":1584,"i_lat":-6.405256,"is_transit":false,"i_long":106.816926,"line":0},{"i_lat":-6.448811,"time":6,"line":1,"station_name":"Citayam","distance":5084,"station_id":"CTA","transit":false,"i_long":106.800298,"is_transit":true},{"line":0,"station_name":"Bojonggede","i_lat":-6.493243,"is_transit":false,"distance":5197,"i_long":106.792719,"transit":false,"station_id":"BJD","time":5},{"line":0,"time":5,"station_id":"CLT","i_long":106.800016,"i_lat":-6.530544,"station_name":"Cilebut","is_transit":false,"distance":4331,"transit":false},{"time":9,"distance":7514,"station_name":"Bogor","i_lat":-6.594596,"line":1,"is_transit":true,"station_id":"BOO","transit":false,"i_long":106.790574}],[{"station_name":"Juanda","station_id":"JUA","is_transit":false,"i_lat":-6.166716,"i_long":106.828284,"time":0,"distance":0,"line":2,"transit":false},{"line":2,"is_transit":false,"distance":1149,"station_id":"SW","i_long":106.827103,"transit":false,"station_name":"Sawah Besar","time":2,"i_lat":-6.160725},{"station_id":"MGB","station_name":"Manggabesar","i_lat":-6.149769,"i_long":106.82482,"distance":906,"is_transit":false,"time":2,"line":2,"transit":false},{"i_lat":-6.141205,"is_transit":false,"distance":1080,"time":2,"transit":false,"station_name":"Jayakarta","i_long":106.820901,"station_id":"JAY","line":7},{"transit":true,"i_long":106.812439,"distance":1264,"station_id":"JAKK","i_lat":-6.137569,"line":0,"is_transit":true,"station_name":"Jakarta Kota","time":4},{"distance":1364,"station_name":"Kampung Bandan","station_id":"KPB","is_transit":true,"time":3,"i_long":106.826365,"transit":true,"i_lat":-6.132549,"line":0},{"line":11,"station_id":"RJW","is_transit":false,"distance":1444,"transit":false,"time":3,"i_long":106.836569,"i_lat":-6.14505,"station_name":"Rajawali"},{"distance":1901,"station_name":"Kemayoran","i_lat":-6.161728,"time":5,"transit":false,"station_id":"KMO","line":11,"i_long":106.839204,"is_transit":false},{"i_long":106.84368,"distance":1436,"line":11,"station_id":"PSE","i_lat":-6.174784,"is_transit":false,"station_name":"Pasar Senen","time":4,"transit":false},{"i_long":106.850107,"is_transit":false,"i_lat":-6.185975,"station_name":"Gang Sentiong","line":11,"time":8,"station_id":"GST","distance":1567,"transit":false},{"transit":false,"station_id":"KMT","distance":973,"i_lat":-6.193792,"is_transit":false,"station_name":"Kramat","time":1,"i_long":106.855437,"line":11},{"distance":1829,"station_name":"Pondok Jati","time":2,"station_id":"POK","is_transit":false,"transit":false,"i_lat":-6.209188,"i_long":106.861737,"line":11},{"line":0,"i_lat":-6.215091,"i_long":106.86807400000001,"station_id":"JNG","distance":1236,"station_name":"Jatinegara","transit":true,"time":9,"is_transit":true},{"i_long":106.858896,"i_lat":-6.212485,"transit":false,"station_name":"Matraman","is_transit":false,"station_id":"MTR","line":1,"time":2,"distance":1377},{"distance":1275,"i_lat":-6.209883,"is_transit":true,"transit":true,"i_long":106.84912,"line":0,"station_name":"Manggarai","time":2,"station_id":"MRI"},{"transit":false,"station_id":"TEB","distance":2610,"i_long":106.857948,"i_lat":-6.226659,"station_name":"Tebet","is_transit":false,"line":2,"time":4},{"station_id":"CW","transit":false,"distance":1230,"is_transit":false,"i_long":106.856607,"line":0,"station_name":"Cawang","time":2,"i_lat":-6.242512},{"line":0,"is_transit":false,"distance":1546,"transit":false,"station_id":"DRN","time":3,"i_lat":-6.255332,"i_long":106.85449,"station_name":"Duren Kalibata"},{"i_long":106.851577,"line":2,"station_name":"Pasar Minggu Baru","is_transit":false,"station_id":"PSMB","time":2,"distance":824,"transit":false,"i_lat":-6.263214},{"is_transit":false,"line":2,"station_name":"Pasar Minggu","time":2,"station_id":"PSM","i_long":106.843999,"distance":2380,"i_lat":-6.2842400000000005,"transit":false},{"station_id":"TNT","distance":2820,"i_lat":-6.3080680000000005,"transit":false,"station_name":"Tanjung Barat","i_long":106.838896,"is_transit":false,"time":4,"line":2},{"is_transit":false,"distance":2671,"i_long":106.832616,"station_id":"LNA","station_name":"Lenteng Agung","transit":false,"time":3,"i_lat":-6.330363,"line":2},{"station_name":"Univ. Pancasila","time":2,"station_id":"UP","distance":1029,"transit":false,"i_lat":-6.339291,"line":2,"i_long":106.834175,"is_transit":false},{"station_name":"Univ. Indonesia","i_long":106.831474,"transit":false,"is_transit":false,"time":3,"i_lat":-6.360749,"station_id":"UI","line":2,"distance":2264},{"line":2,"station_id":"POC","station_name":"Pondok Cina","transit":false,"i_long":106.831114,"time":2,"is_transit":false,"distance":1109,"i_lat":-6.369073},{"is_transit":false,"transit":false,"time":4,"i_long":106.819451,"distance":2727,"station_name":"Depokbaru","line":0,"i_lat":-6.391065,"station_id":"DPB"},{"is_transit":false,"distance":1584,"transit":false,"station_id":"DP","i_lat":-6.405256,"station_name":"Depok","time":3,"i_long":106.816926,"line":0},{"line":1,"distance":5084,"station_id":"CTA","i_lat":-6.448811,"is_transit":true,"time":6,"transit":false,"i_long":106.800298,"station_name":"Citayam"},{"transit":false,"i_lat":-6.493243,"station_name":"Bojonggede","i_long":106.792719,"distance":5197,"line":0,"is_transit":false,"station_id":"BJD","time":5},{"i_lat":-6.530544,"transit":false,"station_id":"CLT","line":0,"time":5,"station_name":"Cilebut","i_long":106.800016,"distance":4331,"is_transit":false},{"line":1,"is_transit":true,"i_long":106.790574,"time":9,"distance":7514,"station_id":"BOO","i_lat":-6.594596,"station_name":"Bogor","transit":false}]]}