{"data":[[{"station_id":"JUA","station_name":"Juanda","transit":false,"i_long":106.828284,"time":0,"distance":0,"is_transit":false,"i_lat":-6.166716,"line":2},{"station_id":"GDD","distance":2015,"station_name":"Gondangdia","line":2,"is_transit":false,"transit":false,"i_long":106.832183,"i_lat":-6.186295,"time":4}],[{"station_id":"JUA","station_name":"Juanda","distance":0,"i_long":106.828284,"i_lat":-6.166716,"line":2,"time":0,"is_transit":false,"transit":false},{"time":2,"station_id":"SW","is_transit":false,"transit":false,"i_long":106.827103,"line":2,"i_lat":-6.160725,"station_name":"Sawah Besar","distance":1149},{"time":2,"station_id":"MGB","transit":false,"i_lat":-6.149769,"line":2,"i_long":106.82482,"station_name":"Manggabesar","distance":906,"is_transit":false},{"i_lat":-6.141205,"i_long":106.820901,"time":2,"distance":1080,"station_id":"JAY","is_transit":false,"station_name":"Jayakarta","transit":false,"line":2},{"time":4,"distance":1264,"transit":true,"i_long":106.812439,"station_name":"Jakarta Kota","is_transit":true,"i_lat":-6.137569,"station_id":"JAKK","line":2},{"distance":1364,"is_transit":true,"transit":true,"time":3,"station_id":"KPB","line":4,"i_long":106.826365,"station_name":"Kampung Bandan","i_lat":-6.132549},{"is_transit":false,"line":1,"i_lat":-6.144674,"transit":false,"distance":4102,"time":9,"station_id":"AK","i_long":106.79867,"station_name":"Angke"},{"station_id":"DU","i_long":106.800832,"distance":1230,"is_transit":false,"time":4,"station_name":"Duri","transit":false,"i_lat":-6.155215,"line":1},{"station_id":"THB","line":1,"time":8,"is_transit":false,"transit":false,"i_lat":-6.185545,"distance":3632,"station_name":"Tanah Abang","i_long":106.811091},{"is_transit":false,"i_long":106.816351,"station_id":"KAT","transit":false,"time":5,"i_lat":-6.20132,"distance":2029,"station_name":"Karet","line":1},{"station_id":"SUDB","is_transit":false,"station_name":"Sudirman Baru","line":1,"i_long":106.819881,"transit":false,"time":1,"distance":471,"i_lat":-6.201433},{"transit":false,"time":1,"station_name":"Sudirman","i_lat":-6.202263,"station_id":"SUD","distance":280,"line":1,"i_long":106.822649,"is_transit":false},{"station_name":"Manggarai","station_id":"MRI","line":2,"time":4,"is_transit":true,"i_lat":-6.209883,"transit":true,"i_long":106.84912,"distance":3186},{"line":2,"is_transit":false,"i_long":106.840169,"i_lat":-6.198556,"station_name":"Cikini","distance":1590,"station_id":"CKI","transit":false,"time":4},{"is_transit":false,"station_id":"GDD","time":3,"distance":1750,"transit":false,"i_lat":-6.186295,"line":2,"i_long":106.832183,"station_name":"Gondangdia"}],[{"i_lat":-6.166716,"line":2,"time":0,"station_name":"Juanda","i_long":106.828284,"distance":0,"station_id":"JUA","is_transit":false,"transit":false},{"i_long":106.827103,"is_transit":false,"station_id":"SW","station_name":"Sawah Besar","transit":false,"time":2,"line":2,"distance":1149,"i_lat":-6.160725},{"i_lat":-6.149769,"transit":false,"distance":906,"station_name":"Manggabesar","station_id":"MGB","line":2,"is_transit":false,"i_long":106.82482,"time":2},{"distance":1080,"transit":false,"station_name":"Jayakarta","is_transit":false,"i_long":106.820901,"station_id":"JAY","time":2,"i_lat":-6.141205,"line":2},{"station_name":"Jakarta Kota","time":4,"is_transit":true,"i_lat":-6.137569,"i_long":106.812439,"line":2,"distance":1264,"transit":true,"station_id":"JAKK"},{"time":3,"is_transit":true,"station_name":"Kampung Bandan","station_id":"KPB","transit":true,"i_lat":-6.132549,"line":4,"distance":1364,"i_long":106.826365},{"i_lat":-6.14505,"line":11,"distance":1444,"time":3,"station_id":"RJW","station_name":"Rajawali","i_long":106.836569,"transit":false,"is_transit":false},{"station_id":"KMO","is_transit":false,"transit":false,"time":5,"station_name":"Kemayoran","i_lat":-6.161728,"line":11,"i_long":106.839204,"distance":1901},{"transit":false,"distance":1436,"time":4,"station_id":"PSE","station_name":"Pasar Senen","i_lat":-6.174784,"i_long":106.84368,"is_transit":false,"line":11},{"distance":1567,"i_lat":-6.185975,"station_name":"Gang Sentiong","transit":false,"is_transit":false,"station_id":"GST","i_long":106.850107,"line":11,"time":8},{"station_name":"Kramat","station_id":"KMT","transit":false,"time":1,"i_long":106.855437,"distance":973,"is_transit":false,"line":11,"i_lat":-6.193792},{"i_lat":-6.209188,"is_transit":false,"station_id":"POK","distance":1829,"transit":false,"station_name":"Pondok Jati","i_long":106.861737,"line":11,"time":2},{"station_id":"JNG","time":9,"station_name":"Jatinegara","i_long":106.86807400000001,"line":1,"is_transit":true,"i_lat":-6.215091,"transit":true,"distance":1236},{"station_id":"MTR","transit":false,"time":2,"station_name":"Matraman","i_long":106.858896,"line":1,"i_lat":-6.212485,"is_transit":false,"distance":1377},{"station_id":"MRI","station_name":"Manggarai","i_lat":-6.209883,"transit":true,"line":2,"i_long":106.84912,"distance":1275,"time":2,"is_transit":true},{"is_transit":false,"line":2,"transit":false,"i_lat":-6.198556,"time":4,"distance":1590,"station_id":"CKI","station_name":"Cikini","i_long":106.840169},{"transit":false,"i_long":106.832183,"station_id":"GDD","station_name":"Gondangdia","time":3,"line":2,"i_lat":-6.186295,"is_transit":false,"distance":1750}]]}