{"data":[[{"i_lat":-6.166716,"time":0,"is_transit":false,"transit":false,"line":2,"station_id":"JUA","distance":0,"i_long":106.828284,"station_name":"Juanda"},{"time":4,"station_id":"GDD","station_name":"Gondangdia","line":2,"i_lat":-6.186295,"is_transit":false,"transit":false,"distance":2015,"i_long":106.832183},{"is_transit":false,"time":3,"i_lat":-6.198556,"station_id":"CKI","line":2,"station_name":"Cikini","i_long":106.840169,"distance":1750,"transit":false},{"time":4,"distance":1590,"station_id":"MRI","is_transit":true,"station_name":"Manggarai","i_lat":-6.209883,"transit":true,"i_long":106.84912,"line":2},{"station_name":"Matraman","i_lat":-6.212485,"distance":1275,"line":1,"i_long":106.858896,"transit":false,"is_transit":false,"station_id":"MTR","time":2},{"line":1,"station_id":"JNG","time":8,"distance":1377,"transit":false,"is_transit":false,"i_long":106.86807400000001,"i_lat":-6.215091,"station_name":"Jatinegara"},{"station_id":"KLD","time":3,"i_long":106.899548,"line":1,"distance":3395,"is_transit":false,"transit":false,"station_name":"Klender","i_lat":-6.2135},{"station_name":"Buaran","i_lat":-6.215568,"time":2,"distance":3100,"i_long":106.922662,"line":1,"is_transit":false,"transit":false,"station_id":"BUA"},{"distance":1305,"station_id":"KLDB","is_transit":false,"station_name":"Klenderbaru","time":1,"transit":false,"i_lat":-6.217455,"line":1,"i_long":106.939679},{"station_name":"Cakung","time":8,"is_transit":false,"i_long":106.951283,"distance":1385,"station_id":"CUK","transit":false,"i_lat":-6.219053,"line":1},{"time":3,"distance":3097,"i_long":106.977657,"line":1,"station_id":"KRI","station_name":"Kranji","transit":false,"is_transit":false,"i_lat":-6.224515},{"line":1,"i_long":106.997013,"is_transit":false,"station_id":"BKS","time":4,"station_name":"Bekasi","transit":false,"i_lat":-6.236616,"distance":2520},{"transit":false,"is_transit":false,"i_long":107.016735,"line":1,"distance":2368,"i_lat":-6.248029,"time":2,"station_id":"BKST","station_name":"Bekasi Timur"},{"station_name":"Tambun","time":7,"i_long":107.055722,"transit":false,"distance":4460,"i_lat":-6.258864,"line":1,"station_id":"TB","is_transit":false}],[{"is_transit":false,"line":2,"transit":false,"station_id":"JUA","time":0,"distance":0,"i_lat":-6.166716,"station_name":"Juanda","i_long":106.828284},{"i_lat":-6.160725,"time":2,"distance":1149,"station_name":"Sawah Besar","station_id":"SW","i_long":106.827103,"line":2,"transit":false,"is_transit":false},{"distance":906,"line":2,"station_name":"Manggabesar","station_id":"MGB","is_transit":false,"transit":false,"i_lat":-6.149769,"i_long":106.82482,"time":2},{"i_long":106.820901,"station_name":"Jayakarta","line":2,"distance":1080,"station_id":"JAY","transit":false,"i_lat":-6.141205,"is_transit":false,"time":2},{"transit":true,"distance":1264,"line":2,"is_transit":true,"station_id":"JAKK","station_name":"Jakarta Kota","time":4,"i_lat":-6.137569,"i_long":106.812439},{"distance":1364,"station_id":"KPB","is_transit":true,"time":3,"i_long":106.826365,"i_lat":-6.132549,"station_name":"Kampung Bandan","line":4,"transit":true},{"i_lat":-6.14505,"station_name":"Rajawali","i_long":106.836569,"distance":1444,"is_transit":false,"line":11,"station_id":"RJW","time":3,"transit":false},{"i_lat":-6.161728,"line":11,"time":5,"i_long":106.839204,"distance":1901,"station_name":"Kemayoran","transit":false,"station_id":"KMO","is_transit":false},{"i_lat":-6.174784,"station_id":"PSE","line":11,"distance":1436,"is_transit":false,"station_name":"Pasar Senen","transit":false,"time":4,"i_long":106.84368},{"transit":false,"distance":1567,"time":8,"i_lat":-6.185975,"i_long":106.850107,"station_name":"Gang Sentiong","is_transit":false,"line":11,"station_id":"GST"},{"station_name":"Kramat","station_id":"KMT","i_lat":-6.193792,"i_long":106.855437,"distance":973,"line":11,"time":1,"is_transit":false,"transit":false},{"time":2,"station_name":"Pondok Jati","distance":1829,"i_long":106.861737,"station_id":"POK","line":11,"is_transit":false,"transit":false,"i_lat":-6.209188},{"distance":1236,"i_lat":-6.215091,"time":9,"is_transit":true,"station_id":"JNG","transit":true,"line":1,"i_long":106.86807400000001,"station_name":"Jatinegara"},{"station_id":"KLD","time":3,"transit":false,"distance":3395,"is_transit":false,"station_name":"Klender","i_long":106.899548,"i_lat":-6.2135,"line":1},{"station_id":"BUA","station_name":"Buaran","time":2,"is_transit":false,"transit":false,"i_lat":-6.215568,"line":1,"distance":3100,"i_long":106.922662},{"station_name":"Klenderbaru","is_transit":false,"time":1,"i_long":106.939679,"transit":false,"line":1,"i_lat":-6.217455,"distance":1305,"station_id":"KLDB"},{"time":8,"i_lat":-6.219053,"i_long":106.951283,"transit":false,"line":1,"is_transit":false,"station_name":"Cakung","station_id":"CUK","distance":1385},{"station_name":"Kranji","i_long":106.977657,"i_lat":-6.224515,"time":3,"station_id":"KRI","line":1,"is_transit":false,"distance":3097,"transit":false},{"is_transit":false,"time":4,"i_lat":-6.236616,"distance":2520,"line":1,"station_name":"Bekasi","i_long":106.997013,"transit":false,"station_id":"BKS"},{"station_name":"Bekasi Timur","transit":false,"i_long":107.016735,"station_id":"BKST","line":1,"is_transit":false,"distance":2368,"i_lat":-6.248029,"time":2},{"is_transit":false,"station_name":"Tambun","transit":false,"station_id":"TB","i_lat":-6.258864,"distance":4460,"time":7,"i_long":107.055722,"line":1}],[{"transit":false,"i_long":106.828284,"i_lat":-6.166716,"line":2,"station_name":"Juanda","distance":0,"station_id":"JUA","time":0,"is_transit":false},{"line":2,"time":2,"i_long":106.827103,"station_id":"SW","is_transit":false,"station_name":"Sawah Besar","i_lat":-6.160725,"distance":1149,"transit":false},{"i_long":106.82482,"time":2,"transit":false,"line":2,"is_transit":false,"i_lat":-6.149769,"station_id":"MGB","station_name":"Manggabesar","distance":906},{"time":2,"i_lat":-6.141205,"distance":1080,"is_transit":false,"transit":false,"station_id":"JAY","station_name":"Jayakarta","line":2,"i_long":106.820901},{"station_id":"JAKK","is_transit":true,"i_lat":-6.137569,"line":2,"i_long":106.812439,"time":4,"station_name":"Jakarta Kota","transit":true,"distance":1264},{"station_id":"KPB","station_name":"Kampung Bandan","i_lat":-6.132549,"i_long":106.826365,"line":4,"distance":1364,"is_transit":true,"time":3,"transit":true},{"station_id":"AK","station_name":"Angke","distance":4102,"i_long":106.79867,"line":1,"time":9,"is_transit":false,"i_lat":-6.144674,"transit":false},{"i_lat":-6.155215,"distance":1230,"station_id":"DU","time":4,"i_long":106.800832,"transit":false,"is_transit":false,"station_name":"Duri","line":1},{"i_long":106.811091,"transit":false,"time":8,"distance":3632,"station_id":"THB","is_transit":false,"station_name":"Tanah Abang","i_lat":-6.185545,"line":1},{"time":5,"is_transit":false,"station_name":"Karet","distance":2029,"i_lat":-6.20132,"i_long":106.816351,"line":1,"transit":false,"station_id":"KAT"},{"line":1,"i_long":106.819881,"station_name":"Sudirman Baru","station_id":"SUDB","time":1,"transit":false,"distance":471,"i_lat":-6.201433,"is_transit":false},{"station_id":"SUD","time":1,"line":1,"is_transit":false,"transit":false,"station_name":"Sudirman","i_lat":-6.202263,"distance":280,"i_long":106.822649},{"line":2,"time":4,"is_transit":false,"transit":false,"i_lat":-6.209883,"distance":3186,"station_name":"Manggarai","station_id":"MRI","i_long":106.84912},{"is_transit":false,"i_lat":-6.212485,"station_name":"Matraman","line":1,"time":2,"i_long":106.858896,"transit":false,"station_id":"MTR","distance":1275},{"line":1,"station_id":"JNG","distance":1377,"transit":false,"i_lat":-6.215091,"time":8,"i_long":106.86807400000001,"is_transit":false,"station_name":"Jatinegara"},{"transit":false,"i_lat":-6.2135,"i_long":106.899548,"time":3,"station_id":"KLD","line":1,"is_transit":false,"station_name":"Klender","distance":3395},{"time":2,"is_transit":false,"station_id":"BUA","i_long":106.922662,"line":1,"distance":3100,"transit":false,"i_lat":-6.215568,"station_name":"Buaran"},{"station_name":"Klenderbaru","line":1,"station_id":"KLDB","time":1,"i_long":106.939679,"is_transit":false,"transit":false,"distance":1305,"i_lat":-6.217455},{"station_id":"CUK","i_long":106.951283,"transit":false,"time":8,"station_name":"Cakung","is_transit":false,"i_lat":-6.219053,"distance":1385,"line":1},{"transit":false,"time":3,"i_lat":-6.224515,"i_long":106.977657,"station_name":"Kranji","line":1,"station_id":"KRI","is_transit":false,"distance":3097},{"station_name":"Bekasi","i_lat":-6.236616,"distance":2520,"i_long":106.997013,"transit":false,"time":4,"line":1,"is_transit":false,"station_id":"BKS"},{"i_long":107.016735,"station_id":"BKST","line":1,"transit":false,"station_name":"Bekasi Timur","time":2,"is_transit":false,"distance":2368,"i_lat":-6.248029},{"line":1,"station_id":"TB","i_lat":-6.258864,"i_long":107.055722,"distance":4460,"time":7,"is_transit":false,"transit":false,"station_name":"Tambun"}],[{"distance":0,"station_id":"JUA","time":0,"line":2,"is_transit":false,"transit":false,"i_long":106.828284,"i_lat":-6.166716,"station_name":"Juanda"},{"station_id":"GDD","distance":2015,"station_name":"Gondangdia","transit":false,"i_long":106.832183,"line":2,"i_lat":-6.186295,"is_transit":false,"time":4},{"distance":1750,"station_id":"CKI","transit":false,"station_name":"Cikini","is_transit":false,"i_lat":-6.198556,"time":3,"i_long":106.840169,"line":2},{"is_transit":true,"station_name":"Manggarai","transit":true,"i_long":106.84912,"time":4,"distance":1590,"line":2,"i_lat":-6.209883,"station_id":"MRI"},{"distance":3186,"line":1,"is_transit":false,"i_lat":-6.202263,"i_long":106.822649,"station_name":"Sudirman","station_id":"SUD","time":4,"transit":false},{"distance":280,"i_lat":-6.201433,"station_id":"SUDB","i_long":106.819881,"time":1,"station_name":"Sudirman Baru","is_transit":false,"transit":false,"line":1},{"i_lat":-6.20132,"i_long":106.816351,"distance":471,"time":1,"transit":false,"line":1,"is_transit":false,"station_id":"KAT","station_name":"Karet"},{"station_name":"Tanah Abang","i_long":106.811091,"i_lat":-6.185545,"line":1,"time":5,"is_transit":false,"transit":false,"distance":2029,"station_id":"THB"},{"station_id":"DU","is_transit":false,"line":1,"distance":3632,"transit":false,"i_lat":-6.155215,"i_long":106.800832,"station_name":"Duri","time":8},{"station_id":"AK","transit":false,"i_lat":-6.144674,"time":4,"i_long":106.79867,"station_name":"Angke","is_transit":false,"distance":1230,"line":1},{"station_id":"KPB","i_lat":-6.132549,"time":9,"station_name":"Kampung Bandan","distance":4102,"transit":true,"i_long":106.826365,"line":4,"is_transit":true},{"station_name":"Rajawali","is_transit":false,"distance":1444,"transit":false,"i_lat":-6.14505,"i_long":106.836569,"station_id":"RJW","time":3,"line":11},{"is_transit":false,"distance":1901,"station_id":"KMO","station_name":"Kemayoran","time":5,"i_lat":-6.161728,"line":11,"i_long":106.839204,"transit":false},{"time":4,"is_transit":false,"i_long":106.84368,"station_id":"PSE","i_lat":-6.174784,"distance":1436,"transit":false,"line":11,"station_name":"Pasar Senen"},{"station_id":"GST","time":8,"i_long":106.850107,"station_name":"Gang Sentiong","transit":false,"distance":1567,"line":11,"is_transit":false,"i_lat":-6.185975},{"i_long":106.855437,"distance":973,"time":1,"station_name":"Kramat","i_lat":-6.193792,"line":11,"station_id":"KMT","is_transit":false,"transit":false},{"distance":1829,"i_long":106.861737,"line":11,"i_lat":-6.209188,"station_id":"POK","transit":false,"is_transit":false,"station_name":"Pondok Jati","time":2},{"transit":true,"is_transit":true,"time":9,"i_long":106.86807400000001,"i_lat":-6.215091,"distance":1236,"station_id":"JNG","line":1,"station_name":"Jatinegara"},{"is_transit":false,"station_id":"KLD","distance":3395,"time":3,"i_lat":-6.2135,"i_long":106.899548,"station_name":"Klender","line":1,"transit":false},{"transit":false,"is_transit":false,"time":2,"line":1,"i_long":106.922662,"i_lat":-6.215568,"distance":3100,"station_id":"BUA","station_name":"Buaran"},{"time":1,"is_transit":false,"i_lat":-6.217455,"i_long":106.939679,"station_name":"Klenderbaru","distance":1305,"station_id":"KLDB","transit":false,"line":1},{"time":8,"station_id":"CUK","station_name":"Cakung","transit":false,"i_long":106.951283,"line":1,"distance":1385,"i_lat":-6.219053,"is_transit":false},{"station_id":"KRI","time":3,"transit":false,"line":1,"station_name":"Kranji","is_transit":false,"i_lat":-6.224515,"distance":3097,"i_long":106.977657},{"is_transit":false,"line":1,"i_lat":-6.236616,"station_id":"BKS","distance":2520,"station_name":"Bekasi","transit":false,"time":4,"i_long":106.997013},{"i_long":107.016735,"is_transit":false,"station_name":"Bekasi Timur","line":1,"distance":2368,"time":2,"i_lat":-6.248029,"station_id":"BKST","transit":false},{"is_transit":false,"transit":false,"time":7,"i_lat":-6.258864,"station_name":"Tambun","line":1,"station_id":"TB","distance":4460,"i_long":107.055722}]]}