{"data":[[{"distance":0,"i_long":106.828284,"is_transit":false,"station_name":"Juanda","i_lat":-6.166716,"station_id":"JUA","line":2,"time":0,"transit":false},{"i_lat":-6.186295,"i_long":106.832183,"line":2,"time":4,"distance":2015,"is_transit":false,"station_id":"GDD","transit":false,"station_name":"Gondangdia"},{"distance":1750,"time":3,"station_id":"CKI","line":2,"transit":false,"i_lat":-6.198556,"i_long":106.840169,"station_name":"Cikini","is_transit":false},{"is_transit":false,"distance":1590,"transit":false,"i_long":106.84912,"i_lat":-6.209883,"line":2,"station_id":"MRI","time":4,"station_name":"Manggarai"},{"is_transit":false,"i_lat":-6.226659,"i_long":106.857948,"transit":false,"time":4,"station_name":"Tebet","line":2,"station_id":"TEB","distance":2610},{"line":2,"transit":false,"time":2,"distance":1230,"station_name":"Cawang","i_lat":-6.242512,"station_id":"CW","is_transit":false,"i_long":106.856607},{"is_transit":false,"time":3,"i_long":106.85449,"i_lat":-6.255332,"station_name":"Duren Kalibata","line":2,"station_id":"DRN","distance":1546,"transit":false},{"time":2,"station_id":"PSMB","station_name":"Pasar Minggu Baru","i_long":106.851577,"i_lat":-6.263214,"distance":824,"line":2,"is_transit":false,"transit":false},{"transit":false,"is_transit":false,"time":2,"station_id":"PSM","line":2,"i_long":106.843999,"distance":2380,"station_name":"Pasar Minggu","i_lat":-6.2842400000000005},{"time":4,"station_name":"Tanjung Barat","is_transit":false,"line":2,"distance":2820,"station_id":"TNT","i_long":106.838896,"transit":false,"i_lat":-6.3080680000000005},{"is_transit":false,"station_id":"LNA","i_lat":-6.330363,"line":2,"station_name":"Lenteng Agung","time":3,"distance":2671,"transit":false,"i_long":106.832616},{"station_name":"Univ. Pancasila","i_long":106.834175,"station_id":"UP","line":2,"time":2,"transit":false,"i_lat":-6.339291,"is_transit":false,"distance":1029},{"distance":2264,"i_lat":-6.360749,"transit":false,"station_name":"Univ. Indonesia","is_transit":false,"station_id":"UI","i_long":106.831474,"line":2,"time":3},{"is_transit":false,"i_lat":-6.369073,"i_long":106.831114,"station_name":"Pondok Cina","transit":false,"time":2,"station_id":"POC","distance":1109,"line":2}],[{"time":0,"distance":0,"i_lat":-6.166716,"station_id":"JUA","i_long":106.828284,"line":2,"station_name":"Juanda","is_transit":false,"transit":false},{"distance":1149,"line":2,"i_long":106.827103,"station_id":"SW","time":2,"station_name":"Sawah Besar","is_transit":false,"i_lat":-6.160725,"transit":false},{"is_transit":false,"i_lat":-6.149769,"line":2,"station_id":"MGB","transit":false,"station_name":"Manggabesar","i_long":106.82482,"distance":906,"time":2},{"station_id":"JAY","time":2,"distance":1080,"station_name":"Jayakarta","i_long":106.820901,"line":2,"transit":false,"is_transit":false,"i_lat":-6.141205},{"distance":1264,"i_long":106.812439,"transit":true,"station_name":"Jakarta Kota","station_id":"JAKK","time":4,"i_lat":-6.137569,"line":2,"is_transit":true},{"time":3,"station_name":"Kampung Bandan","transit":true,"i_lat":-6.132549,"i_long":106.826365,"is_transit":true,"distance":1364,"line":4,"station_id":"KPB"},{"is_transit":false,"transit":false,"time":9,"distance":4102,"station_id":"AK","i_lat":-6.144674,"i_long":106.79867,"line":1,"station_name":"Angke"},{"transit":false,"station_name":"Duri","is_transit":false,"distance":1230,"i_long":106.800832,"time":4,"station_id":"DU","i_lat":-6.155215,"line":1},{"station_name":"Tanah Abang","transit":false,"time":8,"line":1,"is_transit":false,"distance":3632,"i_lat":-6.185545,"i_long":106.811091,"station_id":"THB"},{"i_lat":-6.20132,"station_name":"Karet","is_transit":false,"time":5,"distance":2029,"i_long":106.816351,"line":1,"station_id":"KAT","transit":false},{"i_long":106.819881,"time":1,"line":1,"distance":471,"station_id":"SUDB","is_transit":false,"i_lat":-6.201433,"transit":false,"station_name":"Sudirman Baru"},{"station_id":"SUD","station_name":"Sudirman","i_long":106.822649,"line":1,"time":1,"distance":280,"transit":false,"i_lat":-6.202263,"is_transit":false},{"station_name":"Manggarai","i_long":106.84912,"time":4,"i_lat":-6.209883,"station_id":"MRI","distance":3186,"line":2,"is_transit":true,"transit":true},{"transit":false,"time":4,"station_id":"TEB","is_transit":false,"i_lat":-6.226659,"station_name":"Tebet","i_long":106.857948,"distance":2610,"line":2},{"i_long":106.856607,"distance":1230,"station_name":"Cawang","i_lat":-6.242512,"transit":false,"line":2,"is_transit":false,"station_id":"CW","time":2},{"is_transit":false,"distance":1546,"i_lat":-6.255332,"time":3,"station_name":"Duren Kalibata","line":2,"transit":false,"i_long":106.85449,"station_id":"DRN"},{"station_id":"PSMB","i_lat":-6.263214,"time":2,"transit":false,"distance":824,"line":2,"station_name":"Pasar Minggu Baru","is_transit":false,"i_long":106.851577},{"distance":2380,"is_transit":false,"transit":false,"i_lat":-6.2842400000000005,"time":2,"station_id":"PSM","station_name":"Pasar Minggu","i_long":106.843999,"line":2},{"time":4,"transit":false,"distance":2820,"line":2,"is_transit":false,"i_long":106.838896,"station_name":"Tanjung Barat","station_id":"TNT","i_lat":-6.3080680000000005},{"transit":false,"is_transit":false,"time":3,"distance":2671,"station_name":"Lenteng Agung","i_lat":-6.330363,"station_id":"LNA","i_long":106.832616,"line":2},{"station_name":"Univ. Pancasila","i_long":106.834175,"time":2,"transit":false,"station_id":"UP","line":2,"distance":1029,"is_transit":false,"i_lat":-6.339291},{"station_id":"UI","is_transit":false,"i_lat":-6.360749,"line":2,"distance":2264,"time":3,"transit":false,"i_long":106.831474,"station_name":"Univ. Indonesia"},{"time":2,"i_long":106.831114,"station_id":"POC","is_transit":false,"station_name":"Pondok Cina","distance":1109,"i_lat":-6.369073,"line":2,"transit":false}],[{"station_name":"Juanda","transit":false,"station_id":"JUA","time":0,"i_long":106.828284,"line":2,"is_transit":false,"distance":0,"i_lat":-6.166716},{"i_long":106.827103,"line":2,"time":2,"distance":1149,"is_transit":false,"station_id":"SW","i_lat":-6.160725,"transit":false,"station_name":"Sawah Besar"},{"station_name":"Manggabesar","distance":906,"i_lat":-6.149769,"is_transit":false,"station_id":"MGB","time":2,"transit":false,"i_long":106.82482,"line":2},{"is_transit":false,"station_id":"JAY","i_long":106.820901,"distance":1080,"i_lat":-6.141205,"transit":false,"time":2,"line":2,"station_name":"Jayakarta"},{"i_lat":-6.137569,"line":2,"is_transit":true,"i_long":106.812439,"time":4,"distance":1264,"station_name":"Jakarta Kota","transit":true,"station_id":"JAKK"},{"line":4,"i_long":106.826365,"station_id":"KPB","i_lat":-6.132549,"distance":1364,"station_name":"Kampung Bandan","is_transit":true,"transit":true,"time":3},{"transit":false,"is_transit":false,"station_name":"Rajawali","distance":1444,"station_id":"RJW","i_lat":-6.14505,"i_long":106.836569,"line":11,"time":3},{"station_id":"KMO","transit":false,"i_long":106.839204,"line":11,"is_transit":false,"i_lat":-6.161728,"station_name":"Kemayoran","time":5,"distance":1901},{"station_name":"Pasar Senen","time":4,"station_id":"PSE","line":11,"transit":false,"distance":1436,"i_lat":-6.174784,"i_long":106.84368,"is_transit":false},{"transit":false,"station_id":"GST","i_lat":-6.185975,"is_transit":false,"station_name":"Gang Sentiong","time":8,"line":11,"i_long":106.850107,"distance":1567},{"line":11,"i_lat":-6.193792,"distance":973,"is_transit":false,"station_name":"Kramat","i_long":106.855437,"transit":false,"station_id":"KMT","time":1},{"line":11,"station_id":"POK","station_name":"Pondok Jati","distance":1829,"i_long":106.861737,"transit":false,"time":2,"is_transit":false,"i_lat":-6.209188},{"line":1,"station_name":"Jatinegara","i_long":106.86807400000001,"is_transit":true,"i_lat":-6.215091,"time":9,"distance":1236,"station_id":"JNG","transit":true},{"station_name":"Matraman","is_transit":false,"distance":1377,"i_lat":-6.212485,"i_long":106.858896,"line":1,"transit":false,"time":2,"station_id":"MTR"},{"distance":1275,"i_lat":-6.209883,"is_transit":true,"time":2,"station_id":"MRI","station_name":"Manggarai","i_long":106.84912,"line":2,"transit":true},{"line":2,"station_name":"Tebet","i_lat":-6.226659,"time":4,"i_long":106.857948,"distance":2610,"is_transit":false,"station_id":"TEB","transit":false},{"line":2,"i_lat":-6.242512,"station_id":"CW","distance":1230,"transit":false,"i_long":106.856607,"station_name":"Cawang","is_transit":false,"time":2},{"is_transit":false,"time":3,"distance":1546,"i_lat":-6.255332,"i_long":106.85449,"transit":false,"station_id":"DRN","station_name":"Duren Kalibata","line":2},{"i_lat":-6.263214,"station_name":"Pasar Minggu Baru","line":2,"is_transit":false,"time":2,"i_long":106.851577,"transit":false,"station_id":"PSMB","distance":824},{"line":2,"i_long":106.843999,"distance":2380,"i_lat":-6.2842400000000005,"station_id":"PSM","time":2,"transit":false,"station_name":"Pasar Minggu","is_transit":false},{"transit":false,"time":4,"is_transit":false,"i_lat":-6.3080680000000005,"station_id":"TNT","distance":2820,"line":2,"i_long":106.838896,"station_name":"Tanjung Barat"},{"i_lat":-6.330363,"transit":false,"line":2,"is_transit":false,"time":3,"station_name":"Lenteng Agung","i_long":106.832616,"station_id":"LNA","distance":2671},{"station_id":"UP","transit":false,"time":2,"line":2,"station_name":"Univ. Pancasila","is_transit":false,"distance":1029,"i_lat":-6.339291,"i_long":106.834175},{"line":2,"station_name":"Univ. Indonesia","is_transit":false,"time":3,"station_id":"UI","distance":2264,"i_long":106.831474,"transit":false,"i_lat":-6.360749},{"is_transit":false,"time":2,"station_id":"POC","line":2,"transit":false,"distance":1109,"i_lat":-6.369073,"i_long":106.831114,"station_name":"Pondok Cina"}]]}