{"data":[[{"time":0,"transit":false,"distance":0,"station_name":"Juanda","i_lat":-6.166716,"station_id":"JUA","i_long":106.828284,"is_transit":false,"line":2},{"station_id":"GDD","time":4,"station_name":"Gondangdia","line":2,"distance":2015,"i_lat":-6.186295,"i_long":106.832183,"is_transit":false,"transit":false},{"transit":false,"station_id":"CKI","line":2,"distance":1750,"i_lat":-6.198556,"i_long":106.840169,"station_name":"Cikini","time":3,"is_transit":false},{"transit":false,"station_name":"Manggarai","is_transit":false,"i_long":106.84912,"time":4,"line":2,"station_id":"MRI","i_lat":-6.209883,"distance":1590},{"station_name":"Tebet","line":2,"is_transit":false,"time":4,"station_id":"TEB","transit":false,"distance":2610,"i_lat":-6.226659,"i_long":106.857948},{"transit":false,"time":2,"distance":1230,"i_lat":-6.242512,"i_long":106.856607,"station_name":"Cawang","is_transit":false,"line":2,"station_id":"CW"},{"station_id":"DRN","is_transit":false,"distance":1546,"i_long":106.85449,"station_name":"Duren Kalibata","time":3,"i_lat":-6.255332,"line":2,"transit":false},{"transit":false,"i_long":106.851577,"i_lat":-6.263214,"distance":824,"is_transit":false,"station_id":"PSMB","time":2,"line":2,"station_name":"Pasar Minggu Baru"},{"station_id":"PSM","is_transit":false,"i_lat":-6.2842400000000005,"station_name":"Pasar Minggu","i_long":106.843999,"transit":false,"distance":2380,"line":2,"time":2},{"is_transit":false,"distance":2820,"station_name":"Tanjung Barat","time":4,"line":2,"station_id":"TNT","transit":false,"i_long":106.838896,"i_lat":-6.3080680000000005},{"distance":2671,"line":2,"is_transit":false,"i_long":106.832616,"i_lat":-6.330363,"station_id":"LNA","station_name":"Lenteng Agung","time":3,"transit":false},{"distance":1029,"transit":false,"is_transit":false,"line":2,"station_name":"Univ. Pancasila","time":2,"i_long":106.834175,"i_lat":-6.339291,"station_id":"UP"},{"line":2,"distance":2264,"transit":false,"station_id":"UI","is_transit":false,"station_name":"Univ. Indonesia","time":3,"i_lat":-6.360749,"i_long":106.831474},{"is_transit":false,"time":2,"station_name":"Pondok Cina","transit":false,"distance":1109,"i_lat":-6.369073,"i_long":106.831114,"line":2,"station_id":"POC"}],[{"transit":false,"is_transit":false,"station_id":"JUA","i_long":106.828284,"line":2,"i_lat":-6.166716,"time":0,"station_name":"Juanda","distance":0},{"transit":false,"distance":1149,"i_long":106.827103,"i_lat":-6.160725,"is_transit":false,"time":2,"line":2,"station_id":"SW","station_name":"Sawah Besar"},{"station_name":"Manggabesar","time":2,"is_transit":false,"i_long":106.82482,"line":2,"distance":906,"i_lat":-6.149769,"station_id":"MGB","transit":false},{"time":2,"station_name":"Jayakarta","is_transit":false,"station_id":"JAY","transit":false,"i_long":106.820901,"i_lat":-6.141205,"line":2,"distance":1080},{"station_id":"JAKK","i_lat":-6.137569,"is_transit":true,"station_name":"Jakarta Kota","transit":true,"i_long":106.812439,"distance":1264,"line":2,"time":4},{"is_transit":true,"i_long":106.826365,"time":3,"i_lat":-6.132549,"station_name":"Kampung Bandan","transit":true,"distance":1364,"line":4,"station_id":"KPB"},{"line":1,"i_lat":-6.144674,"time":9,"station_name":"Angke","station_id":"AK","is_transit":false,"distance":4102,"i_long":106.79867,"transit":false},{"time":4,"station_name":"Duri","i_long":106.800832,"station_id":"DU","is_transit":false,"distance":1230,"line":1,"i_lat":-6.155215,"transit":false},{"transit":false,"station_id":"THB","time":8,"i_lat":-6.185545,"distance":3632,"line":1,"station_name":"Tanah Abang","is_transit":false,"i_long":106.811091},{"distance":2029,"transit":false,"time":5,"station_name":"Karet","station_id":"KAT","i_long":106.816351,"line":1,"is_transit":false,"i_lat":-6.20132},{"station_id":"SUDB","i_long":106.819881,"station_name":"Sudirman Baru","line":1,"time":1,"i_lat":-6.201433,"is_transit":false,"transit":false,"distance":471},{"transit":false,"is_transit":false,"i_lat":-6.202263,"i_long":106.822649,"station_id":"SUD","time":1,"station_name":"Sudirman","line":1,"distance":280},{"distance":3186,"station_name":"Manggarai","transit":true,"time":4,"i_lat":-6.209883,"station_id":"MRI","is_transit":true,"line":2,"i_long":106.84912},{"i_lat":-6.226659,"station_name":"Tebet","is_transit":false,"distance":2610,"transit":false,"i_long":106.857948,"line":2,"station_id":"TEB","time":4},{"transit":false,"distance":1230,"i_long":106.856607,"time":2,"station_name":"Cawang","is_transit":false,"i_lat":-6.242512,"line":2,"station_id":"CW"},{"distance":1546,"i_lat":-6.255332,"line":2,"transit":false,"is_transit":false,"time":3,"i_long":106.85449,"station_name":"Duren Kalibata","station_id":"DRN"},{"station_name":"Pasar Minggu Baru","transit":false,"time":2,"i_long":106.851577,"line":2,"distance":824,"is_transit":false,"station_id":"PSMB","i_lat":-6.263214},{"i_lat":-6.2842400000000005,"is_transit":false,"distance":2380,"time":2,"i_long":106.843999,"station_name":"Pasar Minggu","line":2,"transit":false,"station_id":"PSM"},{"distance":2820,"station_id":"TNT","is_transit":false,"time":4,"transit":false,"station_name":"Tanjung Barat","i_lat":-6.3080680000000005,"i_long":106.838896,"line":2},{"distance":2671,"is_transit":false,"i_long":106.832616,"i_lat":-6.330363,"station_name":"Lenteng Agung","time":3,"transit":false,"station_id":"LNA","line":2},{"i_long":106.834175,"time":2,"line":2,"distance":1029,"station_name":"Univ. Pancasila","transit":false,"station_id":"UP","is_transit":false,"i_lat":-6.339291},{"transit":false,"station_name":"Univ. Indonesia","i_lat":-6.360749,"line":2,"station_id":"UI","is_transit":false,"distance":2264,"i_long":106.831474,"time":3},{"transit":false,"is_transit":false,"i_long":106.831114,"line":2,"station_id":"POC","distance":1109,"station_name":"Pondok Cina","i_lat":-6.369073,"time":2}],[{"i_long":106.828284,"distance":0,"time":0,"transit":false,"station_id":"JUA","i_lat":-6.166716,"station_name":"Juanda","is_transit":false,"line":2},{"is_transit":false,"station_id":"SW","station_name":"Sawah Besar","distance":1149,"transit":false,"i_long":106.827103,"time":2,"i_lat":-6.160725,"line":2},{"transit":false,"is_transit":false,"station_name":"Manggabesar","time":2,"station_id":"MGB","i_lat":-6.149769,"i_long":106.82482,"distance":906,"line":2},{"station_id":"JAY","is_transit":false,"i_long":106.820901,"time":2,"station_name":"Jayakarta","distance":1080,"i_lat":-6.141205,"line":2,"transit":false},{"transit":true,"station_id":"JAKK","line":2,"distance":1264,"time":4,"i_lat":-6.137569,"is_transit":true,"station_name":"Jakarta Kota","i_long":106.812439},{"station_name":"Kampung Bandan","is_transit":true,"i_long":106.826365,"i_lat":-6.132549,"line":4,"station_id":"KPB","transit":true,"distance":1364,"time":3},{"i_long":106.836569,"station_name":"Rajawali","station_id":"RJW","time":3,"is_transit":false,"distance":1444,"i_lat":-6.14505,"transit":false,"line":11},{"transit":false,"line":11,"station_name":"Kemayoran","station_id":"KMO","i_lat":-6.161728,"is_transit":false,"distance":1901,"time":5,"i_long":106.839204},{"distance":1436,"station_name":"Pasar Senen","station_id":"PSE","i_lat":-6.174784,"i_long":106.84368,"line":11,"is_transit":false,"time":4,"transit":false},{"i_lat":-6.185975,"line":11,"is_transit":false,"i_long":106.850107,"transit":false,"time":8,"station_name":"Gang Sentiong","station_id":"GST","distance":1567},{"i_long":106.855437,"i_lat":-6.193792,"station_name":"Kramat","station_id":"KMT","time":1,"line":11,"transit":false,"distance":973,"is_transit":false},{"is_transit":false,"i_lat":-6.209188,"i_long":106.861737,"time":2,"transit":false,"station_name":"Pondok Jati","distance":1829,"station_id":"POK","line":11},{"transit":true,"distance":1236,"station_name":"Jatinegara","i_long":106.86807400000001,"station_id":"JNG","is_transit":true,"line":1,"time":9,"i_lat":-6.215091},{"line":1,"transit":false,"is_transit":false,"i_long":106.858896,"station_name":"Matraman","time":2,"distance":1377,"station_id":"MTR","i_lat":-6.212485},{"time":2,"station_id":"MRI","i_lat":-6.209883,"distance":1275,"i_long":106.84912,"station_name":"Manggarai","is_transit":true,"transit":true,"line":2},{"distance":2610,"station_name":"Tebet","i_long":106.857948,"time":4,"transit":false,"i_lat":-6.226659,"is_transit":false,"station_id":"TEB","line":2},{"i_lat":-6.242512,"station_name":"Cawang","time":2,"transit":false,"line":2,"station_id":"CW","is_transit":false,"distance":1230,"i_long":106.856607},{"i_long":106.85449,"station_id":"DRN","time":3,"i_lat":-6.255332,"transit":false,"distance":1546,"station_name":"Duren Kalibata","line":2,"is_transit":false},{"i_long":106.851577,"line":2,"transit":false,"distance":824,"station_name":"Pasar Minggu Baru","time":2,"is_transit":false,"i_lat":-6.263214,"station_id":"PSMB"},{"station_id":"PSM","is_transit":false,"station_name":"Pasar Minggu","distance":2380,"transit":false,"i_lat":-6.2842400000000005,"i_long":106.843999,"line":2,"time":2},{"distance":2820,"transit":false,"time":4,"station_name":"Tanjung Barat","i_long":106.838896,"is_transit":false,"line":2,"i_lat":-6.3080680000000005,"station_id":"TNT"},{"is_transit":false,"i_lat":-6.330363,"station_name":"Lenteng Agung","station_id":"LNA","i_long":106.832616,"line":2,"transit":false,"distance":2671,"time":3},{"transit":false,"station_name":"Univ. Pancasila","station_id":"UP","is_transit":false,"i_lat":-6.339291,"time":2,"i_long":106.834175,"distance":1029,"line":2},{"time":3,"transit":false,"is_transit":false,"i_lat":-6.360749,"line":2,"station_name":"Univ. Indonesia","distance":2264,"i_long":106.831474,"station_id":"UI"},{"transit":false,"station_id":"POC","line":2,"time":2,"i_long":106.831114,"is_transit":false,"station_name":"Pondok Cina","i_lat":-6.369073,"distance":1109}]]}