{"data":[[{"time":0,"i_long":106.828284,"i_lat":-6.166716,"distance":0,"station_name":"Juanda","transit":false,"station_id":"JUA","line":2,"is_transit":false},{"i_long":106.832183,"line":2,"transit":false,"time":4,"distance":2015,"station_id":"GDD","station_name":"Gondangdia","is_transit":false,"i_lat":-6.186295},{"is_transit":false,"transit":false,"line":2,"station_id":"CKI","i_long":106.840169,"i_lat":-6.198556,"time":3,"distance":1750,"station_name":"Cikini"},{"is_transit":false,"i_long":106.84912,"station_id":"MRI","transit":false,"distance":1590,"line":2,"station_name":"Manggarai","time":4,"i_lat":-6.209883},{"time":4,"station_name":"Tebet","transit":false,"i_lat":-6.226659,"i_long":106.857948,"line":2,"is_transit":false,"station_id":"TEB","distance":2610},{"i_lat":-6.242512,"distance":1230,"line":2,"i_long":106.856607,"station_name":"Cawang","station_id":"CW","is_transit":false,"time":2,"transit":false},{"i_long":106.85449,"station_id":"DRN","station_name":"Duren Kalibata","transit":false,"line":2,"i_lat":-6.255332,"is_transit":false,"distance":1546,"time":3},{"distance":824,"station_name":"Pasar Minggu Baru","i_lat":-6.263214,"time":2,"transit":false,"i_long":106.851577,"is_transit":false,"line":2,"station_id":"PSMB"},{"i_long":106.843999,"i_lat":-6.2842400000000005,"line":2,"time":2,"transit":false,"station_name":"Pasar Minggu","distance":2380,"station_id":"PSM","is_transit":false},{"i_lat":-6.3080680000000005,"is_transit":false,"time":4,"transit":false,"line":2,"distance":2820,"station_name":"Tanjung Barat","station_id":"TNT","i_long":106.838896},{"time":3,"line":2,"i_lat":-6.330363,"station_id":"LNA","i_long":106.832616,"distance":2671,"transit":false,"station_name":"Lenteng Agung","is_transit":false},{"i_lat":-6.339291,"is_transit":false,"time":2,"distance":1029,"station_id":"UP","station_name":"Univ. Pancasila","line":2,"i_long":106.834175,"transit":false},{"line":2,"transit":false,"distance":2264,"is_transit":false,"time":3,"station_id":"UI","i_lat":-6.360749,"i_long":106.831474,"station_name":"Univ. Indonesia"},{"transit":false,"i_long":106.831114,"is_transit":false,"station_id":"POC","distance":1109,"station_name":"Pondok Cina","line":2,"i_lat":-6.369073,"time":2}],[{"is_transit":false,"time":0,"i_long":106.828284,"line":2,"transit":false,"i_lat":-6.166716,"station_name":"Juanda","station_id":"JUA","distance":0},{"time":2,"i_lat":-6.160725,"distance":1149,"line":2,"station_id":"SW","is_transit":false,"station_name":"Sawah Besar","i_long":106.827103,"transit":false},{"i_lat":-6.149769,"i_long":106.82482,"time":2,"station_name":"Manggabesar","line":2,"transit":false,"is_transit":false,"distance":906,"station_id":"MGB"},{"transit":false,"i_long":106.820901,"i_lat":-6.141205,"distance":1080,"station_name":"Jayakarta","station_id":"JAY","time":2,"is_transit":false,"line":2},{"distance":1264,"transit":true,"station_name":"Jakarta Kota","time":4,"station_id":"JAKK","is_transit":true,"i_long":106.812439,"i_lat":-6.137569,"line":2},{"station_id":"KPB","i_long":106.826365,"i_lat":-6.132549,"time":3,"station_name":"Kampung Bandan","transit":true,"is_transit":true,"distance":1364,"line":4},{"distance":4102,"i_long":106.79867,"station_name":"Angke","station_id":"AK","is_transit":false,"i_lat":-6.144674,"transit":false,"time":9,"line":1},{"i_lat":-6.155215,"transit":false,"time":4,"station_id":"DU","i_long":106.800832,"is_transit":false,"line":1,"distance":1230,"station_name":"Duri"},{"station_name":"Tanah Abang","distance":3632,"i_lat":-6.185545,"i_long":106.811091,"transit":false,"is_transit":false,"time":8,"station_id":"THB","line":1},{"distance":2029,"station_id":"KAT","i_lat":-6.20132,"i_long":106.816351,"transit":false,"line":1,"is_transit":false,"station_name":"Karet","time":5},{"station_name":"Sudirman Baru","line":1,"is_transit":false,"i_lat":-6.201433,"i_long":106.819881,"station_id":"SUDB","distance":471,"time":1,"transit":false},{"transit":false,"station_id":"SUD","is_transit":false,"distance":280,"line":1,"station_name":"Sudirman","time":1,"i_lat":-6.202263,"i_long":106.822649},{"line":2,"station_name":"Manggarai","i_lat":-6.209883,"is_transit":true,"station_id":"MRI","distance":3186,"time":4,"transit":true,"i_long":106.84912},{"distance":2610,"time":4,"station_id":"TEB","line":2,"station_name":"Tebet","is_transit":false,"transit":false,"i_lat":-6.226659,"i_long":106.857948},{"distance":1230,"transit":false,"i_long":106.856607,"is_transit":false,"time":2,"station_name":"Cawang","line":2,"i_lat":-6.242512,"station_id":"CW"},{"time":3,"i_long":106.85449,"line":2,"is_transit":false,"transit":false,"station_id":"DRN","distance":1546,"station_name":"Duren Kalibata","i_lat":-6.255332},{"time":2,"transit":false,"line":2,"distance":824,"station_name":"Pasar Minggu Baru","i_lat":-6.263214,"is_transit":false,"i_long":106.851577,"station_id":"PSMB"},{"transit":false,"line":2,"time":2,"i_lat":-6.2842400000000005,"station_name":"Pasar Minggu","station_id":"PSM","is_transit":false,"i_long":106.843999,"distance":2380},{"line":2,"distance":2820,"time":4,"i_lat":-6.3080680000000005,"transit":false,"station_id":"TNT","station_name":"Tanjung Barat","i_long":106.838896,"is_transit":false},{"i_lat":-6.330363,"line":2,"distance":2671,"is_transit":false,"station_name":"Lenteng Agung","transit":false,"time":3,"i_long":106.832616,"station_id":"LNA"},{"i_lat":-6.339291,"time":2,"line":2,"transit":false,"station_name":"Univ. Pancasila","distance":1029,"station_id":"UP","i_long":106.834175,"is_transit":false},{"time":3,"distance":2264,"i_lat":-6.360749,"i_long":106.831474,"station_id":"UI","is_transit":false,"station_name":"Univ. Indonesia","line":2,"transit":false},{"station_name":"Pondok Cina","distance":1109,"i_long":106.831114,"time":2,"line":2,"station_id":"POC","transit":false,"is_transit":false,"i_lat":-6.369073}],[{"station_name":"Juanda","i_lat":-6.166716,"station_id":"JUA","transit":false,"distance":0,"is_transit":false,"time":0,"line":2,"i_long":106.828284},{"station_name":"Sawah Besar","time":2,"i_lat":-6.160725,"distance":1149,"is_transit":false,"i_long":106.827103,"line":2,"transit":false,"station_id":"SW"},{"distance":906,"time":2,"station_id":"MGB","line":2,"is_transit":false,"i_long":106.82482,"station_name":"Manggabesar","i_lat":-6.149769,"transit":false},{"distance":1080,"line":2,"time":2,"is_transit":false,"i_lat":-6.141205,"station_id":"JAY","station_name":"Jayakarta","transit":false,"i_long":106.820901},{"station_name":"Jakarta Kota","station_id":"JAKK","line":2,"i_lat":-6.137569,"time":4,"distance":1264,"i_long":106.812439,"is_transit":true,"transit":true},{"transit":true,"i_long":106.826365,"line":4,"is_transit":true,"station_id":"KPB","distance":1364,"i_lat":-6.132549,"time":3,"station_name":"Kampung Bandan"},{"i_lat":-6.14505,"station_name":"Rajawali","time":3,"is_transit":false,"distance":1444,"station_id":"RJW","i_long":106.836569,"line":11,"transit":false},{"i_long":106.839204,"transit":false,"distance":1901,"is_transit":false,"station_name":"Kemayoran","line":11,"station_id":"KMO","time":5,"i_lat":-6.161728},{"distance":1436,"time":4,"line":11,"is_transit":false,"transit":false,"station_id":"PSE","station_name":"Pasar Senen","i_lat":-6.174784,"i_long":106.84368},{"transit":false,"line":11,"i_long":106.850107,"station_id":"GST","is_transit":false,"station_name":"Gang Sentiong","distance":1567,"time":8,"i_lat":-6.185975},{"time":1,"station_name":"Kramat","distance":973,"is_transit":false,"line":11,"transit":false,"i_long":106.855437,"station_id":"KMT","i_lat":-6.193792},{"line":11,"distance":1829,"i_lat":-6.209188,"is_transit":false,"transit":false,"time":2,"i_long":106.861737,"station_id":"POK","station_name":"Pondok Jati"},{"station_id":"JNG","line":1,"station_name":"Jatinegara","distance":1236,"time":9,"is_transit":true,"i_lat":-6.215091,"i_long":106.86807400000001,"transit":true},{"line":1,"station_name":"Matraman","time":2,"distance":1377,"i_lat":-6.212485,"station_id":"MTR","is_transit":false,"i_long":106.858896,"transit":false},{"line":2,"station_id":"MRI","is_transit":true,"transit":true,"i_lat":-6.209883,"i_long":106.84912,"station_name":"Manggarai","time":2,"distance":1275},{"station_name":"Tebet","station_id":"TEB","distance":2610,"i_lat":-6.226659,"is_transit":false,"time":4,"transit":false,"line":2,"i_long":106.857948},{"station_id":"CW","distance":1230,"i_lat":-6.242512,"is_transit":false,"station_name":"Cawang","time":2,"transit":false,"i_long":106.856607,"line":2},{"transit":false,"time":3,"is_transit":false,"i_long":106.85449,"i_lat":-6.255332,"line":2,"station_id":"DRN","distance":1546,"station_name":"Duren Kalibata"},{"station_id":"PSMB","is_transit":false,"transit":false,"line":2,"distance":824,"station_name":"Pasar Minggu Baru","time":2,"i_lat":-6.263214,"i_long":106.851577},{"station_name":"Pasar Minggu","station_id":"PSM","is_transit":false,"transit":false,"i_lat":-6.2842400000000005,"i_long":106.843999,"time":2,"distance":2380,"line":2},{"time":4,"station_name":"Tanjung Barat","line":2,"i_lat":-6.3080680000000005,"transit":false,"station_id":"TNT","distance":2820,"is_transit":false,"i_long":106.838896},{"time":3,"station_name":"Lenteng Agung","distance":2671,"line":2,"transit":false,"station_id":"LNA","i_lat":-6.330363,"is_transit":false,"i_long":106.832616},{"time":2,"distance":1029,"i_lat":-6.339291,"line":2,"is_transit":false,"i_long":106.834175,"transit":false,"station_name":"Univ. Pancasila","station_id":"UP"},{"distance":2264,"is_transit":false,"station_name":"Univ. Indonesia","i_long":106.831474,"i_lat":-6.360749,"time":3,"transit":false,"station_id":"UI","line":2},{"i_lat":-6.369073,"i_long":106.831114,"station_id":"POC","time":2,"distance":1109,"transit":false,"is_transit":false,"line":2,"station_name":"Pondok Cina"}]]}