{"data":[[{"transit":false,"station_name":"Juanda","distance":0,"line":2,"time":0,"i_lat":-6.166716,"station_id":"JUA","is_transit":false,"i_long":106.828284},{"station_id":"SW","i_long":106.827103,"line":2,"is_transit":false,"station_name":"Sawah Besar","transit":false,"i_lat":-6.160725,"time":2,"distance":1149},{"i_lat":-6.149769,"distance":906,"time":2,"station_id":"MGB","is_transit":false,"i_long":106.82482,"line":2,"transit":false,"station_name":"Manggabesar"},{"i_lat":-6.141205,"is_transit":false,"station_id":"JAY","distance":1080,"line":2,"i_long":106.820901,"time":2,"station_name":"Jayakarta","transit":false},{"time":4,"transit":true,"i_long":106.812439,"i_lat":-6.137569,"is_transit":true,"station_id":"JAKK","line":2,"distance":1264,"station_name":"Jakarta Kota"},{"i_lat":-6.132549,"transit":true,"i_long":106.826365,"station_name":"Kampung Bandan","distance":1364,"station_id":"KPB","time":3,"is_transit":true,"line":4},{"i_long":106.79867,"station_id":"AK","distance":4102,"i_lat":-6.144674,"time":9,"station_name":"Angke","transit":false,"is_transit":false,"line":1}],[{"line":2,"station_name":"Juanda","distance":0,"station_id":"JUA","i_lat":-6.166716,"i_long":106.828284,"transit":false,"time":0,"is_transit":false},{"station_id":"GDD","i_long":106.832183,"i_lat":-6.186295,"time":4,"station_name":"Gondangdia","distance":2015,"is_transit":false,"line":2,"transit":false},{"transit":false,"i_long":106.840169,"is_transit":false,"time":3,"i_lat":-6.198556,"distance":1750,"station_name":"Cikini","station_id":"CKI","line":2},{"transit":true,"time":4,"i_lat":-6.209883,"i_long":106.84912,"station_id":"MRI","station_name":"Manggarai","distance":1590,"is_transit":true,"line":2},{"transit":false,"distance":3186,"station_id":"SUD","time":4,"station_name":"Sudirman","is_transit":false,"i_long":106.822649,"i_lat":-6.202263,"line":1},{"i_long":106.819881,"is_transit":false,"distance":280,"station_name":"Sudirman Baru","i_lat":-6.201433,"line":1,"transit":false,"station_id":"SUDB","time":1},{"is_transit":false,"i_long":106.816351,"transit":false,"station_id":"KAT","line":1,"distance":471,"time":1,"station_name":"Karet","i_lat":-6.20132},{"station_id":"THB","line":1,"i_long":106.811091,"is_transit":false,"time":5,"distance":2029,"i_lat":-6.185545,"station_name":"Tanah Abang","transit":false},{"is_transit":false,"station_id":"DU","i_long":106.800832,"station_name":"Duri","distance":3632,"transit":false,"line":1,"time":8,"i_lat":-6.155215},{"i_long":106.79867,"station_id":"AK","time":4,"station_name":"Angke","is_transit":false,"distance":1230,"line":1,"i_lat":-6.144674,"transit":false}],[{"i_lat":-6.166716,"line":2,"station_id":"JUA","i_long":106.828284,"station_name":"Juanda","time":0,"distance":0,"is_transit":false,"transit":false},{"i_long":106.832183,"line":2,"transit":false,"is_transit":false,"station_name":"Gondangdia","distance":2015,"station_id":"GDD","i_lat":-6.186295,"time":4},{"transit":false,"line":2,"distance":1750,"time":3,"station_id":"CKI","is_transit":false,"i_lat":-6.198556,"i_long":106.840169,"station_name":"Cikini"},{"distance":1590,"transit":true,"station_name":"Manggarai","is_transit":true,"i_long":106.84912,"time":4,"station_id":"MRI","i_lat":-6.209883,"line":2},{"is_transit":false,"i_long":106.858896,"i_lat":-6.212485,"transit":false,"time":2,"line":1,"station_id":"MTR","station_name":"Matraman","distance":1275},{"i_lat":-6.215091,"transit":true,"station_id":"JNG","i_long":106.86807400000001,"station_name":"Jatinegara","is_transit":true,"line":1,"distance":1377,"time":8},{"line":11,"distance":1236,"i_lat":-6.209188,"time":2,"transit":false,"station_id":"POK","station_name":"Pondok Jati","i_long":106.861737,"is_transit":false},{"transit":false,"line":11,"station_name":"Kramat","distance":1829,"i_lat":-6.193792,"is_transit":false,"time":2,"i_long":106.855437,"station_id":"KMT"},{"transit":false,"i_lat":-6.185975,"i_long":106.850107,"line":11,"station_id":"GST","distance":973,"time":1,"station_name":"Gang Sentiong","is_transit":false},{"is_transit":false,"i_lat":-6.174784,"i_long":106.84368,"transit":false,"station_id":"PSE","station_name":"Pasar Senen","line":11,"distance":1567,"time":8},{"i_lat":-6.161728,"station_name":"Kemayoran","transit":false,"i_long":106.839204,"line":11,"is_transit":false,"distance":1436,"time":4,"station_id":"KMO"},{"is_transit":false,"station_id":"RJW","station_name":"Rajawali","i_long":106.836569,"distance":1901,"time":5,"transit":false,"i_lat":-6.14505,"line":11},{"time":3,"transit":true,"i_long":106.826365,"i_lat":-6.132549,"distance":1444,"is_transit":true,"station_name":"Kampung Bandan","station_id":"KPB","line":4},{"distance":4102,"time":9,"station_name":"Angke","is_transit":false,"i_long":106.79867,"transit":false,"line":1,"station_id":"AK","i_lat":-6.144674}],[{"distance":0,"transit":false,"station_id":"JUA","station_name":"Juanda","i_lat":-6.166716,"time":0,"i_long":106.828284,"is_transit":false,"line":2},{"is_transit":false,"distance":1149,"i_lat":-6.160725,"station_id":"SW","transit":false,"station_name":"Sawah Besar","i_long":106.827103,"line":2,"time":2},{"distance":906,"transit":false,"is_transit":false,"station_name":"Manggabesar","i_long":106.82482,"line":2,"station_id":"MGB","i_lat":-6.149769,"time":2},{"i_lat":-6.141205,"line":2,"is_transit":false,"station_name":"Jayakarta","time":2,"i_long":106.820901,"distance":1080,"station_id":"JAY","transit":false},{"transit":true,"time":4,"distance":1264,"station_id":"JAKK","i_long":106.812439,"line":2,"station_name":"Jakarta Kota","is_transit":true,"i_lat":-6.137569},{"i_lat":-6.132549,"i_long":106.826365,"distance":1364,"time":3,"station_name":"Kampung Bandan","is_transit":true,"station_id":"KPB","transit":true,"line":4},{"station_name":"Rajawali","i_lat":-6.14505,"time":3,"i_long":106.836569,"line":11,"is_transit":false,"distance":1444,"station_id":"RJW","transit":false},{"is_transit":false,"distance":1901,"i_long":106.839204,"station_name":"Kemayoran","time":5,"station_id":"KMO","transit":false,"line":11,"i_lat":-6.161728},{"is_transit":false,"i_long":106.84368,"transit":false,"time":4,"line":11,"station_id":"PSE","i_lat":-6.174784,"distance":1436,"station_name":"Pasar Senen"},{"time":8,"station_id":"GST","distance":1567,"station_name":"Gang Sentiong","transit":false,"i_long":106.850107,"is_transit":false,"i_lat":-6.185975,"line":11},{"transit":false,"i_lat":-6.193792,"line":11,"station_name":"Kramat","is_transit":false,"station_id":"KMT","i_long":106.855437,"distance":973,"time":1},{"station_id":"POK","is_transit":false,"i_long":106.861737,"station_name":"Pondok Jati","time":2,"distance":1829,"transit":false,"i_lat":-6.209188,"line":11},{"transit":true,"is_transit":true,"i_lat":-6.215091,"station_id":"JNG","i_long":106.86807400000001,"time":9,"distance":1236,"station_name":"Jatinegara","line":1},{"time":2,"station_id":"MTR","station_name":"Matraman","i_lat":-6.212485,"transit":false,"is_transit":false,"i_long":106.858896,"line":1,"distance":1377},{"i_lat":-6.209883,"distance":1275,"time":2,"station_id":"MRI","transit":false,"i_long":106.84912,"station_name":"Manggarai","line":2,"is_transit":false},{"transit":false,"station_name":"Sudirman","is_transit":false,"station_id":"SUD","distance":3186,"time":4,"i_lat":-6.202263,"i_long":106.822649,"line":1},{"i_lat":-6.201433,"transit":false,"is_transit":false,"i_long":106.819881,"distance":280,"line":1,"station_id":"SUDB","time":1,"station_name":"Sudirman Baru"},{"is_transit":false,"station_id":"KAT","time":1,"distance":471,"transit":false,"i_lat":-6.20132,"line":1,"i_long":106.816351,"station_name":"Karet"},{"i_lat":-6.185545,"line":1,"time":5,"station_name":"Tanah Abang","i_long":106.811091,"distance":2029,"station_id":"THB","is_transit":false,"transit":false},{"i_long":106.800832,"is_transit":false,"station_id":"DU","station_name":"Duri","transit":false,"time":8,"line":1,"distance":3632,"i_lat":-6.155215},{"i_lat":-6.144674,"transit":false,"distance":1230,"station_name":"Angke","station_id":"AK","line":1,"is_transit":false,"i_long":106.79867,"time":4}]]}