{"data":[[{"is_transit":false,"station_id":"JUA","i_lat":-6.166716,"station_name":"Juanda","i_long":106.828284,"distance":0,"transit":false,"line":2,"time":0},{"station_id":"GDD","is_transit":false,"transit":false,"line":2,"i_long":106.832183,"station_name":"Gondangdia","i_lat":-6.186295,"time":4,"distance":2015},{"station_name":"Cikini","station_id":"CKI","is_transit":false,"time":3,"transit":false,"i_lat":-6.198556,"i_long":106.840169,"line":2,"distance":1750},{"time":4,"distance":1590,"i_long":106.84912,"line":2,"is_transit":true,"station_name":"Manggarai","transit":true,"i_lat":-6.209883,"station_id":"MRI"},{"station_name":"Sudirman","distance":3186,"transit":false,"time":4,"i_lat":-6.202263,"i_long":106.822649,"line":1,"station_id":"SUD","is_transit":false},{"time":1,"distance":280,"transit":false,"line":1,"i_long":106.819881,"station_name":"Sudirman Baru","is_transit":false,"station_id":"SUDB","i_lat":-6.201433},{"station_name":"Karet","i_lat":-6.20132,"transit":false,"distance":471,"time":1,"station_id":"KAT","i_long":106.816351,"is_transit":false,"line":1},{"distance":2029,"i_lat":-6.185545,"station_name":"Tanah Abang","line":1,"i_long":106.811091,"transit":false,"is_transit":false,"station_id":"THB","time":5}],[{"distance":0,"transit":false,"time":0,"station_name":"Juanda","is_transit":false,"i_lat":-6.166716,"station_id":"JUA","line":2,"i_long":106.828284},{"station_id":"SW","transit":false,"distance":1149,"station_name":"Sawah Besar","is_transit":false,"i_lat":-6.160725,"i_long":106.827103,"line":2,"time":2},{"i_long":106.82482,"line":2,"station_name":"Manggabesar","distance":906,"time":2,"station_id":"MGB","transit":false,"i_lat":-6.149769,"is_transit":false},{"is_transit":false,"station_name":"Jayakarta","line":2,"station_id":"JAY","time":2,"distance":1080,"transit":false,"i_lat":-6.141205,"i_long":106.820901},{"i_long":106.812439,"time":4,"station_id":"JAKK","station_name":"Jakarta Kota","transit":true,"line":2,"distance":1264,"is_transit":true,"i_lat":-6.137569},{"time":3,"distance":1364,"station_id":"KPB","station_name":"Kampung Bandan","transit":true,"line":4,"is_transit":true,"i_lat":-6.132549,"i_long":106.826365},{"time":9,"transit":false,"i_lat":-6.144674,"station_id":"AK","line":1,"i_long":106.79867,"station_name":"Angke","distance":4102,"is_transit":false},{"is_transit":false,"i_lat":-6.155215,"station_name":"Duri","time":4,"i_long":106.800832,"distance":1230,"line":1,"transit":false,"station_id":"DU"},{"i_lat":-6.185545,"station_id":"THB","distance":3632,"is_transit":false,"i_long":106.811091,"line":1,"station_name":"Tanah Abang","time":8,"transit":false}],[{"time":0,"station_name":"Juanda","line":2,"i_long":106.828284,"station_id":"JUA","i_lat":-6.166716,"transit":false,"is_transit":false,"distance":0},{"transit":false,"distance":2015,"time":4,"station_name":"Gondangdia","i_long":106.832183,"station_id":"GDD","is_transit":false,"i_lat":-6.186295,"line":2},{"i_long":106.840169,"is_transit":false,"distance":1750,"station_name":"Cikini","time":3,"station_id":"CKI","i_lat":-6.198556,"line":2,"transit":false},{"line":2,"time":4,"distance":1590,"station_id":"MRI","station_name":"Manggarai","i_long":106.84912,"i_lat":-6.209883,"is_transit":true,"transit":true},{"distance":1275,"station_name":"Matraman","is_transit":false,"line":1,"i_long":106.858896,"time":2,"transit":false,"i_lat":-6.212485,"station_id":"MTR"},{"time":8,"i_lat":-6.215091,"station_id":"JNG","distance":1377,"i_long":106.86807400000001,"station_name":"Jatinegara","transit":true,"line":1,"is_transit":true},{"i_lat":-6.209188,"distance":1236,"station_id":"POK","line":11,"time":2,"i_long":106.861737,"station_name":"Pondok Jati","transit":false,"is_transit":false},{"distance":1829,"station_id":"KMT","station_name":"Kramat","i_long":106.855437,"line":11,"i_lat":-6.193792,"is_transit":false,"time":2,"transit":false},{"is_transit":false,"line":11,"station_name":"Gang Sentiong","i_long":106.850107,"distance":973,"time":1,"station_id":"GST","i_lat":-6.185975,"transit":false},{"time":8,"distance":1567,"is_transit":false,"i_lat":-6.174784,"station_id":"PSE","station_name":"Pasar Senen","i_long":106.84368,"line":11,"transit":false},{"transit":false,"i_lat":-6.161728,"i_long":106.839204,"time":4,"station_id":"KMO","distance":1436,"station_name":"Kemayoran","is_transit":false,"line":11},{"time":5,"i_long":106.836569,"is_transit":false,"line":11,"distance":1901,"transit":false,"i_lat":-6.14505,"station_id":"RJW","station_name":"Rajawali"},{"line":4,"distance":1444,"transit":true,"i_long":106.826365,"time":3,"is_transit":true,"station_name":"Kampung Bandan","i_lat":-6.132549,"station_id":"KPB"},{"i_lat":-6.144674,"i_long":106.79867,"distance":4102,"is_transit":false,"station_name":"Angke","station_id":"AK","line":1,"time":9,"transit":false},{"i_long":106.800832,"i_lat":-6.155215,"station_id":"DU","line":1,"transit":false,"distance":1230,"time":4,"is_transit":false,"station_name":"Duri"},{"i_long":106.811091,"time":8,"station_id":"THB","transit":false,"line":1,"distance":3632,"station_name":"Tanah Abang","is_transit":false,"i_lat":-6.185545}],[{"distance":0,"time":0,"i_long":106.828284,"is_transit":false,"transit":false,"station_name":"Juanda","i_lat":-6.166716,"station_id":"JUA","line":2},{"station_id":"SW","station_name":"Sawah Besar","time":2,"is_transit":false,"transit":false,"i_long":106.827103,"line":2,"distance":1149,"i_lat":-6.160725},{"station_id":"MGB","transit":false,"time":2,"i_lat":-6.149769,"i_long":106.82482,"line":2,"is_transit":false,"distance":906,"station_name":"Manggabesar"},{"i_lat":-6.141205,"time":2,"station_name":"Jayakarta","is_transit":false,"transit":false,"line":2,"distance":1080,"station_id":"JAY","i_long":106.820901},{"line":2,"time":4,"distance":1264,"is_transit":true,"transit":true,"i_lat":-6.137569,"station_name":"Jakarta Kota","i_long":106.812439,"station_id":"JAKK"},{"transit":true,"distance":1364,"station_id":"KPB","i_long":106.826365,"i_lat":-6.132549,"line":4,"time":3,"is_transit":true,"station_name":"Kampung Bandan"},{"time":3,"transit":false,"i_long":106.836569,"i_lat":-6.14505,"line":11,"is_transit":false,"station_name":"Rajawali","station_id":"RJW","distance":1444},{"distance":1901,"i_long":106.839204,"station_name":"Kemayoran","is_transit":false,"i_lat":-6.161728,"transit":false,"station_id":"KMO","line":11,"time":5},{"station_name":"Pasar Senen","station_id":"PSE","distance":1436,"line":11,"is_transit":false,"i_long":106.84368,"transit":false,"i_lat":-6.174784,"time":4},{"line":11,"i_lat":-6.185975,"i_long":106.850107,"time":8,"station_id":"GST","station_name":"Gang Sentiong","is_transit":false,"transit":false,"distance":1567},{"i_lat":-6.193792,"station_name":"Kramat","distance":973,"is_transit":false,"transit":false,"i_long":106.855437,"line":11,"station_id":"KMT","time":1},{"station_id":"POK","time":2,"is_transit":false,"line":11,"i_lat":-6.209188,"i_long":106.861737,"transit":false,"distance":1829,"station_name":"Pondok Jati"},{"transit":true,"is_transit":true,"station_name":"Jatinegara","i_lat":-6.215091,"line":1,"time":9,"distance":1236,"station_id":"JNG","i_long":106.86807400000001},{"time":2,"station_name":"Matraman","is_transit":false,"transit":false,"distance":1377,"line":1,"station_id":"MTR","i_lat":-6.212485,"i_long":106.858896},{"is_transit":false,"transit":false,"line":2,"station_name":"Manggarai","i_long":106.84912,"station_id":"MRI","time":2,"distance":1275,"i_lat":-6.209883},{"time":4,"transit":false,"station_id":"SUD","station_name":"Sudirman","i_lat":-6.202263,"distance":3186,"line":1,"is_transit":false,"i_long":106.822649},{"i_lat":-6.201433,"distance":280,"is_transit":false,"station_name":"Sudirman Baru","station_id":"SUDB","i_long":106.819881,"line":1,"time":1,"transit":false},{"distance":471,"line":1,"is_transit":false,"i_lat":-6.20132,"i_long":106.816351,"time":1,"transit":false,"station_name":"Karet","station_id":"KAT"},{"distance":2029,"i_lat":-6.185545,"station_name":"Tanah Abang","i_long":106.811091,"is_transit":false,"time":5,"line":1,"transit":false,"station_id":"THB"}]]}