{"data":[[{"i_lat":-6.166716,"time":0,"station_id":"JUA","transit":false,"is_transit":false,"station_name":"Juanda","i_long":106.828284,"line":2,"distance":0},{"distance":1149,"is_transit":false,"station_id":"SW","transit":false,"station_name":"Sawah Besar","i_lat":-6.160725,"i_long":106.827103,"line":2,"time":2},{"transit":false,"station_name":"Manggabesar","is_transit":false,"station_id":"MGB","distance":906,"line":2,"i_lat":-6.149769,"i_long":106.82482,"time":2},{"station_id":"JAY","line":7,"transit":false,"distance":1080,"i_lat":-6.141205,"station_name":"Jayakarta","is_transit":false,"i_long":106.820901,"time":2},{"distance":1264,"i_lat":-6.137569,"transit":true,"time":4,"line":0,"station_name":"Jakarta Kota","i_long":106.812439,"station_id":"JAKK","is_transit":true},{"is_transit":true,"station_name":"Kampung Bandan","i_lat":-6.132549,"transit":false,"time":3,"i_long":106.826365,"line":0,"station_id":"KPB","distance":1364},{"distance":4102,"transit":false,"line":0,"i_lat":-6.144674,"time":9,"is_transit":false,"station_id":"AK","station_name":"Angke","i_long":106.79867},{"i_long":106.800832,"station_name":"Duri","distance":1230,"time":4,"station_id":"DU","transit":true,"is_transit":true,"i_lat":-6.155215,"line":1},{"time":3,"i_long":106.788277,"line":5,"station_id":"GGL","transit":false,"station_name":"Grogol","i_lat":-6.162021,"is_transit":false,"distance":1700},{"transit":false,"station_name":"Pesing","i_lat":-6.161433,"station_id":"PSG","line":5,"i_long":106.771379,"time":2,"is_transit":false,"distance":2036},{"station_id":"TKO","i_lat":-6.1587309999999995,"distance":1614,"i_long":106.756522,"station_name":"Taman Kota","line":5,"is_transit":false,"transit":false,"time":2},{"line":0,"distance":2334,"i_lat":-6.159876,"is_transit":false,"transit":false,"time":2,"station_id":"BOI","station_name":"Bojongindah","i_long":106.737035},{"i_long":106.723064,"station_name":"Rawa Buaya","i_lat":-6.162758,"transit":false,"is_transit":false,"line":5,"time":4,"distance":1152,"station_id":"RW"}],[{"i_lat":-6.166716,"is_transit":false,"distance":0,"time":0,"station_id":"JUA","transit":false,"i_long":106.828284,"station_name":"Juanda","line":2},{"i_long":106.832183,"transit":false,"is_transit":false,"station_name":"Gondangdia","i_lat":-6.186295,"time":4,"station_id":"GDD","line":2,"distance":2015},{"time":3,"transit":false,"line":0,"distance":1750,"station_id":"CKI","is_transit":false,"i_lat":-6.198556,"i_long":106.840169,"station_name":"Cikini"},{"transit":true,"i_long":106.84912,"station_name":"Manggarai","distance":1590,"station_id":"MRI","line":0,"is_transit":true,"time":4,"i_lat":-6.209883},{"station_name":"Sudirman","line":1,"is_transit":false,"time":4,"distance":3186,"transit":false,"i_lat":-6.202263,"i_long":106.822649,"station_id":"SUD"},{"station_id":"SUDB","line":1,"is_transit":false,"distance":280,"station_name":"Sudirman Baru","i_lat":-6.201433,"transit":false,"i_long":106.819881,"time":1},{"is_transit":false,"i_lat":-6.20132,"station_name":"Karet","time":1,"distance":471,"transit":false,"station_id":"KAT","line":1,"i_long":106.816351},{"distance":2029,"i_lat":-6.185545,"i_long":106.811091,"station_name":"Tanah Abang","time":5,"station_id":"THB","line":1,"transit":false,"is_transit":true},{"station_id":"DU","time":8,"distance":3632,"station_name":"Duri","i_lat":-6.155215,"is_transit":true,"line":1,"transit":true,"i_long":106.800832},{"is_transit":false,"station_name":"Grogol","i_lat":-6.162021,"transit":false,"time":3,"station_id":"GGL","distance":1700,"i_long":106.788277,"line":5},{"transit":false,"i_long":106.771379,"is_transit":false,"line":5,"station_name":"Pesing","distance":2036,"station_id":"PSG","time":2,"i_lat":-6.161433},{"line":5,"station_id":"TKO","i_lat":-6.1587309999999995,"station_name":"Taman Kota","i_long":106.756522,"is_transit":false,"time":2,"distance":1614,"transit":false},{"line":0,"distance":2334,"transit":false,"is_transit":false,"station_id":"BOI","station_name":"Bojongindah","time":2,"i_lat":-6.159876,"i_long":106.737035},{"transit":false,"i_long":106.723064,"line":5,"station_id":"RW","is_transit":false,"time":4,"distance":1152,"station_name":"Rawa Buaya","i_lat":-6.162758}],[{"distance":0,"line":2,"time":0,"is_transit":false,"station_id":"JUA","i_lat":-6.166716,"station_name":"Juanda","transit":false,"i_long":106.828284},{"line":2,"is_transit":false,"time":4,"distance":2015,"station_name":"Gondangdia","i_lat":-6.186295,"i_long":106.832183,"station_id":"GDD","transit":false},{"distance":1750,"transit":false,"is_transit":false,"i_long":106.840169,"i_lat":-6.198556,"station_name":"Cikini","time":3,"station_id":"CKI","line":0},{"distance":1590,"i_lat":-6.209883,"i_long":106.84912,"is_transit":true,"time":4,"line":0,"station_name":"Manggarai","transit":true,"station_id":"MRI"},{"is_transit":false,"i_long":106.858896,"station_id":"MTR","line":1,"transit":false,"station_name":"Matraman","i_lat":-6.212485,"distance":1275,"time":2},{"i_lat":-6.215091,"time":8,"station_name":"Jatinegara","i_long":106.86807400000001,"is_transit":true,"distance":1377,"line":0,"station_id":"JNG","transit":true},{"line":11,"time":2,"distance":1236,"station_id":"POK","is_transit":false,"transit":false,"station_name":"Pondok Jati","i_lat":-6.209188,"i_long":106.861737},{"is_transit":false,"station_id":"KMT","i_lat":-6.193792,"transit":false,"i_long":106.855437,"time":2,"station_name":"Kramat","line":11,"distance":1829},{"i_long":106.850107,"station_name":"Gang Sentiong","time":1,"is_transit":false,"distance":973,"station_id":"GST","transit":false,"i_lat":-6.185975,"line":11},{"transit":false,"time":8,"distance":1567,"station_id":"PSE","i_long":106.84368,"line":11,"station_name":"Pasar Senen","i_lat":-6.174784,"is_transit":false},{"i_lat":-6.161728,"is_transit":false,"distance":1436,"time":4,"station_id":"KMO","station_name":"Kemayoran","line":11,"i_long":106.839204,"transit":false},{"time":5,"i_lat":-6.14505,"station_id":"RJW","i_long":106.836569,"is_transit":false,"distance":1901,"station_name":"Rajawali","transit":false,"line":11},{"is_transit":true,"time":3,"station_name":"Kampung Bandan","transit":true,"i_lat":-6.132549,"i_long":106.826365,"distance":1444,"station_id":"KPB","line":0},{"station_name":"Angke","i_lat":-6.144674,"distance":4102,"transit":false,"line":0,"is_transit":false,"station_id":"AK","i_long":106.79867,"time":9},{"transit":true,"station_id":"DU","i_lat":-6.155215,"line":1,"time":4,"station_name":"Duri","is_transit":true,"i_long":106.800832,"distance":1230},{"i_long":106.788277,"station_id":"GGL","line":5,"time":3,"i_lat":-6.162021,"is_transit":false,"transit":false,"distance":1700,"station_name":"Grogol"},{"station_name":"Pesing","transit":false,"i_long":106.771379,"i_lat":-6.161433,"is_transit":false,"line":5,"time":2,"station_id":"PSG","distance":2036},{"transit":false,"distance":1614,"station_name":"Taman Kota","i_lat":-6.1587309999999995,"i_long":106.756522,"line":5,"is_transit":false,"station_id":"TKO","time":2},{"station_name":"Bojongindah","line":0,"is_transit":false,"time":2,"i_lat":-6.159876,"distance":2334,"i_long":106.737035,"transit":false,"station_id":"BOI"},{"time":4,"transit":false,"i_long":106.723064,"line":5,"is_transit":false,"station_name":"Rawa Buaya","station_id":"RW","i_lat":-6.162758,"distance":1152}],[{"station_name":"Juanda","line":2,"is_transit":false,"i_lat":-6.166716,"time":0,"transit":false,"i_long":106.828284,"distance":0,"station_id":"JUA"},{"i_lat":-6.160725,"transit":false,"is_transit":false,"station_name":"Sawah Besar","station_id":"SW","line":2,"distance":1149,"time":2,"i_long":106.827103},{"line":2,"is_transit":false,"transit":false,"station_id":"MGB","i_lat":-6.149769,"distance":906,"i_long":106.82482,"station_name":"Manggabesar","time":2},{"distance":1080,"station_name":"Jayakarta","transit":false,"i_long":106.820901,"is_transit":false,"i_lat":-6.141205,"line":7,"station_id":"JAY","time":2},{"line":0,"station_name":"Jakarta Kota","is_transit":true,"i_lat":-6.137569,"distance":1264,"time":4,"station_id":"JAKK","transit":true,"i_long":106.812439},{"is_transit":true,"distance":1364,"i_lat":-6.132549,"time":3,"i_long":106.826365,"station_id":"KPB","transit":true,"station_name":"Kampung Bandan","line":0},{"line":11,"station_id":"RJW","is_transit":false,"transit":false,"i_long":106.836569,"time":3,"i_lat":-6.14505,"station_name":"Rajawali","distance":1444},{"i_lat":-6.161728,"is_transit":false,"station_id":"KMO","distance":1901,"station_name":"Kemayoran","time":5,"transit":false,"line":11,"i_long":106.839204},{"transit":false,"is_transit":false,"distance":1436,"station_name":"Pasar Senen","i_lat":-6.174784,"station_id":"PSE","line":11,"time":4,"i_long":106.84368},{"i_lat":-6.185975,"line":11,"i_long":106.850107,"distance":1567,"time":8,"station_id":"GST","transit":false,"is_transit":false,"station_name":"Gang Sentiong"},{"time":1,"line":11,"is_transit":false,"transit":false,"i_long":106.855437,"station_name":"Kramat","station_id":"KMT","distance":973,"i_lat":-6.193792},{"station_id":"POK","i_long":106.861737,"station_name":"Pondok Jati","time":2,"i_lat":-6.209188,"transit":false,"line":11,"distance":1829,"is_transit":false},{"i_lat":-6.215091,"distance":1236,"station_name":"Jatinegara","i_long":106.86807400000001,"is_transit":true,"time":9,"transit":true,"line":0,"station_id":"JNG"},{"station_id":"MTR","transit":false,"station_name":"Matraman","i_lat":-6.212485,"line":1,"time":2,"distance":1377,"is_transit":false,"i_long":106.858896},{"station_name":"Manggarai","i_long":106.84912,"is_transit":true,"time":2,"station_id":"MRI","transit":false,"i_lat":-6.209883,"distance":1275,"line":0},{"transit":false,"distance":3186,"i_long":106.822649,"i_lat":-6.202263,"line":1,"is_transit":false,"time":4,"station_id":"SUD","station_name":"Sudirman"},{"is_transit":false,"i_lat":-6.201433,"i_long":106.819881,"station_id":"SUDB","transit":false,"line":1,"distance":280,"time":1,"station_name":"Sudirman Baru"},{"station_id":"KAT","time":1,"station_name":"Karet","transit":false,"i_long":106.816351,"is_transit":false,"i_lat":-6.20132,"distance":471,"line":1},{"time":5,"transit":false,"distance":2029,"station_id":"THB","station_name":"Tanah Abang","i_lat":-6.185545,"i_long":106.811091,"is_transit":true,"line":1},{"i_long":106.800832,"station_id":"DU","station_name":"Duri","time":8,"line":1,"transit":true,"distance":3632,"i_lat":-6.155215,"is_transit":true},{"station_id":"GGL","station_name":"Grogol","i_long":106.788277,"time":3,"transit":false,"line":5,"is_transit":false,"distance":1700,"i_lat":-6.162021},{"line":5,"is_transit":false,"i_lat":-6.161433,"station_name":"Pesing","time":2,"distance":2036,"i_long":106.771379,"station_id":"PSG","transit":false},{"transit":false,"distance":1614,"time":2,"station_id":"TKO","line":5,"i_long":106.756522,"i_lat":-6.1587309999999995,"station_name":"Taman Kota","is_transit":false},{"i_lat":-6.159876,"station_id":"BOI","transit":false,"i_long":106.737035,"line":0,"time":2,"is_transit":false,"distance":2334,"station_name":"Bojongindah"},{"line":5,"station_name":"Rawa Buaya","station_id":"RW","distance":1152,"transit":false,"i_long":106.723064,"is_transit":false,"i_lat":-6.162758,"time":4}]]}