{"data":[[{"line":2,"station_id":"JUA","time":0,"distance":0,"is_transit":false,"i_long":106.828284,"station_name":"Juanda","i_lat":-6.166716,"transit":false},{"station_name":"Gondangdia","is_transit":false,"time":4,"i_lat":-6.186295,"i_long":106.832183,"line":2,"distance":2015,"station_id":"GDD","transit":false},{"line":2,"station_name":"Cikini","distance":1750,"i_lat":-6.198556,"i_long":106.840169,"transit":false,"is_transit":false,"station_id":"CKI","time":3},{"i_lat":-6.209883,"station_name":"Manggarai","station_id":"MRI","is_transit":true,"time":4,"transit":true,"distance":1590,"line":2,"i_long":106.84912},{"is_transit":false,"distance":1275,"i_lat":-6.212485,"line":1,"transit":false,"station_id":"MTR","time":2,"station_name":"Matraman","i_long":106.858896},{"is_transit":false,"station_name":"Jatinegara","transit":false,"station_id":"JNG","distance":1377,"time":8,"i_lat":-6.215091,"i_long":106.86807400000001,"line":1},{"i_long":106.899548,"distance":3395,"station_id":"KLD","i_lat":-6.2135,"transit":false,"time":3,"is_transit":false,"line":1,"station_name":"Klender"},{"time":2,"i_long":106.922662,"is_transit":false,"distance":3100,"line":1,"station_name":"Buaran","transit":false,"station_id":"BUA","i_lat":-6.215568},{"time":1,"line":1,"i_lat":-6.217455,"station_name":"Klenderbaru","is_transit":false,"station_id":"KLDB","transit":false,"distance":1305,"i_long":106.939679},{"transit":false,"i_long":106.951283,"line":1,"is_transit":false,"time":8,"distance":1385,"i_lat":-6.219053,"station_name":"Cakung","station_id":"CUK"},{"line":1,"i_lat":-6.224515,"station_id":"KRI","distance":3097,"time":3,"i_long":106.977657,"is_transit":false,"transit":false,"station_name":"Kranji"},{"is_transit":false,"distance":2520,"transit":false,"i_long":106.997013,"station_id":"BKS","i_lat":-6.236616,"line":1,"time":4,"station_name":"Bekasi"},{"station_name":"Bekasi Timur","transit":false,"is_transit":false,"distance":2368,"station_id":"BKST","time":2,"i_lat":-6.248029,"i_long":107.016735,"line":1},{"i_lat":-6.258864,"station_id":"TB","station_name":"Tambun","time":7,"transit":false,"is_transit":false,"distance":4460,"i_long":107.055722,"line":1}],[{"transit":false,"time":0,"line":2,"distance":0,"i_lat":-6.166716,"is_transit":false,"i_long":106.828284,"station_name":"Juanda","station_id":"JUA"},{"i_lat":-6.160725,"line":2,"i_long":106.827103,"station_name":"Sawah Besar","station_id":"SW","time":2,"transit":false,"is_transit":false,"distance":1149},{"is_transit":false,"time":2,"station_name":"Manggabesar","distance":906,"transit":false,"station_id":"MGB","i_long":106.82482,"i_lat":-6.149769,"line":2},{"i_long":106.820901,"i_lat":-6.141205,"line":2,"transit":false,"station_name":"Jayakarta","station_id":"JAY","time":2,"is_transit":false,"distance":1080},{"i_long":106.812439,"station_name":"Jakarta Kota","i_lat":-6.137569,"is_transit":true,"station_id":"JAKK","transit":true,"distance":1264,"line":2,"time":4},{"is_transit":true,"station_name":"Kampung Bandan","time":3,"distance":1364,"line":4,"transit":true,"station_id":"KPB","i_long":106.826365,"i_lat":-6.132549},{"time":3,"distance":1444,"transit":false,"i_lat":-6.14505,"line":11,"station_id":"RJW","i_long":106.836569,"is_transit":false,"station_name":"Rajawali"},{"transit":false,"i_long":106.839204,"distance":1901,"time":5,"station_id":"KMO","i_lat":-6.161728,"station_name":"Kemayoran","is_transit":false,"line":11},{"time":4,"distance":1436,"line":11,"i_lat":-6.174784,"station_name":"Pasar Senen","is_transit":false,"station_id":"PSE","i_long":106.84368,"transit":false},{"i_lat":-6.185975,"station_id":"GST","station_name":"Gang Sentiong","distance":1567,"line":11,"time":8,"i_long":106.850107,"transit":false,"is_transit":false},{"station_name":"Kramat","i_long":106.855437,"transit":false,"station_id":"KMT","time":1,"distance":973,"is_transit":false,"i_lat":-6.193792,"line":11},{"i_lat":-6.209188,"station_name":"Pondok Jati","distance":1829,"station_id":"POK","is_transit":false,"i_long":106.861737,"line":11,"transit":false,"time":2},{"station_name":"Jatinegara","station_id":"JNG","time":9,"i_long":106.86807400000001,"line":1,"transit":true,"is_transit":true,"distance":1236,"i_lat":-6.215091},{"station_id":"KLD","is_transit":false,"station_name":"Klender","i_lat":-6.2135,"time":3,"i_long":106.899548,"transit":false,"distance":3395,"line":1},{"i_lat":-6.215568,"i_long":106.922662,"station_id":"BUA","station_name":"Buaran","time":2,"transit":false,"line":1,"is_transit":false,"distance":3100},{"station_id":"KLDB","is_transit":false,"i_long":106.939679,"time":1,"distance":1305,"i_lat":-6.217455,"transit":false,"line":1,"station_name":"Klenderbaru"},{"line":1,"time":8,"is_transit":false,"i_lat":-6.219053,"i_long":106.951283,"transit":false,"station_name":"Cakung","station_id":"CUK","distance":1385},{"i_lat":-6.224515,"line":1,"i_long":106.977657,"station_name":"Kranji","time":3,"transit":false,"station_id":"KRI","distance":3097,"is_transit":false},{"i_lat":-6.236616,"i_long":106.997013,"time":4,"line":1,"station_id":"BKS","transit":false,"station_name":"Bekasi","is_transit":false,"distance":2520},{"i_long":107.016735,"station_id":"BKST","i_lat":-6.248029,"line":1,"is_transit":false,"transit":false,"time":2,"station_name":"Bekasi Timur","distance":2368},{"time":7,"line":1,"distance":4460,"transit":false,"station_id":"TB","is_transit":false,"station_name":"Tambun","i_lat":-6.258864,"i_long":107.055722}],[{"i_lat":-6.166716,"time":0,"line":2,"station_id":"JUA","i_long":106.828284,"transit":false,"station_name":"Juanda","is_transit":false,"distance":0},{"transit":false,"line":2,"i_long":106.827103,"is_transit":false,"time":2,"distance":1149,"station_id":"SW","station_name":"Sawah Besar","i_lat":-6.160725},{"time":2,"transit":false,"i_lat":-6.149769,"is_transit":false,"station_id":"MGB","distance":906,"station_name":"Manggabesar","i_long":106.82482,"line":2},{"station_name":"Jayakarta","i_lat":-6.141205,"time":2,"is_transit":false,"distance":1080,"line":2,"transit":false,"station_id":"JAY","i_long":106.820901},{"station_name":"Jakarta Kota","distance":1264,"i_lat":-6.137569,"transit":true,"i_long":106.812439,"station_id":"JAKK","line":2,"is_transit":true,"time":4},{"transit":true,"is_transit":true,"distance":1364,"station_id":"KPB","i_long":106.826365,"station_name":"Kampung Bandan","line":4,"time":3,"i_lat":-6.132549},{"is_transit":false,"time":9,"i_long":106.79867,"distance":4102,"station_id":"AK","line":1,"station_name":"Angke","i_lat":-6.144674,"transit":false},{"is_transit":false,"i_lat":-6.155215,"i_long":106.800832,"line":1,"transit":false,"time":4,"station_name":"Duri","station_id":"DU","distance":1230},{"distance":3632,"transit":false,"is_transit":false,"time":8,"i_lat":-6.185545,"line":1,"station_id":"THB","i_long":106.811091,"station_name":"Tanah Abang"},{"station_name":"Karet","i_lat":-6.20132,"is_transit":false,"time":5,"line":1,"i_long":106.816351,"station_id":"KAT","distance":2029,"transit":false},{"transit":false,"station_name":"Sudirman Baru","i_long":106.819881,"i_lat":-6.201433,"is_transit":false,"distance":471,"line":1,"station_id":"SUDB","time":1},{"i_long":106.822649,"station_id":"SUD","station_name":"Sudirman","line":1,"i_lat":-6.202263,"distance":280,"is_transit":false,"transit":false,"time":1},{"is_transit":false,"transit":false,"time":4,"station_name":"Manggarai","line":2,"i_long":106.84912,"i_lat":-6.209883,"station_id":"MRI","distance":3186},{"is_transit":false,"transit":false,"i_lat":-6.212485,"station_id":"MTR","station_name":"Matraman","i_long":106.858896,"distance":1275,"line":1,"time":2},{"is_transit":false,"i_long":106.86807400000001,"station_name":"Jatinegara","line":1,"station_id":"JNG","time":8,"transit":false,"i_lat":-6.215091,"distance":1377},{"i_lat":-6.2135,"station_id":"KLD","transit":false,"line":1,"time":3,"is_transit":false,"i_long":106.899548,"station_name":"Klender","distance":3395},{"i_long":106.922662,"i_lat":-6.215568,"line":1,"is_transit":false,"station_name":"Buaran","station_id":"BUA","transit":false,"distance":3100,"time":2},{"i_lat":-6.217455,"is_transit":false,"transit":false,"distance":1305,"time":1,"i_long":106.939679,"station_name":"Klenderbaru","line":1,"station_id":"KLDB"},{"time":8,"i_long":106.951283,"station_name":"Cakung","is_transit":false,"i_lat":-6.219053,"line":1,"transit":false,"station_id":"CUK","distance":1385},{"station_id":"KRI","is_transit":false,"station_name":"Kranji","i_lat":-6.224515,"line":1,"distance":3097,"transit":false,"time":3,"i_long":106.977657},{"station_name":"Bekasi","is_transit":false,"i_lat":-6.236616,"i_long":106.997013,"time":4,"station_id":"BKS","transit":false,"distance":2520,"line":1},{"time":2,"line":1,"transit":false,"distance":2368,"i_lat":-6.248029,"i_long":107.016735,"station_name":"Bekasi Timur","station_id":"BKST","is_transit":false},{"i_lat":-6.258864,"i_long":107.055722,"transit":false,"is_transit":false,"station_name":"Tambun","station_id":"TB","time":7,"distance":4460,"line":1}],[{"transit":false,"station_name":"Juanda","is_transit":false,"time":0,"i_long":106.828284,"station_id":"JUA","distance":0,"i_lat":-6.166716,"line":2},{"i_lat":-6.186295,"station_id":"GDD","transit":false,"station_name":"Gondangdia","is_transit":false,"time":4,"line":2,"distance":2015,"i_long":106.832183},{"station_name":"Cikini","is_transit":false,"distance":1750,"transit":false,"time":3,"i_long":106.840169,"station_id":"CKI","line":2,"i_lat":-6.198556},{"line":2,"is_transit":true,"transit":true,"station_name":"Manggarai","i_lat":-6.209883,"station_id":"MRI","time":4,"distance":1590,"i_long":106.84912},{"distance":3186,"line":1,"transit":false,"station_id":"SUD","i_long":106.822649,"time":4,"i_lat":-6.202263,"station_name":"Sudirman","is_transit":false},{"i_lat":-6.201433,"i_long":106.819881,"station_id":"SUDB","line":1,"time":1,"transit":false,"is_transit":false,"distance":280,"station_name":"Sudirman Baru"},{"transit":false,"station_id":"KAT","line":1,"i_lat":-6.20132,"i_long":106.816351,"station_name":"Karet","distance":471,"time":1,"is_transit":false},{"time":5,"is_transit":false,"transit":false,"line":1,"i_long":106.811091,"i_lat":-6.185545,"distance":2029,"station_id":"THB","station_name":"Tanah Abang"},{"distance":3632,"i_lat":-6.155215,"i_long":106.800832,"station_name":"Duri","transit":false,"station_id":"DU","is_transit":false,"time":8,"line":1},{"transit":false,"is_transit":false,"line":1,"i_lat":-6.144674,"distance":1230,"i_long":106.79867,"time":4,"station_id":"AK","station_name":"Angke"},{"time":9,"i_long":106.826365,"line":4,"station_name":"Kampung Bandan","station_id":"KPB","transit":true,"is_transit":true,"distance":4102,"i_lat":-6.132549},{"line":11,"i_long":106.836569,"i_lat":-6.14505,"station_name":"Rajawali","station_id":"RJW","transit":false,"is_transit":false,"time":3,"distance":1444},{"distance":1901,"line":11,"i_lat":-6.161728,"i_long":106.839204,"station_name":"Kemayoran","is_transit":false,"time":5,"transit":false,"station_id":"KMO"},{"is_transit":false,"station_id":"PSE","time":4,"distance":1436,"i_lat":-6.174784,"transit":false,"i_long":106.84368,"station_name":"Pasar Senen","line":11},{"i_lat":-6.185975,"i_long":106.850107,"station_name":"Gang Sentiong","station_id":"GST","time":8,"distance":1567,"is_transit":false,"transit":false,"line":11},{"i_lat":-6.193792,"station_id":"KMT","line":11,"time":1,"i_long":106.855437,"transit":false,"is_transit":false,"station_name":"Kramat","distance":973},{"station_id":"POK","is_transit":false,"line":11,"time":2,"i_long":106.861737,"i_lat":-6.209188,"transit":false,"station_name":"Pondok Jati","distance":1829},{"distance":1236,"transit":true,"station_id":"JNG","i_lat":-6.215091,"is_transit":true,"line":1,"i_long":106.86807400000001,"station_name":"Jatinegara","time":9},{"line":1,"is_transit":false,"i_lat":-6.2135,"station_name":"Klender","transit":false,"i_long":106.899548,"time":3,"station_id":"KLD","distance":3395},{"is_transit":false,"i_long":106.922662,"line":1,"station_name":"Buaran","station_id":"BUA","i_lat":-6.215568,"time":2,"transit":false,"distance":3100},{"transit":false,"i_long":106.939679,"station_id":"KLDB","is_transit":false,"distance":1305,"station_name":"Klenderbaru","time":1,"i_lat":-6.217455,"line":1},{"i_lat":-6.219053,"station_name":"Cakung","station_id":"CUK","line":1,"i_long":106.951283,"transit":false,"is_transit":false,"time":8,"distance":1385},{"distance":3097,"transit":false,"i_lat":-6.224515,"station_id":"KRI","station_name":"Kranji","i_long":106.977657,"time":3,"is_transit":false,"line":1},{"distance":2520,"station_name":"Bekasi","i_long":106.997013,"time":4,"line":1,"transit":false,"is_transit":false,"i_lat":-6.236616,"station_id":"BKS"},{"station_name":"Bekasi Timur","time":2,"distance":2368,"station_id":"BKST","transit":false,"i_lat":-6.248029,"is_transit":false,"line":1,"i_long":107.016735},{"transit":false,"station_name":"Tambun","distance":4460,"station_id":"TB","is_transit":false,"i_long":107.055722,"line":1,"time":7,"i_lat":-6.258864}]]}