{"data":[[{"time":0,"line":2,"transit":false,"distance":0,"i_lat":-6.166716,"i_long":106.828284,"station_id":"JUA","is_transit":false,"station_name":"Juanda"},{"i_long":106.832183,"line":2,"i_lat":-6.186295,"time":4,"station_name":"Gondangdia","is_transit":false,"distance":2015,"transit":false,"station_id":"GDD"},{"station_name":"Cikini","i_long":106.840169,"station_id":"CKI","time":3,"transit":false,"is_transit":false,"line":2,"distance":1750,"i_lat":-6.198556},{"transit":false,"time":4,"i_long":106.84912,"station_id":"MRI","line":2,"station_name":"Manggarai","is_transit":false,"distance":1590,"i_lat":-6.209883},{"transit":false,"distance":2610,"station_name":"Tebet","i_long":106.857948,"line":2,"station_id":"TEB","i_lat":-6.226659,"is_transit":false,"time":4},{"time":2,"line":2,"i_long":106.856607,"distance":1230,"is_transit":false,"transit":false,"station_name":"Cawang","station_id":"CW","i_lat":-6.242512},{"transit":false,"station_id":"DRN","time":3,"is_transit":false,"i_long":106.85449,"distance":1546,"i_lat":-6.255332,"line":2,"station_name":"Duren Kalibata"},{"station_name":"Pasar Minggu Baru","time":2,"is_transit":false,"transit":false,"station_id":"PSMB","i_long":106.851577,"line":2,"i_lat":-6.263214,"distance":824},{"distance":2380,"is_transit":false,"transit":false,"i_lat":-6.2842400000000005,"station_id":"PSM","i_long":106.843999,"line":2,"station_name":"Pasar Minggu","time":2},{"time":4,"station_name":"Tanjung Barat","distance":2820,"station_id":"TNT","i_long":106.838896,"i_lat":-6.3080680000000005,"transit":false,"is_transit":false,"line":2},{"station_id":"LNA","station_name":"Lenteng Agung","i_long":106.832616,"is_transit":false,"time":3,"distance":2671,"i_lat":-6.330363,"line":2,"transit":false},{"is_transit":false,"station_id":"UP","i_lat":-6.339291,"transit":false,"time":2,"station_name":"Univ. Pancasila","i_long":106.834175,"distance":1029,"line":2}],[{"i_long":106.828284,"line":2,"transit":false,"distance":0,"station_name":"Juanda","time":0,"is_transit":false,"station_id":"JUA","i_lat":-6.166716},{"i_lat":-6.160725,"station_name":"Sawah Besar","is_transit":false,"i_long":106.827103,"distance":1149,"line":2,"time":2,"transit":false,"station_id":"SW"},{"is_transit":false,"i_lat":-6.149769,"station_name":"Manggabesar","distance":906,"i_long":106.82482,"line":2,"time":2,"station_id":"MGB","transit":false},{"transit":false,"i_lat":-6.141205,"line":2,"i_long":106.820901,"station_name":"Jayakarta","distance":1080,"is_transit":false,"station_id":"JAY","time":2},{"transit":true,"distance":1264,"station_id":"JAKK","time":4,"i_lat":-6.137569,"i_long":106.812439,"station_name":"Jakarta Kota","line":2,"is_transit":true},{"station_id":"KPB","transit":true,"station_name":"Kampung Bandan","i_long":106.826365,"is_transit":true,"time":3,"i_lat":-6.132549,"line":4,"distance":1364},{"line":1,"i_long":106.79867,"distance":4102,"station_name":"Angke","transit":false,"i_lat":-6.144674,"is_transit":false,"time":9,"station_id":"AK"},{"i_long":106.800832,"transit":false,"line":1,"distance":1230,"i_lat":-6.155215,"station_name":"Duri","time":4,"station_id":"DU","is_transit":false},{"time":8,"i_long":106.811091,"i_lat":-6.185545,"line":1,"station_name":"Tanah Abang","distance":3632,"transit":false,"is_transit":false,"station_id":"THB"},{"time":5,"is_transit":false,"distance":2029,"station_name":"Karet","line":1,"i_long":106.816351,"transit":false,"station_id":"KAT","i_lat":-6.20132},{"distance":471,"station_name":"Sudirman Baru","transit":false,"time":1,"station_id":"SUDB","line":1,"is_transit":false,"i_lat":-6.201433,"i_long":106.819881},{"is_transit":false,"line":1,"distance":280,"i_lat":-6.202263,"station_name":"Sudirman","time":1,"i_long":106.822649,"transit":false,"station_id":"SUD"},{"station_id":"MRI","i_lat":-6.209883,"i_long":106.84912,"transit":true,"station_name":"Manggarai","time":4,"is_transit":true,"distance":3186,"line":2},{"i_long":106.857948,"is_transit":false,"time":4,"distance":2610,"station_id":"TEB","station_name":"Tebet","i_lat":-6.226659,"transit":false,"line":2},{"time":2,"is_transit":false,"line":2,"station_id":"CW","i_lat":-6.242512,"distance":1230,"transit":false,"i_long":106.856607,"station_name":"Cawang"},{"line":2,"i_lat":-6.255332,"station_id":"DRN","time":3,"transit":false,"is_transit":false,"distance":1546,"station_name":"Duren Kalibata","i_long":106.85449},{"time":2,"distance":824,"is_transit":false,"station_id":"PSMB","transit":false,"i_long":106.851577,"line":2,"station_name":"Pasar Minggu Baru","i_lat":-6.263214},{"line":2,"i_lat":-6.2842400000000005,"i_long":106.843999,"is_transit":false,"time":2,"transit":false,"station_name":"Pasar Minggu","distance":2380,"station_id":"PSM"},{"distance":2820,"i_long":106.838896,"is_transit":false,"station_name":"Tanjung Barat","station_id":"TNT","transit":false,"line":2,"time":4,"i_lat":-6.3080680000000005},{"station_name":"Lenteng Agung","station_id":"LNA","i_long":106.832616,"is_transit":false,"distance":2671,"time":3,"transit":false,"line":2,"i_lat":-6.330363},{"transit":false,"station_name":"Univ. Pancasila","i_long":106.834175,"station_id":"UP","is_transit":false,"distance":1029,"time":2,"i_lat":-6.339291,"line":2}],[{"line":2,"i_long":106.828284,"station_id":"JUA","station_name":"Juanda","is_transit":false,"i_lat":-6.166716,"distance":0,"transit":false,"time":0},{"time":2,"transit":false,"is_transit":false,"i_lat":-6.160725,"line":2,"station_name":"Sawah Besar","i_long":106.827103,"distance":1149,"station_id":"SW"},{"distance":906,"transit":false,"station_name":"Manggabesar","i_long":106.82482,"line":2,"i_lat":-6.149769,"station_id":"MGB","is_transit":false,"time":2},{"i_long":106.820901,"line":2,"station_id":"JAY","i_lat":-6.141205,"station_name":"Jayakarta","distance":1080,"transit":false,"is_transit":false,"time":2},{"time":4,"is_transit":true,"transit":true,"distance":1264,"station_name":"Jakarta Kota","i_lat":-6.137569,"station_id":"JAKK","i_long":106.812439,"line":2},{"i_lat":-6.132549,"i_long":106.826365,"time":3,"station_id":"KPB","transit":true,"is_transit":true,"distance":1364,"line":4,"station_name":"Kampung Bandan"},{"distance":1444,"station_id":"RJW","line":11,"time":3,"is_transit":false,"transit":false,"i_long":106.836569,"station_name":"Rajawali","i_lat":-6.14505},{"i_lat":-6.161728,"i_long":106.839204,"line":11,"distance":1901,"transit":false,"station_name":"Kemayoran","is_transit":false,"time":5,"station_id":"KMO"},{"station_name":"Pasar Senen","is_transit":false,"time":4,"transit":false,"i_lat":-6.174784,"station_id":"PSE","i_long":106.84368,"distance":1436,"line":11},{"station_name":"Gang Sentiong","transit":false,"line":11,"is_transit":false,"time":8,"i_lat":-6.185975,"station_id":"GST","distance":1567,"i_long":106.850107},{"time":1,"station_id":"KMT","distance":973,"i_long":106.855437,"i_lat":-6.193792,"line":11,"is_transit":false,"transit":false,"station_name":"Kramat"},{"station_name":"Pondok Jati","i_lat":-6.209188,"line":11,"distance":1829,"station_id":"POK","transit":false,"is_transit":false,"time":2,"i_long":106.861737},{"is_transit":true,"station_name":"Jatinegara","distance":1236,"i_lat":-6.215091,"transit":true,"station_id":"JNG","i_long":106.86807400000001,"time":9,"line":1},{"is_transit":false,"line":1,"distance":1377,"station_id":"MTR","i_lat":-6.212485,"station_name":"Matraman","transit":false,"time":2,"i_long":106.858896},{"transit":true,"i_long":106.84912,"distance":1275,"line":2,"time":2,"station_name":"Manggarai","i_lat":-6.209883,"is_transit":true,"station_id":"MRI"},{"i_lat":-6.226659,"station_id":"TEB","distance":2610,"i_long":106.857948,"is_transit":false,"time":4,"transit":false,"line":2,"station_name":"Tebet"},{"is_transit":false,"i_long":106.856607,"transit":false,"station_id":"CW","i_lat":-6.242512,"line":2,"time":2,"distance":1230,"station_name":"Cawang"},{"distance":1546,"is_transit":false,"i_long":106.85449,"transit":false,"station_name":"Duren Kalibata","time":3,"station_id":"DRN","line":2,"i_lat":-6.255332},{"time":2,"i_long":106.851577,"line":2,"transit":false,"i_lat":-6.263214,"distance":824,"station_name":"Pasar Minggu Baru","is_transit":false,"station_id":"PSMB"},{"distance":2380,"station_id":"PSM","i_lat":-6.2842400000000005,"station_name":"Pasar Minggu","transit":false,"line":2,"i_long":106.843999,"time":2,"is_transit":false},{"station_name":"Tanjung Barat","transit":false,"i_lat":-6.3080680000000005,"is_transit":false,"station_id":"TNT","line":2,"i_long":106.838896,"distance":2820,"time":4},{"station_name":"Lenteng Agung","line":2,"time":3,"station_id":"LNA","transit":false,"distance":2671,"is_transit":false,"i_long":106.832616,"i_lat":-6.330363},{"is_transit":false,"station_id":"UP","station_name":"Univ. Pancasila","transit":false,"line":2,"i_long":106.834175,"i_lat":-6.339291,"time":2,"distance":1029}]]}