{"data":[[{"i_lat":-6.166716,"distance":0,"time":0,"station_id":"JUA","transit":false,"i_long":106.828284,"station_name":"Juanda","line":2,"is_transit":false},{"transit":false,"station_name":"Gondangdia","is_transit":false,"station_id":"GDD","distance":2015,"time":4,"i_lat":-6.186295,"i_long":106.832183,"line":2},{"i_lat":-6.198556,"transit":false,"is_transit":false,"i_long":106.840169,"distance":1750,"line":2,"station_id":"CKI","time":3,"station_name":"Cikini"},{"station_name":"Manggarai","is_transit":true,"time":4,"transit":true,"i_lat":-6.209883,"station_id":"MRI","i_long":106.84912,"line":2,"distance":1590},{"station_name":"Sudirman","i_long":106.822649,"line":1,"transit":false,"distance":3186,"time":4,"is_transit":false,"station_id":"SUD","i_lat":-6.202263},{"station_id":"SUDB","i_long":106.819881,"time":1,"line":1,"distance":280,"station_name":"Sudirman Baru","is_transit":false,"i_lat":-6.201433,"transit":false},{"i_long":106.816351,"i_lat":-6.20132,"station_name":"Karet","transit":false,"line":1,"time":1,"is_transit":false,"distance":471,"station_id":"KAT"},{"station_id":"THB","transit":true,"i_lat":-6.185545,"i_long":106.811091,"is_transit":true,"station_name":"Tanah Abang","line":1,"distance":2029,"time":5},{"time":6,"distance":3191,"i_long":106.79689,"i_lat":-6.207404,"is_transit":false,"line":6,"transit":false,"station_id":"PLM","station_name":"Palmerah"},{"line":6,"i_lat":-6.237242,"transit":false,"station_name":"Kebayoran","distance":3737,"time":7,"is_transit":false,"i_long":106.780334,"station_id":"KBY"}],[{"station_id":"JUA","transit":false,"time":0,"station_name":"Juanda","is_transit":false,"i_lat":-6.166716,"distance":0,"i_long":106.828284,"line":2},{"transit":false,"distance":1149,"station_id":"SW","station_name":"Sawah Besar","i_long":106.827103,"time":2,"line":2,"is_transit":false,"i_lat":-6.160725},{"transit":false,"i_lat":-6.149769,"line":2,"distance":906,"station_id":"MGB","i_long":106.82482,"station_name":"Manggabesar","is_transit":false,"time":2},{"station_name":"Jayakarta","distance":1080,"time":2,"station_id":"JAY","is_transit":false,"i_long":106.820901,"i_lat":-6.141205,"line":2,"transit":false},{"station_name":"Jakarta Kota","line":2,"station_id":"JAKK","i_long":106.812439,"i_lat":-6.137569,"is_transit":true,"transit":true,"time":4,"distance":1264},{"distance":1364,"station_name":"Kampung Bandan","is_transit":true,"i_lat":-6.132549,"transit":true,"station_id":"KPB","line":4,"time":3,"i_long":106.826365},{"i_long":106.79867,"distance":4102,"is_transit":false,"line":1,"station_name":"Angke","transit":false,"station_id":"AK","time":9,"i_lat":-6.144674},{"transit":false,"time":4,"station_name":"Duri","distance":1230,"is_transit":false,"station_id":"DU","i_lat":-6.155215,"i_long":106.800832,"line":1},{"line":1,"i_long":106.811091,"station_id":"THB","transit":true,"station_name":"Tanah Abang","is_transit":true,"time":8,"i_lat":-6.185545,"distance":3632},{"line":6,"i_long":106.79689,"distance":3191,"is_transit":false,"station_name":"Palmerah","i_lat":-6.207404,"time":6,"station_id":"PLM","transit":false},{"station_id":"KBY","line":6,"distance":3737,"station_name":"Kebayoran","i_lat":-6.237242,"transit":false,"time":7,"i_long":106.780334,"is_transit":false}],[{"distance":0,"transit":false,"time":0,"i_long":106.828284,"i_lat":-6.166716,"is_transit":false,"station_name":"Juanda","line":2,"station_id":"JUA"},{"line":2,"transit":false,"distance":2015,"i_lat":-6.186295,"time":4,"station_id":"GDD","i_long":106.832183,"is_transit":false,"station_name":"Gondangdia"},{"i_lat":-6.198556,"i_long":106.840169,"line":2,"station_id":"CKI","station_name":"Cikini","is_transit":false,"distance":1750,"transit":false,"time":3},{"station_id":"MRI","line":2,"distance":1590,"is_transit":true,"transit":true,"station_name":"Manggarai","time":4,"i_long":106.84912,"i_lat":-6.209883},{"distance":1275,"transit":false,"i_long":106.858896,"time":2,"is_transit":false,"i_lat":-6.212485,"line":1,"station_id":"MTR","station_name":"Matraman"},{"i_lat":-6.215091,"is_transit":true,"i_long":106.86807400000001,"distance":1377,"station_id":"JNG","line":1,"time":8,"transit":true,"station_name":"Jatinegara"},{"station_id":"POK","station_name":"Pondok Jati","is_transit":false,"transit":false,"time":2,"i_lat":-6.209188,"line":11,"distance":1236,"i_long":106.861737},{"line":11,"time":2,"transit":false,"is_transit":false,"i_long":106.855437,"distance":1829,"station_name":"Kramat","i_lat":-6.193792,"station_id":"KMT"},{"transit":false,"line":11,"station_id":"GST","i_lat":-6.185975,"is_transit":false,"time":1,"distance":973,"station_name":"Gang Sentiong","i_long":106.850107},{"i_lat":-6.174784,"time":8,"station_id":"PSE","distance":1567,"line":11,"station_name":"Pasar Senen","i_long":106.84368,"is_transit":false,"transit":false},{"line":11,"station_id":"KMO","time":4,"i_long":106.839204,"is_transit":false,"distance":1436,"i_lat":-6.161728,"station_name":"Kemayoran","transit":false},{"station_name":"Rajawali","is_transit":false,"station_id":"RJW","time":5,"distance":1901,"transit":false,"i_lat":-6.14505,"line":11,"i_long":106.836569},{"station_id":"KPB","distance":1444,"is_transit":true,"i_lat":-6.132549,"station_name":"Kampung Bandan","i_long":106.826365,"line":4,"time":3,"transit":true},{"station_id":"AK","is_transit":false,"i_lat":-6.144674,"time":9,"transit":false,"i_long":106.79867,"line":1,"distance":4102,"station_name":"Angke"},{"station_id":"DU","station_name":"Duri","i_lat":-6.155215,"i_long":106.800832,"transit":false,"is_transit":false,"time":4,"line":1,"distance":1230},{"time":8,"distance":3632,"station_name":"Tanah Abang","i_lat":-6.185545,"i_long":106.811091,"is_transit":true,"line":1,"transit":true,"station_id":"THB"},{"station_id":"PLM","transit":false,"i_long":106.79689,"is_transit":false,"station_name":"Palmerah","distance":3191,"i_lat":-6.207404,"time":6,"line":6},{"station_id":"KBY","i_long":106.780334,"is_transit":false,"distance":3737,"station_name":"Kebayoran","transit":false,"line":6,"i_lat":-6.237242,"time":7}],[{"transit":false,"i_lat":-6.166716,"distance":0,"time":0,"station_id":"JUA","station_name":"Juanda","i_long":106.828284,"is_transit":false,"line":2},{"station_id":"SW","i_long":106.827103,"distance":1149,"time":2,"line":2,"i_lat":-6.160725,"station_name":"Sawah Besar","is_transit":false,"transit":false},{"transit":false,"station_id":"MGB","line":2,"station_name":"Manggabesar","time":2,"distance":906,"is_transit":false,"i_lat":-6.149769,"i_long":106.82482},{"i_lat":-6.141205,"i_long":106.820901,"distance":1080,"time":2,"transit":false,"line":2,"is_transit":false,"station_name":"Jayakarta","station_id":"JAY"},{"i_lat":-6.137569,"transit":true,"distance":1264,"station_name":"Jakarta Kota","time":4,"line":2,"station_id":"JAKK","i_long":106.812439,"is_transit":true},{"line":4,"transit":true,"i_long":106.826365,"station_id":"KPB","is_transit":true,"distance":1364,"station_name":"Kampung Bandan","i_lat":-6.132549,"time":3},{"i_long":106.836569,"line":11,"time":3,"distance":1444,"is_transit":false,"i_lat":-6.14505,"station_id":"RJW","station_name":"Rajawali","transit":false},{"station_id":"KMO","time":5,"transit":false,"i_long":106.839204,"line":11,"i_lat":-6.161728,"is_transit":false,"distance":1901,"station_name":"Kemayoran"},{"station_name":"Pasar Senen","is_transit":false,"station_id":"PSE","transit":false,"i_lat":-6.174784,"i_long":106.84368,"line":11,"distance":1436,"time":4},{"distance":1567,"station_id":"GST","station_name":"Gang Sentiong","time":8,"i_lat":-6.185975,"line":11,"transit":false,"i_long":106.850107,"is_transit":false},{"i_lat":-6.193792,"line":11,"is_transit":false,"i_long":106.855437,"station_id":"KMT","time":1,"station_name":"Kramat","distance":973,"transit":false},{"station_id":"POK","line":11,"time":2,"station_name":"Pondok Jati","i_lat":-6.209188,"i_long":106.861737,"transit":false,"is_transit":false,"distance":1829},{"i_lat":-6.215091,"distance":1236,"is_transit":true,"station_id":"JNG","i_long":106.86807400000001,"line":1,"station_name":"Jatinegara","time":9,"transit":true},{"i_lat":-6.212485,"time":2,"station_name":"Matraman","i_long":106.858896,"line":1,"distance":1377,"transit":false,"station_id":"MTR","is_transit":false},{"distance":1275,"transit":false,"station_id":"MRI","is_transit":false,"line":2,"i_long":106.84912,"time":2,"station_name":"Manggarai","i_lat":-6.209883},{"distance":3186,"line":1,"station_id":"SUD","time":4,"transit":false,"i_long":106.822649,"station_name":"Sudirman","i_lat":-6.202263,"is_transit":false},{"transit":false,"station_id":"SUDB","station_name":"Sudirman Baru","i_long":106.819881,"time":1,"is_transit":false,"i_lat":-6.201433,"distance":280,"line":1},{"time":1,"station_name":"Karet","i_lat":-6.20132,"transit":false,"station_id":"KAT","line":1,"distance":471,"is_transit":false,"i_long":106.816351},{"is_transit":true,"transit":true,"i_lat":-6.185545,"station_name":"Tanah Abang","distance":2029,"i_long":106.811091,"line":1,"time":5,"station_id":"THB"},{"station_name":"Palmerah","i_lat":-6.207404,"i_long":106.79689,"time":6,"station_id":"PLM","distance":3191,"line":6,"transit":false,"is_transit":false},{"station_name":"Kebayoran","transit":false,"distance":3737,"time":7,"i_long":106.780334,"line":6,"station_id":"KBY","i_lat":-6.237242,"is_transit":false}]]}