{"data":[[{"distance":0,"i_lat":-6.166716,"station_id":"JUA","is_transit":false,"time":0,"line":2,"i_long":106.828284,"transit":false,"station_name":"Juanda"},{"time":4,"distance":2015,"transit":false,"i_lat":-6.186295,"i_long":106.832183,"line":2,"station_name":"Gondangdia","is_transit":false,"station_id":"GDD"},{"line":2,"transit":false,"station_id":"CKI","is_transit":false,"time":3,"station_name":"Cikini","distance":1750,"i_long":106.840169,"i_lat":-6.198556},{"i_lat":-6.209883,"line":2,"transit":true,"distance":1590,"station_name":"Manggarai","time":4,"station_id":"MRI","is_transit":true,"i_long":106.84912},{"station_id":"MTR","time":2,"distance":1275,"i_lat":-6.212485,"transit":false,"line":1,"station_name":"Matraman","is_transit":false,"i_long":106.858896},{"station_id":"JNG","i_long":106.86807400000001,"transit":false,"line":1,"i_lat":-6.215091,"distance":1377,"time":8,"is_transit":false,"station_name":"Jatinegara"}],[{"transit":false,"station_name":"Juanda","station_id":"JUA","time":0,"i_long":106.828284,"is_transit":false,"line":2,"distance":0,"i_lat":-6.166716},{"station_name":"Sawah Besar","transit":false,"i_long":106.827103,"is_transit":false,"distance":1149,"station_id":"SW","i_lat":-6.160725,"time":2,"line":2},{"time":2,"is_transit":false,"station_id":"MGB","i_lat":-6.149769,"station_name":"Manggabesar","transit":false,"i_long":106.82482,"distance":906,"line":2},{"station_name":"Jayakarta","transit":false,"i_long":106.820901,"i_lat":-6.141205,"time":2,"distance":1080,"is_transit":false,"line":2,"station_id":"JAY"},{"is_transit":true,"i_long":106.812439,"line":2,"station_id":"JAKK","station_name":"Jakarta Kota","distance":1264,"i_lat":-6.137569,"time":4,"transit":true},{"line":4,"i_lat":-6.132549,"distance":1364,"time":3,"is_transit":true,"station_name":"Kampung Bandan","transit":true,"station_id":"KPB","i_long":106.826365},{"time":3,"distance":1444,"is_transit":false,"i_lat":-6.14505,"transit":false,"station_name":"Rajawali","i_long":106.836569,"line":11,"station_id":"RJW"},{"distance":1901,"line":11,"is_transit":false,"i_long":106.839204,"station_name":"Kemayoran","transit":false,"time":5,"i_lat":-6.161728,"station_id":"KMO"},{"i_long":106.84368,"time":4,"station_name":"Pasar Senen","transit":false,"station_id":"PSE","i_lat":-6.174784,"distance":1436,"line":11,"is_transit":false},{"transit":false,"i_lat":-6.185975,"station_name":"Gang Sentiong","station_id":"GST","i_long":106.850107,"is_transit":false,"time":8,"line":11,"distance":1567},{"station_id":"KMT","i_long":106.855437,"is_transit":false,"line":11,"distance":973,"transit":false,"i_lat":-6.193792,"time":1,"station_name":"Kramat"},{"transit":false,"is_transit":false,"i_long":106.861737,"time":2,"i_lat":-6.209188,"station_id":"POK","distance":1829,"line":11,"station_name":"Pondok Jati"},{"station_name":"Jatinegara","transit":false,"time":9,"station_id":"JNG","i_lat":-6.215091,"is_transit":false,"i_long":106.86807400000001,"line":1,"distance":1236}],[{"i_lat":-6.166716,"distance":0,"transit":false,"station_id":"JUA","i_long":106.828284,"time":0,"is_transit":false,"line":2,"station_name":"Juanda"},{"is_transit":false,"i_long":106.827103,"i_lat":-6.160725,"line":2,"station_name":"Sawah Besar","time":2,"station_id":"SW","transit":false,"distance":1149},{"transit":false,"line":2,"i_long":106.82482,"distance":906,"station_name":"Manggabesar","time":2,"i_lat":-6.149769,"station_id":"MGB","is_transit":false},{"is_transit":false,"transit":false,"station_name":"Jayakarta","i_lat":-6.141205,"line":2,"station_id":"JAY","time":2,"distance":1080,"i_long":106.820901},{"is_transit":true,"time":4,"line":2,"station_id":"JAKK","station_name":"Jakarta Kota","i_long":106.812439,"i_lat":-6.137569,"transit":true,"distance":1264},{"time":3,"distance":1364,"station_name":"Kampung Bandan","i_long":106.826365,"is_transit":true,"transit":true,"station_id":"KPB","line":4,"i_lat":-6.132549},{"i_long":106.79867,"station_name":"Angke","transit":false,"i_lat":-6.144674,"time":9,"distance":4102,"line":1,"station_id":"AK","is_transit":false},{"station_id":"DU","station_name":"Duri","i_long":106.800832,"distance":1230,"time":4,"line":1,"is_transit":false,"transit":false,"i_lat":-6.155215},{"transit":false,"time":8,"line":1,"station_id":"THB","is_transit":false,"station_name":"Tanah Abang","i_lat":-6.185545,"distance":3632,"i_long":106.811091},{"transit":false,"station_name":"Karet","station_id":"KAT","line":1,"is_transit":false,"i_lat":-6.20132,"time":5,"distance":2029,"i_long":106.816351},{"station_name":"Sudirman Baru","transit":false,"line":1,"distance":471,"i_lat":-6.201433,"station_id":"SUDB","is_transit":false,"i_long":106.819881,"time":1},{"station_id":"SUD","station_name":"Sudirman","i_lat":-6.202263,"is_transit":false,"i_long":106.822649,"time":1,"distance":280,"transit":false,"line":1},{"station_name":"Manggarai","distance":3186,"time":4,"transit":false,"i_lat":-6.209883,"i_long":106.84912,"line":2,"station_id":"MRI","is_transit":false},{"i_lat":-6.212485,"distance":1275,"station_id":"MTR","i_long":106.858896,"is_transit":false,"time":2,"station_name":"Matraman","transit":false,"line":1},{"transit":false,"is_transit":false,"distance":1377,"station_name":"Jatinegara","time":8,"i_long":106.86807400000001,"station_id":"JNG","i_lat":-6.215091,"line":1}],[{"i_long":106.828284,"line":2,"station_id":"JUA","time":0,"is_transit":false,"station_name":"Juanda","transit":false,"distance":0,"i_lat":-6.166716},{"is_transit":false,"station_id":"GDD","time":4,"i_lat":-6.186295,"distance":2015,"station_name":"Gondangdia","i_long":106.832183,"line":2,"transit":false},{"time":3,"i_long":106.840169,"station_id":"CKI","station_name":"Cikini","distance":1750,"is_transit":false,"transit":false,"i_lat":-6.198556,"line":2},{"transit":true,"station_name":"Manggarai","i_lat":-6.209883,"i_long":106.84912,"station_id":"MRI","line":2,"time":4,"is_transit":true,"distance":1590},{"transit":false,"line":1,"i_lat":-6.202263,"is_transit":false,"i_long":106.822649,"time":4,"distance":3186,"station_id":"SUD","station_name":"Sudirman"},{"station_name":"Sudirman Baru","transit":false,"i_lat":-6.201433,"station_id":"SUDB","distance":280,"is_transit":false,"line":1,"time":1,"i_long":106.819881},{"line":1,"distance":471,"transit":false,"i_long":106.816351,"time":1,"station_id":"KAT","is_transit":false,"station_name":"Karet","i_lat":-6.20132},{"is_transit":false,"i_long":106.811091,"line":1,"station_id":"THB","time":5,"distance":2029,"i_lat":-6.185545,"transit":false,"station_name":"Tanah Abang"},{"line":1,"time":8,"is_transit":false,"distance":3632,"i_lat":-6.155215,"station_name":"Duri","station_id":"DU","transit":false,"i_long":106.800832},{"line":1,"station_id":"AK","distance":1230,"i_lat":-6.144674,"time":4,"transit":false,"station_name":"Angke","is_transit":false,"i_long":106.79867},{"station_name":"Kampung Bandan","transit":true,"i_long":106.826365,"station_id":"KPB","i_lat":-6.132549,"line":4,"time":9,"is_transit":true,"distance":4102},{"time":3,"distance":1444,"line":11,"transit":false,"station_id":"RJW","i_lat":-6.14505,"station_name":"Rajawali","i_long":106.836569,"is_transit":false},{"transit":false,"station_name":"Kemayoran","station_id":"KMO","time":5,"distance":1901,"i_lat":-6.161728,"line":11,"is_transit":false,"i_long":106.839204},{"is_transit":false,"i_lat":-6.174784,"station_name":"Pasar Senen","i_long":106.84368,"line":11,"time":4,"transit":false,"distance":1436,"station_id":"PSE"},{"transit":false,"station_name":"Gang Sentiong","is_transit":false,"station_id":"GST","time":8,"distance":1567,"line":11,"i_long":106.850107,"i_lat":-6.185975},{"distance":973,"time":1,"i_lat":-6.193792,"is_transit":false,"line":11,"i_long":106.855437,"station_name":"Kramat","station_id":"KMT","transit":false},{"line":11,"time":2,"distance":1829,"is_transit":false,"station_id":"POK","transit":false,"station_name":"Pondok Jati","i_long":106.861737,"i_lat":-6.209188},{"transit":false,"distance":1236,"station_id":"JNG","i_lat":-6.215091,"station_name":"Jatinegara","is_transit":false,"i_long":106.86807400000001,"time":9,"line":1}]]}