{"data":[[{"distance":0,"is_transit":false,"line":2,"i_lat":-6.166716,"station_name":"Juanda","i_long":106.828284,"transit":false,"station_id":"JUA","time":0},{"transit":false,"i_lat":-6.186295,"time":4,"is_transit":false,"station_name":"Gondangdia","station_id":"GDD","line":2,"distance":2015,"i_long":106.832183},{"station_id":"CKI","i_lat":-6.198556,"is_transit":false,"i_long":106.840169,"transit":false,"time":3,"station_name":"Cikini","line":2,"distance":1750},{"station_name":"Manggarai","i_long":106.84912,"line":2,"i_lat":-6.209883,"distance":1590,"time":4,"station_id":"MRI","is_transit":true,"transit":true},{"transit":false,"i_lat":-6.212485,"distance":1275,"time":2,"i_long":106.858896,"station_id":"MTR","station_name":"Matraman","is_transit":false,"line":1},{"station_id":"JNG","station_name":"Jatinegara","distance":1377,"i_long":106.86807400000001,"time":8,"is_transit":false,"i_lat":-6.215091,"transit":false,"line":1},{"time":3,"distance":3395,"station_id":"KLD","is_transit":false,"station_name":"Klender","i_long":106.899548,"i_lat":-6.2135,"line":1,"transit":false},{"station_id":"BUA","i_long":106.922662,"distance":3100,"transit":false,"is_transit":false,"i_lat":-6.215568,"station_name":"Buaran","line":1,"time":2},{"station_id":"KLDB","time":1,"transit":false,"i_lat":-6.217455,"station_name":"Klenderbaru","i_long":106.939679,"line":1,"is_transit":false,"distance":1305},{"transit":false,"station_id":"CUK","line":1,"i_lat":-6.219053,"distance":1385,"time":8,"station_name":"Cakung","i_long":106.951283,"is_transit":false},{"time":3,"is_transit":false,"station_name":"Kranji","i_long":106.977657,"distance":3097,"i_lat":-6.224515,"station_id":"KRI","line":1,"transit":false},{"i_long":106.997013,"distance":2520,"station_id":"BKS","transit":false,"station_name":"Bekasi","is_transit":false,"i_lat":-6.236616,"line":1,"time":4},{"i_lat":-6.248029,"i_long":107.016735,"is_transit":false,"station_id":"BKST","transit":false,"line":1,"time":2,"distance":2368,"station_name":"Bekasi Timur"},{"station_id":"TB","i_long":107.055722,"transit":false,"distance":4460,"is_transit":false,"i_lat":-6.258864,"station_name":"Tambun","line":1,"time":7}],[{"distance":0,"transit":false,"station_id":"JUA","i_lat":-6.166716,"time":0,"station_name":"Juanda","is_transit":false,"i_long":106.828284,"line":2},{"i_long":106.827103,"i_lat":-6.160725,"station_name":"Sawah Besar","station_id":"SW","line":2,"is_transit":false,"time":2,"transit":false,"distance":1149},{"line":2,"time":2,"station_name":"Manggabesar","i_long":106.82482,"transit":false,"i_lat":-6.149769,"station_id":"MGB","is_transit":false,"distance":906},{"distance":1080,"station_id":"JAY","is_transit":false,"transit":false,"i_long":106.820901,"line":2,"i_lat":-6.141205,"time":2,"station_name":"Jayakarta"},{"station_name":"Jakarta Kota","i_long":106.812439,"transit":true,"i_lat":-6.137569,"distance":1264,"station_id":"JAKK","is_transit":true,"line":2,"time":4},{"is_transit":true,"i_lat":-6.132549,"line":4,"distance":1364,"time":3,"station_name":"Kampung Bandan","transit":true,"station_id":"KPB","i_long":106.826365},{"station_id":"RJW","i_lat":-6.14505,"station_name":"Rajawali","transit":false,"i_long":106.836569,"distance":1444,"line":11,"time":3,"is_transit":false},{"station_id":"KMO","i_lat":-6.161728,"station_name":"Kemayoran","transit":false,"line":11,"i_long":106.839204,"distance":1901,"time":5,"is_transit":false},{"i_lat":-6.174784,"i_long":106.84368,"time":4,"line":11,"transit":false,"is_transit":false,"distance":1436,"station_id":"PSE","station_name":"Pasar Senen"},{"time":8,"line":11,"i_lat":-6.185975,"transit":false,"is_transit":false,"i_long":106.850107,"station_name":"Gang Sentiong","distance":1567,"station_id":"GST"},{"line":11,"time":1,"i_long":106.855437,"station_name":"Kramat","transit":false,"station_id":"KMT","distance":973,"is_transit":false,"i_lat":-6.193792},{"distance":1829,"station_name":"Pondok Jati","is_transit":false,"transit":false,"i_lat":-6.209188,"time":2,"i_long":106.861737,"line":11,"station_id":"POK"},{"station_id":"JNG","is_transit":true,"i_long":106.86807400000001,"distance":1236,"transit":true,"i_lat":-6.215091,"line":1,"time":9,"station_name":"Jatinegara"},{"i_lat":-6.2135,"time":3,"station_name":"Klender","is_transit":false,"distance":3395,"i_long":106.899548,"line":1,"station_id":"KLD","transit":false},{"line":1,"i_long":106.922662,"i_lat":-6.215568,"time":2,"station_name":"Buaran","station_id":"BUA","transit":false,"distance":3100,"is_transit":false},{"i_lat":-6.217455,"time":1,"i_long":106.939679,"distance":1305,"is_transit":false,"transit":false,"station_name":"Klenderbaru","station_id":"KLDB","line":1},{"line":1,"i_lat":-6.219053,"station_name":"Cakung","is_transit":false,"time":8,"station_id":"CUK","i_long":106.951283,"distance":1385,"transit":false},{"station_name":"Kranji","i_lat":-6.224515,"i_long":106.977657,"station_id":"KRI","line":1,"transit":false,"is_transit":false,"distance":3097,"time":3},{"is_transit":false,"distance":2520,"transit":false,"station_name":"Bekasi","station_id":"BKS","time":4,"i_lat":-6.236616,"i_long":106.997013,"line":1},{"is_transit":false,"line":1,"transit":false,"time":2,"station_name":"Bekasi Timur","distance":2368,"i_lat":-6.248029,"station_id":"BKST","i_long":107.016735},{"station_id":"TB","line":1,"station_name":"Tambun","distance":4460,"i_long":107.055722,"transit":false,"is_transit":false,"i_lat":-6.258864,"time":7}],[{"transit":false,"time":0,"i_long":106.828284,"distance":0,"line":2,"i_lat":-6.166716,"station_id":"JUA","is_transit":false,"station_name":"Juanda"},{"station_name":"Sawah Besar","transit":false,"time":2,"is_transit":false,"distance":1149,"i_lat":-6.160725,"i_long":106.827103,"station_id":"SW","line":2},{"i_long":106.82482,"transit":false,"is_transit":false,"station_name":"Manggabesar","i_lat":-6.149769,"station_id":"MGB","time":2,"distance":906,"line":2},{"station_id":"JAY","time":2,"is_transit":false,"i_lat":-6.141205,"station_name":"Jayakarta","distance":1080,"line":2,"i_long":106.820901,"transit":false},{"station_id":"JAKK","distance":1264,"i_lat":-6.137569,"line":2,"station_name":"Jakarta Kota","i_long":106.812439,"transit":true,"is_transit":true,"time":4},{"distance":1364,"line":4,"i_lat":-6.132549,"i_long":106.826365,"station_name":"Kampung Bandan","transit":true,"station_id":"KPB","time":3,"is_transit":true},{"i_long":106.79867,"station_id":"AK","is_transit":false,"station_name":"Angke","time":9,"distance":4102,"line":1,"transit":false,"i_lat":-6.144674},{"line":1,"station_id":"DU","i_lat":-6.155215,"transit":false,"station_name":"Duri","is_transit":false,"distance":1230,"time":4,"i_long":106.800832},{"distance":3632,"line":1,"station_name":"Tanah Abang","i_lat":-6.185545,"is_transit":false,"time":8,"transit":false,"i_long":106.811091,"station_id":"THB"},{"is_transit":false,"time":5,"i_lat":-6.20132,"distance":2029,"i_long":106.816351,"station_name":"Karet","station_id":"KAT","transit":false,"line":1},{"station_name":"Sudirman Baru","time":1,"i_long":106.819881,"station_id":"SUDB","distance":471,"i_lat":-6.201433,"transit":false,"line":1,"is_transit":false},{"i_long":106.822649,"transit":false,"time":1,"i_lat":-6.202263,"line":1,"station_name":"Sudirman","station_id":"SUD","is_transit":false,"distance":280},{"time":4,"i_lat":-6.209883,"is_transit":false,"station_id":"MRI","station_name":"Manggarai","transit":false,"i_long":106.84912,"distance":3186,"line":2},{"transit":false,"distance":1275,"station_id":"MTR","time":2,"line":1,"i_lat":-6.212485,"station_name":"Matraman","is_transit":false,"i_long":106.858896},{"transit":false,"time":8,"line":1,"station_id":"JNG","is_transit":false,"distance":1377,"i_lat":-6.215091,"i_long":106.86807400000001,"station_name":"Jatinegara"},{"time":3,"i_long":106.899548,"station_id":"KLD","distance":3395,"i_lat":-6.2135,"is_transit":false,"line":1,"transit":false,"station_name":"Klender"},{"i_lat":-6.215568,"transit":false,"station_id":"BUA","station_name":"Buaran","time":2,"line":1,"distance":3100,"i_long":106.922662,"is_transit":false},{"is_transit":false,"transit":false,"line":1,"station_name":"Klenderbaru","i_long":106.939679,"station_id":"KLDB","time":1,"distance":1305,"i_lat":-6.217455},{"time":8,"transit":false,"station_id":"CUK","station_name":"Cakung","i_lat":-6.219053,"distance":1385,"line":1,"is_transit":false,"i_long":106.951283},{"i_lat":-6.224515,"distance":3097,"is_transit":false,"station_name":"Kranji","station_id":"KRI","i_long":106.977657,"line":1,"transit":false,"time":3},{"transit":false,"station_name":"Bekasi","time":4,"is_transit":false,"i_lat":-6.236616,"line":1,"station_id":"BKS","distance":2520,"i_long":106.997013},{"i_lat":-6.248029,"i_long":107.016735,"line":1,"time":2,"transit":false,"station_name":"Bekasi Timur","station_id":"BKST","is_transit":false,"distance":2368},{"time":7,"station_name":"Tambun","is_transit":false,"station_id":"TB","i_lat":-6.258864,"transit":false,"i_long":107.055722,"line":1,"distance":4460}],[{"is_transit":false,"distance":0,"time":0,"i_long":106.828284,"i_lat":-6.166716,"line":2,"transit":false,"station_name":"Juanda","station_id":"JUA"},{"transit":false,"is_transit":false,"i_lat":-6.186295,"i_long":106.832183,"distance":2015,"line":2,"station_name":"Gondangdia","station_id":"GDD","time":4},{"is_transit":false,"distance":1750,"line":2,"time":3,"i_long":106.840169,"transit":false,"station_id":"CKI","i_lat":-6.198556,"station_name":"Cikini"},{"station_name":"Manggarai","is_transit":true,"distance":1590,"i_long":106.84912,"i_lat":-6.209883,"line":2,"station_id":"MRI","time":4,"transit":true},{"transit":false,"distance":3186,"time":4,"i_lat":-6.202263,"i_long":106.822649,"line":1,"is_transit":false,"station_id":"SUD","station_name":"Sudirman"},{"station_id":"SUDB","time":1,"i_lat":-6.201433,"is_transit":false,"i_long":106.819881,"station_name":"Sudirman Baru","distance":280,"transit":false,"line":1},{"time":1,"transit":false,"is_transit":false,"i_lat":-6.20132,"station_id":"KAT","distance":471,"station_name":"Karet","i_long":106.816351,"line":1},{"station_name":"Tanah Abang","distance":2029,"line":1,"transit":false,"is_transit":false,"i_lat":-6.185545,"station_id":"THB","i_long":106.811091,"time":5},{"i_long":106.800832,"station_id":"DU","i_lat":-6.155215,"line":1,"transit":false,"distance":3632,"is_transit":false,"time":8,"station_name":"Duri"},{"is_transit":false,"i_lat":-6.144674,"line":1,"distance":1230,"i_long":106.79867,"transit":false,"station_name":"Angke","station_id":"AK","time":4},{"i_long":106.826365,"transit":true,"line":4,"is_transit":true,"i_lat":-6.132549,"station_id":"KPB","station_name":"Kampung Bandan","time":9,"distance":4102},{"station_id":"RJW","line":11,"i_long":106.836569,"transit":false,"station_name":"Rajawali","time":3,"is_transit":false,"distance":1444,"i_lat":-6.14505},{"time":5,"transit":false,"i_long":106.839204,"distance":1901,"station_name":"Kemayoran","i_lat":-6.161728,"line":11,"station_id":"KMO","is_transit":false},{"line":11,"transit":false,"time":4,"station_id":"PSE","distance":1436,"i_lat":-6.174784,"i_long":106.84368,"station_name":"Pasar Senen","is_transit":false},{"i_long":106.850107,"transit":false,"distance":1567,"line":11,"time":8,"station_id":"GST","i_lat":-6.185975,"is_transit":false,"station_name":"Gang Sentiong"},{"line":11,"station_name":"Kramat","is_transit":false,"distance":973,"station_id":"KMT","transit":false,"time":1,"i_lat":-6.193792,"i_long":106.855437},{"i_lat":-6.209188,"time":2,"station_name":"Pondok Jati","transit":false,"is_transit":false,"station_id":"POK","line":11,"i_long":106.861737,"distance":1829},{"i_long":106.86807400000001,"station_name":"Jatinegara","line":1,"station_id":"JNG","distance":1236,"is_transit":true,"time":9,"transit":true,"i_lat":-6.215091},{"station_name":"Klender","time":3,"i_long":106.899548,"distance":3395,"i_lat":-6.2135,"transit":false,"is_transit":false,"station_id":"KLD","line":1},{"station_name":"Buaran","transit":false,"is_transit":false,"distance":3100,"time":2,"i_lat":-6.215568,"station_id":"BUA","i_long":106.922662,"line":1},{"station_name":"Klenderbaru","time":1,"i_lat":-6.217455,"transit":false,"is_transit":false,"line":1,"station_id":"KLDB","distance":1305,"i_long":106.939679},{"time":8,"distance":1385,"is_transit":false,"i_lat":-6.219053,"station_name":"Cakung","i_long":106.951283,"transit":false,"line":1,"station_id":"CUK"},{"station_name":"Kranji","time":3,"i_long":106.977657,"is_transit":false,"line":1,"distance":3097,"i_lat":-6.224515,"transit":false,"station_id":"KRI"},{"line":1,"is_transit":false,"transit":false,"time":4,"station_name":"Bekasi","station_id":"BKS","distance":2520,"i_lat":-6.236616,"i_long":106.997013},{"time":2,"i_lat":-6.248029,"i_long":107.016735,"distance":2368,"station_id":"BKST","line":1,"is_transit":false,"station_name":"Bekasi Timur","transit":false},{"line":1,"i_lat":-6.258864,"station_name":"Tambun","distance":4460,"i_long":107.055722,"station_id":"TB","time":7,"is_transit":false,"transit":false}]]}