{"data":[[{"station_name":"Juanda","transit":false,"time":0,"i_lat":-6.166716,"station_id":"JUA","line":2,"is_transit":false,"i_long":106.828284,"distance":0},{"transit":false,"line":2,"station_name":"Gondangdia","is_transit":false,"distance":2015,"i_lat":-6.186295,"i_long":106.832183,"time":4,"station_id":"GDD"},{"line":2,"transit":false,"station_name":"Cikini","is_transit":false,"time":3,"distance":1750,"i_lat":-6.198556,"i_long":106.840169,"station_id":"CKI"},{"distance":1590,"station_name":"Manggarai","i_lat":-6.209883,"station_id":"MRI","line":2,"transit":true,"time":4,"is_transit":true,"i_long":106.84912},{"line":1,"time":4,"transit":false,"station_name":"Sudirman","is_transit":false,"distance":3186,"i_lat":-6.202263,"i_long":106.822649,"station_id":"SUD"},{"i_long":106.819881,"distance":280,"station_name":"Sudirman Baru","time":1,"i_lat":-6.201433,"station_id":"SUDB","line":1,"transit":false,"is_transit":false},{"transit":false,"i_long":106.816351,"line":1,"station_name":"Karet","is_transit":false,"time":1,"station_id":"KAT","i_lat":-6.20132,"distance":471},{"station_id":"THB","i_long":106.811091,"line":1,"time":5,"is_transit":true,"transit":true,"station_name":"Tanah Abang","distance":2029,"i_lat":-6.185545},{"station_id":"PLM","i_long":106.79689,"is_transit":false,"time":6,"transit":false,"i_lat":-6.207404,"station_name":"Palmerah","distance":3191,"line":6},{"i_lat":-6.237242,"i_long":106.780334,"transit":false,"station_name":"Kebayoran","line":6,"is_transit":false,"time":7,"distance":3737,"station_id":"KBY"},{"distance":6218,"is_transit":false,"line":6,"i_long":106.74273,"station_name":"Pondokranji","station_id":"PDJ","time":8,"transit":false,"i_lat":-6.276362},{"is_transit":false,"time":3,"distance":2179,"station_name":"Jurangmangu","station_id":"JMU","i_long":106.728916,"line":6,"transit":false,"i_lat":-6.288927},{"i_long":106.712277,"transit":false,"station_name":"Sudimara","distance":1994,"is_transit":false,"station_id":"SDM","time":4,"i_lat":-6.296963,"line":6},{"is_transit":false,"station_name":"Rawa Buntu","station_id":"RU","distance":4566,"i_long":106.675475,"time":6,"line":6,"i_lat":-6.314823,"transit":false},{"is_transit":false,"distance":2413,"i_long":106.66566,"transit":false,"station_id":"SRP","time":4,"i_lat":-6.319871,"line":6,"station_name":"Serpong"},{"i_lat":-6.32484,"distance":1784,"transit":false,"station_name":"Cisauk","line":3,"i_long":106.640411,"time":4,"station_id":"CSK","is_transit":false},{"station_name":"Cicayur","distance":2519,"i_long":106.617853,"time":4,"is_transit":false,"i_lat":-6.329547,"line":3,"station_id":"CC","transit":false},{"transit":false,"is_transit":false,"line":6,"i_lat":-6.3441410000000005,"i_long":106.568863,"station_name":"Parung Panjang","time":8,"distance":5968,"station_id":"PRP"},{"distance":7025,"i_long":106.508482,"line":3,"station_name":"Cilejit","time":9,"station_id":"CJT","transit":false,"is_transit":false,"i_lat":-6.354349},{"station_id":"DAR","is_transit":false,"time":6,"i_long":106.491338,"station_name":"Daru","transit":false,"distance":2675,"line":0,"i_lat":-6.338021},{"is_transit":false,"i_lat":-6.327251,"time":5,"station_id":"TEJ","distance":3902,"line":6,"transit":false,"station_name":"Tenjo","i_long":106.460812},{"station_name":"Tigaraksa","distance":2974,"transit":false,"is_transit":false,"line":6,"time":5,"i_lat":-6.328533,"i_long":106.425991,"station_id":"TGS"},{"station_name":"Cikoya","station_id":"CKY","time":3,"i_lat":-6.33561,"transit":false,"i_long":106.411216,"line":3,"is_transit":false,"distance":2651},{"i_long":106.394373,"transit":false,"time":4,"station_name":"Maja","station_id":"MJ","i_lat":-6.332307,"line":6,"distance":1853,"is_transit":false},{"i_lat":-6.334892,"station_name":"Citeras","distance":7293,"transit":false,"i_long":106.332092,"time":10,"line":3,"is_transit":false,"station_id":"CTR"}],[{"distance":0,"line":2,"station_id":"JUA","time":0,"i_long":106.828284,"i_lat":-6.166716,"transit":false,"station_name":"Juanda","is_transit":false},{"line":2,"transit":false,"time":2,"distance":1149,"i_lat":-6.160725,"is_transit":false,"station_id":"SW","station_name":"Sawah Besar","i_long":106.827103},{"line":2,"station_name":"Manggabesar","time":2,"distance":906,"transit":false,"i_long":106.82482,"station_id":"MGB","is_transit":false,"i_lat":-6.149769},{"transit":false,"line":2,"time":2,"station_id":"JAY","distance":1080,"is_transit":false,"i_lat":-6.141205,"i_long":106.820901,"station_name":"Jayakarta"},{"line":2,"is_transit":true,"distance":1264,"i_lat":-6.137569,"transit":true,"i_long":106.812439,"station_id":"JAKK","station_name":"Jakarta Kota","time":4},{"distance":1364,"line":4,"time":3,"is_transit":true,"i_lat":-6.132549,"transit":true,"station_name":"Kampung Bandan","i_long":106.826365,"station_id":"KPB"},{"i_long":106.79867,"i_lat":-6.144674,"station_id":"AK","station_name":"Angke","time":9,"transit":false,"is_transit":false,"distance":4102,"line":1},{"transit":false,"distance":1230,"line":1,"is_transit":false,"station_name":"Duri","i_lat":-6.155215,"station_id":"DU","i_long":106.800832,"time":4},{"line":1,"is_transit":true,"i_long":106.811091,"station_name":"Tanah Abang","transit":true,"station_id":"THB","distance":3632,"time":8,"i_lat":-6.185545},{"station_id":"PLM","transit":false,"i_long":106.79689,"time":6,"i_lat":-6.207404,"station_name":"Palmerah","is_transit":false,"distance":3191,"line":6},{"distance":3737,"i_long":106.780334,"i_lat":-6.237242,"station_name":"Kebayoran","is_transit":false,"line":6,"transit":false,"station_id":"KBY","time":7},{"i_lat":-6.276362,"transit":false,"is_transit":false,"station_id":"PDJ","i_long":106.74273,"station_name":"Pondokranji","distance":6218,"time":8,"line":6},{"distance":2179,"i_lat":-6.288927,"time":3,"station_name":"Jurangmangu","is_transit":false,"line":6,"transit":false,"station_id":"JMU","i_long":106.728916},{"time":4,"distance":1994,"line":6,"station_name":"Sudimara","i_long":106.712277,"station_id":"SDM","transit":false,"is_transit":false,"i_lat":-6.296963},{"distance":4566,"i_long":106.675475,"station_id":"RU","transit":false,"line":6,"time":6,"station_name":"Rawa Buntu","is_transit":false,"i_lat":-6.314823},{"is_transit":false,"i_lat":-6.319871,"distance":2413,"station_name":"Serpong","i_long":106.66566,"line":6,"time":4,"transit":false,"station_id":"SRP"},{"distance":1784,"i_long":106.640411,"transit":false,"station_name":"Cisauk","station_id":"CSK","is_transit":false,"time":4,"i_lat":-6.32484,"line":3},{"line":3,"distance":2519,"transit":false,"time":4,"station_name":"Cicayur","i_lat":-6.329547,"station_id":"CC","is_transit":false,"i_long":106.617853},{"time":8,"transit":false,"distance":5968,"i_long":106.568863,"station_id":"PRP","station_name":"Parung Panjang","i_lat":-6.3441410000000005,"is_transit":false,"line":6},{"i_lat":-6.354349,"line":3,"is_transit":false,"distance":7025,"i_long":106.508482,"station_id":"CJT","station_name":"Cilejit","transit":false,"time":9},{"distance":2675,"i_long":106.491338,"transit":false,"station_name":"Daru","is_transit":false,"time":6,"line":0,"station_id":"DAR","i_lat":-6.338021},{"transit":false,"station_name":"Tenjo","is_transit":false,"station_id":"TEJ","distance":3902,"i_long":106.460812,"line":6,"i_lat":-6.327251,"time":5},{"time":5,"station_name":"Tigaraksa","distance":2974,"i_long":106.425991,"line":6,"transit":false,"station_id":"TGS","i_lat":-6.328533,"is_transit":false},{"time":3,"distance":2651,"i_long":106.411216,"station_name":"Cikoya","is_transit":false,"station_id":"CKY","i_lat":-6.33561,"line":3,"transit":false},{"line":6,"station_id":"MJ","station_name":"Maja","is_transit":false,"time":4,"i_long":106.394373,"transit":false,"distance":1853,"i_lat":-6.332307},{"station_id":"CTR","i_lat":-6.334892,"is_transit":false,"station_name":"Citeras","time":10,"distance":7293,"line":3,"transit":false,"i_long":106.332092}],[{"station_id":"JUA","time":0,"is_transit":false,"i_long":106.828284,"station_name":"Juanda","distance":0,"transit":false,"i_lat":-6.166716,"line":2},{"distance":2015,"i_lat":-6.186295,"is_transit":false,"station_id":"GDD","time":4,"transit":false,"station_name":"Gondangdia","i_long":106.832183,"line":2},{"transit":false,"time":3,"station_id":"CKI","i_long":106.840169,"distance":1750,"station_name":"Cikini","i_lat":-6.198556,"is_transit":false,"line":2},{"station_id":"MRI","time":4,"i_lat":-6.209883,"line":2,"transit":true,"is_transit":true,"distance":1590,"i_long":106.84912,"station_name":"Manggarai"},{"is_transit":false,"time":2,"line":1,"transit":false,"station_name":"Matraman","i_long":106.858896,"i_lat":-6.212485,"station_id":"MTR","distance":1275},{"station_name":"Jatinegara","distance":1377,"i_lat":-6.215091,"time":8,"i_long":106.86807400000001,"line":1,"transit":true,"station_id":"JNG","is_transit":true},{"distance":1236,"line":11,"i_long":106.861737,"time":2,"i_lat":-6.209188,"is_transit":false,"transit":false,"station_name":"Pondok Jati","station_id":"POK"},{"line":11,"i_long":106.855437,"transit":false,"time":2,"is_transit":false,"i_lat":-6.193792,"distance":1829,"station_name":"Kramat","station_id":"KMT"},{"transit":false,"is_transit":false,"time":1,"i_long":106.850107,"line":11,"distance":973,"station_name":"Gang Sentiong","station_id":"GST","i_lat":-6.185975},{"is_transit":false,"distance":1567,"i_lat":-6.174784,"i_long":106.84368,"line":11,"station_id":"PSE","transit":false,"station_name":"Pasar Senen","time":8},{"distance":1436,"line":11,"time":4,"station_name":"Kemayoran","station_id":"KMO","i_long":106.839204,"transit":false,"is_transit":false,"i_lat":-6.161728},{"is_transit":false,"transit":false,"time":5,"line":11,"distance":1901,"station_name":"Rajawali","station_id":"RJW","i_lat":-6.14505,"i_long":106.836569},{"line":4,"transit":true,"i_lat":-6.132549,"i_long":106.826365,"distance":1444,"is_transit":true,"time":3,"station_id":"KPB","station_name":"Kampung Bandan"},{"transit":false,"distance":4102,"station_name":"Angke","is_transit":false,"station_id":"AK","time":9,"i_lat":-6.144674,"i_long":106.79867,"line":1},{"station_name":"Duri","line":1,"i_lat":-6.155215,"transit":false,"time":4,"station_id":"DU","i_long":106.800832,"is_transit":false,"distance":1230},{"i_lat":-6.185545,"station_id":"THB","time":8,"transit":true,"i_long":106.811091,"is_transit":true,"station_name":"Tanah Abang","distance":3632,"line":1},{"line":6,"transit":false,"distance":3191,"station_id":"PLM","is_transit":false,"i_lat":-6.207404,"i_long":106.79689,"station_name":"Palmerah","time":6},{"station_id":"KBY","is_transit":false,"i_long":106.780334,"distance":3737,"i_lat":-6.237242,"time":7,"line":6,"transit":false,"station_name":"Kebayoran"},{"distance":6218,"line":6,"station_id":"PDJ","is_transit":false,"transit":false,"time":8,"station_name":"Pondokranji","i_long":106.74273,"i_lat":-6.276362},{"station_id":"JMU","i_lat":-6.288927,"station_name":"Jurangmangu","is_transit":false,"i_long":106.728916,"transit":false,"distance":2179,"time":3,"line":6},{"is_transit":false,"i_lat":-6.296963,"station_id":"SDM","transit":false,"station_name":"Sudimara","i_long":106.712277,"distance":1994,"line":6,"time":4},{"line":6,"transit":false,"time":6,"i_lat":-6.314823,"i_long":106.675475,"station_id":"RU","distance":4566,"is_transit":false,"station_name":"Rawa Buntu"},{"station_name":"Serpong","time":4,"is_transit":false,"i_lat":-6.319871,"station_id":"SRP","i_long":106.66566,"line":6,"distance":2413,"transit":false},{"i_long":106.640411,"time":4,"i_lat":-6.32484,"line":3,"transit":false,"station_id":"CSK","distance":1784,"station_name":"Cisauk","is_transit":false},{"distance":2519,"time":4,"i_long":106.617853,"station_id":"CC","is_transit":false,"i_lat":-6.329547,"station_name":"Cicayur","line":3,"transit":false},{"station_id":"PRP","distance":5968,"i_lat":-6.3441410000000005,"i_long":106.568863,"is_transit":false,"line":6,"station_name":"Parung Panjang","time":8,"transit":false},{"station_name":"Cilejit","is_transit":false,"i_lat":-6.354349,"i_long":106.508482,"line":3,"time":9,"transit":false,"distance":7025,"station_id":"CJT"},{"line":0,"i_long":106.491338,"transit":false,"is_transit":false,"station_id":"DAR","station_name":"Daru","time":6,"i_lat":-6.338021,"distance":2675},{"i_long":106.460812,"distance":3902,"station_name":"Tenjo","line":6,"transit":false,"station_id":"TEJ","time":5,"is_transit":false,"i_lat":-6.327251},{"distance":2974,"i_lat":-6.328533,"station_id":"TGS","line":6,"station_name":"Tigaraksa","is_transit":false,"time":5,"i_long":106.425991,"transit":false},{"time":3,"line":3,"station_name":"Cikoya","station_id":"CKY","transit":false,"i_lat":-6.33561,"distance":2651,"i_long":106.411216,"is_transit":false},{"distance":1853,"is_transit":false,"i_lat":-6.332307,"station_id":"MJ","transit":false,"station_name":"Maja","line":6,"time":4,"i_long":106.394373},{"line":3,"station_id":"CTR","distance":7293,"i_long":106.332092,"i_lat":-6.334892,"transit":false,"is_transit":false,"time":10,"station_name":"Citeras"}],[{"i_lat":-6.166716,"station_name":"Juanda","is_transit":false,"i_long":106.828284,"station_id":"JUA","line":2,"time":0,"distance":0,"transit":false},{"time":2,"is_transit":false,"i_lat":-6.160725,"distance":1149,"i_long":106.827103,"line":2,"transit":false,"station_id":"SW","station_name":"Sawah Besar"},{"i_lat":-6.149769,"time":2,"station_id":"MGB","station_name":"Manggabesar","is_transit":false,"distance":906,"transit":false,"i_long":106.82482,"line":2},{"time":2,"is_transit":false,"line":2,"station_name":"Jayakarta","distance":1080,"transit":false,"station_id":"JAY","i_lat":-6.141205,"i_long":106.820901},{"distance":1264,"station_name":"Jakarta Kota","station_id":"JAKK","i_lat":-6.137569,"line":2,"transit":true,"is_transit":true,"time":4,"i_long":106.812439},{"i_lat":-6.132549,"transit":true,"i_long":106.826365,"station_id":"KPB","is_transit":true,"time":3,"distance":1364,"line":4,"station_name":"Kampung Bandan"},{"distance":1444,"station_name":"Rajawali","transit":false,"line":11,"time":3,"station_id":"RJW","is_transit":false,"i_lat":-6.14505,"i_long":106.836569},{"transit":false,"i_lat":-6.161728,"i_long":106.839204,"line":11,"time":5,"station_name":"Kemayoran","station_id":"KMO","distance":1901,"is_transit":false},{"transit":false,"line":11,"station_name":"Pasar Senen","i_long":106.84368,"i_lat":-6.174784,"is_transit":false,"time":4,"distance":1436,"station_id":"PSE"},{"is_transit":false,"time":8,"station_id":"GST","distance":1567,"transit":false,"i_lat":-6.185975,"line":11,"station_name":"Gang Sentiong","i_long":106.850107},{"i_lat":-6.193792,"is_transit":false,"transit":false,"i_long":106.855437,"line":11,"distance":973,"station_name":"Kramat","time":1,"station_id":"KMT"},{"distance":1829,"time":2,"is_transit":false,"station_id":"POK","station_name":"Pondok Jati","line":11,"i_long":106.861737,"i_lat":-6.209188,"transit":false},{"is_transit":true,"time":9,"i_long":106.86807400000001,"transit":true,"station_name":"Jatinegara","distance":1236,"station_id":"JNG","i_lat":-6.215091,"line":1},{"transit":false,"station_name":"Matraman","time":2,"distance":1377,"is_transit":false,"station_id":"MTR","i_lat":-6.212485,"i_long":106.858896,"line":1},{"time":2,"distance":1275,"i_lat":-6.209883,"station_name":"Manggarai","station_id":"MRI","transit":false,"i_long":106.84912,"line":2,"is_transit":false},{"is_transit":false,"time":4,"transit":false,"distance":3186,"station_id":"SUD","i_lat":-6.202263,"line":1,"i_long":106.822649,"station_name":"Sudirman"},{"time":1,"distance":280,"i_long":106.819881,"transit":false,"station_name":"Sudirman Baru","line":1,"is_transit":false,"i_lat":-6.201433,"station_id":"SUDB"},{"i_lat":-6.20132,"station_name":"Karet","is_transit":false,"transit":false,"station_id":"KAT","time":1,"line":1,"distance":471,"i_long":106.816351},{"i_lat":-6.185545,"station_name":"Tanah Abang","time":5,"i_long":106.811091,"is_transit":true,"station_id":"THB","transit":true,"line":1,"distance":2029},{"time":6,"transit":false,"line":6,"distance":3191,"station_id":"PLM","i_lat":-6.207404,"station_name":"Palmerah","is_transit":false,"i_long":106.79689},{"time":7,"i_lat":-6.237242,"transit":false,"distance":3737,"is_transit":false,"i_long":106.780334,"line":6,"station_id":"KBY","station_name":"Kebayoran"},{"station_id":"PDJ","distance":6218,"i_lat":-6.276362,"is_transit":false,"transit":false,"line":6,"station_name":"Pondokranji","time":8,"i_long":106.74273},{"i_lat":-6.288927,"is_transit":false,"line":6,"time":3,"distance":2179,"station_name":"Jurangmangu","station_id":"JMU","transit":false,"i_long":106.728916},{"is_transit":false,"distance":1994,"transit":false,"i_long":106.712277,"line":6,"i_lat":-6.296963,"station_id":"SDM","time":4,"station_name":"Sudimara"},{"transit":false,"station_name":"Rawa Buntu","station_id":"RU","i_lat":-6.314823,"i_long":106.675475,"is_transit":false,"line":6,"distance":4566,"time":6},{"i_long":106.66566,"line":6,"station_name":"Serpong","distance":2413,"time":4,"i_lat":-6.319871,"is_transit":false,"transit":false,"station_id":"SRP"},{"is_transit":false,"station_name":"Cisauk","station_id":"CSK","time":4,"line":3,"transit":false,"distance":1784,"i_long":106.640411,"i_lat":-6.32484},{"transit":false,"station_name":"Cicayur","station_id":"CC","distance":2519,"i_lat":-6.329547,"time":4,"i_long":106.617853,"is_transit":false,"line":3},{"station_id":"PRP","i_long":106.568863,"distance":5968,"transit":false,"i_lat":-6.3441410000000005,"line":6,"station_name":"Parung Panjang","time":8,"is_transit":false},{"time":9,"is_transit":false,"station_id":"CJT","line":3,"i_long":106.508482,"station_name":"Cilejit","transit":false,"distance":7025,"i_lat":-6.354349},{"i_lat":-6.338021,"distance":2675,"station_name":"Daru","is_transit":false,"time":6,"station_id":"DAR","transit":false,"i_long":106.491338,"line":0},{"time":5,"is_transit":false,"line":6,"i_lat":-6.327251,"station_id":"TEJ","station_name":"Tenjo","transit":false,"distance":3902,"i_long":106.460812},{"i_long":106.425991,"station_id":"TGS","station_name":"Tigaraksa","time":5,"distance":2974,"i_lat":-6.328533,"line":6,"is_transit":false,"transit":false},{"transit":false,"station_id":"CKY","station_name":"Cikoya","line":3,"i_long":106.411216,"i_lat":-6.33561,"is_transit":false,"time":3,"distance":2651},{"i_lat":-6.332307,"transit":false,"station_name":"Maja","is_transit":false,"i_long":106.394373,"station_id":"MJ","time":4,"line":6,"distance":1853},{"distance":7293,"transit":false,"i_lat":-6.334892,"is_transit":false,"i_long":106.332092,"station_name":"Citeras","station_id":"CTR","time":10,"line":3}]]}