{"data":[[{"i_lat":-6.166716,"line":2,"i_long":106.828284,"transit":false,"time":0,"station_name":"Juanda","station_id":"JUA","is_transit":false,"distance":0},{"station_id":"SW","distance":1149,"i_lat":-6.160725,"i_long":106.827103,"is_transit":false,"line":2,"transit":false,"station_name":"Sawah Besar","time":2},{"time":2,"transit":false,"i_lat":-6.149769,"station_name":"Manggabesar","line":2,"is_transit":false,"distance":906,"station_id":"MGB","i_long":106.82482},{"transit":false,"station_id":"JAY","distance":1080,"i_lat":-6.141205,"line":2,"i_long":106.820901,"is_transit":false,"time":2,"station_name":"Jayakarta"},{"i_long":106.812439,"line":2,"distance":1264,"station_id":"JAKK","i_lat":-6.137569,"station_name":"Jakarta Kota","is_transit":true,"time":4,"transit":true},{"is_transit":true,"distance":1364,"station_id":"KPB","line":4,"time":3,"i_lat":-6.132549,"transit":true,"i_long":106.826365,"station_name":"Kampung Bandan"},{"line":1,"station_id":"AK","distance":4102,"station_name":"Angke","is_transit":false,"transit":false,"i_long":106.79867,"time":9,"i_lat":-6.144674},{"line":1,"time":4,"i_lat":-6.155215,"transit":true,"station_id":"DU","is_transit":true,"i_long":106.800832,"station_name":"Duri","distance":1230},{"i_long":106.788277,"station_id":"GGL","is_transit":false,"transit":false,"i_lat":-6.162021,"line":5,"distance":1700,"time":3,"station_name":"Grogol"},{"station_name":"Pesing","i_long":106.771379,"station_id":"PSG","line":5,"is_transit":false,"time":2,"distance":2036,"i_lat":-6.161433,"transit":false},{"i_lat":-6.1587309999999995,"transit":false,"station_name":"Taman Kota","line":5,"time":2,"distance":1614,"is_transit":false,"i_long":106.756522,"station_id":"TKO"},{"station_name":"Bojongindah","time":2,"distance":2334,"is_transit":false,"i_long":106.737035,"line":5,"transit":false,"station_id":"BOI","i_lat":-6.159876},{"time":4,"station_name":"Rawa Buaya","distance":1152,"transit":false,"station_id":"RW","i_lat":-6.162758,"line":5,"i_long":106.723064,"is_transit":false},{"i_lat":-6.166068,"i_long":106.701612,"line":5,"transit":false,"station_id":"KDS","time":3,"station_name":"Kalideres","distance":2504,"is_transit":false},{"time":3,"i_lat":-6.169933,"line":5,"distance":2548,"i_long":106.679458,"transit":false,"station_id":"PI","is_transit":false,"station_name":"Poris"},{"i_lat":-6.171811,"transit":false,"distance":1834,"i_long":106.665036,"line":5,"station_name":"Batuceper","station_id":"BPR","is_transit":false,"time":3}],[{"station_id":"JUA","time":0,"i_long":106.828284,"line":2,"is_transit":false,"i_lat":-6.166716,"station_name":"Juanda","transit":false,"distance":0},{"time":4,"distance":2015,"is_transit":false,"station_name":"Gondangdia","station_id":"GDD","i_lat":-6.186295,"transit":false,"i_long":106.832183,"line":2},{"station_id":"CKI","i_lat":-6.198556,"is_transit":false,"line":2,"i_long":106.840169,"time":3,"station_name":"Cikini","transit":false,"distance":1750},{"time":4,"transit":true,"i_lat":-6.209883,"station_name":"Manggarai","is_transit":true,"station_id":"MRI","distance":1590,"i_long":106.84912,"line":2},{"line":1,"station_id":"SUD","transit":false,"station_name":"Sudirman","distance":3186,"is_transit":false,"i_lat":-6.202263,"i_long":106.822649,"time":4},{"station_name":"Sudirman Baru","station_id":"SUDB","transit":false,"is_transit":false,"i_long":106.819881,"distance":280,"line":1,"time":1,"i_lat":-6.201433},{"line":1,"i_lat":-6.20132,"transit":false,"time":1,"distance":471,"is_transit":false,"station_name":"Karet","station_id":"KAT","i_long":106.816351},{"i_long":106.811091,"line":1,"distance":2029,"i_lat":-6.185545,"time":5,"transit":false,"station_id":"THB","station_name":"Tanah Abang","is_transit":false},{"is_transit":true,"i_long":106.800832,"line":1,"station_name":"Duri","i_lat":-6.155215,"time":8,"station_id":"DU","transit":true,"distance":3632},{"transit":false,"station_name":"Grogol","distance":1700,"station_id":"GGL","is_transit":false,"i_lat":-6.162021,"i_long":106.788277,"line":5,"time":3},{"transit":false,"station_id":"PSG","distance":2036,"i_lat":-6.161433,"is_transit":false,"station_name":"Pesing","time":2,"line":5,"i_long":106.771379},{"transit":false,"station_name":"Taman Kota","is_transit":false,"i_long":106.756522,"distance":1614,"time":2,"i_lat":-6.1587309999999995,"line":5,"station_id":"TKO"},{"station_id":"BOI","is_transit":false,"i_lat":-6.159876,"time":2,"line":5,"i_long":106.737035,"transit":false,"distance":2334,"station_name":"Bojongindah"},{"time":4,"is_transit":false,"transit":false,"distance":1152,"i_long":106.723064,"line":5,"station_name":"Rawa Buaya","station_id":"RW","i_lat":-6.162758},{"distance":2504,"is_transit":false,"station_name":"Kalideres","line":5,"transit":false,"station_id":"KDS","time":3,"i_lat":-6.166068,"i_long":106.701612},{"i_long":106.679458,"i_lat":-6.169933,"time":3,"distance":2548,"station_name":"Poris","station_id":"PI","is_transit":false,"line":5,"transit":false},{"i_lat":-6.171811,"transit":false,"distance":1834,"i_long":106.665036,"station_name":"Batuceper","is_transit":false,"line":5,"time":3,"station_id":"BPR"}],[{"i_lat":-6.166716,"distance":0,"transit":false,"i_long":106.828284,"station_id":"JUA","time":0,"line":2,"station_name":"Juanda","is_transit":false},{"transit":false,"i_long":106.832183,"time":4,"station_name":"Gondangdia","distance":2015,"is_transit":false,"i_lat":-6.186295,"line":2,"station_id":"GDD"},{"i_long":106.840169,"time":3,"distance":1750,"i_lat":-6.198556,"station_id":"CKI","transit":false,"is_transit":false,"station_name":"Cikini","line":2},{"distance":1590,"station_id":"MRI","line":2,"i_lat":-6.209883,"i_long":106.84912,"is_transit":true,"time":4,"station_name":"Manggarai","transit":true},{"line":1,"i_long":106.858896,"is_transit":false,"transit":false,"station_name":"Matraman","time":2,"i_lat":-6.212485,"distance":1275,"station_id":"MTR"},{"i_lat":-6.215091,"distance":1377,"i_long":106.86807400000001,"is_transit":true,"time":8,"transit":true,"station_name":"Jatinegara","station_id":"JNG","line":1},{"is_transit":false,"i_long":106.861737,"station_name":"Pondok Jati","distance":1236,"station_id":"POK","i_lat":-6.209188,"transit":false,"line":11,"time":2},{"i_lat":-6.193792,"is_transit":false,"i_long":106.855437,"line":11,"station_id":"KMT","station_name":"Kramat","time":2,"distance":1829,"transit":false},{"transit":false,"time":1,"i_lat":-6.185975,"distance":973,"i_long":106.850107,"line":11,"station_id":"GST","station_name":"Gang Sentiong","is_transit":false},{"distance":1567,"is_transit":false,"transit":false,"station_name":"Pasar Senen","station_id":"PSE","i_lat":-6.174784,"time":8,"line":11,"i_long":106.84368},{"is_transit":false,"distance":1436,"station_id":"KMO","station_name":"Kemayoran","transit":false,"i_lat":-6.161728,"i_long":106.839204,"line":11,"time":4},{"i_lat":-6.14505,"time":5,"distance":1901,"line":11,"transit":false,"is_transit":false,"i_long":106.836569,"station_name":"Rajawali","station_id":"RJW"},{"time":3,"is_transit":true,"distance":1444,"station_id":"KPB","station_name":"Kampung Bandan","i_long":106.826365,"transit":true,"line":4,"i_lat":-6.132549},{"line":1,"distance":4102,"time":9,"i_long":106.79867,"is_transit":false,"transit":false,"i_lat":-6.144674,"station_id":"AK","station_name":"Angke"},{"i_long":106.800832,"time":4,"i_lat":-6.155215,"station_id":"DU","is_transit":true,"distance":1230,"line":1,"station_name":"Duri","transit":true},{"i_long":106.788277,"station_id":"GGL","line":5,"is_transit":false,"time":3,"distance":1700,"station_name":"Grogol","transit":false,"i_lat":-6.162021},{"station_id":"PSG","i_long":106.771379,"line":5,"time":2,"station_name":"Pesing","distance":2036,"i_lat":-6.161433,"transit":false,"is_transit":false},{"is_transit":false,"i_lat":-6.1587309999999995,"time":2,"station_id":"TKO","station_name":"Taman Kota","distance":1614,"line":5,"i_long":106.756522,"transit":false},{"i_lat":-6.159876,"i_long":106.737035,"line":5,"time":2,"station_name":"Bojongindah","station_id":"BOI","is_transit":false,"transit":false,"distance":2334},{"time":4,"station_id":"RW","i_long":106.723064,"station_name":"Rawa Buaya","distance":1152,"transit":false,"line":5,"is_transit":false,"i_lat":-6.162758},{"time":3,"transit":false,"station_id":"KDS","i_lat":-6.166068,"i_long":106.701612,"is_transit":false,"line":5,"station_name":"Kalideres","distance":2504},{"i_lat":-6.169933,"transit":false,"is_transit":false,"distance":2548,"station_id":"PI","station_name":"Poris","time":3,"i_long":106.679458,"line":5},{"distance":1834,"i_lat":-6.171811,"station_id":"BPR","i_long":106.665036,"station_name":"Batuceper","time":3,"transit":false,"line":5,"is_transit":false}],[{"line":2,"distance":0,"time":0,"i_lat":-6.166716,"transit":false,"i_long":106.828284,"station_name":"Juanda","is_transit":false,"station_id":"JUA"},{"i_long":106.827103,"station_name":"Sawah Besar","transit":false,"line":2,"i_lat":-6.160725,"time":2,"distance":1149,"station_id":"SW","is_transit":false},{"distance":906,"line":2,"station_name":"Manggabesar","station_id":"MGB","time":2,"is_transit":false,"i_long":106.82482,"i_lat":-6.149769,"transit":false},{"line":2,"distance":1080,"i_lat":-6.141205,"station_id":"JAY","i_long":106.820901,"transit":false,"station_name":"Jayakarta","time":2,"is_transit":false},{"time":4,"station_name":"Jakarta Kota","distance":1264,"station_id":"JAKK","transit":true,"is_transit":true,"line":2,"i_lat":-6.137569,"i_long":106.812439},{"distance":1364,"station_id":"KPB","station_name":"Kampung Bandan","transit":true,"i_long":106.826365,"i_lat":-6.132549,"time":3,"line":4,"is_transit":true},{"is_transit":false,"transit":false,"station_name":"Rajawali","time":3,"station_id":"RJW","i_lat":-6.14505,"i_long":106.836569,"line":11,"distance":1444},{"is_transit":false,"i_lat":-6.161728,"line":11,"station_name":"Kemayoran","transit":false,"distance":1901,"time":5,"i_long":106.839204,"station_id":"KMO"},{"transit":false,"i_lat":-6.174784,"distance":1436,"i_long":106.84368,"line":11,"is_transit":false,"time":4,"station_id":"PSE","station_name":"Pasar Senen"},{"i_long":106.850107,"i_lat":-6.185975,"line":11,"time":8,"station_name":"Gang Sentiong","transit":false,"distance":1567,"station_id":"GST","is_transit":false},{"station_name":"Kramat","transit":false,"station_id":"KMT","i_lat":-6.193792,"is_transit":false,"i_long":106.855437,"time":1,"distance":973,"line":11},{"time":2,"is_transit":false,"i_lat":-6.209188,"line":11,"i_long":106.861737,"station_name":"Pondok Jati","transit":false,"station_id":"POK","distance":1829},{"station_name":"Jatinegara","time":9,"line":1,"distance":1236,"is_transit":true,"i_long":106.86807400000001,"station_id":"JNG","transit":true,"i_lat":-6.215091},{"time":2,"i_lat":-6.212485,"station_id":"MTR","i_long":106.858896,"line":1,"station_name":"Matraman","transit":false,"is_transit":false,"distance":1377},{"transit":false,"station_name":"Manggarai","line":2,"time":2,"station_id":"MRI","i_long":106.84912,"distance":1275,"is_transit":false,"i_lat":-6.209883},{"station_name":"Sudirman","i_lat":-6.202263,"line":1,"station_id":"SUD","i_long":106.822649,"transit":false,"distance":3186,"time":4,"is_transit":false},{"station_name":"Sudirman Baru","is_transit":false,"i_lat":-6.201433,"i_long":106.819881,"station_id":"SUDB","distance":280,"time":1,"line":1,"transit":false},{"time":1,"transit":false,"i_lat":-6.20132,"distance":471,"station_id":"KAT","station_name":"Karet","is_transit":false,"i_long":106.816351,"line":1},{"transit":false,"distance":2029,"i_lat":-6.185545,"time":5,"station_name":"Tanah Abang","line":1,"i_long":106.811091,"station_id":"THB","is_transit":false},{"station_name":"Duri","i_lat":-6.155215,"transit":true,"i_long":106.800832,"line":1,"station_id":"DU","time":8,"is_transit":true,"distance":3632},{"line":5,"time":3,"transit":false,"station_id":"GGL","i_lat":-6.162021,"distance":1700,"is_transit":false,"i_long":106.788277,"station_name":"Grogol"},{"station_id":"PSG","station_name":"Pesing","i_long":106.771379,"line":5,"transit":false,"distance":2036,"i_lat":-6.161433,"is_transit":false,"time":2},{"station_id":"TKO","i_long":106.756522,"is_transit":false,"time":2,"transit":false,"station_name":"Taman Kota","line":5,"distance":1614,"i_lat":-6.1587309999999995},{"time":2,"line":5,"is_transit":false,"i_lat":-6.159876,"distance":2334,"station_id":"BOI","transit":false,"station_name":"Bojongindah","i_long":106.737035},{"line":5,"i_long":106.723064,"station_id":"RW","i_lat":-6.162758,"is_transit":false,"distance":1152,"time":4,"station_name":"Rawa Buaya","transit":false},{"station_name":"Kalideres","transit":false,"is_transit":false,"i_long":106.701612,"station_id":"KDS","time":3,"distance":2504,"i_lat":-6.166068,"line":5},{"distance":2548,"station_id":"PI","station_name":"Poris","transit":false,"i_long":106.679458,"is_transit":false,"line":5,"time":3,"i_lat":-6.169933},{"is_transit":false,"distance":1834,"time":3,"station_name":"Batuceper","station_id":"BPR","i_long":106.665036,"line":5,"i_lat":-6.171811,"transit":false}]]}