{"data":[[{"time":0,"transit":false,"is_transit":false,"i_long":106.828284,"station_id":"JUA","distance":0,"station_name":"Juanda","line":2,"i_lat":-6.166716},{"time":4,"is_transit":false,"distance":2015,"station_id":"GDD","station_name":"Gondangdia","transit":false,"i_lat":-6.186295,"line":2,"i_long":106.832183},{"time":3,"line":0,"is_transit":false,"station_name":"Cikini","i_lat":-6.198556,"i_long":106.840169,"station_id":"CKI","distance":1750,"transit":false},{"i_lat":-6.209883,"station_id":"MRI","is_transit":true,"time":4,"transit":true,"station_name":"Manggarai","i_long":106.84912,"line":0,"distance":1590},{"time":4,"transit":false,"station_name":"Tebet","i_long":106.857948,"i_lat":-6.226659,"distance":2610,"line":2,"station_id":"TEB","is_transit":false},{"i_lat":-6.242512,"station_id":"CW","transit":false,"is_transit":false,"time":2,"distance":1230,"i_long":106.856607,"station_name":"Cawang","line":0},{"time":3,"i_long":106.85449,"i_lat":-6.255332,"station_id":"DRN","station_name":"Duren Kalibata","is_transit":false,"line":0,"distance":1546,"transit":false},{"time":2,"is_transit":false,"i_long":106.851577,"i_lat":-6.263214,"line":2,"station_id":"PSMB","distance":824,"transit":false,"station_name":"Pasar Minggu Baru"},{"i_lat":-6.2842400000000005,"i_long":106.843999,"distance":2380,"is_transit":false,"line":2,"station_name":"Pasar Minggu","transit":false,"time":2,"station_id":"PSM"},{"distance":2820,"transit":false,"line":2,"time":4,"station_id":"TNT","is_transit":false,"station_name":"Tanjung Barat","i_lat":-6.3080680000000005,"i_long":106.838896},{"transit":false,"i_long":106.832616,"is_transit":false,"time":3,"station_name":"Lenteng Agung","line":2,"distance":2671,"station_id":"LNA","i_lat":-6.330363},{"is_transit":false,"time":2,"station_id":"UP","distance":1029,"i_long":106.834175,"i_lat":-6.339291,"station_name":"Univ. Pancasila","transit":false,"line":2}],[{"station_name":"Juanda","line":2,"station_id":"JUA","transit":false,"distance":0,"time":0,"is_transit":false,"i_lat":-6.166716,"i_long":106.828284},{"transit":false,"distance":1149,"time":2,"i_lat":-6.160725,"station_id":"SW","line":2,"i_long":106.827103,"station_name":"Sawah Besar","is_transit":false},{"station_name":"Manggabesar","distance":906,"time":2,"station_id":"MGB","is_transit":false,"i_long":106.82482,"transit":false,"i_lat":-6.149769,"line":2},{"station_name":"Jayakarta","transit":false,"line":7,"i_long":106.820901,"i_lat":-6.141205,"station_id":"JAY","time":2,"is_transit":false,"distance":1080},{"line":0,"station_id":"JAKK","is_transit":true,"station_name":"Jakarta Kota","time":4,"transit":true,"i_long":106.812439,"i_lat":-6.137569,"distance":1264},{"i_lat":-6.132549,"time":3,"i_long":106.826365,"station_id":"KPB","distance":1364,"transit":false,"is_transit":true,"line":0,"station_name":"Kampung Bandan"},{"station_name":"Angke","transit":false,"i_long":106.79867,"time":9,"distance":4102,"i_lat":-6.144674,"station_id":"AK","is_transit":false,"line":0},{"is_transit":true,"transit":true,"station_name":"Duri","distance":1230,"i_long":106.800832,"line":1,"i_lat":-6.155215,"time":4,"station_id":"DU"},{"line":1,"i_long":106.811091,"station_id":"THB","station_name":"Tanah Abang","is_transit":true,"i_lat":-6.185545,"transit":false,"time":8,"distance":3632},{"distance":2029,"i_long":106.816351,"transit":false,"time":5,"station_id":"KAT","station_name":"Karet","line":1,"i_lat":-6.20132,"is_transit":false},{"line":1,"is_transit":false,"transit":false,"time":1,"distance":471,"i_lat":-6.201433,"station_name":"Sudirman Baru","i_long":106.819881,"station_id":"SUDB"},{"station_id":"SUD","i_lat":-6.202263,"distance":280,"is_transit":false,"i_long":106.822649,"line":1,"time":1,"station_name":"Sudirman","transit":false},{"station_name":"Manggarai","i_long":106.84912,"i_lat":-6.209883,"line":0,"station_id":"MRI","transit":true,"time":4,"distance":3186,"is_transit":true},{"transit":false,"line":2,"is_transit":false,"station_name":"Tebet","i_long":106.857948,"i_lat":-6.226659,"distance":2610,"time":4,"station_id":"TEB"},{"i_lat":-6.242512,"distance":1230,"i_long":106.856607,"is_transit":false,"time":2,"station_id":"CW","line":0,"station_name":"Cawang","transit":false},{"line":0,"distance":1546,"time":3,"i_lat":-6.255332,"i_long":106.85449,"transit":false,"is_transit":false,"station_id":"DRN","station_name":"Duren Kalibata"},{"station_id":"PSMB","is_transit":false,"distance":824,"i_lat":-6.263214,"i_long":106.851577,"transit":false,"station_name":"Pasar Minggu Baru","line":2,"time":2},{"i_long":106.843999,"line":2,"i_lat":-6.2842400000000005,"station_name":"Pasar Minggu","station_id":"PSM","distance":2380,"is_transit":false,"transit":false,"time":2},{"distance":2820,"i_long":106.838896,"is_transit":false,"line":2,"station_name":"Tanjung Barat","station_id":"TNT","transit":false,"i_lat":-6.3080680000000005,"time":4},{"i_long":106.832616,"i_lat":-6.330363,"station_id":"LNA","is_transit":false,"station_name":"Lenteng Agung","transit":false,"distance":2671,"line":2,"time":3},{"i_long":106.834175,"is_transit":false,"distance":1029,"station_name":"Univ. Pancasila","i_lat":-6.339291,"time":2,"line":2,"station_id":"UP","transit":false}],[{"time":0,"distance":0,"i_lat":-6.166716,"station_name":"Juanda","transit":false,"line":2,"station_id":"JUA","i_long":106.828284,"is_transit":false},{"line":2,"station_name":"Sawah Besar","i_lat":-6.160725,"station_id":"SW","i_long":106.827103,"is_transit":false,"time":2,"distance":1149,"transit":false},{"station_id":"MGB","i_lat":-6.149769,"time":2,"distance":906,"i_long":106.82482,"transit":false,"is_transit":false,"line":2,"station_name":"Manggabesar"},{"is_transit":false,"distance":1080,"i_lat":-6.141205,"i_long":106.820901,"station_id":"JAY","time":2,"station_name":"Jayakarta","transit":false,"line":7},{"is_transit":true,"distance":1264,"station_id":"JAKK","i_lat":-6.137569,"transit":true,"station_name":"Jakarta Kota","i_long":106.812439,"time":4,"line":0},{"is_transit":true,"station_id":"KPB","time":3,"station_name":"Kampung Bandan","i_long":106.826365,"i_lat":-6.132549,"distance":1364,"transit":true,"line":0},{"station_id":"RJW","is_transit":false,"i_long":106.836569,"station_name":"Rajawali","time":3,"distance":1444,"transit":false,"line":11,"i_lat":-6.14505},{"is_transit":false,"i_long":106.839204,"line":11,"time":5,"station_name":"Kemayoran","transit":false,"distance":1901,"i_lat":-6.161728,"station_id":"KMO"},{"i_lat":-6.174784,"i_long":106.84368,"distance":1436,"station_id":"PSE","line":11,"is_transit":false,"time":4,"station_name":"Pasar Senen","transit":false},{"line":11,"is_transit":false,"station_id":"GST","time":8,"distance":1567,"transit":false,"i_lat":-6.185975,"i_long":106.850107,"station_name":"Gang Sentiong"},{"station_name":"Kramat","transit":false,"i_lat":-6.193792,"time":1,"distance":973,"i_long":106.855437,"station_id":"KMT","is_transit":false,"line":11},{"distance":1829,"i_long":106.861737,"line":11,"station_id":"POK","is_transit":false,"station_name":"Pondok Jati","i_lat":-6.209188,"transit":false,"time":2},{"is_transit":true,"i_lat":-6.215091,"distance":1236,"station_name":"Jatinegara","transit":true,"time":9,"station_id":"JNG","line":0,"i_long":106.86807400000001},{"station_id":"MTR","is_transit":false,"station_name":"Matraman","transit":false,"line":1,"distance":1377,"i_lat":-6.212485,"i_long":106.858896,"time":2},{"time":2,"line":0,"transit":true,"station_name":"Manggarai","i_lat":-6.209883,"distance":1275,"is_transit":true,"i_long":106.84912,"station_id":"MRI"},{"distance":2610,"is_transit":false,"station_id":"TEB","i_lat":-6.226659,"line":2,"station_name":"Tebet","i_long":106.857948,"time":4,"transit":false},{"i_lat":-6.242512,"line":0,"distance":1230,"station_name":"Cawang","i_long":106.856607,"station_id":"CW","is_transit":false,"time":2,"transit":false},{"station_id":"DRN","distance":1546,"transit":false,"i_lat":-6.255332,"time":3,"station_name":"Duren Kalibata","is_transit":false,"line":0,"i_long":106.85449},{"is_transit":false,"station_name":"Pasar Minggu Baru","distance":824,"i_long":106.851577,"transit":false,"station_id":"PSMB","line":2,"i_lat":-6.263214,"time":2},{"is_transit":false,"i_lat":-6.2842400000000005,"i_long":106.843999,"station_id":"PSM","station_name":"Pasar Minggu","line":2,"distance":2380,"transit":false,"time":2},{"distance":2820,"station_name":"Tanjung Barat","is_transit":false,"i_lat":-6.3080680000000005,"station_id":"TNT","line":2,"transit":false,"time":4,"i_long":106.838896},{"is_transit":false,"line":2,"distance":2671,"transit":false,"i_lat":-6.330363,"station_id":"LNA","i_long":106.832616,"time":3,"station_name":"Lenteng Agung"},{"is_transit":false,"time":2,"transit":false,"station_id":"UP","line":2,"station_name":"Univ. Pancasila","i_long":106.834175,"i_lat":-6.339291,"distance":1029}]]}