{"data":[[{"distance":0,"time":0,"i_long":106.828284,"transit":false,"i_lat":-6.166716,"is_transit":false,"station_id":"JUA","station_name":"Juanda","line":2},{"i_lat":-6.186295,"station_name":"Gondangdia","station_id":"GDD","time":4,"distance":2015,"is_transit":false,"transit":false,"i_long":106.832183,"line":2},{"is_transit":false,"i_long":106.840169,"time":3,"station_name":"Cikini","transit":false,"i_lat":-6.198556,"distance":1750,"line":2,"station_id":"CKI"},{"station_id":"MRI","station_name":"Manggarai","is_transit":false,"line":2,"i_lat":-6.209883,"transit":false,"i_long":106.84912,"distance":1590,"time":4},{"is_transit":false,"distance":2610,"station_id":"TEB","transit":false,"i_lat":-6.226659,"line":2,"i_long":106.857948,"station_name":"Tebet","time":4},{"i_long":106.856607,"distance":1230,"is_transit":false,"transit":false,"line":2,"i_lat":-6.242512,"time":2,"station_id":"CW","station_name":"Cawang"},{"transit":false,"i_long":106.85449,"line":2,"is_transit":false,"time":3,"i_lat":-6.255332,"distance":1546,"station_id":"DRN","station_name":"Duren Kalibata"}],[{"station_name":"Juanda","i_long":106.828284,"time":0,"distance":0,"station_id":"JUA","line":2,"i_lat":-6.166716,"is_transit":false,"transit":false},{"is_transit":false,"i_long":106.827103,"station_name":"Sawah Besar","station_id":"SW","transit":false,"line":2,"distance":1149,"time":2,"i_lat":-6.160725},{"i_lat":-6.149769,"i_long":106.82482,"time":2,"is_transit":false,"transit":false,"distance":906,"station_id":"MGB","station_name":"Manggabesar","line":2},{"station_id":"JAY","i_lat":-6.141205,"line":2,"time":2,"i_long":106.820901,"distance":1080,"station_name":"Jayakarta","is_transit":false,"transit":false},{"station_id":"JAKK","station_name":"Jakarta Kota","i_lat":-6.137569,"i_long":106.812439,"is_transit":true,"line":2,"time":4,"transit":true,"distance":1264},{"i_long":106.826365,"time":3,"distance":1364,"is_transit":true,"station_name":"Kampung Bandan","line":4,"station_id":"KPB","i_lat":-6.132549,"transit":true},{"station_name":"Angke","i_lat":-6.144674,"is_transit":false,"transit":false,"i_long":106.79867,"station_id":"AK","line":1,"time":9,"distance":4102},{"station_name":"Duri","station_id":"DU","distance":1230,"transit":false,"i_long":106.800832,"time":4,"is_transit":false,"line":1,"i_lat":-6.155215},{"line":1,"is_transit":false,"distance":3632,"station_id":"THB","i_long":106.811091,"time":8,"transit":false,"station_name":"Tanah Abang","i_lat":-6.185545},{"time":5,"i_lat":-6.20132,"station_id":"KAT","distance":2029,"is_transit":false,"line":1,"i_long":106.816351,"transit":false,"station_name":"Karet"},{"time":1,"distance":471,"i_lat":-6.201433,"line":1,"station_id":"SUDB","station_name":"Sudirman Baru","transit":false,"i_long":106.819881,"is_transit":false},{"i_lat":-6.202263,"is_transit":false,"line":1,"station_name":"Sudirman","station_id":"SUD","transit":false,"distance":280,"i_long":106.822649,"time":1},{"line":2,"i_lat":-6.209883,"distance":3186,"transit":true,"station_name":"Manggarai","time":4,"is_transit":true,"i_long":106.84912,"station_id":"MRI"},{"i_lat":-6.226659,"is_transit":false,"line":2,"time":4,"station_id":"TEB","station_name":"Tebet","transit":false,"distance":2610,"i_long":106.857948},{"station_id":"CW","station_name":"Cawang","transit":false,"i_lat":-6.242512,"distance":1230,"line":2,"time":2,"is_transit":false,"i_long":106.856607},{"line":2,"distance":1546,"is_transit":false,"station_id":"DRN","transit":false,"i_lat":-6.255332,"time":3,"station_name":"Duren Kalibata","i_long":106.85449}],[{"i_long":106.828284,"distance":0,"station_name":"Juanda","is_transit":false,"station_id":"JUA","transit":false,"time":0,"i_lat":-6.166716,"line":2},{"distance":1149,"line":2,"i_long":106.827103,"time":2,"station_name":"Sawah Besar","is_transit":false,"transit":false,"station_id":"SW","i_lat":-6.160725},{"i_lat":-6.149769,"station_id":"MGB","is_transit":false,"transit":false,"line":2,"station_name":"Manggabesar","time":2,"i_long":106.82482,"distance":906},{"distance":1080,"station_id":"JAY","transit":false,"station_name":"Jayakarta","time":2,"line":2,"i_lat":-6.141205,"is_transit":false,"i_long":106.820901},{"time":4,"distance":1264,"station_id":"JAKK","is_transit":true,"station_name":"Jakarta Kota","line":2,"i_long":106.812439,"transit":true,"i_lat":-6.137569},{"distance":1364,"station_name":"Kampung Bandan","is_transit":true,"i_lat":-6.132549,"station_id":"KPB","i_long":106.826365,"time":3,"transit":true,"line":4},{"station_id":"RJW","station_name":"Rajawali","distance":1444,"i_long":106.836569,"i_lat":-6.14505,"is_transit":false,"time":3,"transit":false,"line":11},{"station_name":"Kemayoran","station_id":"KMO","time":5,"distance":1901,"is_transit":false,"line":11,"i_lat":-6.161728,"transit":false,"i_long":106.839204},{"time":4,"transit":false,"i_long":106.84368,"i_lat":-6.174784,"is_transit":false,"station_id":"PSE","distance":1436,"station_name":"Pasar Senen","line":11},{"transit":false,"i_long":106.850107,"station_name":"Gang Sentiong","is_transit":false,"distance":1567,"i_lat":-6.185975,"station_id":"GST","time":8,"line":11},{"is_transit":false,"station_id":"KMT","time":1,"transit":false,"i_long":106.855437,"distance":973,"i_lat":-6.193792,"line":11,"station_name":"Kramat"},{"i_long":106.861737,"station_name":"Pondok Jati","time":2,"line":11,"i_lat":-6.209188,"transit":false,"distance":1829,"station_id":"POK","is_transit":false},{"station_id":"JNG","is_transit":true,"i_lat":-6.215091,"line":1,"transit":true,"distance":1236,"time":9,"station_name":"Jatinegara","i_long":106.86807400000001},{"station_name":"Matraman","i_lat":-6.212485,"distance":1377,"line":1,"is_transit":false,"transit":false,"i_long":106.858896,"station_id":"MTR","time":2},{"station_name":"Manggarai","time":2,"line":2,"transit":true,"i_long":106.84912,"i_lat":-6.209883,"station_id":"MRI","distance":1275,"is_transit":true},{"is_transit":false,"station_id":"TEB","i_lat":-6.226659,"transit":false,"station_name":"Tebet","i_long":106.857948,"line":2,"distance":2610,"time":4},{"transit":false,"i_lat":-6.242512,"time":2,"is_transit":false,"i_long":106.856607,"station_id":"CW","distance":1230,"station_name":"Cawang","line":2},{"time":3,"i_long":106.85449,"station_id":"DRN","station_name":"Duren Kalibata","transit":false,"is_transit":false,"distance":1546,"line":2,"i_lat":-6.255332}]]}