{"data":[[{"distance":0,"i_long":106.828284,"is_transit":false,"i_lat":-6.166716,"station_name":"Juanda","station_id":"JUA","transit":false,"line":2,"time":0},{"i_lat":-6.186295,"is_transit":false,"line":2,"transit":false,"station_id":"GDD","distance":2015,"i_long":106.832183,"time":4,"station_name":"Gondangdia"},{"transit":false,"i_long":106.840169,"distance":1750,"time":3,"line":2,"station_id":"CKI","i_lat":-6.198556,"station_name":"Cikini","is_transit":false},{"distance":1590,"i_lat":-6.209883,"station_name":"Manggarai","i_long":106.84912,"time":4,"is_transit":true,"line":2,"transit":true,"station_id":"MRI"},{"i_lat":-6.202263,"is_transit":false,"i_long":106.822649,"time":4,"distance":3186,"transit":false,"station_name":"Sudirman","station_id":"SUD","line":1},{"station_name":"Sudirman Baru","station_id":"SUDB","distance":280,"is_transit":false,"i_long":106.819881,"transit":false,"i_lat":-6.201433,"time":1,"line":1},{"i_lat":-6.20132,"is_transit":false,"transit":false,"line":1,"station_name":"Karet","i_long":106.816351,"time":1,"distance":471,"station_id":"KAT"},{"station_id":"THB","i_lat":-6.185545,"distance":2029,"i_long":106.811091,"line":1,"is_transit":false,"station_name":"Tanah Abang","transit":false,"time":5}],[{"i_lat":-6.166716,"station_name":"Juanda","distance":0,"station_id":"JUA","i_long":106.828284,"time":0,"transit":false,"is_transit":false,"line":2},{"is_transit":false,"time":2,"station_name":"Sawah Besar","i_lat":-6.160725,"i_long":106.827103,"distance":1149,"station_id":"SW","transit":false,"line":2},{"is_transit":false,"station_name":"Manggabesar","distance":906,"transit":false,"i_long":106.82482,"station_id":"MGB","i_lat":-6.149769,"time":2,"line":2},{"transit":false,"station_name":"Jayakarta","is_transit":false,"distance":1080,"i_long":106.820901,"station_id":"JAY","line":2,"i_lat":-6.141205,"time":2},{"distance":1264,"i_long":106.812439,"is_transit":true,"time":4,"station_name":"Jakarta Kota","transit":true,"station_id":"JAKK","i_lat":-6.137569,"line":2},{"transit":true,"station_name":"Kampung Bandan","time":3,"i_long":106.826365,"line":4,"distance":1364,"i_lat":-6.132549,"is_transit":true,"station_id":"KPB"},{"line":1,"distance":4102,"i_lat":-6.144674,"station_name":"Angke","is_transit":false,"transit":false,"time":9,"station_id":"AK","i_long":106.79867},{"station_name":"Duri","transit":false,"distance":1230,"station_id":"DU","is_transit":false,"i_lat":-6.155215,"i_long":106.800832,"line":1,"time":4},{"time":8,"transit":false,"station_id":"THB","distance":3632,"line":1,"is_transit":false,"station_name":"Tanah Abang","i_lat":-6.185545,"i_long":106.811091}],[{"distance":0,"station_id":"JUA","time":0,"transit":false,"station_name":"Juanda","i_lat":-6.166716,"is_transit":false,"line":2,"i_long":106.828284},{"transit":false,"time":4,"distance":2015,"station_id":"GDD","line":2,"i_long":106.832183,"station_name":"Gondangdia","is_transit":false,"i_lat":-6.186295},{"time":3,"distance":1750,"i_lat":-6.198556,"i_long":106.840169,"transit":false,"is_transit":false,"station_id":"CKI","line":2,"station_name":"Cikini"},{"i_lat":-6.209883,"line":2,"is_transit":true,"i_long":106.84912,"transit":true,"distance":1590,"station_id":"MRI","station_name":"Manggarai","time":4},{"i_lat":-6.212485,"distance":1275,"time":2,"station_name":"Matraman","station_id":"MTR","transit":false,"is_transit":false,"line":1,"i_long":106.858896},{"is_transit":true,"distance":1377,"time":8,"transit":true,"i_long":106.86807400000001,"line":1,"station_id":"JNG","i_lat":-6.215091,"station_name":"Jatinegara"},{"i_long":106.861737,"is_transit":false,"i_lat":-6.209188,"time":2,"line":11,"station_id":"POK","station_name":"Pondok Jati","distance":1236,"transit":false},{"distance":1829,"station_id":"KMT","is_transit":false,"i_long":106.855437,"i_lat":-6.193792,"station_name":"Kramat","time":2,"line":11,"transit":false},{"transit":false,"is_transit":false,"time":1,"line":11,"station_name":"Gang Sentiong","station_id":"GST","i_lat":-6.185975,"distance":973,"i_long":106.850107},{"line":11,"i_long":106.84368,"station_id":"PSE","is_transit":false,"i_lat":-6.174784,"station_name":"Pasar Senen","transit":false,"distance":1567,"time":8},{"transit":false,"station_name":"Kemayoran","i_lat":-6.161728,"i_long":106.839204,"distance":1436,"line":11,"is_transit":false,"station_id":"KMO","time":4},{"distance":1901,"i_long":106.836569,"transit":false,"line":11,"station_id":"RJW","i_lat":-6.14505,"station_name":"Rajawali","is_transit":false,"time":5},{"station_id":"KPB","distance":1444,"time":3,"i_lat":-6.132549,"i_long":106.826365,"line":4,"is_transit":true,"station_name":"Kampung Bandan","transit":true},{"is_transit":false,"distance":4102,"time":9,"station_name":"Angke","line":1,"station_id":"AK","i_lat":-6.144674,"transit":false,"i_long":106.79867},{"station_name":"Duri","transit":false,"time":4,"is_transit":false,"line":1,"station_id":"DU","distance":1230,"i_lat":-6.155215,"i_long":106.800832},{"distance":3632,"transit":false,"station_name":"Tanah Abang","is_transit":false,"station_id":"THB","i_lat":-6.185545,"i_long":106.811091,"line":1,"time":8}],[{"is_transit":false,"i_long":106.828284,"line":2,"station_name":"Juanda","time":0,"station_id":"JUA","i_lat":-6.166716,"transit":false,"distance":0},{"i_lat":-6.160725,"is_transit":false,"distance":1149,"i_long":106.827103,"time":2,"station_name":"Sawah Besar","station_id":"SW","line":2,"transit":false},{"time":2,"distance":906,"is_transit":false,"i_long":106.82482,"line":2,"station_name":"Manggabesar","i_lat":-6.149769,"transit":false,"station_id":"MGB"},{"time":2,"station_name":"Jayakarta","i_long":106.820901,"line":2,"station_id":"JAY","distance":1080,"transit":false,"is_transit":false,"i_lat":-6.141205},{"i_lat":-6.137569,"distance":1264,"station_name":"Jakarta Kota","is_transit":true,"line":2,"time":4,"transit":true,"station_id":"JAKK","i_long":106.812439},{"transit":true,"line":4,"station_name":"Kampung Bandan","i_long":106.826365,"time":3,"station_id":"KPB","is_transit":true,"distance":1364,"i_lat":-6.132549},{"line":11,"station_name":"Rajawali","i_long":106.836569,"time":3,"i_lat":-6.14505,"transit":false,"station_id":"RJW","is_transit":false,"distance":1444},{"line":11,"distance":1901,"i_lat":-6.161728,"station_name":"Kemayoran","station_id":"KMO","i_long":106.839204,"transit":false,"is_transit":false,"time":5},{"station_name":"Pasar Senen","transit":false,"distance":1436,"time":4,"i_long":106.84368,"line":11,"station_id":"PSE","i_lat":-6.174784,"is_transit":false},{"is_transit":false,"i_lat":-6.185975,"distance":1567,"time":8,"i_long":106.850107,"transit":false,"line":11,"station_id":"GST","station_name":"Gang Sentiong"},{"station_id":"KMT","line":11,"is_transit":false,"time":1,"transit":false,"station_name":"Kramat","i_long":106.855437,"distance":973,"i_lat":-6.193792},{"line":11,"i_long":106.861737,"i_lat":-6.209188,"is_transit":false,"distance":1829,"station_name":"Pondok Jati","time":2,"transit":false,"station_id":"POK"},{"transit":true,"station_id":"JNG","is_transit":true,"time":9,"distance":1236,"i_lat":-6.215091,"i_long":106.86807400000001,"station_name":"Jatinegara","line":1},{"distance":1377,"i_lat":-6.212485,"i_long":106.858896,"station_id":"MTR","line":1,"transit":false,"station_name":"Matraman","is_transit":false,"time":2},{"time":2,"transit":false,"station_id":"MRI","is_transit":false,"distance":1275,"i_long":106.84912,"line":2,"station_name":"Manggarai","i_lat":-6.209883},{"time":4,"distance":3186,"line":1,"station_name":"Sudirman","station_id":"SUD","is_transit":false,"i_long":106.822649,"i_lat":-6.202263,"transit":false},{"i_long":106.819881,"station_name":"Sudirman Baru","time":1,"i_lat":-6.201433,"line":1,"station_id":"SUDB","is_transit":false,"distance":280,"transit":false},{"station_name":"Karet","time":1,"line":1,"station_id":"KAT","distance":471,"transit":false,"is_transit":false,"i_lat":-6.20132,"i_long":106.816351},{"i_lat":-6.185545,"station_name":"Tanah Abang","i_long":106.811091,"distance":2029,"station_id":"THB","transit":false,"is_transit":false,"line":1,"time":5}]]}