{"data":[[{"line":2,"i_long":106.828284,"station_name":"Juanda","distance":0,"station_id":"JUA","time":0,"is_transit":false,"transit":false,"i_lat":-6.166716},{"i_lat":-6.186295,"station_name":"Gondangdia","i_long":106.832183,"line":2,"station_id":"GDD","is_transit":false,"time":4,"distance":2015,"transit":false},{"i_long":106.840169,"is_transit":false,"station_name":"Cikini","distance":1750,"i_lat":-6.198556,"station_id":"CKI","time":3,"transit":false,"line":2},{"i_lat":-6.209883,"station_id":"MRI","station_name":"Manggarai","i_long":106.84912,"time":4,"line":2,"transit":false,"distance":1590,"is_transit":false}],[{"i_lat":-6.166716,"distance":0,"line":2,"time":0,"transit":false,"i_long":106.828284,"is_transit":false,"station_id":"JUA","station_name":"Juanda"},{"time":2,"distance":1149,"i_lat":-6.160725,"i_long":106.827103,"transit":false,"station_id":"SW","line":2,"station_name":"Sawah Besar","is_transit":false},{"i_lat":-6.149769,"is_transit":false,"station_id":"MGB","station_name":"Manggabesar","time":2,"distance":906,"transit":false,"i_long":106.82482,"line":2},{"station_name":"Jayakarta","is_transit":false,"time":2,"line":2,"distance":1080,"station_id":"JAY","i_lat":-6.141205,"i_long":106.820901,"transit":false},{"distance":1264,"is_transit":true,"i_lat":-6.137569,"station_name":"Jakarta Kota","line":2,"station_id":"JAKK","i_long":106.812439,"transit":true,"time":4},{"station_name":"Kampung Bandan","time":3,"station_id":"KPB","is_transit":true,"distance":1364,"i_lat":-6.132549,"i_long":106.826365,"line":4,"transit":true},{"transit":false,"distance":4102,"i_lat":-6.144674,"time":9,"is_transit":false,"i_long":106.79867,"station_name":"Angke","station_id":"AK","line":1},{"i_lat":-6.155215,"distance":1230,"is_transit":false,"i_long":106.800832,"line":1,"station_id":"DU","station_name":"Duri","transit":false,"time":4},{"station_id":"THB","time":8,"i_lat":-6.185545,"distance":3632,"is_transit":false,"line":1,"i_long":106.811091,"transit":false,"station_name":"Tanah Abang"},{"i_long":106.816351,"distance":2029,"line":1,"i_lat":-6.20132,"transit":false,"station_name":"Karet","is_transit":false,"station_id":"KAT","time":5},{"time":1,"station_name":"Sudirman Baru","i_lat":-6.201433,"station_id":"SUDB","is_transit":false,"transit":false,"distance":471,"line":1,"i_long":106.819881},{"line":1,"time":1,"i_lat":-6.202263,"i_long":106.822649,"station_id":"SUD","distance":280,"station_name":"Sudirman","is_transit":false,"transit":false},{"time":4,"i_long":106.84912,"distance":3186,"station_name":"Manggarai","line":2,"station_id":"MRI","transit":false,"is_transit":false,"i_lat":-6.209883}],[{"station_id":"JUA","i_lat":-6.166716,"line":2,"i_long":106.828284,"time":0,"station_name":"Juanda","distance":0,"transit":false,"is_transit":false},{"time":2,"is_transit":false,"station_name":"Sawah Besar","station_id":"SW","distance":1149,"i_lat":-6.160725,"transit":false,"line":2,"i_long":106.827103},{"i_long":106.82482,"station_id":"MGB","transit":false,"station_name":"Manggabesar","distance":906,"time":2,"i_lat":-6.149769,"line":2,"is_transit":false},{"is_transit":false,"transit":false,"i_lat":-6.141205,"station_name":"Jayakarta","i_long":106.820901,"distance":1080,"station_id":"JAY","time":2,"line":2},{"station_name":"Jakarta Kota","is_transit":true,"distance":1264,"line":2,"transit":true,"time":4,"i_lat":-6.137569,"i_long":106.812439,"station_id":"JAKK"},{"distance":1364,"is_transit":true,"time":3,"line":4,"i_long":106.826365,"transit":true,"i_lat":-6.132549,"station_name":"Kampung Bandan","station_id":"KPB"},{"is_transit":false,"i_long":106.836569,"station_id":"RJW","station_name":"Rajawali","transit":false,"time":3,"line":11,"distance":1444,"i_lat":-6.14505},{"is_transit":false,"distance":1901,"i_long":106.839204,"station_name":"Kemayoran","line":11,"transit":false,"i_lat":-6.161728,"station_id":"KMO","time":5},{"station_name":"Pasar Senen","distance":1436,"line":11,"i_long":106.84368,"is_transit":false,"time":4,"i_lat":-6.174784,"station_id":"PSE","transit":false},{"time":8,"distance":1567,"line":11,"station_id":"GST","station_name":"Gang Sentiong","i_long":106.850107,"i_lat":-6.185975,"is_transit":false,"transit":false},{"i_long":106.855437,"line":11,"time":1,"station_id":"KMT","station_name":"Kramat","transit":false,"is_transit":false,"distance":973,"i_lat":-6.193792},{"transit":false,"time":2,"distance":1829,"i_lat":-6.209188,"station_name":"Pondok Jati","is_transit":false,"station_id":"POK","i_long":106.861737,"line":11},{"station_name":"Jatinegara","i_long":106.86807400000001,"distance":1236,"is_transit":true,"transit":true,"time":9,"line":1,"i_lat":-6.215091,"station_id":"JNG"},{"is_transit":false,"station_id":"MTR","time":2,"transit":false,"station_name":"Matraman","i_long":106.858896,"i_lat":-6.212485,"distance":1377,"line":1},{"i_lat":-6.209883,"station_id":"MRI","distance":1275,"station_name":"Manggarai","is_transit":false,"time":2,"line":2,"i_long":106.84912,"transit":false}]]}