{"data":[[{"station_id":"JUA","time":0,"transit":false,"i_lat":-6.166716,"distance":0,"i_long":106.828284,"station_name":"Juanda","is_transit":false,"line":2},{"i_long":106.832183,"transit":false,"station_name":"Gondangdia","line":2,"distance":2015,"i_lat":-6.186295,"time":4,"is_transit":false,"station_id":"GDD"}],[{"i_long":106.828284,"station_name":"Juanda","station_id":"JUA","transit":false,"time":0,"i_lat":-6.166716,"line":2,"distance":0,"is_transit":false},{"line":2,"time":2,"transit":false,"i_long":106.827103,"is_transit":false,"station_id":"SW","distance":1149,"i_lat":-6.160725,"station_name":"Sawah Besar"},{"station_id":"MGB","station_name":"Manggabesar","distance":906,"line":2,"transit":false,"i_lat":-6.149769,"i_long":106.82482,"is_transit":false,"time":2},{"i_lat":-6.141205,"time":2,"transit":false,"i_long":106.820901,"line":2,"station_id":"JAY","is_transit":false,"station_name":"Jayakarta","distance":1080},{"transit":true,"distance":1264,"is_transit":true,"line":2,"time":4,"station_name":"Jakarta Kota","station_id":"JAKK","i_lat":-6.137569,"i_long":106.812439},{"i_lat":-6.132549,"transit":true,"i_long":106.826365,"distance":1364,"is_transit":true,"station_name":"Kampung Bandan","time":3,"station_id":"KPB","line":4},{"distance":4102,"line":1,"station_id":"AK","time":9,"transit":false,"i_lat":-6.144674,"is_transit":false,"i_long":106.79867,"station_name":"Angke"},{"distance":1230,"is_transit":false,"station_id":"DU","i_lat":-6.155215,"i_long":106.800832,"transit":false,"line":1,"station_name":"Duri","time":4},{"time":8,"is_transit":false,"station_name":"Tanah Abang","i_long":106.811091,"transit":false,"station_id":"THB","i_lat":-6.185545,"distance":3632,"line":1},{"station_id":"KAT","transit":false,"is_transit":false,"station_name":"Karet","time":5,"i_lat":-6.20132,"line":1,"distance":2029,"i_long":106.816351},{"i_lat":-6.201433,"distance":471,"i_long":106.819881,"line":1,"transit":false,"station_name":"Sudirman Baru","is_transit":false,"time":1,"station_id":"SUDB"},{"is_transit":false,"station_name":"Sudirman","station_id":"SUD","i_lat":-6.202263,"distance":280,"transit":false,"i_long":106.822649,"time":1,"line":1},{"is_transit":true,"distance":3186,"i_lat":-6.209883,"i_long":106.84912,"station_id":"MRI","transit":true,"station_name":"Manggarai","line":2,"time":4},{"station_id":"CKI","i_lat":-6.198556,"i_long":106.840169,"distance":1590,"station_name":"Cikini","line":2,"transit":false,"is_transit":false,"time":4},{"line":2,"transit":false,"i_lat":-6.186295,"station_name":"Gondangdia","i_long":106.832183,"time":3,"distance":1750,"is_transit":false,"station_id":"GDD"}],[{"is_transit":false,"distance":0,"station_id":"JUA","i_lat":-6.166716,"i_long":106.828284,"line":2,"station_name":"Juanda","time":0,"transit":false},{"station_name":"Sawah Besar","is_transit":false,"i_lat":-6.160725,"i_long":106.827103,"station_id":"SW","line":2,"transit":false,"time":2,"distance":1149},{"line":2,"distance":906,"time":2,"transit":false,"is_transit":false,"station_id":"MGB","station_name":"Manggabesar","i_lat":-6.149769,"i_long":106.82482},{"transit":false,"station_name":"Jayakarta","time":2,"line":2,"distance":1080,"i_lat":-6.141205,"station_id":"JAY","i_long":106.820901,"is_transit":false},{"distance":1264,"i_lat":-6.137569,"station_name":"Jakarta Kota","i_long":106.812439,"line":2,"station_id":"JAKK","transit":true,"is_transit":true,"time":4},{"station_name":"Kampung Bandan","distance":1364,"is_transit":true,"time":3,"station_id":"KPB","i_long":106.826365,"line":4,"transit":true,"i_lat":-6.132549},{"is_transit":false,"line":11,"station_name":"Rajawali","transit":false,"time":3,"distance":1444,"i_lat":-6.14505,"station_id":"RJW","i_long":106.836569},{"station_name":"Kemayoran","distance":1901,"station_id":"KMO","i_lat":-6.161728,"line":11,"time":5,"transit":false,"is_transit":false,"i_long":106.839204},{"i_lat":-6.174784,"transit":false,"i_long":106.84368,"distance":1436,"line":11,"station_name":"Pasar Senen","time":4,"station_id":"PSE","is_transit":false},{"time":8,"i_lat":-6.185975,"i_long":106.850107,"station_id":"GST","is_transit":false,"distance":1567,"transit":false,"line":11,"station_name":"Gang Sentiong"},{"i_long":106.855437,"time":1,"transit":false,"i_lat":-6.193792,"station_name":"Kramat","line":11,"station_id":"KMT","is_transit":false,"distance":973},{"i_long":106.861737,"time":2,"station_id":"POK","transit":false,"is_transit":false,"distance":1829,"i_lat":-6.209188,"line":11,"station_name":"Pondok Jati"},{"station_id":"JNG","i_lat":-6.215091,"transit":true,"is_transit":true,"station_name":"Jatinegara","time":9,"distance":1236,"i_long":106.86807400000001,"line":1},{"station_name":"Matraman","time":2,"is_transit":false,"line":1,"station_id":"MTR","transit":false,"i_long":106.858896,"i_lat":-6.212485,"distance":1377},{"distance":1275,"i_lat":-6.209883,"line":2,"station_id":"MRI","i_long":106.84912,"is_transit":true,"transit":true,"station_name":"Manggarai","time":2},{"line":2,"is_transit":false,"station_name":"Cikini","time":4,"transit":false,"station_id":"CKI","distance":1590,"i_lat":-6.198556,"i_long":106.840169},{"is_transit":false,"station_name":"Gondangdia","line":2,"i_long":106.832183,"station_id":"GDD","transit":false,"i_lat":-6.186295,"time":3,"distance":1750}]]}