{"data":[[{"line":2,"i_lat":-6.166716,"station_name":"Juanda","i_long":106.828284,"is_transit":false,"distance":0,"transit":false,"station_id":"JUA","time":0},{"station_id":"GDD","station_name":"Gondangdia","transit":false,"time":4,"is_transit":false,"i_long":106.832183,"line":2,"i_lat":-6.186295,"distance":2015},{"transit":false,"time":3,"station_name":"Cikini","i_long":106.840169,"i_lat":-6.198556,"station_id":"CKI","line":2,"is_transit":false,"distance":1750},{"transit":false,"line":2,"distance":1590,"station_name":"Manggarai","i_lat":-6.209883,"i_long":106.84912,"time":4,"station_id":"MRI","is_transit":false},{"i_long":106.857948,"is_transit":false,"transit":false,"line":2,"i_lat":-6.226659,"station_id":"TEB","distance":2610,"station_name":"Tebet","time":4},{"i_long":106.856607,"transit":false,"line":2,"is_transit":false,"i_lat":-6.242512,"distance":1230,"station_id":"CW","time":2,"station_name":"Cawang"},{"i_long":106.85449,"is_transit":false,"line":2,"time":3,"station_id":"DRN","station_name":"Duren Kalibata","transit":false,"distance":1546,"i_lat":-6.255332},{"i_lat":-6.263214,"transit":false,"station_name":"Pasar Minggu Baru","time":2,"distance":824,"station_id":"PSMB","is_transit":false,"i_long":106.851577,"line":2},{"i_long":106.843999,"i_lat":-6.2842400000000005,"is_transit":false,"line":2,"transit":false,"distance":2380,"station_name":"Pasar Minggu","station_id":"PSM","time":2},{"distance":2820,"is_transit":false,"i_lat":-6.3080680000000005,"i_long":106.838896,"station_id":"TNT","line":2,"transit":false,"time":4,"station_name":"Tanjung Barat"},{"time":3,"station_id":"LNA","i_lat":-6.330363,"is_transit":false,"station_name":"Lenteng Agung","transit":false,"i_long":106.832616,"distance":2671,"line":2},{"station_id":"UP","i_long":106.834175,"line":2,"is_transit":false,"distance":1029,"i_lat":-6.339291,"station_name":"Univ. Pancasila","time":2,"transit":false}],[{"transit":false,"is_transit":false,"station_id":"JUA","line":2,"i_lat":-6.166716,"i_long":106.828284,"distance":0,"time":0,"station_name":"Juanda"},{"distance":1149,"is_transit":false,"transit":false,"line":2,"time":2,"station_name":"Sawah Besar","station_id":"SW","i_lat":-6.160725,"i_long":106.827103},{"station_name":"Manggabesar","time":2,"i_long":106.82482,"is_transit":false,"i_lat":-6.149769,"distance":906,"line":2,"transit":false,"station_id":"MGB"},{"time":2,"i_long":106.820901,"station_name":"Jayakarta","line":2,"station_id":"JAY","transit":false,"is_transit":false,"i_lat":-6.141205,"distance":1080},{"is_transit":true,"transit":true,"time":4,"line":2,"distance":1264,"station_id":"JAKK","i_lat":-6.137569,"station_name":"Jakarta Kota","i_long":106.812439},{"i_lat":-6.132549,"time":3,"i_long":106.826365,"line":4,"station_id":"KPB","transit":true,"station_name":"Kampung Bandan","distance":1364,"is_transit":true},{"station_name":"Angke","distance":4102,"i_long":106.79867,"line":1,"time":9,"is_transit":false,"transit":false,"i_lat":-6.144674,"station_id":"AK"},{"station_name":"Duri","distance":1230,"station_id":"DU","is_transit":false,"time":4,"transit":false,"i_lat":-6.155215,"line":1,"i_long":106.800832},{"line":1,"time":8,"station_name":"Tanah Abang","is_transit":false,"i_long":106.811091,"i_lat":-6.185545,"station_id":"THB","distance":3632,"transit":false},{"time":5,"distance":2029,"station_id":"KAT","station_name":"Karet","transit":false,"i_lat":-6.20132,"i_long":106.816351,"line":1,"is_transit":false},{"time":1,"line":1,"is_transit":false,"station_name":"Sudirman Baru","transit":false,"i_long":106.819881,"distance":471,"station_id":"SUDB","i_lat":-6.201433},{"i_long":106.822649,"i_lat":-6.202263,"line":1,"distance":280,"time":1,"station_name":"Sudirman","is_transit":false,"transit":false,"station_id":"SUD"},{"station_id":"MRI","distance":3186,"transit":true,"station_name":"Manggarai","time":4,"is_transit":true,"i_lat":-6.209883,"i_long":106.84912,"line":2},{"i_lat":-6.226659,"station_name":"Tebet","line":2,"time":4,"i_long":106.857948,"distance":2610,"transit":false,"is_transit":false,"station_id":"TEB"},{"i_long":106.856607,"station_id":"CW","transit":false,"station_name":"Cawang","distance":1230,"time":2,"i_lat":-6.242512,"line":2,"is_transit":false},{"distance":1546,"station_name":"Duren Kalibata","i_long":106.85449,"station_id":"DRN","transit":false,"time":3,"is_transit":false,"i_lat":-6.255332,"line":2},{"line":2,"is_transit":false,"i_lat":-6.263214,"station_id":"PSMB","station_name":"Pasar Minggu Baru","i_long":106.851577,"distance":824,"transit":false,"time":2},{"station_name":"Pasar Minggu","i_long":106.843999,"distance":2380,"line":2,"i_lat":-6.2842400000000005,"is_transit":false,"transit":false,"time":2,"station_id":"PSM"},{"transit":false,"time":4,"station_name":"Tanjung Barat","is_transit":false,"station_id":"TNT","i_lat":-6.3080680000000005,"i_long":106.838896,"line":2,"distance":2820},{"i_long":106.832616,"line":2,"distance":2671,"station_id":"LNA","station_name":"Lenteng Agung","i_lat":-6.330363,"time":3,"transit":false,"is_transit":false},{"i_long":106.834175,"line":2,"is_transit":false,"time":2,"transit":false,"station_name":"Univ. Pancasila","distance":1029,"station_id":"UP","i_lat":-6.339291}],[{"is_transit":false,"distance":0,"transit":false,"i_long":106.828284,"time":0,"station_name":"Juanda","station_id":"JUA","line":2,"i_lat":-6.166716},{"i_lat":-6.160725,"line":2,"station_name":"Sawah Besar","distance":1149,"is_transit":false,"station_id":"SW","i_long":106.827103,"transit":false,"time":2},{"station_id":"MGB","i_lat":-6.149769,"distance":906,"station_name":"Manggabesar","transit":false,"i_long":106.82482,"line":2,"is_transit":false,"time":2},{"is_transit":false,"i_long":106.820901,"station_name":"Jayakarta","time":2,"station_id":"JAY","i_lat":-6.141205,"line":2,"transit":false,"distance":1080},{"station_id":"JAKK","transit":true,"distance":1264,"i_lat":-6.137569,"station_name":"Jakarta Kota","line":2,"is_transit":true,"time":4,"i_long":106.812439},{"station_id":"KPB","transit":true,"is_transit":true,"distance":1364,"i_long":106.826365,"line":4,"time":3,"station_name":"Kampung Bandan","i_lat":-6.132549},{"i_lat":-6.14505,"is_transit":false,"transit":false,"time":3,"station_name":"Rajawali","station_id":"RJW","i_long":106.836569,"distance":1444,"line":11},{"station_name":"Kemayoran","is_transit":false,"time":5,"i_lat":-6.161728,"line":11,"station_id":"KMO","distance":1901,"i_long":106.839204,"transit":false},{"transit":false,"station_name":"Pasar Senen","distance":1436,"i_long":106.84368,"time":4,"i_lat":-6.174784,"station_id":"PSE","line":11,"is_transit":false},{"time":8,"line":11,"station_id":"GST","is_transit":false,"i_lat":-6.185975,"transit":false,"i_long":106.850107,"station_name":"Gang Sentiong","distance":1567},{"i_lat":-6.193792,"is_transit":false,"station_id":"KMT","time":1,"transit":false,"line":11,"station_name":"Kramat","i_long":106.855437,"distance":973},{"station_name":"Pondok Jati","station_id":"POK","line":11,"distance":1829,"is_transit":false,"time":2,"i_long":106.861737,"transit":false,"i_lat":-6.209188},{"i_long":106.86807400000001,"distance":1236,"is_transit":true,"line":1,"station_id":"JNG","i_lat":-6.215091,"station_name":"Jatinegara","transit":true,"time":9},{"station_name":"Matraman","time":2,"is_transit":false,"i_lat":-6.212485,"i_long":106.858896,"line":1,"transit":false,"distance":1377,"station_id":"MTR"},{"transit":true,"station_id":"MRI","time":2,"is_transit":true,"distance":1275,"station_name":"Manggarai","i_lat":-6.209883,"i_long":106.84912,"line":2},{"distance":2610,"station_id":"TEB","line":2,"is_transit":false,"station_name":"Tebet","i_lat":-6.226659,"time":4,"i_long":106.857948,"transit":false},{"line":2,"i_lat":-6.242512,"distance":1230,"time":2,"station_id":"CW","i_long":106.856607,"station_name":"Cawang","transit":false,"is_transit":false},{"i_long":106.85449,"transit":false,"distance":1546,"time":3,"i_lat":-6.255332,"station_id":"DRN","is_transit":false,"station_name":"Duren Kalibata","line":2},{"is_transit":false,"transit":false,"i_lat":-6.263214,"station_name":"Pasar Minggu Baru","station_id":"PSMB","time":2,"i_long":106.851577,"distance":824,"line":2},{"distance":2380,"is_transit":false,"transit":false,"i_long":106.843999,"station_name":"Pasar Minggu","time":2,"station_id":"PSM","line":2,"i_lat":-6.2842400000000005},{"is_transit":false,"transit":false,"time":4,"line":2,"distance":2820,"i_long":106.838896,"station_id":"TNT","i_lat":-6.3080680000000005,"station_name":"Tanjung Barat"},{"is_transit":false,"time":3,"line":2,"transit":false,"station_id":"LNA","distance":2671,"station_name":"Lenteng Agung","i_lat":-6.330363,"i_long":106.832616},{"is_transit":false,"distance":1029,"line":2,"i_long":106.834175,"station_id":"UP","i_lat":-6.339291,"transit":false,"station_name":"Univ. Pancasila","time":2}]]}