{"data":[[{"station_id":"JUA","line":2,"station_name":"Juanda","i_long":106.828284,"i_lat":-6.166716,"distance":0,"transit":false,"is_transit":false,"time":0},{"distance":1149,"is_transit":false,"transit":false,"time":2,"i_lat":-6.160725,"station_name":"Sawah Besar","i_long":106.827103,"station_id":"SW","line":2},{"line":2,"i_long":106.82482,"station_id":"MGB","i_lat":-6.149769,"distance":906,"station_name":"Manggabesar","transit":false,"time":2,"is_transit":false},{"station_id":"JAY","i_lat":-6.141205,"time":2,"station_name":"Jayakarta","line":2,"transit":false,"i_long":106.820901,"is_transit":false,"distance":1080},{"is_transit":true,"i_long":106.812439,"transit":true,"i_lat":-6.137569,"line":2,"station_name":"Jakarta Kota","time":4,"distance":1264,"station_id":"JAKK"},{"station_name":"Kampung Bandan","distance":1364,"is_transit":true,"line":4,"station_id":"KPB","i_lat":-6.132549,"time":3,"transit":true,"i_long":106.826365},{"transit":false,"line":1,"i_lat":-6.144674,"is_transit":false,"i_long":106.79867,"station_name":"Angke","time":9,"station_id":"AK","distance":4102},{"i_lat":-6.155215,"i_long":106.800832,"station_id":"DU","distance":1230,"transit":true,"line":1,"is_transit":true,"time":4,"station_name":"Duri"},{"transit":false,"distance":1700,"i_long":106.788277,"line":5,"is_transit":false,"time":3,"i_lat":-6.162021,"station_id":"GGL","station_name":"Grogol"},{"i_lat":-6.161433,"line":5,"transit":false,"distance":2036,"is_transit":false,"station_id":"PSG","i_long":106.771379,"station_name":"Pesing","time":2},{"station_name":"Taman Kota","i_lat":-6.1587309999999995,"time":2,"line":5,"transit":false,"station_id":"TKO","is_transit":false,"distance":1614,"i_long":106.756522},{"transit":false,"i_long":106.737035,"station_name":"Bojongindah","is_transit":false,"station_id":"BOI","i_lat":-6.159876,"line":5,"distance":2334,"time":2},{"transit":false,"i_long":106.723064,"is_transit":false,"station_name":"Rawa Buaya","time":4,"station_id":"RW","i_lat":-6.162758,"line":5,"distance":1152}],[{"i_long":106.828284,"distance":0,"i_lat":-6.166716,"line":2,"transit":false,"time":0,"station_id":"JUA","station_name":"Juanda","is_transit":false},{"time":4,"i_lat":-6.186295,"is_transit":false,"i_long":106.832183,"line":2,"station_name":"Gondangdia","distance":2015,"station_id":"GDD","transit":false},{"distance":1750,"i_long":106.840169,"transit":false,"time":3,"station_id":"CKI","i_lat":-6.198556,"line":2,"station_name":"Cikini","is_transit":false},{"distance":1590,"i_long":106.84912,"line":2,"is_transit":true,"time":4,"transit":true,"station_id":"MRI","station_name":"Manggarai","i_lat":-6.209883},{"station_id":"SUD","distance":3186,"i_lat":-6.202263,"i_long":106.822649,"line":1,"transit":false,"is_transit":false,"station_name":"Sudirman","time":4},{"line":1,"i_long":106.819881,"station_id":"SUDB","transit":false,"is_transit":false,"i_lat":-6.201433,"station_name":"Sudirman Baru","time":1,"distance":280},{"line":1,"distance":471,"i_long":106.816351,"time":1,"transit":false,"i_lat":-6.20132,"station_name":"Karet","is_transit":false,"station_id":"KAT"},{"distance":2029,"i_lat":-6.185545,"line":1,"time":5,"station_name":"Tanah Abang","transit":false,"station_id":"THB","is_transit":false,"i_long":106.811091},{"line":1,"station_id":"DU","station_name":"Duri","i_long":106.800832,"time":8,"is_transit":true,"distance":3632,"transit":true,"i_lat":-6.155215},{"is_transit":false,"station_id":"GGL","i_long":106.788277,"line":5,"station_name":"Grogol","transit":false,"time":3,"distance":1700,"i_lat":-6.162021},{"distance":2036,"time":2,"line":5,"i_lat":-6.161433,"is_transit":false,"station_id":"PSG","i_long":106.771379,"station_name":"Pesing","transit":false},{"distance":1614,"time":2,"transit":false,"station_id":"TKO","i_long":106.756522,"line":5,"station_name":"Taman Kota","is_transit":false,"i_lat":-6.1587309999999995},{"transit":false,"is_transit":false,"time":2,"line":5,"i_long":106.737035,"distance":2334,"station_name":"Bojongindah","station_id":"BOI","i_lat":-6.159876},{"line":5,"station_name":"Rawa Buaya","transit":false,"distance":1152,"is_transit":false,"station_id":"RW","time":4,"i_long":106.723064,"i_lat":-6.162758}],[{"transit":false,"i_lat":-6.166716,"i_long":106.828284,"distance":0,"line":2,"time":0,"station_id":"JUA","is_transit":false,"station_name":"Juanda"},{"line":2,"transit":false,"distance":2015,"station_name":"Gondangdia","is_transit":false,"i_long":106.832183,"time":4,"station_id":"GDD","i_lat":-6.186295},{"i_long":106.840169,"station_name":"Cikini","distance":1750,"station_id":"CKI","line":2,"is_transit":false,"transit":false,"time":3,"i_lat":-6.198556},{"transit":true,"i_lat":-6.209883,"station_name":"Manggarai","i_long":106.84912,"station_id":"MRI","distance":1590,"is_transit":true,"time":4,"line":2},{"i_long":106.858896,"is_transit":false,"time":2,"transit":false,"distance":1275,"station_name":"Matraman","i_lat":-6.212485,"station_id":"MTR","line":1},{"station_name":"Jatinegara","station_id":"JNG","line":1,"i_lat":-6.215091,"time":8,"transit":true,"i_long":106.86807400000001,"is_transit":true,"distance":1377},{"is_transit":false,"i_lat":-6.209188,"station_name":"Pondok Jati","i_long":106.861737,"transit":false,"station_id":"POK","line":11,"time":2,"distance":1236},{"time":2,"i_long":106.855437,"station_name":"Kramat","line":11,"station_id":"KMT","i_lat":-6.193792,"transit":false,"distance":1829,"is_transit":false},{"i_long":106.850107,"station_name":"Gang Sentiong","transit":false,"time":1,"distance":973,"station_id":"GST","i_lat":-6.185975,"is_transit":false,"line":11},{"i_long":106.84368,"station_name":"Pasar Senen","is_transit":false,"time":8,"i_lat":-6.174784,"line":11,"transit":false,"station_id":"PSE","distance":1567},{"i_lat":-6.161728,"station_name":"Kemayoran","time":4,"transit":false,"is_transit":false,"distance":1436,"station_id":"KMO","i_long":106.839204,"line":11},{"is_transit":false,"station_name":"Rajawali","station_id":"RJW","i_lat":-6.14505,"time":5,"line":11,"distance":1901,"i_long":106.836569,"transit":false},{"transit":true,"time":3,"is_transit":true,"station_name":"Kampung Bandan","i_long":106.826365,"distance":1444,"i_lat":-6.132549,"station_id":"KPB","line":4},{"i_long":106.79867,"transit":false,"is_transit":false,"station_id":"AK","time":9,"distance":4102,"line":1,"station_name":"Angke","i_lat":-6.144674},{"station_name":"Duri","distance":1230,"station_id":"DU","i_long":106.800832,"i_lat":-6.155215,"time":4,"is_transit":true,"line":1,"transit":true},{"i_lat":-6.162021,"is_transit":false,"line":5,"i_long":106.788277,"distance":1700,"station_name":"Grogol","station_id":"GGL","transit":false,"time":3},{"station_name":"Pesing","distance":2036,"is_transit":false,"station_id":"PSG","transit":false,"i_lat":-6.161433,"i_long":106.771379,"line":5,"time":2},{"is_transit":false,"station_id":"TKO","i_long":106.756522,"transit":false,"i_lat":-6.1587309999999995,"line":5,"time":2,"distance":1614,"station_name":"Taman Kota"},{"distance":2334,"transit":false,"line":5,"station_id":"BOI","i_long":106.737035,"station_name":"Bojongindah","time":2,"i_lat":-6.159876,"is_transit":false},{"station_name":"Rawa Buaya","i_long":106.723064,"line":5,"i_lat":-6.162758,"time":4,"transit":false,"is_transit":false,"station_id":"RW","distance":1152}],[{"distance":0,"i_long":106.828284,"time":0,"station_name":"Juanda","station_id":"JUA","i_lat":-6.166716,"is_transit":false,"line":2,"transit":false},{"time":2,"station_id":"SW","i_long":106.827103,"distance":1149,"i_lat":-6.160725,"station_name":"Sawah Besar","line":2,"is_transit":false,"transit":false},{"distance":906,"station_id":"MGB","time":2,"i_long":106.82482,"line":2,"transit":false,"station_name":"Manggabesar","i_lat":-6.149769,"is_transit":false},{"is_transit":false,"transit":false,"station_id":"JAY","line":2,"distance":1080,"i_lat":-6.141205,"i_long":106.820901,"time":2,"station_name":"Jayakarta"},{"station_id":"JAKK","i_lat":-6.137569,"transit":true,"station_name":"Jakarta Kota","is_transit":true,"i_long":106.812439,"line":2,"time":4,"distance":1264},{"station_id":"KPB","station_name":"Kampung Bandan","i_lat":-6.132549,"i_long":106.826365,"time":3,"is_transit":true,"distance":1364,"transit":true,"line":4},{"i_long":106.836569,"line":11,"transit":false,"station_id":"RJW","station_name":"Rajawali","distance":1444,"is_transit":false,"i_lat":-6.14505,"time":3},{"is_transit":false,"i_lat":-6.161728,"time":5,"line":11,"i_long":106.839204,"station_id":"KMO","transit":false,"distance":1901,"station_name":"Kemayoran"},{"transit":false,"station_name":"Pasar Senen","time":4,"station_id":"PSE","line":11,"is_transit":false,"distance":1436,"i_lat":-6.174784,"i_long":106.84368},{"distance":1567,"i_long":106.850107,"time":8,"station_id":"GST","station_name":"Gang Sentiong","line":11,"i_lat":-6.185975,"is_transit":false,"transit":false},{"line":11,"station_name":"Kramat","i_lat":-6.193792,"distance":973,"is_transit":false,"i_long":106.855437,"time":1,"station_id":"KMT","transit":false},{"i_lat":-6.209188,"distance":1829,"station_name":"Pondok Jati","time":2,"transit":false,"is_transit":false,"line":11,"station_id":"POK","i_long":106.861737},{"i_lat":-6.215091,"is_transit":true,"station_id":"JNG","line":1,"distance":1236,"transit":true,"i_long":106.86807400000001,"station_name":"Jatinegara","time":9},{"i_long":106.858896,"time":2,"transit":false,"distance":1377,"is_transit":false,"station_id":"MTR","i_lat":-6.212485,"line":1,"station_name":"Matraman"},{"line":2,"transit":false,"i_lat":-6.209883,"distance":1275,"i_long":106.84912,"station_id":"MRI","is_transit":false,"time":2,"station_name":"Manggarai"},{"time":4,"station_name":"Sudirman","transit":false,"station_id":"SUD","i_lat":-6.202263,"i_long":106.822649,"is_transit":false,"distance":3186,"line":1},{"i_lat":-6.201433,"i_long":106.819881,"distance":280,"transit":false,"line":1,"is_transit":false,"time":1,"station_name":"Sudirman Baru","station_id":"SUDB"},{"line":1,"time":1,"station_id":"KAT","distance":471,"is_transit":false,"i_lat":-6.20132,"i_long":106.816351,"station_name":"Karet","transit":false},{"station_name":"Tanah Abang","is_transit":false,"transit":false,"station_id":"THB","distance":2029,"line":1,"i_lat":-6.185545,"time":5,"i_long":106.811091},{"distance":3632,"transit":true,"line":1,"station_name":"Duri","is_transit":true,"i_long":106.800832,"i_lat":-6.155215,"time":8,"station_id":"DU"},{"station_id":"GGL","time":3,"distance":1700,"transit":false,"i_lat":-6.162021,"is_transit":false,"i_long":106.788277,"station_name":"Grogol","line":5},{"is_transit":false,"i_lat":-6.161433,"time":2,"station_id":"PSG","station_name":"Pesing","distance":2036,"transit":false,"i_long":106.771379,"line":5},{"transit":false,"i_long":106.756522,"is_transit":false,"station_id":"TKO","i_lat":-6.1587309999999995,"line":5,"station_name":"Taman Kota","time":2,"distance":1614},{"station_id":"BOI","i_lat":-6.159876,"is_transit":false,"line":5,"station_name":"Bojongindah","time":2,"distance":2334,"transit":false,"i_long":106.737035},{"transit":false,"line":5,"station_name":"Rawa Buaya","time":4,"i_long":106.723064,"is_transit":false,"station_id":"RW","distance":1152,"i_lat":-6.162758}]]}