{"data":[[{"i_lat":-6.166716,"i_long":106.828284,"station_id":"JUA","time":0,"station_name":"Juanda","line":2,"transit":false,"is_transit":false,"distance":0},{"is_transit":false,"i_lat":-6.160725,"distance":1149,"i_long":106.827103,"time":2,"station_name":"Sawah Besar","station_id":"SW","transit":false,"line":2},{"time":2,"station_id":"MGB","transit":false,"station_name":"Manggabesar","i_lat":-6.149769,"is_transit":false,"i_long":106.82482,"line":2,"distance":906},{"station_name":"Jayakarta","station_id":"JAY","distance":1080,"i_lat":-6.141205,"line":7,"is_transit":false,"i_long":106.820901,"time":2,"transit":false},{"line":0,"station_id":"JAKK","transit":true,"distance":1264,"is_transit":true,"station_name":"Jakarta Kota","time":4,"i_lat":-6.137569,"i_long":106.812439},{"distance":1364,"station_name":"Kampung Bandan","line":0,"is_transit":true,"i_long":106.826365,"transit":false,"time":3,"station_id":"KPB","i_lat":-6.132549},{"i_lat":-6.144674,"time":9,"is_transit":false,"station_id":"AK","i_long":106.79867,"line":0,"distance":4102,"transit":false,"station_name":"Angke"}],[{"i_lat":-6.166716,"is_transit":false,"i_long":106.828284,"transit":false,"station_id":"JUA","station_name":"Juanda","line":2,"distance":0,"time":0},{"transit":false,"i_lat":-6.186295,"distance":2015,"is_transit":false,"time":4,"line":2,"station_id":"GDD","i_long":106.832183,"station_name":"Gondangdia"},{"i_long":106.840169,"distance":1750,"line":0,"station_name":"Cikini","transit":false,"station_id":"CKI","time":3,"i_lat":-6.198556,"is_transit":false},{"i_lat":-6.209883,"transit":true,"station_id":"MRI","time":4,"i_long":106.84912,"distance":1590,"is_transit":true,"line":0,"station_name":"Manggarai"},{"i_long":106.822649,"transit":false,"line":1,"time":4,"station_id":"SUD","i_lat":-6.202263,"is_transit":false,"station_name":"Sudirman","distance":3186},{"line":1,"distance":280,"i_long":106.819881,"is_transit":false,"i_lat":-6.201433,"transit":false,"time":1,"station_name":"Sudirman Baru","station_id":"SUDB"},{"station_id":"KAT","i_lat":-6.20132,"i_long":106.816351,"line":1,"station_name":"Karet","is_transit":false,"transit":false,"distance":471,"time":1},{"time":5,"station_name":"Tanah Abang","transit":false,"line":1,"i_lat":-6.185545,"is_transit":true,"i_long":106.811091,"station_id":"THB","distance":2029},{"station_name":"Duri","distance":3632,"is_transit":true,"i_long":106.800832,"line":1,"i_lat":-6.155215,"transit":true,"station_id":"DU","time":8},{"transit":false,"station_id":"AK","i_long":106.79867,"is_transit":false,"line":0,"distance":1230,"station_name":"Angke","i_lat":-6.144674,"time":4}],[{"station_name":"Juanda","distance":0,"i_long":106.828284,"time":0,"i_lat":-6.166716,"transit":false,"station_id":"JUA","is_transit":false,"line":2},{"distance":2015,"is_transit":false,"i_lat":-6.186295,"station_name":"Gondangdia","station_id":"GDD","line":2,"time":4,"i_long":106.832183,"transit":false},{"i_long":106.840169,"line":0,"transit":false,"distance":1750,"time":3,"station_id":"CKI","i_lat":-6.198556,"station_name":"Cikini","is_transit":false},{"station_id":"MRI","distance":1590,"station_name":"Manggarai","transit":true,"i_lat":-6.209883,"i_long":106.84912,"time":4,"is_transit":true,"line":0},{"i_long":106.858896,"i_lat":-6.212485,"time":2,"station_id":"MTR","distance":1275,"is_transit":false,"line":1,"transit":false,"station_name":"Matraman"},{"distance":1377,"transit":true,"time":8,"station_id":"JNG","is_transit":true,"line":0,"i_long":106.86807400000001,"station_name":"Jatinegara","i_lat":-6.215091},{"line":11,"station_name":"Pondok Jati","time":2,"transit":false,"station_id":"POK","distance":1236,"i_lat":-6.209188,"i_long":106.861737,"is_transit":false},{"time":2,"station_name":"Kramat","i_lat":-6.193792,"distance":1829,"station_id":"KMT","is_transit":false,"line":11,"transit":false,"i_long":106.855437},{"time":1,"i_long":106.850107,"line":11,"station_name":"Gang Sentiong","transit":false,"distance":973,"station_id":"GST","is_transit":false,"i_lat":-6.185975},{"time":8,"transit":false,"station_id":"PSE","i_lat":-6.174784,"i_long":106.84368,"station_name":"Pasar Senen","distance":1567,"line":11,"is_transit":false},{"time":4,"transit":false,"line":11,"i_long":106.839204,"is_transit":false,"station_name":"Kemayoran","distance":1436,"station_id":"KMO","i_lat":-6.161728},{"i_lat":-6.14505,"station_name":"Rajawali","transit":false,"line":11,"station_id":"RJW","distance":1901,"is_transit":false,"time":5,"i_long":106.836569},{"transit":true,"line":0,"station_name":"Kampung Bandan","is_transit":true,"time":3,"station_id":"KPB","i_lat":-6.132549,"i_long":106.826365,"distance":1444},{"i_lat":-6.144674,"station_id":"AK","i_long":106.79867,"time":9,"line":0,"is_transit":false,"distance":4102,"station_name":"Angke","transit":false}],[{"station_name":"Juanda","line":2,"is_transit":false,"distance":0,"i_lat":-6.166716,"time":0,"station_id":"JUA","i_long":106.828284,"transit":false},{"i_long":106.827103,"station_id":"SW","i_lat":-6.160725,"transit":false,"distance":1149,"is_transit":false,"station_name":"Sawah Besar","line":2,"time":2},{"is_transit":false,"time":2,"distance":906,"station_name":"Manggabesar","station_id":"MGB","i_lat":-6.149769,"line":2,"transit":false,"i_long":106.82482},{"is_transit":false,"transit":false,"station_id":"JAY","station_name":"Jayakarta","i_long":106.820901,"line":7,"distance":1080,"i_lat":-6.141205,"time":2},{"i_long":106.812439,"station_id":"JAKK","is_transit":true,"distance":1264,"transit":true,"time":4,"i_lat":-6.137569,"line":0,"station_name":"Jakarta Kota"},{"time":3,"i_lat":-6.132549,"i_long":106.826365,"station_name":"Kampung Bandan","distance":1364,"transit":true,"station_id":"KPB","line":0,"is_transit":true},{"station_name":"Rajawali","i_lat":-6.14505,"line":11,"station_id":"RJW","distance":1444,"time":3,"is_transit":false,"i_long":106.836569,"transit":false},{"station_name":"Kemayoran","i_lat":-6.161728,"transit":false,"distance":1901,"i_long":106.839204,"line":11,"station_id":"KMO","is_transit":false,"time":5},{"i_lat":-6.174784,"transit":false,"line":11,"is_transit":false,"time":4,"station_id":"PSE","distance":1436,"station_name":"Pasar Senen","i_long":106.84368},{"distance":1567,"line":11,"time":8,"transit":false,"i_lat":-6.185975,"i_long":106.850107,"station_name":"Gang Sentiong","is_transit":false,"station_id":"GST"},{"station_id":"KMT","i_lat":-6.193792,"line":11,"i_long":106.855437,"distance":973,"transit":false,"is_transit":false,"time":1,"station_name":"Kramat"},{"line":11,"distance":1829,"transit":false,"i_lat":-6.209188,"is_transit":false,"time":2,"i_long":106.861737,"station_name":"Pondok Jati","station_id":"POK"},{"i_long":106.86807400000001,"station_name":"Jatinegara","line":0,"i_lat":-6.215091,"transit":true,"is_transit":true,"station_id":"JNG","time":9,"distance":1236},{"station_name":"Matraman","station_id":"MTR","i_long":106.858896,"distance":1377,"is_transit":false,"time":2,"line":1,"transit":false,"i_lat":-6.212485},{"time":2,"i_lat":-6.209883,"line":0,"distance":1275,"station_name":"Manggarai","is_transit":true,"i_long":106.84912,"station_id":"MRI","transit":false},{"i_lat":-6.202263,"time":4,"transit":false,"line":1,"distance":3186,"is_transit":false,"i_long":106.822649,"station_name":"Sudirman","station_id":"SUD"},{"station_id":"SUDB","i_lat":-6.201433,"distance":280,"i_long":106.819881,"line":1,"time":1,"transit":false,"station_name":"Sudirman Baru","is_transit":false},{"line":1,"station_id":"KAT","distance":471,"transit":false,"time":1,"i_lat":-6.20132,"is_transit":false,"station_name":"Karet","i_long":106.816351},{"transit":false,"station_name":"Tanah Abang","line":1,"station_id":"THB","i_lat":-6.185545,"time":5,"i_long":106.811091,"is_transit":true,"distance":2029},{"line":1,"is_transit":true,"i_lat":-6.155215,"i_long":106.800832,"station_name":"Duri","time":8,"transit":true,"distance":3632,"station_id":"DU"},{"station_name":"Angke","time":4,"transit":false,"i_long":106.79867,"line":0,"is_transit":false,"i_lat":-6.144674,"distance":1230,"station_id":"AK"}]]}