{"data":[[{"i_long":106.828284,"distance":0,"i_lat":-6.166716,"line":2,"is_transit":false,"time":0,"station_name":"Juanda","transit":false,"station_id":"JUA"},{"station_name":"Gondangdia","is_transit":false,"station_id":"GDD","distance":2015,"transit":false,"time":4,"i_long":106.832183,"i_lat":-6.186295,"line":2},{"transit":false,"line":2,"time":3,"i_lat":-6.198556,"station_name":"Cikini","is_transit":false,"distance":1750,"station_id":"CKI","i_long":106.840169},{"transit":true,"is_transit":true,"station_id":"MRI","time":4,"distance":1590,"i_lat":-6.209883,"i_long":106.84912,"station_name":"Manggarai","line":2},{"line":1,"is_transit":false,"station_id":"SUD","i_lat":-6.202263,"station_name":"Sudirman","i_long":106.822649,"time":4,"distance":3186,"transit":false},{"is_transit":false,"time":1,"i_long":106.819881,"line":1,"station_name":"Sudirman Baru","distance":280,"i_lat":-6.201433,"station_id":"SUDB","transit":false},{"is_transit":false,"distance":471,"time":1,"line":1,"i_long":106.816351,"station_name":"Karet","station_id":"KAT","i_lat":-6.20132,"transit":false},{"time":5,"i_lat":-6.185545,"transit":true,"station_id":"THB","i_long":106.811091,"line":1,"station_name":"Tanah Abang","distance":2029,"is_transit":true},{"i_long":106.79689,"station_name":"Palmerah","time":6,"distance":3191,"station_id":"PLM","transit":false,"i_lat":-6.207404,"line":6,"is_transit":false},{"transit":false,"i_lat":-6.237242,"station_name":"Kebayoran","time":7,"distance":3737,"station_id":"KBY","i_long":106.780334,"line":6,"is_transit":false}],[{"station_name":"Juanda","is_transit":false,"distance":0,"i_lat":-6.166716,"line":2,"transit":false,"i_long":106.828284,"station_id":"JUA","time":0},{"i_long":106.827103,"station_id":"SW","transit":false,"is_transit":false,"time":2,"distance":1149,"i_lat":-6.160725,"station_name":"Sawah Besar","line":2},{"is_transit":false,"transit":false,"i_long":106.82482,"station_name":"Manggabesar","line":2,"i_lat":-6.149769,"station_id":"MGB","distance":906,"time":2},{"station_name":"Jayakarta","transit":false,"distance":1080,"line":2,"time":2,"is_transit":false,"station_id":"JAY","i_long":106.820901,"i_lat":-6.141205},{"distance":1264,"station_id":"JAKK","i_lat":-6.137569,"i_long":106.812439,"line":2,"station_name":"Jakarta Kota","transit":true,"is_transit":true,"time":4},{"transit":true,"line":4,"time":3,"is_transit":true,"station_name":"Kampung Bandan","distance":1364,"station_id":"KPB","i_lat":-6.132549,"i_long":106.826365},{"station_name":"Angke","station_id":"AK","time":9,"is_transit":false,"i_long":106.79867,"line":1,"transit":false,"distance":4102,"i_lat":-6.144674},{"station_name":"Duri","i_lat":-6.155215,"is_transit":false,"time":4,"distance":1230,"i_long":106.800832,"station_id":"DU","line":1,"transit":false},{"transit":true,"station_name":"Tanah Abang","time":8,"distance":3632,"station_id":"THB","line":1,"is_transit":true,"i_lat":-6.185545,"i_long":106.811091},{"distance":3191,"i_long":106.79689,"line":6,"station_name":"Palmerah","transit":false,"is_transit":false,"time":6,"i_lat":-6.207404,"station_id":"PLM"},{"is_transit":false,"i_lat":-6.237242,"station_id":"KBY","time":7,"transit":false,"station_name":"Kebayoran","i_long":106.780334,"line":6,"distance":3737}],[{"line":2,"i_long":106.828284,"time":0,"distance":0,"station_id":"JUA","i_lat":-6.166716,"station_name":"Juanda","transit":false,"is_transit":false},{"line":2,"i_long":106.832183,"station_id":"GDD","station_name":"Gondangdia","transit":false,"i_lat":-6.186295,"distance":2015,"is_transit":false,"time":4},{"station_name":"Cikini","time":3,"i_lat":-6.198556,"i_long":106.840169,"is_transit":false,"transit":false,"station_id":"CKI","line":2,"distance":1750},{"transit":true,"station_id":"MRI","station_name":"Manggarai","i_lat":-6.209883,"is_transit":true,"i_long":106.84912,"distance":1590,"time":4,"line":2},{"is_transit":false,"station_name":"Matraman","time":2,"distance":1275,"station_id":"MTR","i_lat":-6.212485,"i_long":106.858896,"transit":false,"line":1},{"distance":1377,"time":8,"i_long":106.86807400000001,"station_id":"JNG","is_transit":true,"transit":true,"station_name":"Jatinegara","i_lat":-6.215091,"line":1},{"i_lat":-6.209188,"line":11,"station_name":"Pondok Jati","i_long":106.861737,"transit":false,"time":2,"distance":1236,"is_transit":false,"station_id":"POK"},{"time":2,"distance":1829,"is_transit":false,"station_id":"KMT","i_long":106.855437,"line":11,"i_lat":-6.193792,"station_name":"Kramat","transit":false},{"station_id":"GST","line":11,"i_lat":-6.185975,"transit":false,"i_long":106.850107,"is_transit":false,"time":1,"station_name":"Gang Sentiong","distance":973},{"distance":1567,"i_lat":-6.174784,"time":8,"transit":false,"i_long":106.84368,"station_id":"PSE","line":11,"station_name":"Pasar Senen","is_transit":false},{"is_transit":false,"i_lat":-6.161728,"line":11,"transit":false,"station_name":"Kemayoran","distance":1436,"time":4,"station_id":"KMO","i_long":106.839204},{"station_id":"RJW","i_lat":-6.14505,"transit":false,"station_name":"Rajawali","is_transit":false,"time":5,"distance":1901,"i_long":106.836569,"line":11},{"i_long":106.826365,"station_name":"Kampung Bandan","transit":true,"time":3,"distance":1444,"station_id":"KPB","is_transit":true,"i_lat":-6.132549,"line":4},{"line":1,"station_id":"AK","i_lat":-6.144674,"station_name":"Angke","distance":4102,"time":9,"i_long":106.79867,"transit":false,"is_transit":false},{"i_lat":-6.155215,"line":1,"time":4,"station_name":"Duri","transit":false,"is_transit":false,"distance":1230,"station_id":"DU","i_long":106.800832},{"i_lat":-6.185545,"station_id":"THB","transit":true,"time":8,"line":1,"is_transit":true,"i_long":106.811091,"distance":3632,"station_name":"Tanah Abang"},{"i_long":106.79689,"distance":3191,"station_name":"Palmerah","time":6,"transit":false,"i_lat":-6.207404,"line":6,"is_transit":false,"station_id":"PLM"},{"distance":3737,"station_name":"Kebayoran","station_id":"KBY","i_long":106.780334,"line":6,"is_transit":false,"i_lat":-6.237242,"time":7,"transit":false}],[{"station_name":"Juanda","time":0,"i_lat":-6.166716,"i_long":106.828284,"distance":0,"transit":false,"is_transit":false,"line":2,"station_id":"JUA"},{"distance":1149,"time":2,"i_lat":-6.160725,"transit":false,"line":2,"station_name":"Sawah Besar","i_long":106.827103,"station_id":"SW","is_transit":false},{"station_name":"Manggabesar","i_lat":-6.149769,"distance":906,"is_transit":false,"transit":false,"line":2,"i_long":106.82482,"time":2,"station_id":"MGB"},{"is_transit":false,"station_name":"Jayakarta","time":2,"station_id":"JAY","i_lat":-6.141205,"distance":1080,"transit":false,"i_long":106.820901,"line":2},{"distance":1264,"transit":true,"time":4,"station_id":"JAKK","i_lat":-6.137569,"i_long":106.812439,"line":2,"is_transit":true,"station_name":"Jakarta Kota"},{"i_lat":-6.132549,"time":3,"station_id":"KPB","line":4,"i_long":106.826365,"distance":1364,"transit":true,"is_transit":true,"station_name":"Kampung Bandan"},{"i_long":106.836569,"time":3,"is_transit":false,"transit":false,"i_lat":-6.14505,"station_id":"RJW","distance":1444,"line":11,"station_name":"Rajawali"},{"time":5,"station_name":"Kemayoran","i_lat":-6.161728,"distance":1901,"is_transit":false,"line":11,"station_id":"KMO","transit":false,"i_long":106.839204},{"is_transit":false,"station_id":"PSE","transit":false,"station_name":"Pasar Senen","line":11,"time":4,"distance":1436,"i_lat":-6.174784,"i_long":106.84368},{"time":8,"station_name":"Gang Sentiong","i_long":106.850107,"line":11,"station_id":"GST","distance":1567,"is_transit":false,"i_lat":-6.185975,"transit":false},{"distance":973,"station_name":"Kramat","is_transit":false,"i_long":106.855437,"time":1,"i_lat":-6.193792,"transit":false,"line":11,"station_id":"KMT"},{"line":11,"transit":false,"i_long":106.861737,"time":2,"distance":1829,"is_transit":false,"station_name":"Pondok Jati","station_id":"POK","i_lat":-6.209188},{"station_id":"JNG","time":9,"distance":1236,"i_long":106.86807400000001,"line":1,"i_lat":-6.215091,"station_name":"Jatinegara","is_transit":true,"transit":true},{"line":1,"i_long":106.858896,"i_lat":-6.212485,"distance":1377,"time":2,"station_id":"MTR","station_name":"Matraman","is_transit":false,"transit":false},{"time":2,"line":2,"station_name":"Manggarai","is_transit":false,"distance":1275,"i_lat":-6.209883,"i_long":106.84912,"transit":false,"station_id":"MRI"},{"station_name":"Sudirman","time":4,"is_transit":false,"station_id":"SUD","i_long":106.822649,"distance":3186,"transit":false,"i_lat":-6.202263,"line":1},{"line":1,"i_long":106.819881,"station_id":"SUDB","distance":280,"i_lat":-6.201433,"station_name":"Sudirman Baru","is_transit":false,"time":1,"transit":false},{"distance":471,"station_id":"KAT","is_transit":false,"i_long":106.816351,"line":1,"i_lat":-6.20132,"transit":false,"time":1,"station_name":"Karet"},{"transit":true,"is_transit":true,"i_long":106.811091,"station_name":"Tanah Abang","line":1,"time":5,"distance":2029,"i_lat":-6.185545,"station_id":"THB"},{"transit":false,"i_lat":-6.207404,"line":6,"distance":3191,"i_long":106.79689,"time":6,"station_name":"Palmerah","station_id":"PLM","is_transit":false},{"i_long":106.780334,"station_name":"Kebayoran","line":6,"is_transit":false,"i_lat":-6.237242,"distance":3737,"time":7,"station_id":"KBY","transit":false}]]}