{"data":[[{"is_transit":false,"station_name":"Juanda","transit":false,"time":0,"line":2,"i_long":106.828284,"i_lat":-6.166716,"station_id":"JUA","distance":0},{"i_lat":-6.160725,"station_name":"Sawah Besar","line":2,"is_transit":false,"transit":false,"station_id":"SW","time":2,"distance":1149,"i_long":106.827103},{"distance":906,"line":2,"i_lat":-6.149769,"station_id":"MGB","time":2,"station_name":"Manggabesar","is_transit":false,"transit":false,"i_long":106.82482},{"station_name":"Jayakarta","time":2,"distance":1080,"transit":false,"station_id":"JAY","is_transit":false,"i_lat":-6.141205,"line":7,"i_long":106.820901},{"i_lat":-6.137569,"transit":true,"distance":1264,"line":0,"time":4,"station_name":"Jakarta Kota","is_transit":true,"i_long":106.812439,"station_id":"JAKK"},{"transit":false,"distance":1364,"i_long":106.826365,"is_transit":true,"line":0,"station_id":"KPB","time":3,"i_lat":-6.132549,"station_name":"Kampung Bandan"},{"line":0,"distance":4102,"station_id":"AK","time":9,"station_name":"Angke","transit":false,"i_long":106.79867,"i_lat":-6.144674,"is_transit":false},{"line":1,"station_id":"DU","time":4,"transit":true,"i_long":106.800832,"distance":1230,"station_name":"Duri","i_lat":-6.155215,"is_transit":true},{"transit":false,"time":3,"is_transit":false,"station_name":"Grogol","distance":1700,"station_id":"GGL","i_lat":-6.162021,"i_long":106.788277,"line":5},{"station_name":"Pesing","transit":false,"i_long":106.771379,"line":5,"is_transit":false,"i_lat":-6.161433,"station_id":"PSG","time":2,"distance":2036},{"station_name":"Taman Kota","line":5,"transit":false,"station_id":"TKO","i_long":106.756522,"time":2,"i_lat":-6.1587309999999995,"distance":1614,"is_transit":false},{"i_long":106.737035,"transit":false,"is_transit":false,"i_lat":-6.159876,"line":0,"station_name":"Bojongindah","station_id":"BOI","time":2,"distance":2334},{"i_long":106.723064,"station_name":"Rawa Buaya","i_lat":-6.162758,"time":4,"distance":1152,"is_transit":false,"line":5,"station_id":"RW","transit":false},{"time":3,"is_transit":false,"distance":2504,"station_id":"KDS","i_lat":-6.166068,"transit":false,"i_long":106.701612,"line":5,"station_name":"Kalideres"},{"i_long":106.679458,"is_transit":false,"station_name":"Poris","station_id":"PI","i_lat":-6.169933,"line":5,"time":3,"distance":2548,"transit":false},{"time":3,"i_long":106.665036,"distance":1834,"station_name":"Batuceper","line":0,"station_id":"BPR","transit":false,"is_transit":false,"i_lat":-6.171811}],[{"transit":false,"station_id":"JUA","i_lat":-6.166716,"is_transit":false,"distance":0,"station_name":"Juanda","i_long":106.828284,"line":2,"time":0},{"i_long":106.832183,"line":2,"time":4,"is_transit":false,"transit":false,"i_lat":-6.186295,"station_name":"Gondangdia","station_id":"GDD","distance":2015},{"i_long":106.840169,"line":0,"transit":false,"distance":1750,"i_lat":-6.198556,"station_id":"CKI","is_transit":false,"time":3,"station_name":"Cikini"},{"distance":1590,"is_transit":true,"station_name":"Manggarai","i_lat":-6.209883,"i_long":106.84912,"transit":true,"station_id":"MRI","line":0,"time":4},{"station_name":"Sudirman","station_id":"SUD","time":4,"i_lat":-6.202263,"i_long":106.822649,"line":1,"distance":3186,"transit":false,"is_transit":false},{"transit":false,"station_id":"SUDB","is_transit":false,"station_name":"Sudirman Baru","i_lat":-6.201433,"line":1,"time":1,"i_long":106.819881,"distance":280},{"time":1,"i_lat":-6.20132,"station_id":"KAT","distance":471,"station_name":"Karet","i_long":106.816351,"transit":false,"line":1,"is_transit":false},{"is_transit":true,"distance":2029,"i_long":106.811091,"line":1,"station_id":"THB","transit":false,"station_name":"Tanah Abang","time":5,"i_lat":-6.185545},{"station_name":"Duri","station_id":"DU","time":8,"transit":true,"i_long":106.800832,"distance":3632,"line":1,"i_lat":-6.155215,"is_transit":true},{"station_id":"GGL","transit":false,"distance":1700,"station_name":"Grogol","time":3,"is_transit":false,"i_long":106.788277,"i_lat":-6.162021,"line":5},{"station_name":"Pesing","time":2,"distance":2036,"transit":false,"line":5,"station_id":"PSG","is_transit":false,"i_long":106.771379,"i_lat":-6.161433},{"station_id":"TKO","is_transit":false,"line":5,"time":2,"station_name":"Taman Kota","transit":false,"i_lat":-6.1587309999999995,"distance":1614,"i_long":106.756522},{"i_long":106.737035,"is_transit":false,"time":2,"station_name":"Bojongindah","station_id":"BOI","distance":2334,"transit":false,"line":0,"i_lat":-6.159876},{"distance":1152,"i_long":106.723064,"line":5,"i_lat":-6.162758,"time":4,"station_id":"RW","is_transit":false,"transit":false,"station_name":"Rawa Buaya"},{"i_lat":-6.166068,"station_name":"Kalideres","is_transit":false,"station_id":"KDS","i_long":106.701612,"line":5,"distance":2504,"transit":false,"time":3},{"i_lat":-6.169933,"time":3,"transit":false,"is_transit":false,"distance":2548,"station_name":"Poris","i_long":106.679458,"line":5,"station_id":"PI"},{"is_transit":false,"time":3,"i_lat":-6.171811,"distance":1834,"station_name":"Batuceper","i_long":106.665036,"transit":false,"line":0,"station_id":"BPR"}],[{"station_id":"JUA","distance":0,"transit":false,"station_name":"Juanda","is_transit":false,"i_long":106.828284,"line":2,"time":0,"i_lat":-6.166716},{"i_lat":-6.186295,"time":4,"transit":false,"i_long":106.832183,"distance":2015,"is_transit":false,"station_name":"Gondangdia","station_id":"GDD","line":2},{"station_id":"CKI","i_long":106.840169,"is_transit":false,"station_name":"Cikini","distance":1750,"i_lat":-6.198556,"line":0,"time":3,"transit":false},{"i_lat":-6.209883,"distance":1590,"i_long":106.84912,"station_id":"MRI","station_name":"Manggarai","transit":true,"line":0,"time":4,"is_transit":true},{"station_name":"Matraman","line":1,"i_lat":-6.212485,"distance":1275,"is_transit":false,"time":2,"transit":false,"station_id":"MTR","i_long":106.858896},{"distance":1377,"time":8,"transit":true,"i_lat":-6.215091,"station_id":"JNG","line":0,"station_name":"Jatinegara","is_transit":true,"i_long":106.86807400000001},{"i_lat":-6.209188,"line":11,"is_transit":false,"station_name":"Pondok Jati","time":2,"i_long":106.861737,"station_id":"POK","transit":false,"distance":1236},{"i_long":106.855437,"transit":false,"i_lat":-6.193792,"line":11,"station_id":"KMT","is_transit":false,"time":2,"station_name":"Kramat","distance":1829},{"station_id":"GST","is_transit":false,"time":1,"i_lat":-6.185975,"i_long":106.850107,"distance":973,"transit":false,"station_name":"Gang Sentiong","line":11},{"time":8,"distance":1567,"i_lat":-6.174784,"transit":false,"station_id":"PSE","station_name":"Pasar Senen","i_long":106.84368,"line":11,"is_transit":false},{"station_id":"KMO","transit":false,"is_transit":false,"i_lat":-6.161728,"distance":1436,"line":11,"i_long":106.839204,"station_name":"Kemayoran","time":4},{"station_id":"RJW","is_transit":false,"distance":1901,"station_name":"Rajawali","transit":false,"i_long":106.836569,"line":11,"time":5,"i_lat":-6.14505},{"line":0,"i_lat":-6.132549,"station_id":"KPB","is_transit":true,"station_name":"Kampung Bandan","transit":true,"i_long":106.826365,"time":3,"distance":1444},{"station_id":"AK","station_name":"Angke","is_transit":false,"line":0,"i_long":106.79867,"distance":4102,"transit":false,"time":9,"i_lat":-6.144674},{"time":4,"line":1,"is_transit":true,"station_name":"Duri","transit":true,"i_lat":-6.155215,"i_long":106.800832,"distance":1230,"station_id":"DU"},{"transit":false,"time":3,"station_id":"GGL","i_lat":-6.162021,"i_long":106.788277,"line":5,"distance":1700,"station_name":"Grogol","is_transit":false},{"i_long":106.771379,"time":2,"distance":2036,"station_name":"Pesing","station_id":"PSG","i_lat":-6.161433,"is_transit":false,"transit":false,"line":5},{"station_name":"Taman Kota","time":2,"i_lat":-6.1587309999999995,"is_transit":false,"i_long":106.756522,"station_id":"TKO","line":5,"distance":1614,"transit":false},{"i_long":106.737035,"is_transit":false,"distance":2334,"station_id":"BOI","line":0,"time":2,"transit":false,"station_name":"Bojongindah","i_lat":-6.159876},{"transit":false,"i_long":106.723064,"station_id":"RW","i_lat":-6.162758,"line":5,"station_name":"Rawa Buaya","is_transit":false,"time":4,"distance":1152},{"i_long":106.701612,"time":3,"distance":2504,"station_name":"Kalideres","station_id":"KDS","transit":false,"is_transit":false,"i_lat":-6.166068,"line":5},{"time":3,"i_long":106.679458,"distance":2548,"station_id":"PI","station_name":"Poris","transit":false,"is_transit":false,"i_lat":-6.169933,"line":5},{"line":0,"station_id":"BPR","station_name":"Batuceper","transit":false,"i_lat":-6.171811,"distance":1834,"is_transit":false,"time":3,"i_long":106.665036}],[{"i_long":106.828284,"line":2,"station_name":"Juanda","transit":false,"is_transit":false,"time":0,"station_id":"JUA","i_lat":-6.166716,"distance":0},{"distance":1149,"time":2,"station_name":"Sawah Besar","line":2,"i_lat":-6.160725,"station_id":"SW","transit":false,"is_transit":false,"i_long":106.827103},{"station_name":"Manggabesar","transit":false,"i_lat":-6.149769,"i_long":106.82482,"is_transit":false,"station_id":"MGB","time":2,"line":2,"distance":906},{"is_transit":false,"distance":1080,"i_lat":-6.141205,"time":2,"line":7,"station_id":"JAY","station_name":"Jayakarta","transit":false,"i_long":106.820901},{"time":4,"station_name":"Jakarta Kota","transit":true,"line":0,"is_transit":true,"i_long":106.812439,"station_id":"JAKK","i_lat":-6.137569,"distance":1264},{"transit":true,"distance":1364,"is_transit":true,"time":3,"station_id":"KPB","i_long":106.826365,"i_lat":-6.132549,"line":0,"station_name":"Kampung Bandan"},{"is_transit":false,"i_lat":-6.14505,"line":11,"time":3,"station_id":"RJW","transit":false,"distance":1444,"station_name":"Rajawali","i_long":106.836569},{"distance":1901,"line":11,"station_name":"Kemayoran","station_id":"KMO","time":5,"i_long":106.839204,"transit":false,"is_transit":false,"i_lat":-6.161728},{"distance":1436,"i_long":106.84368,"transit":false,"time":4,"i_lat":-6.174784,"station_id":"PSE","line":11,"is_transit":false,"station_name":"Pasar Senen"},{"station_name":"Gang Sentiong","transit":false,"station_id":"GST","time":8,"i_lat":-6.185975,"i_long":106.850107,"line":11,"is_transit":false,"distance":1567},{"i_lat":-6.193792,"distance":973,"station_id":"KMT","time":1,"i_long":106.855437,"station_name":"Kramat","transit":false,"line":11,"is_transit":false},{"station_id":"POK","i_long":106.861737,"transit":false,"i_lat":-6.209188,"line":11,"time":2,"distance":1829,"is_transit":false,"station_name":"Pondok Jati"},{"station_name":"Jatinegara","i_lat":-6.215091,"station_id":"JNG","transit":true,"line":0,"time":9,"i_long":106.86807400000001,"distance":1236,"is_transit":true},{"station_name":"Matraman","time":2,"i_lat":-6.212485,"station_id":"MTR","line":1,"transit":false,"i_long":106.858896,"distance":1377,"is_transit":false},{"i_lat":-6.209883,"line":0,"i_long":106.84912,"time":2,"is_transit":true,"distance":1275,"station_name":"Manggarai","transit":false,"station_id":"MRI"},{"line":1,"station_id":"SUD","is_transit":false,"i_long":106.822649,"transit":false,"time":4,"i_lat":-6.202263,"station_name":"Sudirman","distance":3186},{"is_transit":false,"time":1,"station_id":"SUDB","station_name":"Sudirman Baru","transit":false,"i_lat":-6.201433,"i_long":106.819881,"line":1,"distance":280},{"station_id":"KAT","i_lat":-6.20132,"station_name":"Karet","time":1,"transit":false,"is_transit":false,"line":1,"i_long":106.816351,"distance":471},{"time":5,"distance":2029,"transit":false,"i_lat":-6.185545,"line":1,"is_transit":true,"station_name":"Tanah Abang","station_id":"THB","i_long":106.811091},{"station_id":"DU","station_name":"Duri","transit":true,"is_transit":true,"distance":3632,"time":8,"i_long":106.800832,"line":1,"i_lat":-6.155215},{"transit":false,"station_name":"Grogol","i_long":106.788277,"line":5,"i_lat":-6.162021,"is_transit":false,"time":3,"distance":1700,"station_id":"GGL"},{"is_transit":false,"line":5,"station_id":"PSG","station_name":"Pesing","transit":false,"i_lat":-6.161433,"i_long":106.771379,"distance":2036,"time":2},{"station_id":"TKO","i_lat":-6.1587309999999995,"is_transit":false,"station_name":"Taman Kota","line":5,"i_long":106.756522,"time":2,"distance":1614,"transit":false},{"i_long":106.737035,"station_id":"BOI","is_transit":false,"i_lat":-6.159876,"station_name":"Bojongindah","time":2,"line":0,"transit":false,"distance":2334},{"transit":false,"i_lat":-6.162758,"line":5,"i_long":106.723064,"distance":1152,"station_id":"RW","station_name":"Rawa Buaya","is_transit":false,"time":4},{"station_id":"KDS","time":3,"transit":false,"is_transit":false,"distance":2504,"station_name":"Kalideres","i_lat":-6.166068,"i_long":106.701612,"line":5},{"transit":false,"distance":2548,"line":5,"i_lat":-6.169933,"is_transit":false,"station_name":"Poris","i_long":106.679458,"station_id":"PI","time":3},{"distance":1834,"i_lat":-6.171811,"transit":false,"i_long":106.665036,"line":0,"is_transit":false,"station_name":"Batuceper","time":3,"station_id":"BPR"}]]}