{"data":[[{"station_name":"Juanda","is_transit":false,"transit":false,"i_lat":-6.166716,"distance":0,"station_id":"JUA","i_long":106.828284,"time":0,"line":2},{"time":4,"station_id":"GDD","transit":false,"i_lat":-6.186295,"is_transit":false,"i_long":106.832183,"distance":2015,"line":2,"station_name":"Gondangdia"},{"distance":1750,"time":3,"is_transit":false,"i_long":106.840169,"station_name":"Cikini","line":2,"station_id":"CKI","transit":false,"i_lat":-6.198556},{"transit":true,"i_lat":-6.209883,"i_long":106.84912,"line":2,"time":4,"distance":1590,"station_name":"Manggarai","is_transit":true,"station_id":"MRI"},{"i_long":106.858896,"i_lat":-6.212485,"line":1,"distance":1275,"station_id":"MTR","time":2,"is_transit":false,"transit":false,"station_name":"Matraman"},{"is_transit":false,"station_name":"Jatinegara","distance":1377,"i_lat":-6.215091,"line":1,"transit":false,"i_long":106.86807400000001,"time":8,"station_id":"JNG"}],[{"time":0,"station_name":"Juanda","is_transit":false,"transit":false,"distance":0,"line":2,"station_id":"JUA","i_lat":-6.166716,"i_long":106.828284},{"is_transit":false,"distance":1149,"station_id":"SW","station_name":"Sawah Besar","transit":false,"i_long":106.827103,"time":2,"i_lat":-6.160725,"line":2},{"distance":906,"station_id":"MGB","station_name":"Manggabesar","is_transit":false,"transit":false,"i_long":106.82482,"time":2,"i_lat":-6.149769,"line":2},{"i_long":106.820901,"line":2,"station_name":"Jayakarta","is_transit":false,"distance":1080,"i_lat":-6.141205,"transit":false,"time":2,"station_id":"JAY"},{"transit":true,"station_name":"Jakarta Kota","line":2,"distance":1264,"i_long":106.812439,"time":4,"station_id":"JAKK","is_transit":true,"i_lat":-6.137569},{"time":3,"i_long":106.826365,"distance":1364,"line":4,"station_id":"KPB","is_transit":true,"station_name":"Kampung Bandan","transit":true,"i_lat":-6.132549},{"transit":false,"i_long":106.836569,"is_transit":false,"line":11,"distance":1444,"time":3,"station_id":"RJW","station_name":"Rajawali","i_lat":-6.14505},{"i_lat":-6.161728,"station_name":"Kemayoran","is_transit":false,"i_long":106.839204,"station_id":"KMO","line":11,"time":5,"transit":false,"distance":1901},{"distance":1436,"transit":false,"i_long":106.84368,"station_id":"PSE","is_transit":false,"line":11,"station_name":"Pasar Senen","time":4,"i_lat":-6.174784},{"line":11,"i_lat":-6.185975,"station_name":"Gang Sentiong","i_long":106.850107,"transit":false,"station_id":"GST","is_transit":false,"distance":1567,"time":8},{"is_transit":false,"distance":973,"station_id":"KMT","line":11,"time":1,"i_long":106.855437,"i_lat":-6.193792,"transit":false,"station_name":"Kramat"},{"is_transit":false,"distance":1829,"station_name":"Pondok Jati","time":2,"station_id":"POK","i_lat":-6.209188,"line":11,"i_long":106.861737,"transit":false},{"is_transit":false,"time":9,"distance":1236,"station_name":"Jatinegara","line":1,"station_id":"JNG","i_lat":-6.215091,"i_long":106.86807400000001,"transit":false}],[{"distance":0,"time":0,"i_long":106.828284,"transit":false,"line":2,"i_lat":-6.166716,"station_name":"Juanda","station_id":"JUA","is_transit":false},{"i_long":106.827103,"line":2,"station_id":"SW","i_lat":-6.160725,"time":2,"is_transit":false,"transit":false,"distance":1149,"station_name":"Sawah Besar"},{"distance":906,"station_name":"Manggabesar","transit":false,"station_id":"MGB","is_transit":false,"time":2,"i_lat":-6.149769,"i_long":106.82482,"line":2},{"i_lat":-6.141205,"i_long":106.820901,"time":2,"station_id":"JAY","is_transit":false,"line":2,"distance":1080,"station_name":"Jayakarta","transit":false},{"transit":true,"station_name":"Jakarta Kota","i_lat":-6.137569,"line":2,"is_transit":true,"station_id":"JAKK","distance":1264,"i_long":106.812439,"time":4},{"transit":true,"station_id":"KPB","line":4,"station_name":"Kampung Bandan","time":3,"distance":1364,"i_lat":-6.132549,"i_long":106.826365,"is_transit":true},{"transit":false,"is_transit":false,"station_name":"Angke","distance":4102,"time":9,"station_id":"AK","i_lat":-6.144674,"i_long":106.79867,"line":1},{"time":4,"station_id":"DU","distance":1230,"station_name":"Duri","is_transit":false,"line":1,"transit":false,"i_long":106.800832,"i_lat":-6.155215},{"station_id":"THB","time":8,"line":1,"station_name":"Tanah Abang","is_transit":false,"transit":false,"i_lat":-6.185545,"i_long":106.811091,"distance":3632},{"transit":false,"station_id":"KAT","line":1,"i_long":106.816351,"distance":2029,"station_name":"Karet","time":5,"is_transit":false,"i_lat":-6.20132},{"station_name":"Sudirman Baru","i_lat":-6.201433,"station_id":"SUDB","distance":471,"transit":false,"i_long":106.819881,"is_transit":false,"line":1,"time":1},{"time":1,"line":1,"station_id":"SUD","transit":false,"distance":280,"is_transit":false,"station_name":"Sudirman","i_long":106.822649,"i_lat":-6.202263},{"distance":3186,"station_name":"Manggarai","transit":false,"is_transit":false,"i_long":106.84912,"time":4,"line":2,"i_lat":-6.209883,"station_id":"MRI"},{"is_transit":false,"station_name":"Matraman","time":2,"line":1,"distance":1275,"transit":false,"i_lat":-6.212485,"station_id":"MTR","i_long":106.858896},{"transit":false,"time":8,"distance":1377,"station_id":"JNG","is_transit":false,"line":1,"station_name":"Jatinegara","i_long":106.86807400000001,"i_lat":-6.215091}],[{"station_name":"Juanda","i_lat":-6.166716,"time":0,"is_transit":false,"station_id":"JUA","transit":false,"i_long":106.828284,"line":2,"distance":0},{"time":4,"distance":2015,"is_transit":false,"i_lat":-6.186295,"station_id":"GDD","station_name":"Gondangdia","line":2,"transit":false,"i_long":106.832183},{"time":3,"distance":1750,"station_id":"CKI","transit":false,"i_long":106.840169,"station_name":"Cikini","i_lat":-6.198556,"is_transit":false,"line":2},{"is_transit":true,"station_name":"Manggarai","i_long":106.84912,"station_id":"MRI","transit":true,"time":4,"i_lat":-6.209883,"distance":1590,"line":2},{"i_long":106.822649,"time":4,"is_transit":false,"transit":false,"i_lat":-6.202263,"distance":3186,"station_id":"SUD","station_name":"Sudirman","line":1},{"time":1,"i_lat":-6.201433,"distance":280,"i_long":106.819881,"transit":false,"station_name":"Sudirman Baru","station_id":"SUDB","is_transit":false,"line":1},{"is_transit":false,"line":1,"i_long":106.816351,"station_id":"KAT","time":1,"i_lat":-6.20132,"transit":false,"distance":471,"station_name":"Karet"},{"station_name":"Tanah Abang","i_long":106.811091,"line":1,"transit":false,"time":5,"is_transit":false,"station_id":"THB","distance":2029,"i_lat":-6.185545},{"distance":3632,"i_long":106.800832,"is_transit":false,"transit":false,"line":1,"station_name":"Duri","i_lat":-6.155215,"station_id":"DU","time":8},{"station_id":"AK","station_name":"Angke","distance":1230,"time":4,"i_long":106.79867,"i_lat":-6.144674,"is_transit":false,"transit":false,"line":1},{"is_transit":true,"i_lat":-6.132549,"time":9,"line":4,"distance":4102,"station_id":"KPB","transit":true,"station_name":"Kampung Bandan","i_long":106.826365},{"distance":1444,"line":11,"time":3,"station_id":"RJW","station_name":"Rajawali","i_long":106.836569,"is_transit":false,"i_lat":-6.14505,"transit":false},{"transit":false,"distance":1901,"is_transit":false,"station_id":"KMO","i_lat":-6.161728,"i_long":106.839204,"line":11,"time":5,"station_name":"Kemayoran"},{"station_id":"PSE","i_long":106.84368,"time":4,"station_name":"Pasar Senen","is_transit":false,"line":11,"i_lat":-6.174784,"transit":false,"distance":1436},{"distance":1567,"transit":false,"line":11,"station_id":"GST","is_transit":false,"station_name":"Gang Sentiong","time":8,"i_lat":-6.185975,"i_long":106.850107},{"i_long":106.855437,"time":1,"line":11,"station_id":"KMT","is_transit":false,"station_name":"Kramat","i_lat":-6.193792,"distance":973,"transit":false},{"time":2,"station_id":"POK","station_name":"Pondok Jati","distance":1829,"is_transit":false,"transit":false,"i_lat":-6.209188,"i_long":106.861737,"line":11},{"transit":false,"time":9,"station_name":"Jatinegara","is_transit":false,"station_id":"JNG","i_lat":-6.215091,"i_long":106.86807400000001,"line":1,"distance":1236}]]}