{"data":[[{"i_long":106.828284,"station_id":"JUA","time":0,"transit":false,"distance":0,"station_name":"Juanda","line":2,"is_transit":false,"i_lat":-6.166716},{"transit":false,"station_name":"Sawah Besar","i_long":106.827103,"line":2,"station_id":"SW","i_lat":-6.160725,"time":2,"distance":1149,"is_transit":false},{"is_transit":false,"time":2,"transit":false,"station_name":"Manggabesar","i_lat":-6.149769,"i_long":106.82482,"line":2,"station_id":"MGB","distance":906},{"transit":false,"station_id":"JAY","i_lat":-6.141205,"distance":1080,"line":2,"time":2,"is_transit":false,"i_long":106.820901,"station_name":"Jayakarta"},{"i_long":106.812439,"line":2,"i_lat":-6.137569,"time":4,"is_transit":false,"transit":false,"distance":1264,"station_id":"JAKK","station_name":"Jakarta Kota"}],[{"i_lat":-6.166716,"i_long":106.828284,"distance":0,"line":2,"time":0,"transit":false,"is_transit":false,"station_id":"JUA","station_name":"Juanda"},{"station_name":"Gondangdia","time":4,"station_id":"GDD","is_transit":false,"i_lat":-6.186295,"i_long":106.832183,"transit":false,"distance":2015,"line":2},{"i_lat":-6.198556,"i_long":106.840169,"transit":false,"line":2,"time":3,"is_transit":false,"station_name":"Cikini","station_id":"CKI","distance":1750},{"line":2,"station_id":"MRI","time":4,"station_name":"Manggarai","i_long":106.84912,"distance":1590,"transit":true,"is_transit":true,"i_lat":-6.209883},{"i_long":106.822649,"distance":3186,"station_id":"SUD","is_transit":false,"line":1,"i_lat":-6.202263,"station_name":"Sudirman","transit":false,"time":4},{"line":1,"is_transit":false,"time":1,"distance":280,"station_id":"SUDB","i_lat":-6.201433,"transit":false,"i_long":106.819881,"station_name":"Sudirman Baru"},{"i_lat":-6.20132,"is_transit":false,"time":1,"transit":false,"station_name":"Karet","i_long":106.816351,"line":1,"distance":471,"station_id":"KAT"},{"line":1,"distance":2029,"time":5,"station_name":"Tanah Abang","transit":false,"i_long":106.811091,"station_id":"THB","is_transit":false,"i_lat":-6.185545},{"i_long":106.800832,"time":8,"station_id":"DU","is_transit":false,"transit":false,"station_name":"Duri","i_lat":-6.155215,"line":1,"distance":3632},{"distance":1230,"is_transit":false,"time":4,"i_long":106.79867,"station_id":"AK","station_name":"Angke","transit":false,"i_lat":-6.144674,"line":1},{"is_transit":true,"station_name":"Kampung Bandan","transit":true,"i_long":106.826365,"line":4,"distance":4102,"time":9,"station_id":"KPB","i_lat":-6.132549},{"is_transit":false,"transit":false,"distance":1364,"station_id":"JAKK","station_name":"Jakarta Kota","time":3,"line":2,"i_long":106.812439,"i_lat":-6.137569}],[{"station_id":"JUA","transit":false,"distance":0,"i_lat":-6.166716,"line":2,"is_transit":false,"time":0,"station_name":"Juanda","i_long":106.828284},{"line":2,"station_id":"GDD","station_name":"Gondangdia","transit":false,"i_lat":-6.186295,"distance":2015,"is_transit":false,"i_long":106.832183,"time":4},{"transit":false,"station_id":"CKI","is_transit":false,"i_long":106.840169,"i_lat":-6.198556,"time":3,"distance":1750,"station_name":"Cikini","line":2},{"distance":1590,"station_name":"Manggarai","line":2,"i_long":106.84912,"time":4,"station_id":"MRI","is_transit":true,"transit":true,"i_lat":-6.209883},{"transit":false,"i_lat":-6.212485,"line":1,"distance":1275,"is_transit":false,"time":2,"station_id":"MTR","station_name":"Matraman","i_long":106.858896},{"time":8,"is_transit":true,"line":1,"distance":1377,"station_id":"JNG","transit":true,"station_name":"Jatinegara","i_long":106.86807400000001,"i_lat":-6.215091},{"i_long":106.861737,"transit":false,"station_id":"POK","i_lat":-6.209188,"time":2,"distance":1236,"station_name":"Pondok Jati","is_transit":false,"line":11},{"station_id":"KMT","transit":false,"station_name":"Kramat","line":11,"i_long":106.855437,"is_transit":false,"i_lat":-6.193792,"distance":1829,"time":2},{"transit":false,"time":1,"i_lat":-6.185975,"i_long":106.850107,"line":11,"station_name":"Gang Sentiong","distance":973,"station_id":"GST","is_transit":false},{"i_lat":-6.174784,"line":11,"time":8,"station_name":"Pasar Senen","transit":false,"station_id":"PSE","is_transit":false,"i_long":106.84368,"distance":1567},{"station_name":"Kemayoran","i_lat":-6.161728,"transit":false,"line":11,"station_id":"KMO","time":4,"i_long":106.839204,"distance":1436,"is_transit":false},{"is_transit":false,"station_name":"Rajawali","line":11,"time":5,"i_long":106.836569,"station_id":"RJW","transit":false,"distance":1901,"i_lat":-6.14505},{"station_name":"Kampung Bandan","time":3,"transit":true,"is_transit":true,"i_lat":-6.132549,"station_id":"KPB","i_long":106.826365,"line":4,"distance":1444},{"transit":false,"station_id":"JAKK","i_lat":-6.137569,"distance":1364,"i_long":106.812439,"line":2,"time":3,"station_name":"Jakarta Kota","is_transit":false}]]}