{"data":[[{"line":2,"i_lat":-6.166716,"station_id":"JUA","is_transit":false,"i_long":106.828284,"station_name":"Juanda","time":0,"distance":0,"transit":false},{"time":4,"i_lat":-6.186295,"station_name":"Gondangdia","line":2,"is_transit":false,"i_long":106.832183,"station_id":"GDD","distance":2015,"transit":false},{"i_long":106.840169,"station_id":"CKI","line":0,"distance":1750,"time":3,"station_name":"Cikini","is_transit":false,"transit":false,"i_lat":-6.198556},{"time":4,"line":0,"is_transit":true,"station_name":"Manggarai","distance":1590,"i_lat":-6.209883,"i_long":106.84912,"transit":true,"station_id":"MRI"},{"station_name":"Sudirman","time":4,"i_long":106.822649,"distance":3186,"i_lat":-6.202263,"line":1,"is_transit":false,"transit":false,"station_id":"SUD"},{"time":1,"station_name":"Sudirman Baru","line":1,"i_lat":-6.201433,"i_long":106.819881,"is_transit":false,"distance":280,"station_id":"SUDB","transit":false},{"is_transit":false,"time":1,"distance":471,"station_id":"KAT","i_lat":-6.20132,"i_long":106.816351,"line":1,"station_name":"Karet","transit":false},{"station_name":"Tanah Abang","i_long":106.811091,"station_id":"THB","distance":2029,"is_transit":true,"time":5,"i_lat":-6.185545,"transit":false,"line":1}],[{"time":0,"distance":0,"i_lat":-6.166716,"i_long":106.828284,"transit":false,"line":2,"is_transit":false,"station_id":"JUA","station_name":"Juanda"},{"is_transit":false,"station_name":"Sawah Besar","time":2,"distance":1149,"line":2,"i_lat":-6.160725,"transit":false,"station_id":"SW","i_long":106.827103},{"line":2,"station_name":"Manggabesar","distance":906,"i_lat":-6.149769,"station_id":"MGB","is_transit":false,"time":2,"transit":false,"i_long":106.82482},{"station_name":"Jayakarta","distance":1080,"station_id":"JAY","transit":false,"i_lat":-6.141205,"time":2,"i_long":106.820901,"is_transit":false,"line":7},{"time":4,"station_id":"JAKK","distance":1264,"line":0,"i_lat":-6.137569,"i_long":106.812439,"is_transit":true,"transit":true,"station_name":"Jakarta Kota"},{"time":3,"distance":1364,"station_id":"KPB","line":0,"is_transit":true,"i_lat":-6.132549,"transit":false,"station_name":"Kampung Bandan","i_long":106.826365},{"is_transit":false,"transit":false,"station_id":"AK","line":0,"time":9,"i_long":106.79867,"station_name":"Angke","i_lat":-6.144674,"distance":4102},{"line":1,"station_id":"DU","is_transit":true,"distance":1230,"i_lat":-6.155215,"transit":true,"station_name":"Duri","i_long":106.800832,"time":4},{"station_name":"Tanah Abang","i_lat":-6.185545,"distance":3632,"i_long":106.811091,"line":1,"station_id":"THB","time":8,"is_transit":true,"transit":false}],[{"station_name":"Juanda","station_id":"JUA","distance":0,"line":2,"i_lat":-6.166716,"i_long":106.828284,"is_transit":false,"time":0,"transit":false},{"i_long":106.832183,"time":4,"distance":2015,"station_name":"Gondangdia","line":2,"i_lat":-6.186295,"transit":false,"is_transit":false,"station_id":"GDD"},{"distance":1750,"is_transit":false,"time":3,"station_name":"Cikini","i_lat":-6.198556,"transit":false,"i_long":106.840169,"line":0,"station_id":"CKI"},{"is_transit":true,"line":0,"transit":true,"station_id":"MRI","time":4,"i_long":106.84912,"distance":1590,"i_lat":-6.209883,"station_name":"Manggarai"},{"station_name":"Matraman","i_long":106.858896,"line":1,"distance":1275,"transit":false,"i_lat":-6.212485,"station_id":"MTR","time":2,"is_transit":false},{"i_long":106.86807400000001,"line":0,"distance":1377,"i_lat":-6.215091,"station_id":"JNG","is_transit":true,"transit":true,"time":8,"station_name":"Jatinegara"},{"distance":1236,"is_transit":false,"station_id":"POK","line":11,"i_lat":-6.209188,"i_long":106.861737,"station_name":"Pondok Jati","time":2,"transit":false},{"i_long":106.855437,"line":11,"station_id":"KMT","time":2,"transit":false,"is_transit":false,"station_name":"Kramat","distance":1829,"i_lat":-6.193792},{"line":11,"station_name":"Gang Sentiong","time":1,"transit":false,"is_transit":false,"distance":973,"i_lat":-6.185975,"station_id":"GST","i_long":106.850107},{"station_id":"PSE","station_name":"Pasar Senen","distance":1567,"i_lat":-6.174784,"is_transit":false,"line":11,"i_long":106.84368,"time":8,"transit":false},{"transit":false,"i_lat":-6.161728,"station_id":"KMO","i_long":106.839204,"is_transit":false,"line":11,"station_name":"Kemayoran","distance":1436,"time":4},{"line":11,"station_name":"Rajawali","distance":1901,"station_id":"RJW","time":5,"transit":false,"is_transit":false,"i_lat":-6.14505,"i_long":106.836569},{"i_lat":-6.132549,"distance":1444,"i_long":106.826365,"station_name":"Kampung Bandan","line":0,"station_id":"KPB","time":3,"transit":true,"is_transit":true},{"line":0,"station_id":"AK","station_name":"Angke","transit":false,"i_lat":-6.144674,"distance":4102,"time":9,"i_long":106.79867,"is_transit":false},{"station_id":"DU","line":1,"station_name":"Duri","distance":1230,"transit":true,"time":4,"is_transit":true,"i_lat":-6.155215,"i_long":106.800832},{"station_id":"THB","time":8,"is_transit":true,"station_name":"Tanah Abang","i_long":106.811091,"distance":3632,"transit":false,"i_lat":-6.185545,"line":1}],[{"station_id":"JUA","is_transit":false,"i_long":106.828284,"time":0,"transit":false,"line":2,"distance":0,"i_lat":-6.166716,"station_name":"Juanda"},{"distance":1149,"i_lat":-6.160725,"i_long":106.827103,"station_name":"Sawah Besar","transit":false,"time":2,"station_id":"SW","is_transit":false,"line":2},{"station_name":"Manggabesar","time":2,"i_lat":-6.149769,"distance":906,"station_id":"MGB","line":2,"i_long":106.82482,"is_transit":false,"transit":false},{"time":2,"station_id":"JAY","distance":1080,"i_long":106.820901,"transit":false,"station_name":"Jayakarta","line":7,"is_transit":false,"i_lat":-6.141205},{"i_long":106.812439,"time":4,"line":0,"station_name":"Jakarta Kota","is_transit":true,"distance":1264,"station_id":"JAKK","transit":true,"i_lat":-6.137569},{"line":0,"i_long":106.826365,"distance":1364,"transit":true,"i_lat":-6.132549,"is_transit":true,"station_name":"Kampung Bandan","station_id":"KPB","time":3},{"i_long":106.836569,"station_id":"RJW","station_name":"Rajawali","distance":1444,"time":3,"line":11,"is_transit":false,"transit":false,"i_lat":-6.14505},{"line":11,"is_transit":false,"station_id":"KMO","i_long":106.839204,"time":5,"transit":false,"i_lat":-6.161728,"station_name":"Kemayoran","distance":1901},{"time":4,"i_long":106.84368,"distance":1436,"i_lat":-6.174784,"station_id":"PSE","station_name":"Pasar Senen","line":11,"transit":false,"is_transit":false},{"transit":false,"time":8,"distance":1567,"i_long":106.850107,"station_name":"Gang Sentiong","is_transit":false,"line":11,"station_id":"GST","i_lat":-6.185975},{"distance":973,"transit":false,"is_transit":false,"i_lat":-6.193792,"line":11,"station_id":"KMT","time":1,"station_name":"Kramat","i_long":106.855437},{"station_name":"Pondok Jati","transit":false,"station_id":"POK","is_transit":false,"i_lat":-6.209188,"i_long":106.861737,"line":11,"time":2,"distance":1829},{"i_long":106.86807400000001,"station_name":"Jatinegara","distance":1236,"i_lat":-6.215091,"time":9,"line":0,"is_transit":true,"station_id":"JNG","transit":true},{"distance":1377,"line":1,"i_long":106.858896,"transit":false,"i_lat":-6.212485,"is_transit":false,"station_name":"Matraman","station_id":"MTR","time":2},{"station_id":"MRI","i_long":106.84912,"station_name":"Manggarai","line":0,"time":2,"transit":false,"distance":1275,"i_lat":-6.209883,"is_transit":true},{"station_id":"SUD","is_transit":false,"transit":false,"station_name":"Sudirman","i_long":106.822649,"time":4,"distance":3186,"i_lat":-6.202263,"line":1},{"is_transit":false,"i_lat":-6.201433,"distance":280,"station_id":"SUDB","station_name":"Sudirman Baru","i_long":106.819881,"transit":false,"time":1,"line":1},{"line":1,"is_transit":false,"station_name":"Karet","transit":false,"distance":471,"time":1,"i_lat":-6.20132,"i_long":106.816351,"station_id":"KAT"},{"distance":2029,"i_lat":-6.185545,"station_id":"THB","is_transit":true,"i_long":106.811091,"station_name":"Tanah Abang","line":1,"transit":false,"time":5}]]}