{"data":[[{"time":0,"is_transit":false,"station_id":"JUA","i_lat":-6.166716,"i_long":106.828284,"line":2,"station_name":"Juanda","transit":false,"distance":0},{"transit":false,"is_transit":false,"i_lat":-6.186295,"station_id":"GDD","time":4,"i_long":106.832183,"line":2,"station_name":"Gondangdia","distance":2015},{"time":3,"is_transit":false,"distance":1750,"transit":false,"i_long":106.840169,"station_id":"CKI","station_name":"Cikini","i_lat":-6.198556,"line":2},{"transit":true,"time":4,"distance":1590,"is_transit":true,"i_lat":-6.209883,"i_long":106.84912,"station_name":"Manggarai","line":2,"station_id":"MRI"},{"is_transit":false,"time":4,"station_id":"SUD","distance":3186,"station_name":"Sudirman","i_lat":-6.202263,"line":1,"transit":false,"i_long":106.822649},{"is_transit":false,"station_id":"SUDB","distance":280,"transit":false,"time":1,"i_lat":-6.201433,"i_long":106.819881,"line":1,"station_name":"Sudirman Baru"},{"station_name":"Karet","transit":false,"i_lat":-6.20132,"time":1,"line":1,"is_transit":false,"station_id":"KAT","i_long":106.816351,"distance":471},{"i_long":106.811091,"line":1,"station_name":"Tanah Abang","time":5,"transit":false,"is_transit":false,"i_lat":-6.185545,"station_id":"THB","distance":2029}],[{"line":2,"distance":0,"i_lat":-6.166716,"station_name":"Juanda","is_transit":false,"time":0,"station_id":"JUA","transit":false,"i_long":106.828284},{"station_name":"Sawah Besar","line":2,"time":2,"i_long":106.827103,"transit":false,"is_transit":false,"i_lat":-6.160725,"station_id":"SW","distance":1149},{"is_transit":false,"i_lat":-6.149769,"station_name":"Manggabesar","i_long":106.82482,"time":2,"distance":906,"transit":false,"line":2,"station_id":"MGB"},{"distance":1080,"transit":false,"i_lat":-6.141205,"time":2,"line":2,"station_id":"JAY","i_long":106.820901,"is_transit":false,"station_name":"Jayakarta"},{"i_lat":-6.137569,"time":4,"i_long":106.812439,"station_id":"JAKK","transit":true,"is_transit":true,"line":2,"distance":1264,"station_name":"Jakarta Kota"},{"distance":1364,"is_transit":true,"i_long":106.826365,"station_name":"Kampung Bandan","transit":true,"line":4,"i_lat":-6.132549,"time":3,"station_id":"KPB"},{"i_long":106.79867,"line":1,"is_transit":false,"i_lat":-6.144674,"distance":4102,"station_id":"AK","transit":false,"time":9,"station_name":"Angke"},{"is_transit":false,"station_name":"Duri","i_lat":-6.155215,"station_id":"DU","transit":false,"i_long":106.800832,"time":4,"line":1,"distance":1230},{"time":8,"station_name":"Tanah Abang","station_id":"THB","distance":3632,"transit":false,"line":1,"is_transit":false,"i_lat":-6.185545,"i_long":106.811091}],[{"i_long":106.828284,"station_id":"JUA","is_transit":false,"transit":false,"i_lat":-6.166716,"line":2,"station_name":"Juanda","time":0,"distance":0},{"i_long":106.832183,"time":4,"distance":2015,"transit":false,"station_id":"GDD","line":2,"is_transit":false,"station_name":"Gondangdia","i_lat":-6.186295},{"station_name":"Cikini","station_id":"CKI","time":3,"is_transit":false,"distance":1750,"line":2,"i_lat":-6.198556,"transit":false,"i_long":106.840169},{"station_name":"Manggarai","i_lat":-6.209883,"transit":true,"time":4,"distance":1590,"is_transit":true,"station_id":"MRI","line":2,"i_long":106.84912},{"station_name":"Matraman","transit":false,"distance":1275,"is_transit":false,"station_id":"MTR","time":2,"line":1,"i_long":106.858896,"i_lat":-6.212485},{"i_lat":-6.215091,"station_id":"JNG","distance":1377,"transit":true,"time":8,"is_transit":true,"station_name":"Jatinegara","i_long":106.86807400000001,"line":1},{"time":2,"station_name":"Pondok Jati","i_long":106.861737,"i_lat":-6.209188,"is_transit":false,"transit":false,"line":11,"distance":1236,"station_id":"POK"},{"distance":1829,"transit":false,"i_lat":-6.193792,"line":11,"is_transit":false,"time":2,"i_long":106.855437,"station_id":"KMT","station_name":"Kramat"},{"time":1,"station_id":"GST","i_lat":-6.185975,"line":11,"is_transit":false,"distance":973,"i_long":106.850107,"station_name":"Gang Sentiong","transit":false},{"i_long":106.84368,"station_id":"PSE","distance":1567,"time":8,"line":11,"is_transit":false,"i_lat":-6.174784,"transit":false,"station_name":"Pasar Senen"},{"distance":1436,"time":4,"i_lat":-6.161728,"i_long":106.839204,"line":11,"station_id":"KMO","station_name":"Kemayoran","is_transit":false,"transit":false},{"transit":false,"time":5,"station_id":"RJW","i_lat":-6.14505,"i_long":106.836569,"station_name":"Rajawali","is_transit":false,"distance":1901,"line":11},{"i_lat":-6.132549,"transit":true,"station_name":"Kampung Bandan","line":4,"distance":1444,"i_long":106.826365,"is_transit":true,"station_id":"KPB","time":3},{"transit":false,"station_name":"Angke","line":1,"time":9,"is_transit":false,"i_lat":-6.144674,"i_long":106.79867,"distance":4102,"station_id":"AK"},{"time":4,"i_lat":-6.155215,"transit":false,"station_id":"DU","distance":1230,"i_long":106.800832,"line":1,"station_name":"Duri","is_transit":false},{"station_name":"Tanah Abang","i_lat":-6.185545,"i_long":106.811091,"line":1,"transit":false,"distance":3632,"is_transit":false,"time":8,"station_id":"THB"}],[{"station_name":"Juanda","distance":0,"is_transit":false,"i_lat":-6.166716,"line":2,"time":0,"i_long":106.828284,"transit":false,"station_id":"JUA"},{"station_name":"Sawah Besar","i_long":106.827103,"line":2,"distance":1149,"station_id":"SW","transit":false,"i_lat":-6.160725,"time":2,"is_transit":false},{"transit":false,"line":2,"is_transit":false,"station_id":"MGB","station_name":"Manggabesar","i_lat":-6.149769,"distance":906,"time":2,"i_long":106.82482},{"i_long":106.820901,"is_transit":false,"station_id":"JAY","transit":false,"station_name":"Jayakarta","line":2,"distance":1080,"time":2,"i_lat":-6.141205},{"transit":true,"station_id":"JAKK","distance":1264,"station_name":"Jakarta Kota","is_transit":true,"line":2,"i_lat":-6.137569,"i_long":106.812439,"time":4},{"i_lat":-6.132549,"distance":1364,"time":3,"transit":true,"line":4,"station_id":"KPB","is_transit":true,"station_name":"Kampung Bandan","i_long":106.826365},{"time":3,"station_id":"RJW","line":11,"station_name":"Rajawali","i_long":106.836569,"is_transit":false,"distance":1444,"transit":false,"i_lat":-6.14505},{"i_long":106.839204,"is_transit":false,"station_id":"KMO","distance":1901,"i_lat":-6.161728,"time":5,"transit":false,"station_name":"Kemayoran","line":11},{"transit":false,"station_name":"Pasar Senen","distance":1436,"i_lat":-6.174784,"station_id":"PSE","i_long":106.84368,"time":4,"is_transit":false,"line":11},{"i_long":106.850107,"i_lat":-6.185975,"distance":1567,"station_name":"Gang Sentiong","transit":false,"is_transit":false,"line":11,"station_id":"GST","time":8},{"is_transit":false,"line":11,"station_id":"KMT","distance":973,"time":1,"transit":false,"station_name":"Kramat","i_lat":-6.193792,"i_long":106.855437},{"i_long":106.861737,"station_id":"POK","distance":1829,"i_lat":-6.209188,"is_transit":false,"time":2,"line":11,"transit":false,"station_name":"Pondok Jati"},{"is_transit":true,"station_id":"JNG","transit":true,"i_lat":-6.215091,"time":9,"station_name":"Jatinegara","i_long":106.86807400000001,"line":1,"distance":1236},{"is_transit":false,"station_name":"Matraman","time":2,"i_long":106.858896,"i_lat":-6.212485,"distance":1377,"station_id":"MTR","transit":false,"line":1},{"i_lat":-6.209883,"i_long":106.84912,"station_id":"MRI","time":2,"line":2,"distance":1275,"station_name":"Manggarai","is_transit":false,"transit":false},{"station_id":"SUD","distance":3186,"is_transit":false,"i_lat":-6.202263,"i_long":106.822649,"line":1,"time":4,"transit":false,"station_name":"Sudirman"},{"transit":false,"i_lat":-6.201433,"i_long":106.819881,"station_name":"Sudirman Baru","station_id":"SUDB","line":1,"distance":280,"is_transit":false,"time":1},{"i_lat":-6.20132,"line":1,"distance":471,"time":1,"is_transit":false,"station_id":"KAT","station_name":"Karet","i_long":106.816351,"transit":false},{"time":5,"transit":false,"i_lat":-6.185545,"i_long":106.811091,"distance":2029,"is_transit":false,"station_id":"THB","station_name":"Tanah Abang","line":1}]]}