{"data":[[{"line":2,"i_lat":-6.166716,"station_name":"Juanda","i_long":106.828284,"station_id":"JUA","is_transit":false,"time":0,"transit":false,"distance":0},{"time":4,"transit":false,"i_lat":-6.186295,"line":2,"distance":2015,"station_name":"Gondangdia","i_long":106.832183,"station_id":"GDD","is_transit":false},{"is_transit":false,"transit":false,"i_lat":-6.198556,"time":3,"station_id":"CKI","distance":1750,"i_long":106.840169,"line":0,"station_name":"Cikini"},{"distance":1590,"transit":true,"station_id":"MRI","station_name":"Manggarai","line":0,"i_lat":-6.209883,"i_long":106.84912,"time":4,"is_transit":true},{"i_long":106.858896,"transit":false,"is_transit":false,"station_id":"MTR","station_name":"Matraman","i_lat":-6.212485,"time":2,"line":1,"distance":1275},{"i_lat":-6.215091,"i_long":106.86807400000001,"line":0,"distance":1377,"is_transit":true,"station_name":"Jatinegara","station_id":"JNG","transit":false,"time":8}],[{"i_lat":-6.166716,"line":2,"i_long":106.828284,"time":0,"transit":false,"distance":0,"station_id":"JUA","is_transit":false,"station_name":"Juanda"},{"distance":1149,"i_lat":-6.160725,"station_id":"SW","i_long":106.827103,"line":2,"transit":false,"is_transit":false,"station_name":"Sawah Besar","time":2},{"station_name":"Manggabesar","is_transit":false,"transit":false,"distance":906,"i_lat":-6.149769,"i_long":106.82482,"station_id":"MGB","line":2,"time":2},{"transit":false,"i_lat":-6.141205,"distance":1080,"station_id":"JAY","station_name":"Jayakarta","line":7,"is_transit":false,"time":2,"i_long":106.820901},{"is_transit":true,"i_long":106.812439,"time":4,"line":0,"station_id":"JAKK","transit":true,"distance":1264,"station_name":"Jakarta Kota","i_lat":-6.137569},{"station_id":"KPB","line":0,"distance":1364,"station_name":"Kampung Bandan","time":3,"i_long":106.826365,"i_lat":-6.132549,"is_transit":true,"transit":true},{"is_transit":false,"station_id":"RJW","time":3,"distance":1444,"station_name":"Rajawali","transit":false,"i_lat":-6.14505,"line":11,"i_long":106.836569},{"i_lat":-6.161728,"station_name":"Kemayoran","distance":1901,"station_id":"KMO","line":11,"time":5,"transit":false,"i_long":106.839204,"is_transit":false},{"i_long":106.84368,"is_transit":false,"time":4,"station_name":"Pasar Senen","distance":1436,"line":11,"station_id":"PSE","transit":false,"i_lat":-6.174784},{"is_transit":false,"i_long":106.850107,"line":11,"transit":false,"station_id":"GST","time":8,"i_lat":-6.185975,"distance":1567,"station_name":"Gang Sentiong"},{"i_lat":-6.193792,"i_long":106.855437,"distance":973,"station_id":"KMT","line":11,"is_transit":false,"transit":false,"station_name":"Kramat","time":1},{"transit":false,"i_lat":-6.209188,"i_long":106.861737,"time":2,"distance":1829,"line":11,"is_transit":false,"station_id":"POK","station_name":"Pondok Jati"},{"i_long":106.86807400000001,"line":0,"transit":false,"distance":1236,"is_transit":true,"station_name":"Jatinegara","time":9,"i_lat":-6.215091,"station_id":"JNG"}],[{"i_lat":-6.166716,"distance":0,"i_long":106.828284,"transit":false,"time":0,"line":2,"is_transit":false,"station_name":"Juanda","station_id":"JUA"},{"is_transit":false,"transit":false,"i_long":106.827103,"i_lat":-6.160725,"station_name":"Sawah Besar","time":2,"station_id":"SW","line":2,"distance":1149},{"station_name":"Manggabesar","i_long":106.82482,"time":2,"line":2,"station_id":"MGB","distance":906,"transit":false,"is_transit":false,"i_lat":-6.149769},{"station_id":"JAY","time":2,"transit":false,"i_lat":-6.141205,"is_transit":false,"i_long":106.820901,"station_name":"Jayakarta","distance":1080,"line":7},{"i_long":106.812439,"transit":true,"station_id":"JAKK","distance":1264,"time":4,"i_lat":-6.137569,"line":0,"station_name":"Jakarta Kota","is_transit":true},{"distance":1364,"time":3,"i_lat":-6.132549,"station_name":"Kampung Bandan","transit":false,"line":0,"station_id":"KPB","i_long":106.826365,"is_transit":true},{"station_name":"Angke","time":9,"transit":false,"i_long":106.79867,"line":0,"station_id":"AK","is_transit":false,"i_lat":-6.144674,"distance":4102},{"station_name":"Duri","transit":true,"is_transit":true,"time":4,"station_id":"DU","i_lat":-6.155215,"i_long":106.800832,"line":1,"distance":1230},{"line":1,"station_id":"THB","station_name":"Tanah Abang","time":8,"distance":3632,"is_transit":true,"i_lat":-6.185545,"i_long":106.811091,"transit":false},{"time":5,"distance":2029,"line":1,"i_lat":-6.20132,"transit":false,"i_long":106.816351,"station_name":"Karet","station_id":"KAT","is_transit":false},{"i_lat":-6.201433,"station_name":"Sudirman Baru","transit":false,"time":1,"distance":471,"i_long":106.819881,"station_id":"SUDB","is_transit":false,"line":1},{"line":1,"i_long":106.822649,"time":1,"station_id":"SUD","transit":false,"is_transit":false,"distance":280,"station_name":"Sudirman","i_lat":-6.202263},{"is_transit":true,"transit":false,"station_id":"MRI","distance":3186,"station_name":"Manggarai","i_long":106.84912,"line":0,"time":4,"i_lat":-6.209883},{"transit":false,"station_name":"Matraman","time":2,"i_lat":-6.212485,"station_id":"MTR","is_transit":false,"i_long":106.858896,"distance":1275,"line":1},{"station_name":"Jatinegara","transit":false,"i_long":106.86807400000001,"line":0,"time":8,"i_lat":-6.215091,"station_id":"JNG","is_transit":true,"distance":1377}],[{"transit":false,"station_name":"Juanda","time":0,"is_transit":false,"distance":0,"i_long":106.828284,"i_lat":-6.166716,"station_id":"JUA","line":2},{"distance":2015,"i_long":106.832183,"station_id":"GDD","is_transit":false,"time":4,"line":2,"transit":false,"i_lat":-6.186295,"station_name":"Gondangdia"},{"distance":1750,"line":0,"station_name":"Cikini","is_transit":false,"i_lat":-6.198556,"i_long":106.840169,"station_id":"CKI","time":3,"transit":false},{"is_transit":true,"i_long":106.84912,"station_id":"MRI","time":4,"station_name":"Manggarai","distance":1590,"transit":true,"line":0,"i_lat":-6.209883},{"transit":false,"i_lat":-6.202263,"station_id":"SUD","line":1,"distance":3186,"i_long":106.822649,"is_transit":false,"time":4,"station_name":"Sudirman"},{"i_lat":-6.201433,"is_transit":false,"transit":false,"station_id":"SUDB","line":1,"station_name":"Sudirman Baru","distance":280,"i_long":106.819881,"time":1},{"station_id":"KAT","time":1,"distance":471,"transit":false,"i_lat":-6.20132,"is_transit":false,"line":1,"i_long":106.816351,"station_name":"Karet"},{"station_id":"THB","time":5,"i_lat":-6.185545,"i_long":106.811091,"transit":false,"distance":2029,"is_transit":true,"station_name":"Tanah Abang","line":1},{"station_id":"DU","i_lat":-6.155215,"station_name":"Duri","transit":true,"i_long":106.800832,"line":1,"distance":3632,"is_transit":true,"time":8},{"station_name":"Angke","station_id":"AK","time":4,"is_transit":false,"transit":false,"i_long":106.79867,"distance":1230,"i_lat":-6.144674,"line":0},{"time":9,"is_transit":true,"line":0,"distance":4102,"station_id":"KPB","i_lat":-6.132549,"i_long":106.826365,"station_name":"Kampung Bandan","transit":true},{"transit":false,"time":3,"distance":1444,"station_name":"Rajawali","line":11,"station_id":"RJW","is_transit":false,"i_lat":-6.14505,"i_long":106.836569},{"i_lat":-6.161728,"station_name":"Kemayoran","distance":1901,"line":11,"station_id":"KMO","time":5,"i_long":106.839204,"is_transit":false,"transit":false},{"transit":false,"i_long":106.84368,"line":11,"station_id":"PSE","is_transit":false,"i_lat":-6.174784,"station_name":"Pasar Senen","distance":1436,"time":4},{"i_long":106.850107,"station_id":"GST","i_lat":-6.185975,"time":8,"station_name":"Gang Sentiong","transit":false,"is_transit":false,"distance":1567,"line":11},{"distance":973,"station_name":"Kramat","station_id":"KMT","line":11,"is_transit":false,"i_lat":-6.193792,"time":1,"transit":false,"i_long":106.855437},{"station_name":"Pondok Jati","transit":false,"distance":1829,"i_lat":-6.209188,"time":2,"i_long":106.861737,"is_transit":false,"station_id":"POK","line":11},{"station_name":"Jatinegara","i_lat":-6.215091,"line":0,"i_long":106.86807400000001,"transit":false,"station_id":"JNG","is_transit":true,"distance":1236,"time":9}]]}