{"data":[[{"distance":0,"time":0,"transit":false,"station_name":"Juanda","station_id":"JUA","i_lat":-6.166716,"line":2,"is_transit":false,"i_long":106.828284},{"i_long":106.832183,"station_name":"Gondangdia","transit":false,"time":4,"is_transit":false,"i_lat":-6.186295,"station_id":"GDD","distance":2015,"line":2},{"station_name":"Cikini","i_lat":-6.198556,"station_id":"CKI","is_transit":false,"distance":1750,"i_long":106.840169,"time":3,"line":0,"transit":false},{"distance":1590,"time":4,"transit":true,"i_lat":-6.209883,"station_id":"MRI","is_transit":true,"station_name":"Manggarai","i_long":106.84912,"line":0},{"line":2,"time":4,"distance":2610,"transit":false,"i_long":106.857948,"station_id":"TEB","is_transit":false,"i_lat":-6.226659,"station_name":"Tebet"},{"transit":false,"is_transit":false,"i_long":106.856607,"line":0,"station_name":"Cawang","time":2,"distance":1230,"i_lat":-6.242512,"station_id":"CW"},{"station_id":"DRN","line":0,"station_name":"Duren Kalibata","transit":false,"i_lat":-6.255332,"distance":1546,"time":3,"is_transit":false,"i_long":106.85449},{"distance":824,"station_name":"Pasar Minggu Baru","is_transit":false,"station_id":"PSMB","time":2,"transit":false,"i_lat":-6.263214,"i_long":106.851577,"line":2},{"station_id":"PSM","time":2,"i_long":106.843999,"transit":false,"station_name":"Pasar Minggu","is_transit":false,"i_lat":-6.2842400000000005,"distance":2380,"line":2},{"station_id":"TNT","transit":false,"i_long":106.838896,"is_transit":false,"time":4,"distance":2820,"line":2,"station_name":"Tanjung Barat","i_lat":-6.3080680000000005},{"transit":false,"time":3,"distance":2671,"line":2,"station_name":"Lenteng Agung","station_id":"LNA","is_transit":false,"i_long":106.832616,"i_lat":-6.330363},{"distance":1029,"station_id":"UP","time":2,"transit":false,"station_name":"Univ. Pancasila","i_lat":-6.339291,"line":2,"is_transit":false,"i_long":106.834175},{"time":3,"station_id":"UI","station_name":"Univ. Indonesia","transit":false,"i_lat":-6.360749,"is_transit":false,"distance":2264,"line":2,"i_long":106.831474},{"station_name":"Pondok Cina","station_id":"POC","is_transit":false,"i_long":106.831114,"distance":1109,"transit":false,"i_lat":-6.369073,"line":2,"time":2}],[{"transit":false,"time":0,"i_long":106.828284,"station_id":"JUA","station_name":"Juanda","i_lat":-6.166716,"line":2,"distance":0,"is_transit":false},{"i_lat":-6.160725,"time":2,"station_id":"SW","distance":1149,"transit":false,"station_name":"Sawah Besar","i_long":106.827103,"line":2,"is_transit":false},{"time":2,"distance":906,"i_long":106.82482,"station_name":"Manggabesar","station_id":"MGB","transit":false,"i_lat":-6.149769,"line":2,"is_transit":false},{"station_id":"JAY","i_lat":-6.141205,"i_long":106.820901,"station_name":"Jayakarta","distance":1080,"transit":false,"is_transit":false,"line":7,"time":2},{"i_long":106.812439,"is_transit":true,"transit":true,"line":0,"i_lat":-6.137569,"station_name":"Jakarta Kota","station_id":"JAKK","time":4,"distance":1264},{"is_transit":true,"transit":false,"station_name":"Kampung Bandan","line":0,"i_lat":-6.132549,"station_id":"KPB","time":3,"i_long":106.826365,"distance":1364},{"line":0,"station_id":"AK","distance":4102,"transit":false,"i_lat":-6.144674,"station_name":"Angke","is_transit":false,"i_long":106.79867,"time":9},{"transit":true,"is_transit":true,"i_lat":-6.155215,"i_long":106.800832,"station_id":"DU","station_name":"Duri","time":4,"line":1,"distance":1230},{"distance":3632,"time":8,"line":1,"station_name":"Tanah Abang","station_id":"THB","i_lat":-6.185545,"is_transit":true,"transit":false,"i_long":106.811091},{"is_transit":false,"distance":2029,"time":5,"i_long":106.816351,"transit":false,"station_name":"Karet","line":1,"station_id":"KAT","i_lat":-6.20132},{"i_lat":-6.201433,"line":1,"transit":false,"time":1,"station_name":"Sudirman Baru","is_transit":false,"station_id":"SUDB","distance":471,"i_long":106.819881},{"i_lat":-6.202263,"line":1,"station_id":"SUD","station_name":"Sudirman","time":1,"distance":280,"transit":false,"is_transit":false,"i_long":106.822649},{"i_long":106.84912,"is_transit":true,"time":4,"distance":3186,"transit":true,"line":0,"station_id":"MRI","station_name":"Manggarai","i_lat":-6.209883},{"i_lat":-6.226659,"transit":false,"station_name":"Tebet","i_long":106.857948,"is_transit":false,"line":2,"station_id":"TEB","time":4,"distance":2610},{"line":0,"station_name":"Cawang","station_id":"CW","is_transit":false,"time":2,"distance":1230,"i_long":106.856607,"i_lat":-6.242512,"transit":false},{"i_lat":-6.255332,"i_long":106.85449,"station_id":"DRN","transit":false,"distance":1546,"is_transit":false,"time":3,"line":0,"station_name":"Duren Kalibata"},{"station_name":"Pasar Minggu Baru","transit":false,"distance":824,"i_long":106.851577,"station_id":"PSMB","time":2,"line":2,"is_transit":false,"i_lat":-6.263214},{"station_id":"PSM","i_long":106.843999,"is_transit":false,"transit":false,"distance":2380,"time":2,"line":2,"station_name":"Pasar Minggu","i_lat":-6.2842400000000005},{"distance":2820,"transit":false,"i_lat":-6.3080680000000005,"station_name":"Tanjung Barat","is_transit":false,"station_id":"TNT","line":2,"i_long":106.838896,"time":4},{"i_long":106.832616,"time":3,"transit":false,"is_transit":false,"i_lat":-6.330363,"line":2,"distance":2671,"station_id":"LNA","station_name":"Lenteng Agung"},{"is_transit":false,"i_long":106.834175,"line":2,"station_id":"UP","time":2,"i_lat":-6.339291,"transit":false,"distance":1029,"station_name":"Univ. Pancasila"},{"i_long":106.831474,"distance":2264,"i_lat":-6.360749,"transit":false,"is_transit":false,"station_name":"Univ. Indonesia","station_id":"UI","time":3,"line":2},{"is_transit":false,"transit":false,"i_lat":-6.369073,"time":2,"i_long":106.831114,"station_id":"POC","station_name":"Pondok Cina","distance":1109,"line":2}],[{"line":2,"station_name":"Juanda","i_lat":-6.166716,"i_long":106.828284,"distance":0,"is_transit":false,"time":0,"transit":false,"station_id":"JUA"},{"station_name":"Sawah Besar","is_transit":false,"distance":1149,"i_lat":-6.160725,"i_long":106.827103,"line":2,"time":2,"transit":false,"station_id":"SW"},{"time":2,"station_id":"MGB","is_transit":false,"station_name":"Manggabesar","i_lat":-6.149769,"distance":906,"transit":false,"i_long":106.82482,"line":2},{"station_id":"JAY","is_transit":false,"i_lat":-6.141205,"line":7,"time":2,"i_long":106.820901,"transit":false,"station_name":"Jayakarta","distance":1080},{"time":4,"is_transit":true,"i_lat":-6.137569,"line":0,"distance":1264,"i_long":106.812439,"station_name":"Jakarta Kota","station_id":"JAKK","transit":true},{"station_id":"KPB","transit":true,"line":0,"is_transit":true,"time":3,"i_long":106.826365,"distance":1364,"station_name":"Kampung Bandan","i_lat":-6.132549},{"transit":false,"station_id":"RJW","time":3,"is_transit":false,"i_long":106.836569,"i_lat":-6.14505,"line":11,"distance":1444,"station_name":"Rajawali"},{"station_id":"KMO","is_transit":false,"time":5,"station_name":"Kemayoran","distance":1901,"i_long":106.839204,"line":11,"transit":false,"i_lat":-6.161728},{"transit":false,"i_lat":-6.174784,"line":11,"i_long":106.84368,"is_transit":false,"station_id":"PSE","station_name":"Pasar Senen","time":4,"distance":1436},{"station_name":"Gang Sentiong","station_id":"GST","time":8,"distance":1567,"i_long":106.850107,"i_lat":-6.185975,"is_transit":false,"line":11,"transit":false},{"distance":973,"transit":false,"i_lat":-6.193792,"station_name":"Kramat","i_long":106.855437,"line":11,"station_id":"KMT","time":1,"is_transit":false},{"line":11,"time":2,"distance":1829,"i_lat":-6.209188,"transit":false,"is_transit":false,"station_id":"POK","i_long":106.861737,"station_name":"Pondok Jati"},{"i_lat":-6.215091,"i_long":106.86807400000001,"transit":true,"is_transit":true,"station_name":"Jatinegara","distance":1236,"line":0,"station_id":"JNG","time":9},{"transit":false,"line":1,"station_name":"Matraman","station_id":"MTR","is_transit":false,"time":2,"i_lat":-6.212485,"distance":1377,"i_long":106.858896},{"i_long":106.84912,"line":0,"station_id":"MRI","is_transit":true,"time":2,"transit":true,"station_name":"Manggarai","distance":1275,"i_lat":-6.209883},{"i_long":106.857948,"line":2,"distance":2610,"is_transit":false,"time":4,"transit":false,"station_id":"TEB","i_lat":-6.226659,"station_name":"Tebet"},{"i_long":106.856607,"line":0,"i_lat":-6.242512,"station_id":"CW","is_transit":false,"station_name":"Cawang","distance":1230,"transit":false,"time":2},{"is_transit":false,"station_name":"Duren Kalibata","distance":1546,"i_long":106.85449,"station_id":"DRN","time":3,"transit":false,"i_lat":-6.255332,"line":0},{"i_long":106.851577,"station_id":"PSMB","is_transit":false,"line":2,"station_name":"Pasar Minggu Baru","time":2,"i_lat":-6.263214,"transit":false,"distance":824},{"is_transit":false,"station_name":"Pasar Minggu","time":2,"distance":2380,"transit":false,"station_id":"PSM","line":2,"i_lat":-6.2842400000000005,"i_long":106.843999},{"i_lat":-6.3080680000000005,"i_long":106.838896,"time":4,"distance":2820,"is_transit":false,"transit":false,"station_id":"TNT","line":2,"station_name":"Tanjung Barat"},{"i_lat":-6.330363,"time":3,"i_long":106.832616,"transit":false,"is_transit":false,"station_name":"Lenteng Agung","distance":2671,"line":2,"station_id":"LNA"},{"station_name":"Univ. Pancasila","time":2,"station_id":"UP","line":2,"distance":1029,"i_long":106.834175,"transit":false,"i_lat":-6.339291,"is_transit":false},{"i_long":106.831474,"distance":2264,"time":3,"station_name":"Univ. Indonesia","station_id":"UI","is_transit":false,"transit":false,"i_lat":-6.360749,"line":2},{"station_name":"Pondok Cina","i_long":106.831114,"time":2,"transit":false,"station_id":"POC","i_lat":-6.369073,"is_transit":false,"line":2,"distance":1109}]]}