{"data":[[{"transit":false,"i_long":106.828284,"is_transit":false,"time":0,"station_name":"Juanda","i_lat":-6.166716,"line":2,"distance":0,"station_id":"JUA"},{"station_name":"Gondangdia","station_id":"GDD","is_transit":false,"distance":2015,"i_lat":-6.186295,"transit":false,"i_long":106.832183,"line":2,"time":4},{"is_transit":false,"distance":1750,"transit":false,"station_name":"Cikini","station_id":"CKI","time":3,"i_long":106.840169,"line":0,"i_lat":-6.198556},{"is_transit":true,"line":0,"distance":1590,"i_long":106.84912,"station_name":"Manggarai","station_id":"MRI","time":4,"transit":true,"i_lat":-6.209883},{"i_long":106.822649,"transit":false,"distance":3186,"station_id":"SUD","time":4,"line":1,"station_name":"Sudirman","is_transit":false,"i_lat":-6.202263},{"is_transit":false,"distance":280,"station_name":"Sudirman Baru","time":1,"transit":false,"i_long":106.819881,"line":1,"i_lat":-6.201433,"station_id":"SUDB"},{"time":1,"station_name":"Karet","i_lat":-6.20132,"station_id":"KAT","line":1,"transit":false,"distance":471,"i_long":106.816351,"is_transit":false},{"station_id":"THB","is_transit":true,"time":5,"station_name":"Tanah Abang","i_long":106.811091,"line":1,"distance":2029,"transit":true,"i_lat":-6.185545},{"line":6,"distance":3191,"is_transit":false,"station_id":"PLM","time":6,"station_name":"Palmerah","i_long":106.79689,"i_lat":-6.207404,"transit":false},{"distance":3737,"i_long":106.780334,"transit":false,"is_transit":false,"station_id":"KBY","time":7,"station_name":"Kebayoran","line":6,"i_lat":-6.237242}],[{"line":2,"transit":false,"distance":0,"station_id":"JUA","i_lat":-6.166716,"time":0,"is_transit":false,"station_name":"Juanda","i_long":106.828284},{"station_id":"SW","distance":1149,"transit":false,"is_transit":false,"line":2,"i_long":106.827103,"station_name":"Sawah Besar","time":2,"i_lat":-6.160725},{"station_id":"MGB","station_name":"Manggabesar","time":2,"transit":false,"is_transit":false,"i_lat":-6.149769,"i_long":106.82482,"distance":906,"line":2},{"i_lat":-6.141205,"i_long":106.820901,"distance":1080,"line":7,"is_transit":false,"time":2,"station_id":"JAY","station_name":"Jayakarta","transit":false},{"i_long":106.812439,"transit":true,"line":0,"is_transit":true,"i_lat":-6.137569,"distance":1264,"time":4,"station_name":"Jakarta Kota","station_id":"JAKK"},{"is_transit":true,"station_id":"KPB","distance":1364,"station_name":"Kampung Bandan","i_lat":-6.132549,"line":0,"transit":false,"i_long":106.826365,"time":3},{"time":9,"line":0,"station_id":"AK","is_transit":false,"transit":false,"station_name":"Angke","i_lat":-6.144674,"i_long":106.79867,"distance":4102},{"transit":true,"i_lat":-6.155215,"line":1,"station_id":"DU","i_long":106.800832,"distance":1230,"station_name":"Duri","time":4,"is_transit":true},{"distance":3632,"is_transit":true,"station_id":"THB","transit":true,"station_name":"Tanah Abang","line":1,"time":8,"i_lat":-6.185545,"i_long":106.811091},{"station_id":"PLM","i_long":106.79689,"line":6,"i_lat":-6.207404,"transit":false,"station_name":"Palmerah","time":6,"is_transit":false,"distance":3191},{"transit":false,"i_long":106.780334,"station_name":"Kebayoran","i_lat":-6.237242,"station_id":"KBY","distance":3737,"line":6,"is_transit":false,"time":7}],[{"is_transit":false,"station_id":"JUA","distance":0,"i_lat":-6.166716,"station_name":"Juanda","time":0,"transit":false,"line":2,"i_long":106.828284},{"is_transit":false,"station_name":"Gondangdia","line":2,"time":4,"distance":2015,"i_long":106.832183,"i_lat":-6.186295,"transit":false,"station_id":"GDD"},{"distance":1750,"line":0,"station_name":"Cikini","i_lat":-6.198556,"station_id":"CKI","i_long":106.840169,"transit":false,"time":3,"is_transit":false},{"line":0,"i_lat":-6.209883,"time":4,"station_id":"MRI","is_transit":true,"station_name":"Manggarai","transit":true,"distance":1590,"i_long":106.84912},{"time":2,"i_lat":-6.212485,"station_name":"Matraman","line":1,"i_long":106.858896,"is_transit":false,"station_id":"MTR","transit":false,"distance":1275},{"time":8,"transit":true,"i_long":106.86807400000001,"station_id":"JNG","station_name":"Jatinegara","i_lat":-6.215091,"distance":1377,"line":0,"is_transit":true},{"distance":1236,"i_lat":-6.209188,"transit":false,"time":2,"station_id":"POK","station_name":"Pondok Jati","line":11,"is_transit":false,"i_long":106.861737},{"line":11,"time":2,"is_transit":false,"distance":1829,"i_lat":-6.193792,"station_name":"Kramat","transit":false,"i_long":106.855437,"station_id":"KMT"},{"i_long":106.850107,"distance":973,"time":1,"is_transit":false,"transit":false,"station_name":"Gang Sentiong","line":11,"i_lat":-6.185975,"station_id":"GST"},{"is_transit":false,"time":8,"station_id":"PSE","distance":1567,"i_long":106.84368,"transit":false,"i_lat":-6.174784,"line":11,"station_name":"Pasar Senen"},{"is_transit":false,"i_lat":-6.161728,"station_name":"Kemayoran","transit":false,"i_long":106.839204,"line":11,"time":4,"station_id":"KMO","distance":1436},{"line":11,"time":5,"distance":1901,"station_name":"Rajawali","transit":false,"i_lat":-6.14505,"station_id":"RJW","is_transit":false,"i_long":106.836569},{"i_long":106.826365,"i_lat":-6.132549,"is_transit":true,"time":3,"station_id":"KPB","station_name":"Kampung Bandan","line":0,"distance":1444,"transit":true},{"i_lat":-6.144674,"line":0,"is_transit":false,"transit":false,"station_id":"AK","distance":4102,"station_name":"Angke","time":9,"i_long":106.79867},{"is_transit":true,"time":4,"i_long":106.800832,"station_name":"Duri","station_id":"DU","distance":1230,"i_lat":-6.155215,"transit":true,"line":1},{"line":1,"i_lat":-6.185545,"distance":3632,"is_transit":true,"station_id":"THB","i_long":106.811091,"time":8,"station_name":"Tanah Abang","transit":true},{"time":6,"is_transit":false,"i_long":106.79689,"station_name":"Palmerah","i_lat":-6.207404,"station_id":"PLM","distance":3191,"transit":false,"line":6},{"station_name":"Kebayoran","transit":false,"station_id":"KBY","distance":3737,"i_lat":-6.237242,"i_long":106.780334,"time":7,"is_transit":false,"line":6}],[{"i_lat":-6.166716,"i_long":106.828284,"time":0,"transit":false,"line":2,"station_id":"JUA","is_transit":false,"distance":0,"station_name":"Juanda"},{"transit":false,"is_transit":false,"station_name":"Sawah Besar","time":2,"i_lat":-6.160725,"distance":1149,"station_id":"SW","i_long":106.827103,"line":2},{"i_lat":-6.149769,"time":2,"transit":false,"line":2,"station_name":"Manggabesar","i_long":106.82482,"is_transit":false,"station_id":"MGB","distance":906},{"i_lat":-6.141205,"line":7,"station_id":"JAY","time":2,"station_name":"Jayakarta","is_transit":false,"i_long":106.820901,"distance":1080,"transit":false},{"is_transit":true,"distance":1264,"station_id":"JAKK","i_long":106.812439,"station_name":"Jakarta Kota","time":4,"i_lat":-6.137569,"line":0,"transit":true},{"i_lat":-6.132549,"line":0,"station_id":"KPB","time":3,"transit":true,"distance":1364,"is_transit":true,"station_name":"Kampung Bandan","i_long":106.826365},{"time":3,"distance":1444,"transit":false,"i_long":106.836569,"is_transit":false,"station_id":"RJW","i_lat":-6.14505,"station_name":"Rajawali","line":11},{"distance":1901,"line":11,"station_name":"Kemayoran","is_transit":false,"station_id":"KMO","i_lat":-6.161728,"i_long":106.839204,"time":5,"transit":false},{"line":11,"i_lat":-6.174784,"station_id":"PSE","i_long":106.84368,"is_transit":false,"time":4,"transit":false,"distance":1436,"station_name":"Pasar Senen"},{"transit":false,"time":8,"i_long":106.850107,"i_lat":-6.185975,"station_id":"GST","station_name":"Gang Sentiong","is_transit":false,"line":11,"distance":1567},{"station_name":"Kramat","is_transit":false,"i_lat":-6.193792,"time":1,"station_id":"KMT","transit":false,"distance":973,"line":11,"i_long":106.855437},{"distance":1829,"station_id":"POK","line":11,"i_lat":-6.209188,"i_long":106.861737,"is_transit":false,"time":2,"transit":false,"station_name":"Pondok Jati"},{"transit":true,"distance":1236,"i_lat":-6.215091,"is_transit":true,"time":9,"station_name":"Jatinegara","station_id":"JNG","i_long":106.86807400000001,"line":0},{"time":2,"station_id":"MTR","i_long":106.858896,"is_transit":false,"transit":false,"station_name":"Matraman","i_lat":-6.212485,"distance":1377,"line":1},{"i_lat":-6.209883,"i_long":106.84912,"line":0,"distance":1275,"station_id":"MRI","time":2,"transit":false,"station_name":"Manggarai","is_transit":true},{"station_name":"Sudirman","i_long":106.822649,"is_transit":false,"time":4,"i_lat":-6.202263,"line":1,"transit":false,"station_id":"SUD","distance":3186},{"i_lat":-6.201433,"transit":false,"station_name":"Sudirman Baru","is_transit":false,"distance":280,"line":1,"station_id":"SUDB","i_long":106.819881,"time":1},{"i_long":106.816351,"time":1,"is_transit":false,"station_name":"Karet","line":1,"station_id":"KAT","i_lat":-6.20132,"distance":471,"transit":false},{"transit":true,"time":5,"station_name":"Tanah Abang","line":1,"distance":2029,"station_id":"THB","i_lat":-6.185545,"is_transit":true,"i_long":106.811091},{"time":6,"distance":3191,"is_transit":false,"line":6,"station_id":"PLM","station_name":"Palmerah","i_lat":-6.207404,"transit":false,"i_long":106.79689},{"time":7,"station_id":"KBY","station_name":"Kebayoran","distance":3737,"is_transit":false,"i_lat":-6.237242,"i_long":106.780334,"line":6,"transit":false}]]}