{"data":[[{"station_name":"Juanda","i_lat":-6.166716,"transit":false,"is_transit":false,"i_long":106.828284,"distance":0,"time":0,"station_id":"JUA","line":2},{"station_id":"GDD","line":2,"is_transit":false,"transit":false,"station_name":"Gondangdia","time":4,"i_lat":-6.186295,"distance":2015,"i_long":106.832183},{"is_transit":false,"station_name":"Cikini","distance":1750,"transit":false,"i_lat":-6.198556,"i_long":106.840169,"time":3,"line":2,"station_id":"CKI"},{"time":4,"station_id":"MRI","is_transit":true,"transit":true,"i_lat":-6.209883,"line":2,"distance":1590,"i_long":106.84912,"station_name":"Manggarai"},{"i_lat":-6.202263,"i_long":106.822649,"station_name":"Sudirman","distance":3186,"station_id":"SUD","time":4,"is_transit":false,"transit":false,"line":1},{"line":1,"is_transit":false,"transit":false,"time":1,"i_long":106.819881,"distance":280,"i_lat":-6.201433,"station_name":"Sudirman Baru","station_id":"SUDB"},{"i_long":106.816351,"time":1,"is_transit":false,"distance":471,"transit":false,"i_lat":-6.20132,"line":1,"station_name":"Karet","station_id":"KAT"},{"is_transit":true,"station_id":"THB","time":5,"transit":true,"station_name":"Tanah Abang","i_long":106.811091,"line":1,"i_lat":-6.185545,"distance":2029},{"distance":3191,"station_id":"PLM","time":6,"is_transit":false,"transit":false,"i_long":106.79689,"station_name":"Palmerah","i_lat":-6.207404,"line":6},{"distance":3737,"transit":false,"line":6,"time":7,"station_id":"KBY","is_transit":false,"i_lat":-6.237242,"station_name":"Kebayoran","i_long":106.780334},{"time":8,"transit":false,"line":6,"distance":6218,"i_lat":-6.276362,"i_long":106.74273,"station_id":"PDJ","is_transit":false,"station_name":"Pondokranji"},{"time":3,"transit":false,"station_id":"JMU","line":6,"i_long":106.728916,"station_name":"Jurangmangu","distance":2179,"is_transit":false,"i_lat":-6.288927},{"i_lat":-6.296963,"is_transit":false,"station_id":"SDM","station_name":"Sudimara","time":4,"i_long":106.712277,"distance":1994,"line":6,"transit":false},{"distance":4566,"station_id":"RU","is_transit":false,"line":6,"i_lat":-6.314823,"time":6,"transit":false,"station_name":"Rawa Buntu","i_long":106.675475},{"distance":2413,"is_transit":false,"transit":false,"i_lat":-6.319871,"i_long":106.66566,"time":4,"station_id":"SRP","station_name":"Serpong","line":6},{"i_long":106.640411,"distance":1784,"station_name":"Cisauk","is_transit":false,"time":4,"transit":false,"i_lat":-6.32484,"line":3,"station_id":"CSK"},{"distance":2519,"transit":false,"i_long":106.617853,"line":3,"i_lat":-6.329547,"station_id":"CC","station_name":"Cicayur","is_transit":false,"time":4},{"i_lat":-6.3441410000000005,"distance":5968,"i_long":106.568863,"transit":false,"line":6,"time":8,"station_name":"Parung Panjang","is_transit":false,"station_id":"PRP"},{"station_name":"Cilejit","is_transit":false,"i_lat":-6.354349,"line":3,"station_id":"CJT","time":9,"distance":7025,"transit":false,"i_long":106.508482},{"is_transit":false,"station_id":"DAR","transit":false,"distance":2675,"station_name":"Daru","time":6,"i_long":106.491338,"i_lat":-6.338021,"line":0},{"station_name":"Tenjo","transit":false,"i_long":106.460812,"distance":3902,"station_id":"TEJ","is_transit":false,"time":5,"i_lat":-6.327251,"line":6},{"distance":2974,"station_name":"Tigaraksa","station_id":"TGS","is_transit":false,"time":5,"i_lat":-6.328533,"transit":false,"i_long":106.425991,"line":6},{"time":3,"is_transit":false,"transit":false,"line":3,"station_id":"CKY","i_lat":-6.33561,"i_long":106.411216,"distance":2651,"station_name":"Cikoya"},{"i_lat":-6.332307,"distance":1853,"i_long":106.394373,"is_transit":false,"transit":false,"station_id":"MJ","line":6,"station_name":"Maja","time":4},{"distance":7293,"time":10,"line":3,"station_id":"CTR","transit":false,"i_lat":-6.334892,"is_transit":false,"i_long":106.332092,"station_name":"Citeras"}],[{"i_long":106.828284,"i_lat":-6.166716,"station_name":"Juanda","is_transit":false,"distance":0,"station_id":"JUA","line":2,"time":0,"transit":false},{"transit":false,"i_long":106.827103,"i_lat":-6.160725,"station_id":"SW","station_name":"Sawah Besar","time":2,"is_transit":false,"line":2,"distance":1149},{"time":2,"i_long":106.82482,"i_lat":-6.149769,"line":2,"transit":false,"station_name":"Manggabesar","station_id":"MGB","distance":906,"is_transit":false},{"is_transit":false,"time":2,"station_id":"JAY","i_lat":-6.141205,"station_name":"Jayakarta","distance":1080,"i_long":106.820901,"transit":false,"line":2},{"time":4,"distance":1264,"station_id":"JAKK","i_long":106.812439,"transit":true,"line":2,"is_transit":true,"i_lat":-6.137569,"station_name":"Jakarta Kota"},{"i_long":106.826365,"i_lat":-6.132549,"transit":true,"station_name":"Kampung Bandan","is_transit":true,"line":4,"distance":1364,"time":3,"station_id":"KPB"},{"distance":4102,"station_name":"Angke","is_transit":false,"transit":false,"station_id":"AK","i_lat":-6.144674,"i_long":106.79867,"line":1,"time":9},{"station_name":"Duri","transit":false,"is_transit":false,"line":1,"distance":1230,"time":4,"i_lat":-6.155215,"i_long":106.800832,"station_id":"DU"},{"i_lat":-6.185545,"i_long":106.811091,"line":1,"distance":3632,"time":8,"transit":true,"station_id":"THB","is_transit":true,"station_name":"Tanah Abang"},{"distance":3191,"transit":false,"line":6,"station_name":"Palmerah","time":6,"i_lat":-6.207404,"station_id":"PLM","i_long":106.79689,"is_transit":false},{"i_lat":-6.237242,"line":6,"station_name":"Kebayoran","time":7,"is_transit":false,"station_id":"KBY","distance":3737,"transit":false,"i_long":106.780334},{"is_transit":false,"station_id":"PDJ","transit":false,"i_lat":-6.276362,"distance":6218,"time":8,"i_long":106.74273,"station_name":"Pondokranji","line":6},{"station_id":"JMU","time":3,"transit":false,"line":6,"i_long":106.728916,"distance":2179,"is_transit":false,"station_name":"Jurangmangu","i_lat":-6.288927},{"station_id":"SDM","i_long":106.712277,"is_transit":false,"time":4,"transit":false,"line":6,"station_name":"Sudimara","distance":1994,"i_lat":-6.296963},{"transit":false,"line":6,"station_id":"RU","is_transit":false,"distance":4566,"i_lat":-6.314823,"time":6,"i_long":106.675475,"station_name":"Rawa Buntu"},{"station_name":"Serpong","distance":2413,"station_id":"SRP","i_long":106.66566,"line":6,"transit":false,"time":4,"is_transit":false,"i_lat":-6.319871},{"line":3,"time":4,"transit":false,"station_name":"Cisauk","is_transit":false,"i_lat":-6.32484,"station_id":"CSK","distance":1784,"i_long":106.640411},{"time":4,"i_lat":-6.329547,"line":3,"i_long":106.617853,"station_id":"CC","station_name":"Cicayur","is_transit":false,"distance":2519,"transit":false},{"station_name":"Parung Panjang","line":6,"is_transit":false,"station_id":"PRP","i_lat":-6.3441410000000005,"distance":5968,"i_long":106.568863,"transit":false,"time":8},{"line":3,"station_id":"CJT","is_transit":false,"transit":false,"distance":7025,"time":9,"station_name":"Cilejit","i_long":106.508482,"i_lat":-6.354349},{"time":6,"i_long":106.491338,"distance":2675,"i_lat":-6.338021,"station_id":"DAR","line":0,"station_name":"Daru","is_transit":false,"transit":false},{"transit":false,"distance":3902,"time":5,"station_id":"TEJ","i_lat":-6.327251,"line":6,"i_long":106.460812,"is_transit":false,"station_name":"Tenjo"},{"line":6,"station_id":"TGS","i_long":106.425991,"time":5,"is_transit":false,"transit":false,"station_name":"Tigaraksa","distance":2974,"i_lat":-6.328533},{"station_name":"Cikoya","station_id":"CKY","is_transit":false,"transit":false,"time":3,"distance":2651,"i_long":106.411216,"i_lat":-6.33561,"line":3},{"time":4,"station_id":"MJ","i_long":106.394373,"station_name":"Maja","transit":false,"line":6,"i_lat":-6.332307,"distance":1853,"is_transit":false},{"is_transit":false,"station_id":"CTR","i_long":106.332092,"station_name":"Citeras","line":3,"transit":false,"i_lat":-6.334892,"distance":7293,"time":10}],[{"distance":0,"transit":false,"i_long":106.828284,"i_lat":-6.166716,"line":2,"time":0,"station_name":"Juanda","is_transit":false,"station_id":"JUA"},{"station_name":"Gondangdia","i_long":106.832183,"i_lat":-6.186295,"transit":false,"distance":2015,"is_transit":false,"line":2,"station_id":"GDD","time":4},{"time":3,"i_long":106.840169,"i_lat":-6.198556,"distance":1750,"is_transit":false,"station_id":"CKI","transit":false,"station_name":"Cikini","line":2},{"i_long":106.84912,"i_lat":-6.209883,"transit":true,"is_transit":true,"line":2,"station_name":"Manggarai","distance":1590,"station_id":"MRI","time":4},{"transit":false,"line":1,"is_transit":false,"time":2,"station_id":"MTR","i_lat":-6.212485,"distance":1275,"station_name":"Matraman","i_long":106.858896},{"station_name":"Jatinegara","distance":1377,"is_transit":true,"transit":true,"station_id":"JNG","time":8,"line":1,"i_long":106.86807400000001,"i_lat":-6.215091},{"i_long":106.861737,"line":11,"distance":1236,"i_lat":-6.209188,"station_name":"Pondok Jati","is_transit":false,"time":2,"transit":false,"station_id":"POK"},{"station_id":"KMT","i_long":106.855437,"station_name":"Kramat","distance":1829,"time":2,"transit":false,"is_transit":false,"i_lat":-6.193792,"line":11},{"distance":973,"is_transit":false,"station_id":"GST","transit":false,"time":1,"i_lat":-6.185975,"line":11,"station_name":"Gang Sentiong","i_long":106.850107},{"i_long":106.84368,"is_transit":false,"time":8,"transit":false,"distance":1567,"i_lat":-6.174784,"line":11,"station_name":"Pasar Senen","station_id":"PSE"},{"time":4,"station_name":"Kemayoran","distance":1436,"transit":false,"line":11,"is_transit":false,"station_id":"KMO","i_lat":-6.161728,"i_long":106.839204},{"time":5,"station_name":"Rajawali","distance":1901,"station_id":"RJW","line":11,"i_long":106.836569,"is_transit":false,"transit":false,"i_lat":-6.14505},{"distance":1444,"transit":true,"station_id":"KPB","time":3,"line":4,"is_transit":true,"i_lat":-6.132549,"station_name":"Kampung Bandan","i_long":106.826365},{"i_lat":-6.144674,"line":1,"i_long":106.79867,"distance":4102,"time":9,"is_transit":false,"station_name":"Angke","transit":false,"station_id":"AK"},{"is_transit":false,"transit":false,"line":1,"station_name":"Duri","distance":1230,"station_id":"DU","i_long":106.800832,"time":4,"i_lat":-6.155215},{"line":1,"i_lat":-6.185545,"is_transit":true,"station_name":"Tanah Abang","time":8,"station_id":"THB","transit":true,"i_long":106.811091,"distance":3632},{"transit":false,"line":6,"is_transit":false,"station_name":"Palmerah","station_id":"PLM","i_long":106.79689,"distance":3191,"time":6,"i_lat":-6.207404},{"time":7,"transit":false,"station_id":"KBY","is_transit":false,"line":6,"station_name":"Kebayoran","i_long":106.780334,"distance":3737,"i_lat":-6.237242},{"station_name":"Pondokranji","distance":6218,"transit":false,"i_long":106.74273,"i_lat":-6.276362,"time":8,"line":6,"station_id":"PDJ","is_transit":false},{"line":6,"i_long":106.728916,"is_transit":false,"time":3,"station_id":"JMU","distance":2179,"station_name":"Jurangmangu","i_lat":-6.288927,"transit":false},{"station_id":"SDM","distance":1994,"i_lat":-6.296963,"i_long":106.712277,"station_name":"Sudimara","is_transit":false,"time":4,"transit":false,"line":6},{"station_name":"Rawa Buntu","distance":4566,"i_long":106.675475,"transit":false,"station_id":"RU","i_lat":-6.314823,"is_transit":false,"line":6,"time":6},{"distance":2413,"station_id":"SRP","i_long":106.66566,"line":6,"i_lat":-6.319871,"transit":false,"station_name":"Serpong","is_transit":false,"time":4},{"i_lat":-6.32484,"line":3,"i_long":106.640411,"station_name":"Cisauk","transit":false,"time":4,"station_id":"CSK","distance":1784,"is_transit":false},{"distance":2519,"station_id":"CC","line":3,"i_lat":-6.329547,"station_name":"Cicayur","time":4,"i_long":106.617853,"is_transit":false,"transit":false},{"distance":5968,"transit":false,"station_name":"Parung Panjang","i_long":106.568863,"is_transit":false,"time":8,"i_lat":-6.3441410000000005,"station_id":"PRP","line":6},{"time":9,"i_long":106.508482,"is_transit":false,"station_id":"CJT","station_name":"Cilejit","distance":7025,"i_lat":-6.354349,"transit":false,"line":3},{"distance":2675,"time":6,"i_lat":-6.338021,"transit":false,"i_long":106.491338,"is_transit":false,"line":0,"station_name":"Daru","station_id":"DAR"},{"i_lat":-6.327251,"time":5,"i_long":106.460812,"distance":3902,"station_id":"TEJ","is_transit":false,"station_name":"Tenjo","transit":false,"line":6},{"line":6,"distance":2974,"station_name":"Tigaraksa","is_transit":false,"time":5,"i_lat":-6.328533,"transit":false,"i_long":106.425991,"station_id":"TGS"},{"i_long":106.411216,"line":3,"is_transit":false,"station_id":"CKY","i_lat":-6.33561,"distance":2651,"transit":false,"station_name":"Cikoya","time":3},{"transit":false,"station_id":"MJ","i_lat":-6.332307,"distance":1853,"i_long":106.394373,"line":6,"time":4,"station_name":"Maja","is_transit":false},{"time":10,"is_transit":false,"transit":false,"i_long":106.332092,"i_lat":-6.334892,"station_id":"CTR","line":3,"station_name":"Citeras","distance":7293}],[{"line":2,"transit":false,"time":0,"i_long":106.828284,"station_id":"JUA","distance":0,"station_name":"Juanda","is_transit":false,"i_lat":-6.166716},{"i_lat":-6.160725,"line":2,"i_long":106.827103,"is_transit":false,"station_name":"Sawah Besar","time":2,"transit":false,"distance":1149,"station_id":"SW"},{"transit":false,"i_long":106.82482,"station_name":"Manggabesar","distance":906,"is_transit":false,"station_id":"MGB","line":2,"time":2,"i_lat":-6.149769},{"station_id":"JAY","time":2,"line":2,"station_name":"Jayakarta","i_lat":-6.141205,"distance":1080,"transit":false,"i_long":106.820901,"is_transit":false},{"transit":true,"time":4,"i_lat":-6.137569,"i_long":106.812439,"distance":1264,"station_name":"Jakarta Kota","is_transit":true,"station_id":"JAKK","line":2},{"is_transit":true,"time":3,"line":4,"transit":true,"i_lat":-6.132549,"distance":1364,"station_name":"Kampung Bandan","station_id":"KPB","i_long":106.826365},{"station_id":"RJW","i_lat":-6.14505,"i_long":106.836569,"is_transit":false,"line":11,"distance":1444,"time":3,"transit":false,"station_name":"Rajawali"},{"station_id":"KMO","time":5,"i_lat":-6.161728,"line":11,"i_long":106.839204,"transit":false,"is_transit":false,"station_name":"Kemayoran","distance":1901},{"transit":false,"is_transit":false,"station_name":"Pasar Senen","distance":1436,"i_long":106.84368,"station_id":"PSE","i_lat":-6.174784,"time":4,"line":11},{"time":8,"station_id":"GST","station_name":"Gang Sentiong","transit":false,"i_lat":-6.185975,"i_long":106.850107,"is_transit":false,"distance":1567,"line":11},{"is_transit":false,"i_long":106.855437,"transit":false,"time":1,"distance":973,"i_lat":-6.193792,"line":11,"station_id":"KMT","station_name":"Kramat"},{"distance":1829,"transit":false,"time":2,"i_long":106.861737,"station_name":"Pondok Jati","station_id":"POK","i_lat":-6.209188,"is_transit":false,"line":11},{"station_name":"Jatinegara","distance":1236,"station_id":"JNG","i_long":106.86807400000001,"i_lat":-6.215091,"time":9,"transit":true,"is_transit":true,"line":1},{"station_id":"MTR","station_name":"Matraman","i_long":106.858896,"time":2,"is_transit":false,"distance":1377,"line":1,"i_lat":-6.212485,"transit":false},{"is_transit":false,"time":2,"station_name":"Manggarai","line":2,"distance":1275,"i_long":106.84912,"transit":false,"i_lat":-6.209883,"station_id":"MRI"},{"i_lat":-6.202263,"station_name":"Sudirman","line":1,"time":4,"transit":false,"i_long":106.822649,"distance":3186,"station_id":"SUD","is_transit":false},{"line":1,"i_long":106.819881,"station_id":"SUDB","distance":280,"i_lat":-6.201433,"transit":false,"is_transit":false,"time":1,"station_name":"Sudirman Baru"},{"line":1,"station_id":"KAT","time":1,"distance":471,"station_name":"Karet","is_transit":false,"i_lat":-6.20132,"transit":false,"i_long":106.816351},{"i_long":106.811091,"station_id":"THB","i_lat":-6.185545,"line":1,"distance":2029,"is_transit":true,"station_name":"Tanah Abang","transit":true,"time":5},{"transit":false,"time":6,"station_id":"PLM","line":6,"distance":3191,"is_transit":false,"i_lat":-6.207404,"i_long":106.79689,"station_name":"Palmerah"},{"i_lat":-6.237242,"i_long":106.780334,"distance":3737,"station_name":"Kebayoran","time":7,"station_id":"KBY","transit":false,"line":6,"is_transit":false},{"distance":6218,"station_name":"Pondokranji","i_lat":-6.276362,"is_transit":false,"i_long":106.74273,"transit":false,"station_id":"PDJ","line":6,"time":8},{"station_id":"JMU","i_long":106.728916,"i_lat":-6.288927,"is_transit":false,"station_name":"Jurangmangu","distance":2179,"transit":false,"time":3,"line":6},{"line":6,"station_name":"Sudimara","distance":1994,"station_id":"SDM","time":4,"transit":false,"is_transit":false,"i_long":106.712277,"i_lat":-6.296963},{"time":6,"distance":4566,"station_id":"RU","i_long":106.675475,"transit":false,"i_lat":-6.314823,"line":6,"is_transit":false,"station_name":"Rawa Buntu"},{"distance":2413,"i_lat":-6.319871,"station_name":"Serpong","is_transit":false,"i_long":106.66566,"line":6,"time":4,"transit":false,"station_id":"SRP"},{"station_id":"CSK","line":3,"time":4,"i_long":106.640411,"i_lat":-6.32484,"station_name":"Cisauk","distance":1784,"is_transit":false,"transit":false},{"station_id":"CC","station_name":"Cicayur","transit":false,"time":4,"line":3,"is_transit":false,"distance":2519,"i_lat":-6.329547,"i_long":106.617853},{"i_lat":-6.3441410000000005,"line":6,"station_name":"Parung Panjang","is_transit":false,"i_long":106.568863,"station_id":"PRP","time":8,"distance":5968,"transit":false},{"transit":false,"line":3,"distance":7025,"station_name":"Cilejit","is_transit":false,"time":9,"i_lat":-6.354349,"i_long":106.508482,"station_id":"CJT"},{"i_long":106.491338,"i_lat":-6.338021,"station_name":"Daru","station_id":"DAR","time":6,"line":0,"is_transit":false,"distance":2675,"transit":false},{"station_id":"TEJ","station_name":"Tenjo","i_long":106.460812,"distance":3902,"transit":false,"time":5,"line":6,"i_lat":-6.327251,"is_transit":false},{"distance":2974,"station_id":"TGS","station_name":"Tigaraksa","is_transit":false,"i_lat":-6.328533,"line":6,"i_long":106.425991,"transit":false,"time":5},{"transit":false,"station_id":"CKY","time":3,"station_name":"Cikoya","i_lat":-6.33561,"line":3,"i_long":106.411216,"is_transit":false,"distance":2651},{"distance":1853,"i_long":106.394373,"station_name":"Maja","is_transit":false,"transit":false,"time":4,"line":6,"station_id":"MJ","i_lat":-6.332307},{"station_name":"Citeras","i_lat":-6.334892,"line":3,"is_transit":false,"transit":false,"time":10,"i_long":106.332092,"station_id":"CTR","distance":7293}]]}