{"data":[[{"time":0,"line":2,"is_transit":false,"transit":false,"distance":0,"station_name":"Juanda","i_lat":-6.166716,"station_id":"JUA","i_long":106.828284},{"i_lat":-6.160725,"line":2,"time":2,"distance":1149,"station_name":"Sawah Besar","is_transit":false,"transit":false,"station_id":"SW","i_long":106.827103},{"line":2,"distance":906,"time":2,"station_id":"MGB","station_name":"Manggabesar","transit":false,"i_long":106.82482,"is_transit":false,"i_lat":-6.149769},{"distance":1080,"station_name":"Jayakarta","transit":false,"time":2,"station_id":"JAY","is_transit":false,"line":2,"i_long":106.820901,"i_lat":-6.141205},{"i_lat":-6.137569,"line":2,"transit":true,"station_id":"JAKK","station_name":"Jakarta Kota","time":4,"distance":1264,"is_transit":true,"i_long":106.812439},{"station_name":"Kampung Bandan","distance":1364,"transit":true,"is_transit":true,"i_long":106.826365,"line":4,"time":3,"station_id":"KPB","i_lat":-6.132549},{"station_name":"Angke","is_transit":false,"station_id":"AK","i_long":106.79867,"time":9,"line":1,"i_lat":-6.144674,"distance":4102,"transit":false},{"station_id":"DU","is_transit":true,"i_long":106.800832,"line":1,"i_lat":-6.155215,"transit":true,"time":4,"distance":1230,"station_name":"Duri"},{"i_lat":-6.162021,"station_id":"GRG","time":3,"transit":false,"is_transit":false,"distance":1700,"i_long":106.788277,"line":5,"station_name":"Grogol"},{"time":2,"station_id":"PSG","station_name":"Pesing","distance":2036,"is_transit":false,"line":5,"i_lat":-6.161433,"i_long":106.771379,"transit":false},{"time":2,"line":5,"i_long":106.756522,"is_transit":false,"transit":false,"station_id":"TKO","i_lat":-6.1587309999999995,"station_name":"Taman Kota","distance":1614},{"i_lat":-6.159876,"station_name":"Bojongindah","is_transit":false,"i_long":106.737035,"time":2,"transit":false,"line":5,"station_id":"BOI","distance":2334},{"distance":1152,"station_name":"Rawa Buaya","i_lat":-6.162758,"time":4,"is_transit":false,"station_id":"RW","i_long":106.723064,"transit":false,"line":5}],[{"is_transit":false,"i_long":106.828284,"line":2,"i_lat":-6.166716,"station_id":"JUA","transit":false,"time":0,"distance":0,"station_name":"Juanda"},{"line":2,"time":4,"is_transit":false,"i_lat":-6.186295,"station_id":"GDD","transit":false,"distance":2015,"station_name":"Gondangdia","i_long":106.832183},{"line":2,"time":3,"station_id":"CKI","is_transit":false,"i_lat":-6.198556,"transit":false,"i_long":106.840169,"distance":1750,"station_name":"Cikini"},{"distance":1590,"time":4,"transit":true,"line":2,"i_long":106.84912,"station_name":"Manggarai","station_id":"MRI","is_transit":true,"i_lat":-6.209883},{"distance":3186,"station_name":"Sudirman","i_long":106.822649,"station_id":"SUD","transit":false,"i_lat":-6.202263,"time":4,"is_transit":false,"line":1},{"time":1,"i_long":106.819881,"line":1,"distance":280,"station_id":"SUDB","station_name":"Sudirman Baru","i_lat":-6.201433,"transit":false,"is_transit":false},{"transit":false,"line":1,"i_lat":-6.20132,"is_transit":false,"station_name":"Karet","distance":471,"time":1,"i_long":106.816351,"station_id":"KAT"},{"is_transit":false,"time":5,"station_id":"THB","transit":false,"distance":2029,"i_long":106.811091,"line":1,"station_name":"Tanah Abang","i_lat":-6.185545},{"transit":true,"station_name":"Duri","distance":3632,"line":1,"station_id":"DU","time":8,"is_transit":true,"i_long":106.800832,"i_lat":-6.155215},{"is_transit":false,"line":5,"time":3,"transit":false,"i_lat":-6.162021,"station_name":"Grogol","i_long":106.788277,"station_id":"GRG","distance":1700},{"is_transit":false,"i_lat":-6.161433,"time":2,"distance":2036,"transit":false,"i_long":106.771379,"station_name":"Pesing","line":5,"station_id":"PSG"},{"transit":false,"is_transit":false,"station_id":"TKO","time":2,"i_long":106.756522,"station_name":"Taman Kota","line":5,"i_lat":-6.1587309999999995,"distance":1614},{"station_name":"Bojongindah","line":5,"i_long":106.737035,"is_transit":false,"distance":2334,"station_id":"BOI","i_lat":-6.159876,"time":2,"transit":false},{"line":5,"i_long":106.723064,"station_name":"Rawa Buaya","station_id":"RW","i_lat":-6.162758,"is_transit":false,"distance":1152,"transit":false,"time":4}],[{"station_name":"Juanda","is_transit":false,"i_lat":-6.166716,"transit":false,"i_long":106.828284,"time":0,"distance":0,"station_id":"JUA","line":2},{"is_transit":false,"line":2,"i_long":106.832183,"distance":2015,"i_lat":-6.186295,"station_id":"GDD","station_name":"Gondangdia","transit":false,"time":4},{"station_id":"CKI","time":3,"station_name":"Cikini","transit":false,"i_lat":-6.198556,"i_long":106.840169,"line":2,"distance":1750,"is_transit":false},{"time":4,"i_lat":-6.209883,"i_long":106.84912,"station_id":"MRI","transit":true,"is_transit":true,"line":2,"station_name":"Manggarai","distance":1590},{"time":2,"station_name":"Matraman","is_transit":false,"station_id":"MTR","i_lat":-6.212485,"i_long":106.858896,"transit":false,"line":1,"distance":1275},{"i_long":106.86807400000001,"station_id":"JNG","i_lat":-6.215091,"station_name":"Jatinegara","line":1,"time":8,"distance":1377,"is_transit":true,"transit":true},{"line":11,"i_long":106.861737,"station_name":"Pondok Jati","time":2,"is_transit":false,"distance":1236,"station_id":"POK","transit":false,"i_lat":-6.209188},{"time":2,"station_id":"KMT","is_transit":false,"station_name":"Kramat","line":11,"distance":1829,"i_long":106.855437,"transit":false,"i_lat":-6.193792},{"station_id":"GST","i_long":106.850107,"distance":973,"is_transit":false,"i_lat":-6.185975,"line":11,"time":1,"station_name":"Gang Sentiong","transit":false},{"i_long":106.84368,"distance":1567,"station_id":"PSE","time":8,"transit":false,"i_lat":-6.174784,"is_transit":false,"line":11,"station_name":"Pasar Senen"},{"i_long":106.839204,"transit":false,"is_transit":false,"distance":1436,"station_name":"Kemayoran","i_lat":-6.161728,"line":11,"time":4,"station_id":"KMO"},{"station_id":"RJW","distance":1901,"i_long":106.836569,"line":11,"is_transit":false,"station_name":"Rajawali","i_lat":-6.14505,"time":5,"transit":false},{"i_long":106.826365,"is_transit":true,"time":3,"station_name":"Kampung Bandan","transit":true,"i_lat":-6.132549,"distance":1444,"station_id":"KPB","line":4},{"line":1,"i_long":106.79867,"i_lat":-6.144674,"is_transit":false,"station_id":"AK","transit":false,"distance":4102,"time":9,"station_name":"Angke"},{"i_lat":-6.155215,"line":1,"transit":true,"i_long":106.800832,"time":4,"distance":1230,"is_transit":true,"station_name":"Duri","station_id":"DU"},{"transit":false,"line":5,"station_name":"Grogol","time":3,"station_id":"GRG","i_long":106.788277,"distance":1700,"is_transit":false,"i_lat":-6.162021},{"time":2,"is_transit":false,"distance":2036,"line":5,"i_long":106.771379,"i_lat":-6.161433,"station_id":"PSG","station_name":"Pesing","transit":false},{"i_lat":-6.1587309999999995,"line":5,"station_id":"TKO","transit":false,"time":2,"station_name":"Taman Kota","is_transit":false,"i_long":106.756522,"distance":1614},{"station_id":"BOI","transit":false,"time":2,"distance":2334,"i_lat":-6.159876,"i_long":106.737035,"line":5,"station_name":"Bojongindah","is_transit":false},{"is_transit":false,"transit":false,"station_id":"RW","i_long":106.723064,"distance":1152,"station_name":"Rawa Buaya","time":4,"i_lat":-6.162758,"line":5}],[{"distance":0,"is_transit":false,"transit":false,"i_long":106.828284,"time":0,"station_name":"Juanda","line":2,"station_id":"JUA","i_lat":-6.166716},{"station_name":"Sawah Besar","distance":1149,"transit":false,"line":2,"i_lat":-6.160725,"is_transit":false,"station_id":"SW","time":2,"i_long":106.827103},{"distance":906,"i_long":106.82482,"station_name":"Manggabesar","station_id":"MGB","time":2,"is_transit":false,"line":2,"i_lat":-6.149769,"transit":false},{"time":2,"station_id":"JAY","line":2,"i_lat":-6.141205,"station_name":"Jayakarta","i_long":106.820901,"distance":1080,"is_transit":false,"transit":false},{"time":4,"station_id":"JAKK","distance":1264,"station_name":"Jakarta Kota","is_transit":true,"i_lat":-6.137569,"transit":true,"i_long":106.812439,"line":2},{"i_long":106.826365,"transit":true,"distance":1364,"i_lat":-6.132549,"line":4,"station_id":"KPB","is_transit":true,"time":3,"station_name":"Kampung Bandan"},{"i_lat":-6.14505,"i_long":106.836569,"station_name":"Rajawali","transit":false,"distance":1444,"is_transit":false,"line":11,"station_id":"RJW","time":3},{"transit":false,"i_long":106.839204,"line":11,"is_transit":false,"distance":1901,"time":5,"station_name":"Kemayoran","i_lat":-6.161728,"station_id":"KMO"},{"transit":false,"station_id":"PSE","station_name":"Pasar Senen","distance":1436,"is_transit":false,"i_long":106.84368,"line":11,"time":4,"i_lat":-6.174784},{"i_long":106.850107,"i_lat":-6.185975,"transit":false,"station_name":"Gang Sentiong","time":8,"station_id":"GST","line":11,"is_transit":false,"distance":1567},{"i_lat":-6.193792,"distance":973,"station_name":"Kramat","i_long":106.855437,"line":11,"station_id":"KMT","time":1,"is_transit":false,"transit":false},{"i_lat":-6.209188,"station_id":"POK","station_name":"Pondok Jati","time":2,"is_transit":false,"transit":false,"line":11,"i_long":106.861737,"distance":1829},{"i_long":106.86807400000001,"transit":true,"line":1,"time":9,"is_transit":true,"distance":1236,"station_name":"Jatinegara","station_id":"JNG","i_lat":-6.215091},{"distance":1377,"time":2,"station_id":"MTR","is_transit":false,"i_lat":-6.212485,"i_long":106.858896,"line":1,"transit":false,"station_name":"Matraman"},{"station_id":"MRI","line":2,"is_transit":false,"transit":false,"time":2,"distance":1275,"i_lat":-6.209883,"i_long":106.84912,"station_name":"Manggarai"},{"line":1,"distance":3186,"i_lat":-6.202263,"station_id":"SUD","i_long":106.822649,"time":4,"station_name":"Sudirman","is_transit":false,"transit":false},{"transit":false,"i_lat":-6.201433,"line":1,"is_transit":false,"time":1,"station_name":"Sudirman Baru","i_long":106.819881,"distance":280,"station_id":"SUDB"},{"distance":471,"is_transit":false,"line":1,"transit":false,"time":1,"i_long":106.816351,"station_name":"Karet","station_id":"KAT","i_lat":-6.20132},{"station_id":"THB","i_long":106.811091,"distance":2029,"is_transit":false,"time":5,"transit":false,"i_lat":-6.185545,"line":1,"station_name":"Tanah Abang"},{"time":8,"station_name":"Duri","station_id":"DU","distance":3632,"i_lat":-6.155215,"i_long":106.800832,"is_transit":true,"transit":true,"line":1},{"i_lat":-6.162021,"distance":1700,"i_long":106.788277,"is_transit":false,"station_id":"GRG","station_name":"Grogol","line":5,"time":3,"transit":false},{"is_transit":false,"station_name":"Pesing","distance":2036,"station_id":"PSG","i_lat":-6.161433,"line":5,"time":2,"transit":false,"i_long":106.771379},{"time":2,"line":5,"station_name":"Taman Kota","distance":1614,"i_long":106.756522,"is_transit":false,"transit":false,"i_lat":-6.1587309999999995,"station_id":"TKO"},{"time":2,"distance":2334,"station_name":"Bojongindah","station_id":"BOI","i_lat":-6.159876,"i_long":106.737035,"line":5,"is_transit":false,"transit":false},{"distance":1152,"i_lat":-6.162758,"time":4,"station_name":"Rawa Buaya","station_id":"RW","line":5,"transit":false,"i_long":106.723064,"is_transit":false}]]}