{"data":[[{"station_id":"KAT","station_name":"Karet","transit":false,"is_transit":false,"i_lat":-6.20132,"line":1,"distance":0,"time":0,"i_long":106.816351},{"distance":471,"i_long":106.819881,"transit":false,"time":1,"line":1,"is_transit":false,"station_id":"SUDB","station_name":"Sudirman Baru","i_lat":-6.201433},{"is_transit":false,"time":1,"station_name":"Sudirman","transit":false,"station_id":"SUD","i_lat":-6.202263,"i_long":106.822649,"distance":280,"line":1},{"station_name":"Manggarai","i_lat":-6.209883,"i_long":106.84912,"line":0,"is_transit":true,"distance":3186,"transit":true,"time":4,"station_id":"MRI"},{"line":2,"distance":2610,"transit":false,"station_id":"TEB","is_transit":false,"time":4,"i_lat":-6.226659,"i_long":106.857948,"station_name":"Tebet"},{"is_transit":false,"i_long":106.856607,"time":2,"station_id":"CW","station_name":"Cawang","transit":false,"i_lat":-6.242512,"line":0,"distance":1230}],[{"time":0,"i_long":106.816351,"distance":0,"is_transit":false,"line":1,"transit":false,"station_name":"Karet","i_lat":-6.20132,"station_id":"KAT"},{"station_name":"Tanah Abang","time":5,"distance":2029,"i_long":106.811091,"line":1,"station_id":"THB","i_lat":-6.185545,"transit":false,"is_transit":true},{"i_long":106.800832,"transit":true,"distance":3632,"i_lat":-6.155215,"time":8,"line":1,"is_transit":true,"station_name":"Duri","station_id":"DU"},{"station_name":"Angke","i_long":106.79867,"distance":1230,"is_transit":false,"station_id":"AK","time":4,"line":0,"transit":false,"i_lat":-6.144674},{"i_long":106.826365,"transit":false,"line":0,"station_id":"KPB","i_lat":-6.132549,"station_name":"Kampung Bandan","is_transit":true,"time":9,"distance":4102},{"distance":1364,"station_name":"Jakarta Kota","line":0,"transit":true,"i_lat":-6.137569,"time":3,"station_id":"JAKK","is_transit":true,"i_long":106.812439},{"line":7,"i_long":106.820901,"station_id":"JAY","transit":false,"is_transit":false,"i_lat":-6.141205,"time":4,"station_name":"Jayakarta","distance":1264},{"i_lat":-6.149769,"is_transit":false,"line":2,"station_id":"MGB","time":2,"i_long":106.82482,"distance":1080,"transit":false,"station_name":"Manggabesar"},{"distance":906,"i_long":106.827103,"station_id":"SW","is_transit":false,"line":2,"time":2,"transit":false,"i_lat":-6.160725,"station_name":"Sawah Besar"},{"is_transit":false,"distance":1149,"station_id":"JUA","time":2,"station_name":"Juanda","line":2,"transit":false,"i_lat":-6.166716,"i_long":106.828284},{"station_id":"GDD","transit":false,"i_long":106.832183,"is_transit":false,"distance":2015,"station_name":"Gondangdia","time":4,"line":2,"i_lat":-6.186295},{"transit":false,"i_long":106.840169,"station_name":"Cikini","is_transit":false,"line":0,"i_lat":-6.198556,"time":3,"distance":1750,"station_id":"CKI"},{"is_transit":true,"distance":1590,"transit":true,"station_id":"MRI","time":4,"i_lat":-6.209883,"line":0,"i_long":106.84912,"station_name":"Manggarai"},{"time":4,"station_id":"TEB","i_lat":-6.226659,"is_transit":false,"transit":false,"line":2,"station_name":"Tebet","i_long":106.857948,"distance":2610},{"transit":false,"line":0,"i_long":106.856607,"i_lat":-6.242512,"station_name":"Cawang","time":2,"station_id":"CW","is_transit":false,"distance":1230}],[{"is_transit":false,"station_name":"Karet","distance":0,"i_long":106.816351,"station_id":"KAT","time":0,"transit":false,"i_lat":-6.20132,"line":1},{"i_long":106.811091,"station_id":"THB","is_transit":true,"line":1,"station_name":"Tanah Abang","time":5,"i_lat":-6.185545,"transit":false,"distance":2029},{"is_transit":true,"station_name":"Duri","time":8,"distance":3632,"transit":true,"station_id":"DU","line":1,"i_lat":-6.155215,"i_long":106.800832},{"i_lat":-6.144674,"i_long":106.79867,"time":4,"distance":1230,"is_transit":false,"transit":false,"station_id":"AK","line":0,"station_name":"Angke"},{"i_lat":-6.132549,"time":9,"i_long":106.826365,"transit":true,"is_transit":true,"station_name":"Kampung Bandan","distance":4102,"line":0,"station_id":"KPB"},{"station_name":"Rajawali","time":3,"station_id":"RJW","line":11,"distance":1444,"i_long":106.836569,"transit":false,"i_lat":-6.14505,"is_transit":false},{"i_long":106.839204,"distance":1901,"time":5,"station_name":"Kemayoran","station_id":"KMO","is_transit":false,"transit":false,"i_lat":-6.161728,"line":11},{"station_name":"Pasar Senen","i_long":106.84368,"time":4,"transit":false,"station_id":"PSE","i_lat":-6.174784,"is_transit":false,"line":11,"distance":1436},{"station_id":"GST","distance":1567,"station_name":"Gang Sentiong","transit":false,"time":8,"i_long":106.850107,"line":11,"is_transit":false,"i_lat":-6.185975},{"time":1,"distance":973,"i_long":106.855437,"station_name":"Kramat","is_transit":false,"i_lat":-6.193792,"line":11,"transit":false,"station_id":"KMT"},{"station_name":"Pondok Jati","distance":1829,"line":11,"time":2,"station_id":"POK","is_transit":false,"transit":false,"i_lat":-6.209188,"i_long":106.861737},{"station_name":"Jatinegara","is_transit":true,"distance":1236,"station_id":"JNG","transit":true,"time":9,"i_long":106.86807400000001,"line":0,"i_lat":-6.215091},{"i_lat":-6.212485,"station_id":"MTR","distance":1377,"transit":false,"is_transit":false,"time":2,"line":1,"station_name":"Matraman","i_long":106.858896},{"station_name":"Manggarai","time":2,"transit":true,"is_transit":true,"i_lat":-6.209883,"distance":1275,"station_id":"MRI","i_long":106.84912,"line":0},{"i_lat":-6.226659,"line":2,"time":4,"is_transit":false,"station_id":"TEB","i_long":106.857948,"station_name":"Tebet","transit":false,"distance":2610},{"station_name":"Cawang","line":0,"transit":false,"station_id":"CW","i_long":106.856607,"distance":1230,"time":2,"is_transit":false,"i_lat":-6.242512}]]}