{"data":[[{"station_name":"Karet","i_lat":-6.20132,"i_long":106.816351,"line":1,"distance":0,"station_id":"KAT","time":0,"is_transit":false,"transit":false},{"station_name":"Sudirman Baru","is_transit":false,"station_id":"SUDB","i_long":106.819881,"distance":471,"line":1,"time":1,"transit":false,"i_lat":-6.201433},{"i_long":106.822649,"line":1,"is_transit":false,"time":1,"station_id":"SUD","transit":false,"station_name":"Sudirman","i_lat":-6.202263,"distance":280},{"station_id":"MRI","station_name":"Manggarai","i_lat":-6.209883,"i_long":106.84912,"is_transit":false,"line":2,"time":4,"distance":3186,"transit":false},{"station_id":"MTR","i_lat":-6.212485,"distance":1275,"station_name":"Matraman","time":2,"i_long":106.858896,"line":1,"transit":false,"is_transit":false},{"is_transit":false,"station_id":"JNG","i_long":106.86807400000001,"transit":false,"i_lat":-6.215091,"distance":1377,"line":1,"station_name":"Jatinegara","time":8},{"time":3,"i_long":106.899548,"is_transit":false,"distance":3395,"i_lat":-6.2135,"station_id":"KLD","station_name":"Klender","line":1,"transit":false},{"is_transit":false,"distance":3100,"transit":false,"i_lat":-6.215568,"station_name":"Buaran","i_long":106.922662,"station_id":"BUA","time":2,"line":1},{"line":1,"i_lat":-6.217455,"i_long":106.939679,"time":1,"distance":1305,"is_transit":false,"transit":false,"station_id":"KLDB","station_name":"Klenderbaru"},{"station_name":"Cakung","station_id":"CUK","is_transit":false,"transit":false,"i_long":106.951283,"distance":1385,"line":1,"time":8,"i_lat":-6.219053},{"i_long":106.977657,"line":1,"transit":false,"time":3,"station_name":"Kranji","is_transit":false,"station_id":"KRI","i_lat":-6.224515,"distance":3097},{"transit":false,"station_name":"Bekasi","distance":2520,"i_lat":-6.236616,"line":1,"time":4,"is_transit":false,"i_long":106.997013,"station_id":"BKS"},{"is_transit":false,"station_name":"Bekasi Timur","i_long":107.016735,"distance":2368,"station_id":"BKST","time":2,"i_lat":-6.248029,"line":1,"transit":false},{"station_name":"Tambun","time":7,"transit":false,"distance":4460,"station_id":"TB","i_long":107.055722,"line":1,"is_transit":false,"i_lat":-6.258864},{"station_id":"CIT","i_long":107.083084,"is_transit":false,"i_lat":-6.261877,"line":1,"time":3,"distance":3420,"station_name":"Cibitung","transit":false},{"is_transit":false,"station_id":"TLM","line":1,"time":2,"station_name":"Metland Telaga Murni","transit":false,"i_long":107.093313,"i_lat":-6.262938,"distance":2800},{"line":1,"transit":false,"station_id":"CKR","time":4,"i_lat":-6.2553149999999995,"i_long":107.144613,"distance":3689,"station_name":"Cikarang","is_transit":false}],[{"is_transit":false,"station_id":"KAT","transit":false,"i_lat":-6.20132,"station_name":"Karet","time":0,"i_long":106.816351,"line":1,"distance":0},{"station_name":"Tanah Abang","i_lat":-6.185545,"line":1,"is_transit":false,"distance":2029,"time":5,"i_long":106.811091,"transit":false,"station_id":"THB"},{"i_lat":-6.155215,"station_id":"DU","time":8,"station_name":"Duri","distance":3632,"is_transit":false,"transit":false,"i_long":106.800832,"line":1},{"transit":false,"distance":1230,"station_name":"Angke","i_lat":-6.144674,"station_id":"AK","is_transit":false,"i_long":106.79867,"time":4,"line":1},{"distance":4102,"transit":true,"is_transit":true,"station_name":"Kampung Bandan","time":9,"i_lat":-6.132549,"line":4,"station_id":"KPB","i_long":106.826365},{"distance":1444,"station_id":"RJW","line":11,"i_lat":-6.14505,"i_long":106.836569,"station_name":"Rajawali","transit":false,"is_transit":false,"time":3},{"is_transit":false,"i_long":106.839204,"line":11,"i_lat":-6.161728,"distance":1901,"transit":false,"station_name":"Kemayoran","station_id":"KMO","time":5},{"station_id":"PSE","i_lat":-6.174784,"transit":false,"line":11,"time":4,"distance":1436,"is_transit":false,"station_name":"Pasar Senen","i_long":106.84368},{"station_id":"GST","time":8,"distance":1567,"line":11,"i_lat":-6.185975,"i_long":106.850107,"is_transit":false,"station_name":"Gang Sentiong","transit":false},{"i_lat":-6.193792,"transit":false,"station_id":"KMT","distance":973,"station_name":"Kramat","i_long":106.855437,"line":11,"is_transit":false,"time":1},{"time":2,"i_lat":-6.209188,"station_id":"POK","station_name":"Pondok Jati","line":11,"is_transit":false,"i_long":106.861737,"distance":1829,"transit":false},{"transit":true,"station_name":"Jatinegara","distance":1236,"is_transit":true,"station_id":"JNG","i_lat":-6.215091,"i_long":106.86807400000001,"time":9,"line":1},{"is_transit":false,"station_id":"KLD","time":3,"transit":false,"distance":3395,"station_name":"Klender","i_lat":-6.2135,"line":1,"i_long":106.899548},{"i_lat":-6.215568,"station_name":"Buaran","transit":false,"time":2,"distance":3100,"is_transit":false,"station_id":"BUA","i_long":106.922662,"line":1},{"line":1,"time":1,"is_transit":false,"i_lat":-6.217455,"distance":1305,"station_id":"KLDB","i_long":106.939679,"transit":false,"station_name":"Klenderbaru"},{"station_name":"Cakung","is_transit":false,"transit":false,"distance":1385,"station_id":"CUK","line":1,"time":8,"i_lat":-6.219053,"i_long":106.951283},{"is_transit":false,"station_id":"KRI","transit":false,"i_long":106.977657,"line":1,"i_lat":-6.224515,"station_name":"Kranji","time":3,"distance":3097},{"i_lat":-6.236616,"distance":2520,"station_id":"BKS","station_name":"Bekasi","line":1,"transit":false,"time":4,"is_transit":false,"i_long":106.997013},{"i_lat":-6.248029,"is_transit":false,"station_id":"BKST","distance":2368,"time":2,"line":1,"station_name":"Bekasi Timur","i_long":107.016735,"transit":false},{"i_lat":-6.258864,"distance":4460,"i_long":107.055722,"time":7,"station_id":"TB","is_transit":false,"line":1,"station_name":"Tambun","transit":false},{"is_transit":false,"distance":3420,"i_long":107.083084,"station_id":"CIT","time":3,"station_name":"Cibitung","i_lat":-6.261877,"line":1,"transit":false},{"station_name":"Metland Telaga Murni","distance":2800,"time":2,"transit":false,"is_transit":false,"station_id":"TLM","i_lat":-6.262938,"i_long":107.093313,"line":1},{"line":1,"i_long":107.144613,"time":4,"i_lat":-6.2553149999999995,"station_name":"Cikarang","distance":3689,"station_id":"CKR","is_transit":false,"transit":false}],[{"station_id":"KAT","transit":false,"i_lat":-6.20132,"distance":0,"line":1,"time":0,"i_long":106.816351,"station_name":"Karet","is_transit":false},{"distance":2029,"station_id":"THB","i_long":106.811091,"time":5,"line":1,"station_name":"Tanah Abang","is_transit":false,"i_lat":-6.185545,"transit":false},{"i_lat":-6.155215,"i_long":106.800832,"time":8,"line":1,"station_id":"DU","transit":false,"is_transit":false,"distance":3632,"station_name":"Duri"},{"station_id":"AK","station_name":"Angke","time":4,"i_lat":-6.144674,"line":1,"transit":false,"distance":1230,"is_transit":false,"i_long":106.79867},{"distance":4102,"station_name":"Kampung Bandan","time":9,"i_long":106.826365,"is_transit":true,"i_lat":-6.132549,"station_id":"KPB","transit":true,"line":4},{"is_transit":true,"time":3,"transit":true,"station_id":"JAKK","station_name":"Jakarta Kota","i_long":106.812439,"line":2,"distance":1364,"i_lat":-6.137569},{"i_lat":-6.141205,"distance":1264,"i_long":106.820901,"is_transit":false,"station_id":"JAY","time":4,"station_name":"Jayakarta","transit":false,"line":2},{"i_long":106.82482,"i_lat":-6.149769,"line":2,"station_id":"MGB","is_transit":false,"time":2,"station_name":"Manggabesar","transit":false,"distance":1080},{"station_id":"SW","i_long":106.827103,"line":2,"is_transit":false,"time":2,"i_lat":-6.160725,"station_name":"Sawah Besar","transit":false,"distance":906},{"station_id":"JUA","transit":false,"station_name":"Juanda","i_long":106.828284,"is_transit":false,"distance":1149,"i_lat":-6.166716,"line":2,"time":2},{"station_id":"GDD","transit":false,"i_lat":-6.186295,"distance":2015,"is_transit":false,"station_name":"Gondangdia","i_long":106.832183,"line":2,"time":4},{"distance":1750,"station_name":"Cikini","i_long":106.840169,"time":3,"is_transit":false,"i_lat":-6.198556,"line":2,"station_id":"CKI","transit":false},{"time":4,"line":2,"station_name":"Manggarai","i_lat":-6.209883,"transit":true,"station_id":"MRI","distance":1590,"is_transit":true,"i_long":106.84912},{"distance":1275,"is_transit":false,"i_long":106.858896,"time":2,"station_name":"Matraman","i_lat":-6.212485,"line":1,"station_id":"MTR","transit":false},{"line":1,"i_lat":-6.215091,"distance":1377,"transit":false,"station_name":"Jatinegara","station_id":"JNG","is_transit":false,"time":8,"i_long":106.86807400000001},{"is_transit":false,"time":3,"station_id":"KLD","station_name":"Klender","transit":false,"distance":3395,"i_long":106.899548,"i_lat":-6.2135,"line":1},{"station_name":"Buaran","i_long":106.922662,"distance":3100,"is_transit":false,"transit":false,"i_lat":-6.215568,"time":2,"line":1,"station_id":"BUA"},{"station_name":"Klenderbaru","i_lat":-6.217455,"time":1,"i_long":106.939679,"is_transit":false,"station_id":"KLDB","transit":false,"distance":1305,"line":1},{"i_long":106.951283,"i_lat":-6.219053,"station_name":"Cakung","station_id":"CUK","distance":1385,"transit":false,"is_transit":false,"time":8,"line":1},{"station_id":"KRI","i_long":106.977657,"i_lat":-6.224515,"station_name":"Kranji","transit":false,"is_transit":false,"distance":3097,"line":1,"time":3},{"is_transit":false,"time":4,"station_name":"Bekasi","transit":false,"i_long":106.997013,"i_lat":-6.236616,"distance":2520,"line":1,"station_id":"BKS"},{"time":2,"transit":false,"is_transit":false,"distance":2368,"line":1,"station_name":"Bekasi Timur","i_lat":-6.248029,"i_long":107.016735,"station_id":"BKST"},{"i_long":107.055722,"distance":4460,"line":1,"station_id":"TB","is_transit":false,"time":7,"station_name":"Tambun","transit":false,"i_lat":-6.258864},{"station_name":"Cibitung","station_id":"CIT","is_transit":false,"i_long":107.083084,"distance":3420,"time":3,"i_lat":-6.261877,"line":1,"transit":false},{"time":2,"i_long":107.093313,"is_transit":false,"line":1,"station_id":"TLM","transit":false,"distance":2800,"station_name":"Metland Telaga Murni","i_lat":-6.262938},{"station_id":"CKR","station_name":"Cikarang","i_lat":-6.2553149999999995,"distance":3689,"is_transit":false,"transit":false,"line":1,"time":4,"i_long":107.144613}],[{"transit":false,"station_id":"KAT","line":1,"distance":0,"is_transit":false,"time":0,"i_lat":-6.20132,"station_name":"Karet","i_long":106.816351},{"station_id":"SUDB","time":1,"transit":false,"i_long":106.819881,"line":1,"is_transit":false,"station_name":"Sudirman Baru","distance":471,"i_lat":-6.201433},{"is_transit":false,"transit":false,"time":1,"station_name":"Sudirman","distance":280,"i_lat":-6.202263,"i_long":106.822649,"station_id":"SUD","line":1},{"i_long":106.84912,"time":4,"station_name":"Manggarai","i_lat":-6.209883,"is_transit":true,"line":2,"station_id":"MRI","distance":3186,"transit":true},{"is_transit":false,"transit":false,"time":4,"i_long":106.840169,"station_id":"CKI","distance":1590,"station_name":"Cikini","line":2,"i_lat":-6.198556},{"distance":1750,"i_long":106.832183,"station_id":"GDD","is_transit":false,"transit":false,"time":3,"i_lat":-6.186295,"line":2,"station_name":"Gondangdia"},{"station_id":"JUA","transit":false,"station_name":"Juanda","i_long":106.828284,"distance":2015,"is_transit":false,"time":4,"i_lat":-6.166716,"line":2},{"is_transit":false,"time":2,"i_long":106.827103,"station_name":"Sawah Besar","line":2,"distance":1149,"station_id":"SW","transit":false,"i_lat":-6.160725},{"time":2,"station_id":"MGB","distance":906,"transit":false,"is_transit":false,"station_name":"Manggabesar","i_lat":-6.149769,"i_long":106.82482,"line":2},{"time":2,"distance":1080,"is_transit":false,"transit":false,"i_long":106.820901,"line":2,"i_lat":-6.141205,"station_name":"Jayakarta","station_id":"JAY"},{"i_long":106.812439,"distance":1264,"i_lat":-6.137569,"line":2,"station_name":"Jakarta Kota","station_id":"JAKK","transit":true,"is_transit":true,"time":4},{"i_long":106.826365,"station_id":"KPB","distance":1364,"line":4,"is_transit":true,"i_lat":-6.132549,"time":3,"station_name":"Kampung Bandan","transit":true},{"is_transit":false,"station_name":"Rajawali","line":11,"time":3,"station_id":"RJW","i_lat":-6.14505,"i_long":106.836569,"transit":false,"distance":1444},{"distance":1901,"station_name":"Kemayoran","time":5,"i_lat":-6.161728,"line":11,"is_transit":false,"transit":false,"station_id":"KMO","i_long":106.839204},{"is_transit":false,"transit":false,"i_lat":-6.174784,"i_long":106.84368,"line":11,"distance":1436,"station_id":"PSE","time":4,"station_name":"Pasar Senen"},{"i_long":106.850107,"transit":false,"station_name":"Gang Sentiong","line":11,"station_id":"GST","distance":1567,"i_lat":-6.185975,"is_transit":false,"time":8},{"time":1,"i_lat":-6.193792,"i_long":106.855437,"station_id":"KMT","transit":false,"is_transit":false,"station_name":"Kramat","distance":973,"line":11},{"time":2,"distance":1829,"station_name":"Pondok Jati","i_long":106.861737,"is_transit":false,"station_id":"POK","transit":false,"i_lat":-6.209188,"line":11},{"transit":true,"is_transit":true,"line":1,"distance":1236,"i_lat":-6.215091,"station_id":"JNG","time":9,"station_name":"Jatinegara","i_long":106.86807400000001},{"time":3,"station_id":"KLD","station_name":"Klender","transit":false,"is_transit":false,"distance":3395,"i_lat":-6.2135,"i_long":106.899548,"line":1},{"transit":false,"distance":3100,"time":2,"i_lat":-6.215568,"i_long":106.922662,"station_name":"Buaran","line":1,"is_transit":false,"station_id":"BUA"},{"transit":false,"station_name":"Klenderbaru","i_lat":-6.217455,"i_long":106.939679,"distance":1305,"time":1,"is_transit":false,"station_id":"KLDB","line":1},{"station_id":"CUK","station_name":"Cakung","line":1,"time":8,"distance":1385,"i_long":106.951283,"is_transit":false,"i_lat":-6.219053,"transit":false},{"time":3,"i_lat":-6.224515,"line":1,"is_transit":false,"station_name":"Kranji","i_long":106.977657,"transit":false,"station_id":"KRI","distance":3097},{"station_id":"BKS","time":4,"is_transit":false,"distance":2520,"transit":false,"station_name":"Bekasi","line":1,"i_long":106.997013,"i_lat":-6.236616},{"time":2,"station_name":"Bekasi Timur","distance":2368,"transit":false,"i_lat":-6.248029,"i_long":107.016735,"line":1,"is_transit":false,"station_id":"BKST"},{"i_lat":-6.258864,"station_id":"TB","i_long":107.055722,"line":1,"time":7,"station_name":"Tambun","distance":4460,"is_transit":false,"transit":false},{"station_id":"CIT","i_lat":-6.261877,"time":3,"transit":false,"i_long":107.083084,"distance":3420,"is_transit":false,"station_name":"Cibitung","line":1},{"station_id":"TLM","i_lat":-6.262938,"time":2,"line":1,"i_long":107.093313,"is_transit":false,"transit":false,"station_name":"Metland Telaga Murni","distance":2800},{"i_lat":-6.2553149999999995,"station_name":"Cikarang","distance":3689,"is_transit":false,"time":4,"transit":false,"i_long":107.144613,"station_id":"CKR","line":1}]]}