{"data":[[{"distance":0,"station_id":"KAT","station_name":"Karet","i_long":106.816351,"line":1,"is_transit":false,"time":0,"transit":false,"i_lat":-6.20132},{"is_transit":false,"line":1,"time":1,"i_long":106.819881,"station_id":"SUDB","station_name":"Sudirman Baru","transit":false,"distance":471,"i_lat":-6.201433},{"i_lat":-6.202263,"station_id":"SUD","i_long":106.822649,"line":1,"station_name":"Sudirman","transit":false,"is_transit":false,"distance":280,"time":1},{"station_name":"Manggarai","distance":3186,"i_long":106.84912,"line":2,"station_id":"MRI","transit":false,"i_lat":-6.209883,"is_transit":false,"time":4},{"time":2,"line":1,"i_long":106.858896,"station_name":"Matraman","station_id":"MTR","i_lat":-6.212485,"distance":1275,"is_transit":false,"transit":false},{"distance":1377,"is_transit":false,"line":1,"station_id":"JNG","i_lat":-6.215091,"i_long":106.86807400000001,"station_name":"Jatinegara","transit":false,"time":8},{"distance":3395,"station_id":"KLD","i_long":106.899548,"transit":false,"i_lat":-6.2135,"line":1,"time":3,"is_transit":false,"station_name":"Klender"}],[{"i_lat":-6.20132,"is_transit":false,"station_id":"KAT","time":0,"station_name":"Karet","i_long":106.816351,"line":1,"transit":false,"distance":0},{"transit":false,"station_name":"Tanah Abang","distance":2029,"line":1,"station_id":"THB","is_transit":false,"time":5,"i_long":106.811091,"i_lat":-6.185545},{"i_lat":-6.155215,"station_name":"Duri","distance":3632,"is_transit":false,"station_id":"DU","time":8,"transit":false,"i_long":106.800832,"line":1},{"is_transit":false,"time":4,"distance":1230,"i_long":106.79867,"line":1,"transit":false,"station_id":"AK","i_lat":-6.144674,"station_name":"Angke"},{"time":9,"line":4,"i_long":106.826365,"station_id":"KPB","is_transit":true,"distance":4102,"i_lat":-6.132549,"station_name":"Kampung Bandan","transit":true},{"is_transit":false,"time":3,"distance":1444,"i_lat":-6.14505,"i_long":106.836569,"station_id":"RJW","transit":false,"station_name":"Rajawali","line":11},{"transit":false,"station_name":"Kemayoran","station_id":"KMO","i_lat":-6.161728,"i_long":106.839204,"line":11,"distance":1901,"is_transit":false,"time":5},{"time":4,"station_name":"Pasar Senen","transit":false,"is_transit":false,"distance":1436,"station_id":"PSE","i_lat":-6.174784,"line":11,"i_long":106.84368},{"transit":false,"station_name":"Gang Sentiong","time":8,"is_transit":false,"i_lat":-6.185975,"i_long":106.850107,"station_id":"GST","distance":1567,"line":11},{"station_name":"Kramat","station_id":"KMT","time":1,"distance":973,"is_transit":false,"transit":false,"i_lat":-6.193792,"line":11,"i_long":106.855437},{"station_id":"POK","i_lat":-6.209188,"station_name":"Pondok Jati","is_transit":false,"i_long":106.861737,"distance":1829,"transit":false,"time":2,"line":11},{"i_long":106.86807400000001,"station_id":"JNG","station_name":"Jatinegara","time":9,"line":1,"i_lat":-6.215091,"is_transit":true,"distance":1236,"transit":true},{"time":3,"station_name":"Klender","is_transit":false,"line":1,"i_lat":-6.2135,"i_long":106.899548,"distance":3395,"station_id":"KLD","transit":false}],[{"distance":0,"i_long":106.816351,"time":0,"i_lat":-6.20132,"transit":false,"station_id":"KAT","line":1,"station_name":"Karet","is_transit":false},{"transit":false,"i_long":106.811091,"i_lat":-6.185545,"line":1,"time":5,"distance":2029,"station_id":"THB","station_name":"Tanah Abang","is_transit":false},{"is_transit":false,"time":8,"transit":false,"station_id":"DU","line":1,"station_name":"Duri","i_long":106.800832,"i_lat":-6.155215,"distance":3632},{"transit":false,"station_name":"Angke","i_long":106.79867,"i_lat":-6.144674,"time":4,"distance":1230,"is_transit":false,"station_id":"AK","line":1},{"station_name":"Kampung Bandan","i_long":106.826365,"transit":true,"distance":4102,"time":9,"is_transit":true,"station_id":"KPB","line":4,"i_lat":-6.132549},{"station_name":"Jakarta Kota","i_lat":-6.137569,"time":3,"is_transit":true,"distance":1364,"station_id":"JAKK","transit":true,"i_long":106.812439,"line":2},{"distance":1264,"transit":false,"time":4,"i_long":106.820901,"is_transit":false,"station_id":"JAY","station_name":"Jayakarta","i_lat":-6.141205,"line":2},{"is_transit":false,"station_name":"Manggabesar","distance":1080,"time":2,"transit":false,"station_id":"MGB","i_long":106.82482,"line":2,"i_lat":-6.149769},{"distance":906,"is_transit":false,"transit":false,"time":2,"station_name":"Sawah Besar","station_id":"SW","i_long":106.827103,"line":2,"i_lat":-6.160725},{"is_transit":false,"line":2,"i_long":106.828284,"station_name":"Juanda","time":2,"transit":false,"i_lat":-6.166716,"distance":1149,"station_id":"JUA"},{"distance":2015,"station_id":"GDD","i_long":106.832183,"station_name":"Gondangdia","line":2,"time":4,"is_transit":false,"i_lat":-6.186295,"transit":false},{"line":2,"i_lat":-6.198556,"i_long":106.840169,"station_id":"CKI","station_name":"Cikini","time":3,"transit":false,"is_transit":false,"distance":1750},{"is_transit":true,"station_name":"Manggarai","transit":true,"line":2,"distance":1590,"i_lat":-6.209883,"time":4,"i_long":106.84912,"station_id":"MRI"},{"time":2,"line":1,"is_transit":false,"station_id":"MTR","station_name":"Matraman","i_lat":-6.212485,"i_long":106.858896,"distance":1275,"transit":false},{"is_transit":false,"i_lat":-6.215091,"station_name":"Jatinegara","transit":false,"time":8,"distance":1377,"line":1,"station_id":"JNG","i_long":106.86807400000001},{"station_name":"Klender","time":3,"is_transit":false,"distance":3395,"station_id":"KLD","transit":false,"i_long":106.899548,"i_lat":-6.2135,"line":1}],[{"distance":0,"time":0,"station_id":"KAT","is_transit":false,"transit":false,"line":1,"i_lat":-6.20132,"station_name":"Karet","i_long":106.816351},{"station_name":"Sudirman Baru","is_transit":false,"station_id":"SUDB","i_lat":-6.201433,"distance":471,"transit":false,"i_long":106.819881,"line":1,"time":1},{"time":1,"station_id":"SUD","i_lat":-6.202263,"line":1,"station_name":"Sudirman","is_transit":false,"i_long":106.822649,"transit":false,"distance":280},{"line":2,"distance":3186,"i_lat":-6.209883,"i_long":106.84912,"station_name":"Manggarai","transit":true,"station_id":"MRI","is_transit":true,"time":4},{"transit":false,"time":4,"station_name":"Cikini","is_transit":false,"station_id":"CKI","i_long":106.840169,"i_lat":-6.198556,"line":2,"distance":1590},{"station_name":"Gondangdia","line":2,"transit":false,"is_transit":false,"time":3,"station_id":"GDD","i_lat":-6.186295,"distance":1750,"i_long":106.832183},{"i_long":106.828284,"station_name":"Juanda","time":4,"transit":false,"station_id":"JUA","distance":2015,"line":2,"is_transit":false,"i_lat":-6.166716},{"station_name":"Sawah Besar","line":2,"time":2,"is_transit":false,"transit":false,"station_id":"SW","i_lat":-6.160725,"distance":1149,"i_long":106.827103},{"station_id":"MGB","station_name":"Manggabesar","is_transit":false,"distance":906,"transit":false,"line":2,"i_lat":-6.149769,"i_long":106.82482,"time":2},{"line":2,"station_id":"JAY","is_transit":false,"transit":false,"station_name":"Jayakarta","i_long":106.820901,"i_lat":-6.141205,"time":2,"distance":1080},{"station_name":"Jakarta Kota","i_lat":-6.137569,"line":2,"i_long":106.812439,"time":4,"station_id":"JAKK","is_transit":true,"transit":true,"distance":1264},{"i_lat":-6.132549,"distance":1364,"transit":true,"i_long":106.826365,"line":4,"time":3,"station_id":"KPB","station_name":"Kampung Bandan","is_transit":true},{"time":3,"i_lat":-6.14505,"distance":1444,"line":11,"station_id":"RJW","i_long":106.836569,"is_transit":false,"transit":false,"station_name":"Rajawali"},{"distance":1901,"station_name":"Kemayoran","i_lat":-6.161728,"is_transit":false,"transit":false,"line":11,"time":5,"station_id":"KMO","i_long":106.839204},{"distance":1436,"i_lat":-6.174784,"transit":false,"time":4,"station_id":"PSE","line":11,"station_name":"Pasar Senen","i_long":106.84368,"is_transit":false},{"distance":1567,"i_long":106.850107,"station_name":"Gang Sentiong","time":8,"i_lat":-6.185975,"transit":false,"station_id":"GST","line":11,"is_transit":false},{"i_long":106.855437,"is_transit":false,"line":11,"station_name":"Kramat","transit":false,"time":1,"distance":973,"station_id":"KMT","i_lat":-6.193792},{"station_name":"Pondok Jati","distance":1829,"transit":false,"station_id":"POK","is_transit":false,"line":11,"i_lat":-6.209188,"time":2,"i_long":106.861737},{"i_long":106.86807400000001,"transit":true,"station_id":"JNG","i_lat":-6.215091,"line":1,"station_name":"Jatinegara","distance":1236,"time":9,"is_transit":true},{"time":3,"station_id":"KLD","transit":false,"line":1,"i_lat":-6.2135,"distance":3395,"is_transit":false,"station_name":"Klender","i_long":106.899548}]]}