{"data":[[{"station_name":"Karet","station_id":"KAT","line":1,"distance":0,"transit":false,"i_lat":-6.20132,"i_long":106.816351,"is_transit":false,"time":0},{"transit":false,"i_lat":-6.201433,"i_long":106.819881,"is_transit":false,"line":1,"station_name":"Sudirman Baru","distance":471,"station_id":"SUDB","time":1},{"i_long":106.822649,"station_name":"Sudirman","line":1,"is_transit":false,"station_id":"SUD","distance":280,"time":1,"transit":false,"i_lat":-6.202263},{"i_long":106.84912,"is_transit":true,"i_lat":-6.209883,"time":4,"station_name":"Manggarai","transit":true,"line":2,"distance":3186,"station_id":"MRI"},{"distance":2610,"is_transit":false,"transit":false,"i_lat":-6.226659,"station_id":"TEB","station_name":"Tebet","line":2,"i_long":106.857948,"time":4},{"transit":false,"i_lat":-6.242512,"is_transit":false,"time":2,"line":2,"station_id":"CW","i_long":106.856607,"distance":1230,"station_name":"Cawang"},{"station_id":"DRN","distance":1546,"station_name":"Duren Kalibata","transit":false,"i_lat":-6.255332,"time":3,"is_transit":false,"i_long":106.85449,"line":2},{"i_lat":-6.263214,"station_name":"Pasar Minggu Baru","station_id":"PSMB","transit":false,"time":2,"distance":824,"i_long":106.851577,"is_transit":false,"line":2},{"distance":2380,"i_long":106.843999,"time":2,"line":2,"station_name":"Pasar Minggu","transit":false,"station_id":"PSM","is_transit":false,"i_lat":-6.2842400000000005},{"i_lat":-6.3080680000000005,"distance":2820,"station_id":"TNT","i_long":106.838896,"time":4,"station_name":"Tanjung Barat","is_transit":false,"transit":false,"line":2},{"i_long":106.832616,"time":3,"line":2,"i_lat":-6.330363,"distance":2671,"transit":false,"station_id":"LNA","station_name":"Lenteng Agung","is_transit":false},{"time":2,"distance":1029,"station_id":"UP","station_name":"Univ. Pancasila","is_transit":false,"transit":false,"i_long":106.834175,"i_lat":-6.339291,"line":2},{"is_transit":false,"line":2,"time":3,"station_id":"UI","transit":false,"i_long":106.831474,"distance":2264,"i_lat":-6.360749,"station_name":"Univ. Indonesia"},{"distance":1109,"station_id":"POC","transit":false,"i_long":106.831114,"station_name":"Pondok Cina","i_lat":-6.369073,"time":2,"line":2,"is_transit":false},{"is_transit":false,"i_lat":-6.391065,"line":2,"i_long":106.819451,"station_name":"Depokbaru","time":4,"transit":false,"distance":2727,"station_id":"DPB"}],[{"line":1,"transit":false,"is_transit":false,"station_id":"KAT","time":0,"distance":0,"i_lat":-6.20132,"i_long":106.816351,"station_name":"Karet"},{"line":1,"transit":false,"i_lat":-6.185545,"is_transit":false,"i_long":106.811091,"time":5,"station_name":"Tanah Abang","station_id":"THB","distance":2029},{"i_long":106.800832,"distance":3632,"transit":false,"is_transit":false,"line":1,"station_name":"Duri","time":8,"i_lat":-6.155215,"station_id":"DU"},{"station_name":"Angke","is_transit":false,"transit":false,"i_long":106.79867,"time":4,"line":1,"station_id":"AK","i_lat":-6.144674,"distance":1230},{"transit":true,"station_name":"Kampung Bandan","distance":4102,"i_lat":-6.132549,"i_long":106.826365,"is_transit":true,"line":4,"station_id":"KPB","time":9},{"station_id":"JAKK","time":3,"distance":1364,"is_transit":true,"station_name":"Jakarta Kota","i_lat":-6.137569,"transit":true,"i_long":106.812439,"line":2},{"distance":1264,"i_long":106.820901,"is_transit":false,"time":4,"station_id":"JAY","station_name":"Jayakarta","transit":false,"i_lat":-6.141205,"line":2},{"station_name":"Manggabesar","distance":1080,"line":2,"time":2,"i_lat":-6.149769,"station_id":"MGB","is_transit":false,"i_long":106.82482,"transit":false},{"i_lat":-6.160725,"distance":906,"station_id":"SW","i_long":106.827103,"is_transit":false,"transit":false,"station_name":"Sawah Besar","time":2,"line":2},{"is_transit":false,"time":2,"station_id":"JUA","i_long":106.828284,"line":2,"station_name":"Juanda","transit":false,"distance":1149,"i_lat":-6.166716},{"is_transit":false,"time":4,"transit":false,"line":2,"i_long":106.832183,"i_lat":-6.186295,"station_name":"Gondangdia","station_id":"GDD","distance":2015},{"i_long":106.840169,"transit":false,"station_name":"Cikini","station_id":"CKI","is_transit":false,"line":2,"i_lat":-6.198556,"time":3,"distance":1750},{"transit":false,"i_long":106.84912,"i_lat":-6.209883,"line":2,"station_name":"Manggarai","station_id":"MRI","time":4,"is_transit":false,"distance":1590},{"is_transit":false,"i_lat":-6.226659,"i_long":106.857948,"time":4,"transit":false,"station_id":"TEB","station_name":"Tebet","line":2,"distance":2610},{"time":2,"station_name":"Cawang","transit":false,"i_lat":-6.242512,"line":2,"distance":1230,"is_transit":false,"i_long":106.856607,"station_id":"CW"},{"is_transit":false,"i_long":106.85449,"i_lat":-6.255332,"line":2,"station_id":"DRN","station_name":"Duren Kalibata","distance":1546,"transit":false,"time":3},{"i_long":106.851577,"station_name":"Pasar Minggu Baru","transit":false,"i_lat":-6.263214,"is_transit":false,"line":2,"time":2,"station_id":"PSMB","distance":824},{"i_long":106.843999,"time":2,"transit":false,"is_transit":false,"i_lat":-6.2842400000000005,"line":2,"station_name":"Pasar Minggu","station_id":"PSM","distance":2380},{"transit":false,"i_long":106.838896,"station_id":"TNT","line":2,"distance":2820,"i_lat":-6.3080680000000005,"time":4,"station_name":"Tanjung Barat","is_transit":false},{"station_id":"LNA","transit":false,"is_transit":false,"i_long":106.832616,"line":2,"distance":2671,"time":3,"i_lat":-6.330363,"station_name":"Lenteng Agung"},{"distance":1029,"time":2,"i_lat":-6.339291,"i_long":106.834175,"station_id":"UP","line":2,"station_name":"Univ. Pancasila","transit":false,"is_transit":false},{"station_id":"UI","distance":2264,"line":2,"is_transit":false,"transit":false,"time":3,"station_name":"Univ. Indonesia","i_long":106.831474,"i_lat":-6.360749},{"station_name":"Pondok Cina","i_long":106.831114,"i_lat":-6.369073,"distance":1109,"station_id":"POC","transit":false,"is_transit":false,"line":2,"time":2},{"station_name":"Depokbaru","distance":2727,"i_long":106.819451,"line":2,"transit":false,"time":4,"station_id":"DPB","is_transit":false,"i_lat":-6.391065}],[{"time":0,"line":1,"is_transit":false,"transit":false,"station_id":"KAT","i_lat":-6.20132,"i_long":106.816351,"station_name":"Karet","distance":0},{"i_long":106.811091,"transit":false,"time":5,"line":1,"i_lat":-6.185545,"is_transit":false,"station_name":"Tanah Abang","station_id":"THB","distance":2029},{"transit":false,"i_long":106.800832,"station_id":"DU","line":1,"is_transit":false,"distance":3632,"station_name":"Duri","time":8,"i_lat":-6.155215},{"line":1,"transit":false,"is_transit":false,"station_name":"Angke","distance":1230,"i_lat":-6.144674,"time":4,"i_long":106.79867,"station_id":"AK"},{"i_long":106.826365,"transit":true,"station_id":"KPB","i_lat":-6.132549,"is_transit":true,"distance":4102,"line":4,"time":9,"station_name":"Kampung Bandan"},{"is_transit":false,"transit":false,"line":11,"station_name":"Rajawali","i_long":106.836569,"distance":1444,"time":3,"station_id":"RJW","i_lat":-6.14505},{"station_id":"KMO","time":5,"station_name":"Kemayoran","is_transit":false,"transit":false,"distance":1901,"i_long":106.839204,"line":11,"i_lat":-6.161728},{"station_name":"Pasar Senen","is_transit":false,"i_lat":-6.174784,"time":4,"transit":false,"line":11,"station_id":"PSE","distance":1436,"i_long":106.84368},{"transit":false,"station_id":"GST","is_transit":false,"station_name":"Gang Sentiong","i_long":106.850107,"time":8,"distance":1567,"line":11,"i_lat":-6.185975},{"distance":973,"station_name":"Kramat","transit":false,"time":1,"station_id":"KMT","line":11,"is_transit":false,"i_long":106.855437,"i_lat":-6.193792},{"station_id":"POK","i_lat":-6.209188,"time":2,"is_transit":false,"transit":false,"station_name":"Pondok Jati","i_long":106.861737,"line":11,"distance":1829},{"station_name":"Jatinegara","line":1,"distance":1236,"i_lat":-6.215091,"station_id":"JNG","time":9,"is_transit":true,"i_long":106.86807400000001,"transit":true},{"line":1,"distance":1377,"i_long":106.858896,"is_transit":false,"i_lat":-6.212485,"time":2,"station_id":"MTR","station_name":"Matraman","transit":false},{"is_transit":true,"i_lat":-6.209883,"distance":1275,"i_long":106.84912,"line":2,"time":2,"station_name":"Manggarai","transit":true,"station_id":"MRI"},{"i_long":106.857948,"transit":false,"line":2,"i_lat":-6.226659,"station_id":"TEB","time":4,"is_transit":false,"distance":2610,"station_name":"Tebet"},{"line":2,"is_transit":false,"station_id":"CW","i_lat":-6.242512,"time":2,"distance":1230,"station_name":"Cawang","transit":false,"i_long":106.856607},{"transit":false,"i_lat":-6.255332,"distance":1546,"i_long":106.85449,"time":3,"station_id":"DRN","line":2,"is_transit":false,"station_name":"Duren Kalibata"},{"station_id":"PSMB","time":2,"distance":824,"transit":false,"station_name":"Pasar Minggu Baru","i_lat":-6.263214,"i_long":106.851577,"line":2,"is_transit":false},{"distance":2380,"i_lat":-6.2842400000000005,"is_transit":false,"line":2,"i_long":106.843999,"time":2,"transit":false,"station_name":"Pasar Minggu","station_id":"PSM"},{"is_transit":false,"station_id":"TNT","distance":2820,"i_lat":-6.3080680000000005,"transit":false,"i_long":106.838896,"station_name":"Tanjung Barat","line":2,"time":4},{"is_transit":false,"i_long":106.832616,"line":2,"station_id":"LNA","transit":false,"station_name":"Lenteng Agung","distance":2671,"i_lat":-6.330363,"time":3},{"transit":false,"is_transit":false,"time":2,"station_id":"UP","i_lat":-6.339291,"station_name":"Univ. Pancasila","i_long":106.834175,"line":2,"distance":1029},{"station_name":"Univ. Indonesia","time":3,"line":2,"i_long":106.831474,"transit":false,"is_transit":false,"i_lat":-6.360749,"station_id":"UI","distance":2264},{"i_lat":-6.369073,"station_name":"Pondok Cina","is_transit":false,"time":2,"transit":false,"i_long":106.831114,"line":2,"station_id":"POC","distance":1109},{"line":2,"is_transit":false,"distance":2727,"i_lat":-6.391065,"time":4,"station_name":"Depokbaru","i_long":106.819451,"transit":false,"station_id":"DPB"}]]}