{"data":[[{"time":0,"distance":0,"i_long":106.816351,"is_transit":false,"i_lat":-6.20132,"transit":false,"line":1,"station_name":"Karet","station_id":"KAT"},{"station_name":"Tanah Abang","time":5,"i_long":106.811091,"line":1,"transit":true,"is_transit":true,"station_id":"THB","i_lat":-6.185545,"distance":2029},{"station_id":"PLM","i_lat":-6.207404,"line":6,"is_transit":false,"transit":false,"station_name":"Palmerah","time":6,"i_long":106.79689,"distance":3191},{"i_lat":-6.237242,"station_id":"KBY","transit":false,"time":7,"line":6,"i_long":106.780334,"station_name":"Kebayoran","is_transit":false,"distance":3737},{"station_id":"PDJ","i_lat":-6.276362,"line":6,"i_long":106.74273,"distance":6218,"time":8,"transit":false,"is_transit":false,"station_name":"Pondokranji"},{"i_lat":-6.288927,"line":6,"is_transit":false,"station_name":"Jurangmangu","distance":2179,"time":3,"transit":false,"station_id":"JMU","i_long":106.728916},{"distance":1994,"i_lat":-6.296963,"is_transit":false,"i_long":106.712277,"station_id":"SDM","station_name":"Sudimara","time":4,"transit":false,"line":6},{"transit":false,"i_lat":-6.314823,"line":6,"time":6,"station_id":"RU","station_name":"Rawa Buntu","distance":4566,"is_transit":false,"i_long":106.675475},{"time":4,"i_long":106.66566,"line":6,"i_lat":-6.319871,"station_id":"SRP","distance":2413,"is_transit":false,"transit":false,"station_name":"Serpong"},{"time":4,"station_name":"Cisauk","line":3,"transit":false,"distance":1784,"is_transit":false,"station_id":"CSK","i_long":106.640411,"i_lat":-6.32484},{"time":4,"i_long":106.617853,"station_id":"CC","distance":2519,"i_lat":-6.329547,"line":3,"station_name":"Cicayur","is_transit":false,"transit":false},{"station_name":"Parung Panjang","distance":5968,"transit":false,"line":6,"i_lat":-6.3441410000000005,"time":8,"i_long":106.568863,"station_id":"PRP","is_transit":false},{"i_long":106.508482,"station_id":"CJT","line":3,"station_name":"Cilejit","transit":false,"distance":7025,"i_lat":-6.354349,"is_transit":false,"time":9},{"station_name":"Daru","station_id":"DAR","i_lat":-6.338021,"time":6,"distance":2675,"transit":false,"i_long":106.491338,"line":0,"is_transit":false},{"distance":3902,"i_long":106.460812,"line":6,"transit":false,"station_id":"TEJ","is_transit":false,"time":5,"i_lat":-6.327251,"station_name":"Tenjo"},{"i_lat":-6.328533,"line":6,"is_transit":false,"distance":2974,"transit":false,"i_long":106.425991,"station_name":"Tigaraksa","time":5,"station_id":"TGS"},{"i_lat":-6.33561,"line":3,"station_id":"CKY","is_transit":false,"transit":false,"i_long":106.411216,"station_name":"Cikoya","distance":2651,"time":3}],[{"is_transit":false,"station_name":"Karet","transit":false,"i_lat":-6.20132,"station_id":"KAT","i_long":106.816351,"line":1,"distance":0,"time":0},{"i_long":106.819881,"i_lat":-6.201433,"station_name":"Sudirman Baru","is_transit":false,"time":1,"station_id":"SUDB","line":1,"distance":471,"transit":false},{"station_id":"SUD","station_name":"Sudirman","distance":280,"transit":false,"time":1,"i_lat":-6.202263,"i_long":106.822649,"is_transit":false,"line":1},{"station_name":"Manggarai","distance":3186,"transit":true,"time":4,"station_id":"MRI","is_transit":true,"line":2,"i_lat":-6.209883,"i_long":106.84912},{"i_lat":-6.198556,"i_long":106.840169,"line":2,"time":4,"transit":false,"station_name":"Cikini","distance":1590,"is_transit":false,"station_id":"CKI"},{"i_long":106.832183,"transit":false,"time":3,"distance":1750,"is_transit":false,"i_lat":-6.186295,"station_id":"GDD","line":2,"station_name":"Gondangdia"},{"line":2,"station_id":"JUA","station_name":"Juanda","distance":2015,"time":4,"is_transit":false,"i_lat":-6.166716,"i_long":106.828284,"transit":false},{"station_id":"SW","station_name":"Sawah Besar","distance":1149,"is_transit":false,"i_long":106.827103,"transit":false,"time":2,"i_lat":-6.160725,"line":2},{"time":2,"station_name":"Manggabesar","is_transit":false,"i_lat":-6.149769,"station_id":"MGB","distance":906,"line":2,"i_long":106.82482,"transit":false},{"distance":1080,"is_transit":false,"transit":false,"i_lat":-6.141205,"line":2,"i_long":106.820901,"station_name":"Jayakarta","time":2,"station_id":"JAY"},{"transit":true,"time":4,"i_long":106.812439,"is_transit":true,"i_lat":-6.137569,"station_name":"Jakarta Kota","line":2,"distance":1264,"station_id":"JAKK"},{"i_lat":-6.132549,"distance":1364,"station_name":"Kampung Bandan","i_long":106.826365,"station_id":"KPB","line":4,"is_transit":true,"transit":true,"time":3},{"time":9,"station_id":"AK","transit":false,"i_lat":-6.144674,"i_long":106.79867,"is_transit":false,"distance":4102,"line":1,"station_name":"Angke"},{"transit":false,"i_lat":-6.155215,"line":1,"distance":1230,"time":4,"is_transit":false,"i_long":106.800832,"station_name":"Duri","station_id":"DU"},{"station_id":"THB","line":1,"i_lat":-6.185545,"i_long":106.811091,"time":8,"station_name":"Tanah Abang","transit":true,"is_transit":true,"distance":3632},{"line":6,"is_transit":false,"transit":false,"station_id":"PLM","time":6,"i_long":106.79689,"station_name":"Palmerah","distance":3191,"i_lat":-6.207404},{"time":7,"i_lat":-6.237242,"station_name":"Kebayoran","line":6,"distance":3737,"station_id":"KBY","i_long":106.780334,"transit":false,"is_transit":false},{"is_transit":false,"i_lat":-6.276362,"i_long":106.74273,"station_id":"PDJ","transit":false,"line":6,"station_name":"Pondokranji","time":8,"distance":6218},{"time":3,"i_long":106.728916,"line":6,"i_lat":-6.288927,"station_id":"JMU","distance":2179,"transit":false,"is_transit":false,"station_name":"Jurangmangu"},{"distance":1994,"is_transit":false,"time":4,"i_lat":-6.296963,"station_name":"Sudimara","station_id":"SDM","i_long":106.712277,"line":6,"transit":false},{"station_name":"Rawa Buntu","transit":false,"i_lat":-6.314823,"i_long":106.675475,"station_id":"RU","is_transit":false,"line":6,"time":6,"distance":4566},{"station_name":"Serpong","i_long":106.66566,"distance":2413,"time":4,"is_transit":false,"i_lat":-6.319871,"line":6,"station_id":"SRP","transit":false},{"station_id":"CSK","line":3,"is_transit":false,"time":4,"distance":1784,"i_long":106.640411,"transit":false,"station_name":"Cisauk","i_lat":-6.32484},{"is_transit":false,"station_id":"CC","time":4,"station_name":"Cicayur","distance":2519,"i_lat":-6.329547,"transit":false,"i_long":106.617853,"line":3},{"i_long":106.568863,"distance":5968,"station_id":"PRP","line":6,"time":8,"i_lat":-6.3441410000000005,"station_name":"Parung Panjang","transit":false,"is_transit":false},{"distance":7025,"i_lat":-6.354349,"time":9,"station_id":"CJT","line":3,"transit":false,"station_name":"Cilejit","is_transit":false,"i_long":106.508482},{"station_id":"DAR","time":6,"i_lat":-6.338021,"line":0,"distance":2675,"i_long":106.491338,"station_name":"Daru","is_transit":false,"transit":false},{"station_name":"Tenjo","station_id":"TEJ","distance":3902,"i_lat":-6.327251,"time":5,"transit":false,"i_long":106.460812,"is_transit":false,"line":6},{"i_long":106.425991,"line":6,"station_name":"Tigaraksa","station_id":"TGS","transit":false,"i_lat":-6.328533,"time":5,"is_transit":false,"distance":2974},{"station_name":"Cikoya","transit":false,"i_long":106.411216,"distance":2651,"line":3,"time":3,"station_id":"CKY","is_transit":false,"i_lat":-6.33561}],[{"i_long":106.816351,"distance":0,"is_transit":false,"time":0,"line":1,"transit":false,"i_lat":-6.20132,"station_id":"KAT","station_name":"Karet"},{"i_long":106.819881,"time":1,"transit":false,"station_name":"Sudirman Baru","line":1,"is_transit":false,"distance":471,"i_lat":-6.201433,"station_id":"SUDB"},{"i_lat":-6.202263,"station_id":"SUD","i_long":106.822649,"station_name":"Sudirman","is_transit":false,"time":1,"transit":false,"distance":280,"line":1},{"station_id":"MRI","time":4,"is_transit":false,"i_long":106.84912,"line":2,"station_name":"Manggarai","i_lat":-6.209883,"transit":false,"distance":3186},{"time":2,"is_transit":false,"i_long":106.858896,"station_id":"MTR","i_lat":-6.212485,"transit":false,"line":1,"distance":1275,"station_name":"Matraman"},{"time":8,"station_name":"Jatinegara","i_lat":-6.215091,"transit":true,"line":1,"distance":1377,"station_id":"JNG","is_transit":true,"i_long":106.86807400000001},{"is_transit":false,"distance":1236,"transit":false,"station_name":"Pondok Jati","time":2,"i_long":106.861737,"station_id":"POK","line":11,"i_lat":-6.209188},{"line":11,"station_id":"KMT","station_name":"Kramat","distance":1829,"transit":false,"time":2,"is_transit":false,"i_long":106.855437,"i_lat":-6.193792},{"distance":973,"station_id":"GST","transit":false,"is_transit":false,"i_lat":-6.185975,"time":1,"line":11,"i_long":106.850107,"station_name":"Gang Sentiong"},{"distance":1567,"time":8,"i_lat":-6.174784,"transit":false,"is_transit":false,"station_id":"PSE","i_long":106.84368,"station_name":"Pasar Senen","line":11},{"time":4,"transit":false,"i_lat":-6.161728,"distance":1436,"line":11,"station_name":"Kemayoran","station_id":"KMO","is_transit":false,"i_long":106.839204},{"distance":1901,"station_id":"RJW","time":5,"is_transit":false,"station_name":"Rajawali","i_lat":-6.14505,"line":11,"transit":false,"i_long":106.836569},{"station_name":"Kampung Bandan","i_lat":-6.132549,"line":4,"transit":true,"i_long":106.826365,"station_id":"KPB","distance":1444,"time":3,"is_transit":true},{"i_long":106.79867,"station_name":"Angke","distance":4102,"i_lat":-6.144674,"station_id":"AK","is_transit":false,"line":1,"time":9,"transit":false},{"is_transit":false,"time":4,"i_long":106.800832,"station_name":"Duri","i_lat":-6.155215,"line":1,"distance":1230,"station_id":"DU","transit":false},{"is_transit":true,"distance":3632,"transit":true,"i_long":106.811091,"i_lat":-6.185545,"station_id":"THB","station_name":"Tanah Abang","time":8,"line":1},{"station_id":"PLM","i_lat":-6.207404,"is_transit":false,"i_long":106.79689,"transit":false,"line":6,"distance":3191,"station_name":"Palmerah","time":6},{"station_name":"Kebayoran","i_lat":-6.237242,"transit":false,"time":7,"line":6,"distance":3737,"i_long":106.780334,"station_id":"KBY","is_transit":false},{"time":8,"i_long":106.74273,"line":6,"i_lat":-6.276362,"station_id":"PDJ","distance":6218,"station_name":"Pondokranji","transit":false,"is_transit":false},{"station_id":"JMU","is_transit":false,"distance":2179,"transit":false,"station_name":"Jurangmangu","i_lat":-6.288927,"line":6,"i_long":106.728916,"time":3},{"transit":false,"line":6,"is_transit":false,"time":4,"station_name":"Sudimara","distance":1994,"i_long":106.712277,"i_lat":-6.296963,"station_id":"SDM"},{"transit":false,"station_id":"RU","is_transit":false,"time":6,"i_long":106.675475,"line":6,"i_lat":-6.314823,"station_name":"Rawa Buntu","distance":4566},{"transit":false,"i_lat":-6.319871,"time":4,"station_id":"SRP","i_long":106.66566,"distance":2413,"line":6,"station_name":"Serpong","is_transit":false},{"time":4,"station_id":"CSK","is_transit":false,"station_name":"Cisauk","transit":false,"distance":1784,"i_lat":-6.32484,"i_long":106.640411,"line":3},{"is_transit":false,"station_name":"Cicayur","distance":2519,"station_id":"CC","transit":false,"i_lat":-6.329547,"i_long":106.617853,"line":3,"time":4},{"station_id":"PRP","is_transit":false,"transit":false,"distance":5968,"i_lat":-6.3441410000000005,"time":8,"line":6,"station_name":"Parung Panjang","i_long":106.568863},{"station_id":"CJT","transit":false,"time":9,"is_transit":false,"i_lat":-6.354349,"line":3,"station_name":"Cilejit","distance":7025,"i_long":106.508482},{"distance":2675,"transit":false,"i_lat":-6.338021,"station_id":"DAR","is_transit":false,"time":6,"i_long":106.491338,"station_name":"Daru","line":0},{"time":5,"i_long":106.460812,"distance":3902,"station_id":"TEJ","is_transit":false,"i_lat":-6.327251,"station_name":"Tenjo","transit":false,"line":6},{"i_lat":-6.328533,"i_long":106.425991,"station_name":"Tigaraksa","station_id":"TGS","is_transit":false,"time":5,"distance":2974,"transit":false,"line":6},{"transit":false,"time":3,"station_id":"CKY","station_name":"Cikoya","distance":2651,"is_transit":false,"i_long":106.411216,"i_lat":-6.33561,"line":3}]]}