{"data":[[{"transit":false,"time":0,"i_long":106.816351,"distance":0,"i_lat":-6.20132,"line":1,"is_transit":false,"station_name":"Karet","station_id":"KAT"},{"station_id":"SUDB","distance":471,"transit":false,"is_transit":false,"i_long":106.819881,"line":1,"time":1,"i_lat":-6.201433,"station_name":"Sudirman Baru"},{"transit":false,"station_id":"SUD","time":1,"distance":280,"i_long":106.822649,"is_transit":false,"line":1,"i_lat":-6.202263,"station_name":"Sudirman"},{"station_name":"Manggarai","station_id":"MRI","i_lat":-6.209883,"i_long":106.84912,"is_transit":true,"time":4,"line":2,"distance":3186,"transit":true},{"station_name":"Tebet","i_long":106.857948,"time":4,"distance":2610,"is_transit":false,"i_lat":-6.226659,"transit":false,"line":2,"station_id":"TEB"},{"i_lat":-6.242512,"is_transit":false,"transit":false,"distance":1230,"station_id":"CW","station_name":"Cawang","i_long":106.856607,"time":2,"line":2},{"distance":1546,"time":3,"i_lat":-6.255332,"station_name":"Duren Kalibata","line":2,"i_long":106.85449,"transit":false,"is_transit":false,"station_id":"DRN"},{"station_name":"Pasar Minggu Baru","i_lat":-6.263214,"line":2,"i_long":106.851577,"distance":824,"transit":false,"is_transit":false,"time":2,"station_id":"PSMB"},{"i_long":106.843999,"station_id":"PSM","time":2,"distance":2380,"transit":false,"i_lat":-6.2842400000000005,"line":2,"station_name":"Pasar Minggu","is_transit":false},{"station_id":"TNT","station_name":"Tanjung Barat","is_transit":false,"line":2,"i_long":106.838896,"distance":2820,"time":4,"i_lat":-6.3080680000000005,"transit":false},{"transit":false,"time":3,"distance":2671,"is_transit":false,"i_lat":-6.330363,"station_id":"LNA","line":2,"station_name":"Lenteng Agung","i_long":106.832616},{"line":2,"time":2,"station_name":"Univ. Pancasila","is_transit":false,"distance":1029,"transit":false,"i_lat":-6.339291,"i_long":106.834175,"station_id":"UP"},{"station_name":"Univ. Indonesia","transit":false,"station_id":"UI","distance":2264,"is_transit":false,"i_lat":-6.360749,"line":2,"i_long":106.831474,"time":3},{"station_name":"Pondok Cina","i_lat":-6.369073,"i_long":106.831114,"transit":false,"time":2,"station_id":"POC","line":2,"distance":1109,"is_transit":false},{"distance":2727,"line":2,"i_long":106.819451,"is_transit":false,"i_lat":-6.391065,"station_id":"DPB","transit":false,"station_name":"Depokbaru","time":4},{"station_name":"Depok","is_transit":false,"i_lat":-6.405256,"line":2,"distance":1584,"station_id":"DP","i_long":106.816926,"transit":false,"time":3},{"station_name":"Citayam","transit":false,"time":6,"is_transit":false,"distance":5084,"line":2,"station_id":"CTA","i_long":106.800298,"i_lat":-6.448811},{"station_name":"Bojonggede","transit":false,"is_transit":false,"line":2,"station_id":"BJD","i_lat":-6.493243,"time":5,"distance":5197,"i_long":106.792719}],[{"line":1,"i_long":106.816351,"station_id":"KAT","i_lat":-6.20132,"time":0,"distance":0,"station_name":"Karet","transit":false,"is_transit":false},{"i_lat":-6.185545,"time":5,"distance":2029,"transit":false,"station_name":"Tanah Abang","is_transit":false,"station_id":"THB","line":1,"i_long":106.811091},{"station_id":"DU","station_name":"Duri","transit":false,"is_transit":false,"i_long":106.800832,"line":1,"distance":3632,"i_lat":-6.155215,"time":8},{"transit":false,"time":4,"station_id":"AK","is_transit":false,"i_long":106.79867,"station_name":"Angke","line":1,"distance":1230,"i_lat":-6.144674},{"line":4,"station_id":"KPB","transit":true,"time":9,"station_name":"Kampung Bandan","i_long":106.826365,"distance":4102,"i_lat":-6.132549,"is_transit":true},{"i_lat":-6.137569,"distance":1364,"is_transit":true,"i_long":106.812439,"transit":true,"time":3,"station_name":"Jakarta Kota","line":2,"station_id":"JAKK"},{"line":2,"station_name":"Jayakarta","transit":false,"distance":1264,"i_long":106.820901,"time":4,"is_transit":false,"station_id":"JAY","i_lat":-6.141205},{"station_id":"MGB","time":2,"i_long":106.82482,"is_transit":false,"line":2,"i_lat":-6.149769,"station_name":"Manggabesar","distance":1080,"transit":false},{"station_name":"Sawah Besar","i_lat":-6.160725,"time":2,"i_long":106.827103,"station_id":"SW","distance":906,"line":2,"transit":false,"is_transit":false},{"station_id":"JUA","is_transit":false,"station_name":"Juanda","i_long":106.828284,"line":2,"distance":1149,"transit":false,"time":2,"i_lat":-6.166716},{"is_transit":false,"station_name":"Gondangdia","i_lat":-6.186295,"line":2,"i_long":106.832183,"station_id":"GDD","time":4,"transit":false,"distance":2015},{"i_lat":-6.198556,"station_name":"Cikini","line":2,"transit":false,"distance":1750,"i_long":106.840169,"station_id":"CKI","time":3,"is_transit":false},{"i_lat":-6.209883,"distance":1590,"line":2,"time":4,"is_transit":false,"station_name":"Manggarai","i_long":106.84912,"station_id":"MRI","transit":false},{"time":4,"distance":2610,"station_name":"Tebet","station_id":"TEB","is_transit":false,"line":2,"i_lat":-6.226659,"i_long":106.857948,"transit":false},{"station_name":"Cawang","line":2,"time":2,"station_id":"CW","distance":1230,"transit":false,"is_transit":false,"i_long":106.856607,"i_lat":-6.242512},{"transit":false,"i_long":106.85449,"line":2,"distance":1546,"station_id":"DRN","time":3,"is_transit":false,"station_name":"Duren Kalibata","i_lat":-6.255332},{"transit":false,"time":2,"distance":824,"station_name":"Pasar Minggu Baru","i_long":106.851577,"is_transit":false,"station_id":"PSMB","i_lat":-6.263214,"line":2},{"is_transit":false,"line":2,"transit":false,"distance":2380,"station_id":"PSM","time":2,"i_lat":-6.2842400000000005,"i_long":106.843999,"station_name":"Pasar Minggu"},{"station_id":"TNT","time":4,"is_transit":false,"i_long":106.838896,"station_name":"Tanjung Barat","distance":2820,"line":2,"transit":false,"i_lat":-6.3080680000000005},{"time":3,"is_transit":false,"transit":false,"i_lat":-6.330363,"distance":2671,"station_id":"LNA","station_name":"Lenteng Agung","i_long":106.832616,"line":2},{"is_transit":false,"distance":1029,"station_name":"Univ. Pancasila","transit":false,"station_id":"UP","line":2,"i_lat":-6.339291,"i_long":106.834175,"time":2},{"time":3,"i_lat":-6.360749,"i_long":106.831474,"line":2,"distance":2264,"transit":false,"station_id":"UI","station_name":"Univ. Indonesia","is_transit":false},{"time":2,"transit":false,"i_long":106.831114,"line":2,"distance":1109,"is_transit":false,"station_id":"POC","i_lat":-6.369073,"station_name":"Pondok Cina"},{"time":4,"station_name":"Depokbaru","is_transit":false,"i_long":106.819451,"distance":2727,"i_lat":-6.391065,"transit":false,"station_id":"DPB","line":2},{"station_id":"DP","transit":false,"line":2,"station_name":"Depok","i_long":106.816926,"is_transit":false,"distance":1584,"time":3,"i_lat":-6.405256},{"transit":false,"distance":5084,"i_lat":-6.448811,"time":6,"i_long":106.800298,"line":2,"station_name":"Citayam","is_transit":false,"station_id":"CTA"},{"station_name":"Bojonggede","is_transit":false,"i_lat":-6.493243,"line":2,"i_long":106.792719,"time":5,"distance":5197,"transit":false,"station_id":"BJD"}],[{"station_id":"KAT","is_transit":false,"transit":false,"distance":0,"station_name":"Karet","i_long":106.816351,"i_lat":-6.20132,"line":1,"time":0},{"time":5,"distance":2029,"is_transit":false,"transit":false,"i_lat":-6.185545,"i_long":106.811091,"line":1,"station_id":"THB","station_name":"Tanah Abang"},{"station_id":"DU","distance":3632,"station_name":"Duri","i_lat":-6.155215,"transit":false,"is_transit":false,"i_long":106.800832,"line":1,"time":8},{"time":4,"is_transit":false,"i_lat":-6.144674,"station_id":"AK","station_name":"Angke","distance":1230,"line":1,"i_long":106.79867,"transit":false},{"station_id":"KPB","distance":4102,"station_name":"Kampung Bandan","i_long":106.826365,"i_lat":-6.132549,"is_transit":true,"transit":true,"line":4,"time":9},{"line":11,"i_lat":-6.14505,"distance":1444,"is_transit":false,"time":3,"station_name":"Rajawali","transit":false,"i_long":106.836569,"station_id":"RJW"},{"i_lat":-6.161728,"line":11,"i_long":106.839204,"station_id":"KMO","transit":false,"time":5,"station_name":"Kemayoran","is_transit":false,"distance":1901},{"time":4,"i_long":106.84368,"station_id":"PSE","distance":1436,"i_lat":-6.174784,"station_name":"Pasar Senen","is_transit":false,"line":11,"transit":false},{"line":11,"i_long":106.850107,"station_id":"GST","transit":false,"is_transit":false,"i_lat":-6.185975,"time":8,"station_name":"Gang Sentiong","distance":1567},{"station_id":"KMT","time":1,"station_name":"Kramat","line":11,"distance":973,"is_transit":false,"transit":false,"i_long":106.855437,"i_lat":-6.193792},{"i_long":106.861737,"distance":1829,"station_name":"Pondok Jati","i_lat":-6.209188,"transit":false,"line":11,"time":2,"is_transit":false,"station_id":"POK"},{"i_lat":-6.215091,"line":1,"transit":true,"is_transit":true,"station_id":"JNG","time":9,"station_name":"Jatinegara","i_long":106.86807400000001,"distance":1236},{"distance":1377,"i_long":106.858896,"time":2,"station_id":"MTR","i_lat":-6.212485,"transit":false,"line":1,"is_transit":false,"station_name":"Matraman"},{"i_lat":-6.209883,"transit":true,"station_name":"Manggarai","i_long":106.84912,"station_id":"MRI","time":2,"distance":1275,"line":2,"is_transit":true},{"distance":2610,"time":4,"i_long":106.857948,"is_transit":false,"i_lat":-6.226659,"station_name":"Tebet","transit":false,"line":2,"station_id":"TEB"},{"station_name":"Cawang","line":2,"is_transit":false,"station_id":"CW","time":2,"i_lat":-6.242512,"transit":false,"distance":1230,"i_long":106.856607},{"station_id":"DRN","distance":1546,"time":3,"is_transit":false,"i_lat":-6.255332,"i_long":106.85449,"line":2,"transit":false,"station_name":"Duren Kalibata"},{"i_long":106.851577,"station_id":"PSMB","station_name":"Pasar Minggu Baru","transit":false,"time":2,"distance":824,"i_lat":-6.263214,"is_transit":false,"line":2},{"distance":2380,"i_lat":-6.2842400000000005,"i_long":106.843999,"station_name":"Pasar Minggu","line":2,"station_id":"PSM","is_transit":false,"transit":false,"time":2},{"station_id":"TNT","transit":false,"station_name":"Tanjung Barat","line":2,"i_long":106.838896,"distance":2820,"time":4,"i_lat":-6.3080680000000005,"is_transit":false},{"is_transit":false,"i_long":106.832616,"line":2,"time":3,"station_id":"LNA","distance":2671,"station_name":"Lenteng Agung","i_lat":-6.330363,"transit":false},{"station_name":"Univ. Pancasila","is_transit":false,"distance":1029,"station_id":"UP","i_long":106.834175,"i_lat":-6.339291,"transit":false,"time":2,"line":2},{"station_id":"UI","line":2,"transit":false,"station_name":"Univ. Indonesia","distance":2264,"is_transit":false,"time":3,"i_lat":-6.360749,"i_long":106.831474},{"transit":false,"station_name":"Pondok Cina","time":2,"is_transit":false,"line":2,"i_lat":-6.369073,"distance":1109,"i_long":106.831114,"station_id":"POC"},{"transit":false,"distance":2727,"i_long":106.819451,"station_id":"DPB","station_name":"Depokbaru","line":2,"is_transit":false,"i_lat":-6.391065,"time":4},{"i_long":106.816926,"station_id":"DP","transit":false,"time":3,"distance":1584,"i_lat":-6.405256,"is_transit":false,"line":2,"station_name":"Depok"},{"distance":5084,"station_name":"Citayam","transit":false,"i_long":106.800298,"line":2,"station_id":"CTA","i_lat":-6.448811,"is_transit":false,"time":6},{"time":5,"transit":false,"is_transit":false,"i_lat":-6.493243,"line":2,"distance":5197,"i_long":106.792719,"station_id":"BJD","station_name":"Bojonggede"}]]}