{"data":[[{"station_name":"Karet","i_long":106.816351,"station_id":"KAT","i_lat":-6.20132,"is_transit":false,"time":0,"line":1,"distance":0,"transit":false},{"station_id":"THB","i_lat":-6.185545,"i_long":106.811091,"transit":false,"line":1,"station_name":"Tanah Abang","is_transit":true,"time":5,"distance":2029},{"distance":3632,"is_transit":true,"station_name":"Duri","station_id":"DU","transit":true,"line":1,"i_lat":-6.155215,"time":8,"i_long":106.800832},{"line":0,"station_id":"AK","time":4,"transit":false,"i_long":106.79867,"is_transit":false,"i_lat":-6.144674,"station_name":"Angke","distance":1230},{"distance":4102,"station_id":"KPB","i_long":106.826365,"transit":false,"station_name":"Kampung Bandan","time":9,"i_lat":-6.132549,"is_transit":true,"line":0}],[{"station_name":"Karet","distance":0,"station_id":"KAT","i_lat":-6.20132,"i_long":106.816351,"line":1,"time":0,"transit":false,"is_transit":false},{"i_lat":-6.201433,"station_id":"SUDB","line":1,"time":1,"transit":false,"station_name":"Sudirman Baru","distance":471,"i_long":106.819881,"is_transit":false},{"i_lat":-6.202263,"line":1,"distance":280,"time":1,"station_name":"Sudirman","station_id":"SUD","i_long":106.822649,"is_transit":false,"transit":false},{"i_lat":-6.209883,"distance":3186,"station_id":"MRI","station_name":"Manggarai","i_long":106.84912,"line":0,"time":4,"transit":true,"is_transit":true},{"transit":false,"time":4,"distance":1590,"i_long":106.840169,"station_name":"Cikini","is_transit":false,"line":0,"station_id":"CKI","i_lat":-6.198556},{"station_name":"Gondangdia","station_id":"GDD","is_transit":false,"i_long":106.832183,"line":2,"transit":false,"i_lat":-6.186295,"time":3,"distance":1750},{"station_name":"Juanda","line":2,"time":4,"is_transit":false,"i_lat":-6.166716,"i_long":106.828284,"station_id":"JUA","transit":false,"distance":2015},{"station_name":"Sawah Besar","time":2,"distance":1149,"transit":false,"i_long":106.827103,"i_lat":-6.160725,"line":2,"station_id":"SW","is_transit":false},{"station_name":"Manggabesar","time":2,"transit":false,"line":2,"is_transit":false,"i_lat":-6.149769,"i_long":106.82482,"distance":906,"station_id":"MGB"},{"time":2,"i_lat":-6.141205,"distance":1080,"station_id":"JAY","line":7,"is_transit":false,"transit":false,"i_long":106.820901,"station_name":"Jayakarta"},{"station_id":"JAKK","i_lat":-6.137569,"station_name":"Jakarta Kota","line":0,"is_transit":true,"time":4,"distance":1264,"transit":true,"i_long":106.812439},{"station_id":"KPB","i_long":106.826365,"time":3,"line":0,"i_lat":-6.132549,"station_name":"Kampung Bandan","distance":1364,"transit":false,"is_transit":true}],[{"station_name":"Karet","time":0,"i_lat":-6.20132,"is_transit":false,"station_id":"KAT","distance":0,"transit":false,"i_long":106.816351,"line":1},{"distance":471,"station_name":"Sudirman Baru","station_id":"SUDB","i_long":106.819881,"transit":false,"is_transit":false,"i_lat":-6.201433,"line":1,"time":1},{"station_name":"Sudirman","i_lat":-6.202263,"is_transit":false,"distance":280,"line":1,"time":1,"station_id":"SUD","transit":false,"i_long":106.822649},{"line":0,"distance":3186,"station_name":"Manggarai","is_transit":true,"i_long":106.84912,"station_id":"MRI","time":4,"transit":false,"i_lat":-6.209883},{"i_lat":-6.212485,"distance":1275,"is_transit":false,"transit":false,"i_long":106.858896,"line":1,"station_name":"Matraman","station_id":"MTR","time":2},{"i_lat":-6.215091,"is_transit":true,"distance":1377,"i_long":106.86807400000001,"line":0,"station_name":"Jatinegara","transit":true,"station_id":"JNG","time":8},{"distance":1236,"line":11,"transit":false,"i_lat":-6.209188,"station_id":"POK","time":2,"is_transit":false,"i_long":106.861737,"station_name":"Pondok Jati"},{"line":11,"station_id":"KMT","i_long":106.855437,"is_transit":false,"time":2,"distance":1829,"transit":false,"station_name":"Kramat","i_lat":-6.193792},{"is_transit":false,"i_long":106.850107,"line":11,"i_lat":-6.185975,"station_name":"Gang Sentiong","transit":false,"distance":973,"time":1,"station_id":"GST"},{"i_lat":-6.174784,"time":8,"line":11,"station_name":"Pasar Senen","station_id":"PSE","is_transit":false,"transit":false,"i_long":106.84368,"distance":1567},{"time":4,"line":11,"i_lat":-6.161728,"transit":false,"i_long":106.839204,"distance":1436,"station_name":"Kemayoran","is_transit":false,"station_id":"KMO"},{"i_long":106.836569,"station_id":"RJW","distance":1901,"station_name":"Rajawali","is_transit":false,"transit":false,"i_lat":-6.14505,"time":5,"line":11},{"i_long":106.826365,"transit":false,"time":3,"station_name":"Kampung Bandan","line":0,"is_transit":true,"distance":1444,"i_lat":-6.132549,"station_id":"KPB"}]]}