{"data":[[{"time":0,"line":1,"distance":0,"station_name":"Karet","station_id":"KAT","i_lat":-6.20132,"i_long":106.816351,"is_transit":false,"transit":false},{"is_transit":false,"distance":2029,"line":1,"i_long":106.811091,"transit":false,"time":5,"station_id":"THB","i_lat":-6.185545,"station_name":"Tanah Abang"},{"transit":false,"i_lat":-6.155215,"i_long":106.800832,"line":1,"time":8,"station_name":"Duri","station_id":"DU","distance":3632,"is_transit":false},{"time":4,"i_long":106.79867,"distance":1230,"station_id":"AK","transit":false,"line":1,"i_lat":-6.144674,"station_name":"Angke","is_transit":false},{"station_name":"Kampung Bandan","i_long":106.826365,"is_transit":true,"i_lat":-6.132549,"line":4,"transit":true,"time":9,"distance":4102,"station_id":"KPB"},{"station_name":"Jakarta Kota","distance":1364,"station_id":"JAKK","i_lat":-6.137569,"i_long":106.812439,"time":3,"line":2,"transit":true,"is_transit":true},{"station_name":"Jayakarta","i_lat":-6.141205,"station_id":"JAY","distance":1264,"is_transit":false,"time":4,"transit":false,"i_long":106.820901,"line":2},{"time":2,"station_id":"MGB","line":2,"transit":false,"i_long":106.82482,"is_transit":false,"i_lat":-6.149769,"distance":1080,"station_name":"Manggabesar"}],[{"i_long":106.816351,"station_id":"KAT","station_name":"Karet","distance":0,"time":0,"transit":false,"i_lat":-6.20132,"is_transit":false,"line":1},{"distance":471,"i_lat":-6.201433,"i_long":106.819881,"station_name":"Sudirman Baru","line":1,"station_id":"SUDB","is_transit":false,"transit":false,"time":1},{"station_id":"SUD","transit":false,"station_name":"Sudirman","line":1,"i_long":106.822649,"distance":280,"time":1,"i_lat":-6.202263,"is_transit":false},{"transit":true,"i_long":106.84912,"line":2,"time":4,"station_name":"Manggarai","distance":3186,"station_id":"MRI","i_lat":-6.209883,"is_transit":true},{"station_name":"Cikini","is_transit":false,"distance":1590,"station_id":"CKI","i_long":106.840169,"i_lat":-6.198556,"time":4,"transit":false,"line":2},{"station_id":"GDD","line":2,"transit":false,"station_name":"Gondangdia","distance":1750,"is_transit":false,"time":3,"i_lat":-6.186295,"i_long":106.832183},{"station_id":"JUA","is_transit":false,"time":4,"transit":false,"line":2,"i_lat":-6.166716,"distance":2015,"i_long":106.828284,"station_name":"Juanda"},{"distance":1149,"transit":false,"i_long":106.827103,"station_id":"SW","station_name":"Sawah Besar","line":2,"is_transit":false,"i_lat":-6.160725,"time":2},{"i_long":106.82482,"time":2,"station_id":"MGB","transit":false,"distance":906,"i_lat":-6.149769,"is_transit":false,"line":2,"station_name":"Manggabesar"}],[{"station_name":"Karet","distance":0,"transit":false,"i_long":106.816351,"line":1,"station_id":"KAT","i_lat":-6.20132,"is_transit":false,"time":0},{"time":1,"is_transit":false,"transit":false,"i_lat":-6.201433,"line":1,"distance":471,"i_long":106.819881,"station_id":"SUDB","station_name":"Sudirman Baru"},{"i_lat":-6.202263,"station_name":"Sudirman","transit":false,"line":1,"distance":280,"is_transit":false,"station_id":"SUD","i_long":106.822649,"time":1},{"station_id":"MRI","line":2,"distance":3186,"time":4,"is_transit":false,"transit":false,"station_name":"Manggarai","i_lat":-6.209883,"i_long":106.84912},{"i_lat":-6.212485,"i_long":106.858896,"transit":false,"station_name":"Matraman","time":2,"distance":1275,"line":1,"is_transit":false,"station_id":"MTR"},{"station_id":"JNG","i_long":106.86807400000001,"line":1,"time":8,"i_lat":-6.215091,"distance":1377,"is_transit":true,"transit":true,"station_name":"Jatinegara"},{"distance":1236,"i_lat":-6.209188,"station_id":"POK","i_long":106.861737,"line":11,"transit":false,"time":2,"station_name":"Pondok Jati","is_transit":false},{"station_id":"KMT","time":2,"is_transit":false,"i_lat":-6.193792,"i_long":106.855437,"line":11,"transit":false,"station_name":"Kramat","distance":1829},{"station_id":"GST","station_name":"Gang Sentiong","i_lat":-6.185975,"i_long":106.850107,"distance":973,"time":1,"is_transit":false,"transit":false,"line":11},{"distance":1567,"station_name":"Pasar Senen","time":8,"i_long":106.84368,"station_id":"PSE","transit":false,"line":11,"is_transit":false,"i_lat":-6.174784},{"station_id":"KMO","station_name":"Kemayoran","line":11,"is_transit":false,"distance":1436,"i_long":106.839204,"transit":false,"i_lat":-6.161728,"time":4},{"is_transit":false,"station_name":"Rajawali","i_lat":-6.14505,"line":11,"i_long":106.836569,"time":5,"station_id":"RJW","distance":1901,"transit":false},{"transit":true,"distance":1444,"i_long":106.826365,"time":3,"station_name":"Kampung Bandan","line":4,"station_id":"KPB","i_lat":-6.132549,"is_transit":true},{"station_id":"JAKK","line":2,"i_long":106.812439,"transit":true,"time":3,"i_lat":-6.137569,"station_name":"Jakarta Kota","distance":1364,"is_transit":true},{"line":2,"station_id":"JAY","transit":false,"distance":1264,"i_long":106.820901,"i_lat":-6.141205,"time":4,"is_transit":false,"station_name":"Jayakarta"},{"transit":false,"station_name":"Manggabesar","station_id":"MGB","i_lat":-6.149769,"distance":1080,"time":2,"line":2,"is_transit":false,"i_long":106.82482}],[{"station_name":"Karet","station_id":"KAT","transit":false,"i_lat":-6.20132,"i_long":106.816351,"time":0,"is_transit":false,"distance":0,"line":1},{"time":5,"i_lat":-6.185545,"station_id":"THB","is_transit":false,"station_name":"Tanah Abang","distance":2029,"transit":false,"line":1,"i_long":106.811091},{"line":1,"time":8,"i_lat":-6.155215,"i_long":106.800832,"distance":3632,"station_id":"DU","station_name":"Duri","transit":false,"is_transit":false},{"transit":false,"is_transit":false,"i_long":106.79867,"time":4,"distance":1230,"station_id":"AK","i_lat":-6.144674,"station_name":"Angke","line":1},{"distance":4102,"station_name":"Kampung Bandan","i_lat":-6.132549,"time":9,"station_id":"KPB","transit":true,"i_long":106.826365,"line":4,"is_transit":true},{"i_lat":-6.14505,"i_long":106.836569,"line":11,"station_name":"Rajawali","time":3,"transit":false,"station_id":"RJW","is_transit":false,"distance":1444},{"time":5,"distance":1901,"is_transit":false,"i_lat":-6.161728,"i_long":106.839204,"station_id":"KMO","transit":false,"line":11,"station_name":"Kemayoran"},{"station_id":"PSE","transit":false,"i_long":106.84368,"station_name":"Pasar Senen","line":11,"time":4,"distance":1436,"i_lat":-6.174784,"is_transit":false},{"is_transit":false,"distance":1567,"transit":false,"i_lat":-6.185975,"time":8,"station_name":"Gang Sentiong","line":11,"station_id":"GST","i_long":106.850107},{"time":1,"is_transit":false,"station_name":"Kramat","station_id":"KMT","transit":false,"i_lat":-6.193792,"i_long":106.855437,"line":11,"distance":973},{"distance":1829,"is_transit":false,"i_lat":-6.209188,"station_name":"Pondok Jati","station_id":"POK","line":11,"i_long":106.861737,"time":2,"transit":false},{"i_lat":-6.215091,"station_name":"Jatinegara","time":9,"distance":1236,"line":1,"i_long":106.86807400000001,"station_id":"JNG","is_transit":true,"transit":true},{"transit":false,"time":2,"i_long":106.858896,"station_name":"Matraman","distance":1377,"station_id":"MTR","is_transit":false,"i_lat":-6.212485,"line":1},{"transit":true,"is_transit":true,"time":2,"i_long":106.84912,"station_name":"Manggarai","distance":1275,"i_lat":-6.209883,"line":2,"station_id":"MRI"},{"distance":1590,"line":2,"station_name":"Cikini","i_long":106.840169,"station_id":"CKI","time":4,"is_transit":false,"i_lat":-6.198556,"transit":false},{"i_lat":-6.186295,"distance":1750,"is_transit":false,"line":2,"time":3,"station_id":"GDD","station_name":"Gondangdia","transit":false,"i_long":106.832183},{"station_name":"Juanda","station_id":"JUA","i_long":106.828284,"distance":2015,"time":4,"is_transit":false,"transit":false,"i_lat":-6.166716,"line":2},{"distance":1149,"time":2,"transit":false,"station_id":"SW","is_transit":false,"i_lat":-6.160725,"station_name":"Sawah Besar","line":2,"i_long":106.827103},{"station_id":"MGB","transit":false,"line":2,"distance":906,"station_name":"Manggabesar","i_lat":-6.149769,"i_long":106.82482,"time":2,"is_transit":false}]]}