{"data":[[{"station_name":"Karet","time":0,"station_id":"KAT","is_transit":false,"i_lat":-6.20132,"transit":false,"i_long":106.816351,"line":1,"distance":0},{"transit":false,"i_lat":-6.185545,"i_long":106.811091,"station_name":"Tanah Abang","distance":2029,"is_transit":false,"line":1,"time":5,"station_id":"THB"},{"is_transit":false,"station_id":"DU","i_lat":-6.155215,"i_long":106.800832,"transit":false,"station_name":"Duri","distance":3632,"line":1,"time":8}],[{"station_name":"Karet","distance":0,"transit":false,"i_long":106.816351,"line":1,"time":0,"station_id":"KAT","i_lat":-6.20132,"is_transit":false},{"station_id":"SUDB","time":1,"station_name":"Sudirman Baru","i_long":106.819881,"line":1,"distance":471,"i_lat":-6.201433,"transit":false,"is_transit":false},{"time":1,"is_transit":false,"line":1,"i_long":106.822649,"station_id":"SUD","i_lat":-6.202263,"station_name":"Sudirman","transit":false,"distance":280},{"is_transit":true,"i_long":106.84912,"time":4,"transit":true,"station_name":"Manggarai","station_id":"MRI","distance":3186,"i_lat":-6.209883,"line":2},{"time":4,"is_transit":false,"station_name":"Cikini","i_long":106.840169,"station_id":"CKI","transit":false,"distance":1590,"i_lat":-6.198556,"line":2},{"is_transit":false,"i_lat":-6.186295,"line":2,"station_name":"Gondangdia","transit":false,"distance":1750,"station_id":"GDD","i_long":106.832183,"time":3},{"i_lat":-6.166716,"i_long":106.828284,"distance":2015,"station_name":"Juanda","transit":false,"time":4,"is_transit":false,"line":2,"station_id":"JUA"},{"time":2,"station_id":"SW","is_transit":false,"station_name":"Sawah Besar","transit":false,"i_long":106.827103,"distance":1149,"line":2,"i_lat":-6.160725},{"i_lat":-6.149769,"transit":false,"station_id":"MGB","is_transit":false,"station_name":"Manggabesar","line":2,"time":2,"i_long":106.82482,"distance":906},{"line":2,"i_lat":-6.141205,"i_long":106.820901,"transit":false,"is_transit":false,"time":2,"station_id":"JAY","station_name":"Jayakarta","distance":1080},{"distance":1264,"station_name":"Jakarta Kota","transit":true,"line":2,"is_transit":true,"i_lat":-6.137569,"station_id":"JAKK","i_long":106.812439,"time":4},{"transit":true,"station_name":"Kampung Bandan","i_lat":-6.132549,"is_transit":true,"time":3,"station_id":"KPB","i_long":106.826365,"line":4,"distance":1364},{"time":9,"station_id":"AK","station_name":"Angke","transit":false,"line":1,"distance":4102,"i_lat":-6.144674,"i_long":106.79867,"is_transit":false},{"time":4,"station_id":"DU","i_lat":-6.155215,"distance":1230,"is_transit":false,"line":1,"station_name":"Duri","transit":false,"i_long":106.800832}],[{"distance":0,"is_transit":false,"line":1,"time":0,"station_name":"Karet","transit":false,"station_id":"KAT","i_lat":-6.20132,"i_long":106.816351},{"distance":471,"line":1,"transit":false,"station_id":"SUDB","station_name":"Sudirman Baru","i_lat":-6.201433,"time":1,"is_transit":false,"i_long":106.819881},{"station_name":"Sudirman","is_transit":false,"time":1,"transit":false,"i_lat":-6.202263,"distance":280,"station_id":"SUD","line":1,"i_long":106.822649},{"distance":3186,"transit":false,"time":4,"station_name":"Manggarai","is_transit":false,"i_lat":-6.209883,"line":2,"i_long":106.84912,"station_id":"MRI"},{"line":1,"time":2,"station_name":"Matraman","distance":1275,"i_lat":-6.212485,"transit":false,"station_id":"MTR","i_long":106.858896,"is_transit":false},{"station_id":"JNG","i_long":106.86807400000001,"distance":1377,"i_lat":-6.215091,"line":1,"time":8,"station_name":"Jatinegara","is_transit":true,"transit":true},{"is_transit":false,"time":2,"line":11,"station_id":"POK","distance":1236,"i_lat":-6.209188,"station_name":"Pondok Jati","transit":false,"i_long":106.861737},{"i_lat":-6.193792,"distance":1829,"station_name":"Kramat","i_long":106.855437,"line":11,"is_transit":false,"station_id":"KMT","time":2,"transit":false},{"i_long":106.850107,"line":11,"station_id":"GST","is_transit":false,"distance":973,"time":1,"station_name":"Gang Sentiong","transit":false,"i_lat":-6.185975},{"i_long":106.84368,"distance":1567,"time":8,"transit":false,"station_id":"PSE","station_name":"Pasar Senen","is_transit":false,"i_lat":-6.174784,"line":11},{"i_lat":-6.161728,"time":4,"station_name":"Kemayoran","line":11,"distance":1436,"station_id":"KMO","transit":false,"is_transit":false,"i_long":106.839204},{"station_id":"RJW","i_lat":-6.14505,"line":11,"station_name":"Rajawali","time":5,"distance":1901,"is_transit":false,"transit":false,"i_long":106.836569},{"line":4,"station_name":"Kampung Bandan","distance":1444,"transit":true,"time":3,"station_id":"KPB","i_lat":-6.132549,"is_transit":true,"i_long":106.826365},{"distance":4102,"transit":false,"time":9,"station_name":"Angke","is_transit":false,"station_id":"AK","i_lat":-6.144674,"line":1,"i_long":106.79867},{"line":1,"i_long":106.800832,"transit":false,"i_lat":-6.155215,"is_transit":false,"time":4,"station_id":"DU","station_name":"Duri","distance":1230}]]}