{"data":[[{"time":0,"is_transit":false,"i_long":106.816351,"line":1,"i_lat":-6.20132,"transit":false,"station_name":"Karet","distance":0,"station_id":"KAT"},{"line":1,"station_id":"SUDB","distance":471,"transit":false,"station_name":"Sudirman Baru","time":1,"is_transit":false,"i_lat":-6.201433,"i_long":106.819881},{"station_name":"Sudirman","is_transit":false,"distance":280,"i_long":106.822649,"station_id":"SUD","transit":false,"time":1,"line":1,"i_lat":-6.202263},{"is_transit":true,"station_id":"MRI","distance":3186,"i_long":106.84912,"transit":true,"line":2,"station_name":"Manggarai","time":4,"i_lat":-6.209883},{"i_lat":-6.226659,"i_long":106.857948,"distance":2610,"transit":false,"is_transit":false,"time":4,"line":2,"station_name":"Tebet","station_id":"TEB"},{"i_long":106.856607,"i_lat":-6.242512,"station_id":"CW","distance":1230,"transit":false,"line":2,"station_name":"Cawang","time":2,"is_transit":false},{"transit":false,"station_name":"Duren Kalibata","distance":1546,"line":2,"time":3,"i_long":106.85449,"station_id":"DRN","i_lat":-6.255332,"is_transit":false},{"is_transit":false,"distance":824,"i_long":106.851577,"station_id":"PSMB","i_lat":-6.263214,"transit":false,"time":2,"line":2,"station_name":"Pasar Minggu Baru"},{"station_name":"Pasar Minggu","station_id":"PSM","transit":false,"time":2,"line":2,"is_transit":false,"distance":2380,"i_lat":-6.2842400000000005,"i_long":106.843999},{"distance":2820,"station_name":"Tanjung Barat","i_long":106.838896,"transit":false,"line":2,"is_transit":false,"station_id":"TNT","time":4,"i_lat":-6.3080680000000005},{"station_name":"Lenteng Agung","line":2,"distance":2671,"transit":false,"station_id":"LNA","time":3,"i_lat":-6.330363,"i_long":106.832616,"is_transit":false},{"station_name":"Univ. Pancasila","station_id":"UP","time":2,"i_lat":-6.339291,"i_long":106.834175,"distance":1029,"line":2,"transit":false,"is_transit":false},{"station_id":"UI","i_lat":-6.360749,"distance":2264,"line":2,"is_transit":false,"station_name":"Univ. Indonesia","transit":false,"i_long":106.831474,"time":3},{"i_long":106.831114,"line":2,"time":2,"i_lat":-6.369073,"station_name":"Pondok Cina","station_id":"POC","is_transit":false,"distance":1109,"transit":false},{"distance":2727,"station_name":"Depokbaru","transit":false,"i_lat":-6.391065,"i_long":106.819451,"station_id":"DPB","is_transit":false,"time":4,"line":2},{"station_id":"DP","distance":1584,"is_transit":false,"transit":false,"time":3,"i_long":106.816926,"i_lat":-6.405256,"station_name":"Depok","line":2},{"station_id":"CTA","distance":5084,"transit":false,"i_lat":-6.448811,"i_long":106.800298,"line":2,"station_name":"Citayam","time":6,"is_transit":false},{"station_id":"BJD","time":5,"line":2,"station_name":"Bojonggede","i_long":106.792719,"is_transit":false,"transit":false,"i_lat":-6.493243,"distance":5197},{"line":2,"is_transit":false,"time":5,"distance":4331,"station_id":"CLT","i_lat":-6.530544,"i_long":106.800016,"station_name":"Cilebut","transit":false},{"distance":7514,"time":9,"i_long":106.790574,"line":2,"station_name":"Bogor","i_lat":-6.594596,"transit":false,"is_transit":false,"station_id":"BOO"}],[{"station_name":"Karet","distance":0,"i_lat":-6.20132,"line":1,"station_id":"KAT","is_transit":false,"time":0,"i_long":106.816351,"transit":false},{"transit":false,"station_name":"Tanah Abang","time":5,"i_lat":-6.185545,"station_id":"THB","line":1,"i_long":106.811091,"distance":2029,"is_transit":false},{"time":8,"station_name":"Duri","transit":false,"i_long":106.800832,"line":1,"i_lat":-6.155215,"station_id":"DU","is_transit":false,"distance":3632},{"transit":false,"i_lat":-6.144674,"station_name":"Angke","i_long":106.79867,"time":4,"line":1,"station_id":"AK","distance":1230,"is_transit":false},{"transit":true,"i_lat":-6.132549,"line":4,"station_id":"KPB","distance":4102,"i_long":106.826365,"station_name":"Kampung Bandan","time":9,"is_transit":true},{"transit":true,"distance":1364,"time":3,"station_id":"JAKK","is_transit":true,"i_lat":-6.137569,"i_long":106.812439,"line":2,"station_name":"Jakarta Kota"},{"i_lat":-6.141205,"i_long":106.820901,"transit":false,"station_name":"Jayakarta","line":2,"time":4,"distance":1264,"station_id":"JAY","is_transit":false},{"i_long":106.82482,"station_id":"MGB","i_lat":-6.149769,"is_transit":false,"transit":false,"time":2,"station_name":"Manggabesar","line":2,"distance":1080},{"station_name":"Sawah Besar","is_transit":false,"i_lat":-6.160725,"time":2,"line":2,"station_id":"SW","i_long":106.827103,"transit":false,"distance":906},{"is_transit":false,"station_name":"Juanda","distance":1149,"line":2,"transit":false,"time":2,"i_lat":-6.166716,"i_long":106.828284,"station_id":"JUA"},{"station_name":"Gondangdia","station_id":"GDD","i_long":106.832183,"transit":false,"line":2,"is_transit":false,"distance":2015,"time":4,"i_lat":-6.186295},{"station_id":"CKI","time":3,"station_name":"Cikini","distance":1750,"is_transit":false,"transit":false,"line":2,"i_long":106.840169,"i_lat":-6.198556},{"distance":1590,"i_lat":-6.209883,"station_name":"Manggarai","line":2,"transit":false,"station_id":"MRI","time":4,"is_transit":false,"i_long":106.84912},{"i_long":106.857948,"i_lat":-6.226659,"distance":2610,"is_transit":false,"station_id":"TEB","transit":false,"line":2,"station_name":"Tebet","time":4},{"transit":false,"i_long":106.856607,"is_transit":false,"station_name":"Cawang","line":2,"distance":1230,"time":2,"i_lat":-6.242512,"station_id":"CW"},{"station_id":"DRN","time":3,"station_name":"Duren Kalibata","is_transit":false,"i_long":106.85449,"line":2,"i_lat":-6.255332,"distance":1546,"transit":false},{"time":2,"station_name":"Pasar Minggu Baru","line":2,"i_lat":-6.263214,"station_id":"PSMB","distance":824,"i_long":106.851577,"transit":false,"is_transit":false},{"time":2,"is_transit":false,"i_long":106.843999,"station_id":"PSM","transit":false,"station_name":"Pasar Minggu","i_lat":-6.2842400000000005,"distance":2380,"line":2},{"is_transit":false,"station_id":"TNT","line":2,"station_name":"Tanjung Barat","transit":false,"i_lat":-6.3080680000000005,"distance":2820,"i_long":106.838896,"time":4},{"station_name":"Lenteng Agung","station_id":"LNA","transit":false,"i_long":106.832616,"distance":2671,"line":2,"is_transit":false,"i_lat":-6.330363,"time":3},{"distance":1029,"i_lat":-6.339291,"station_id":"UP","time":2,"is_transit":false,"station_name":"Univ. Pancasila","i_long":106.834175,"line":2,"transit":false},{"station_name":"Univ. Indonesia","station_id":"UI","distance":2264,"i_long":106.831474,"time":3,"i_lat":-6.360749,"is_transit":false,"transit":false,"line":2},{"time":2,"i_lat":-6.369073,"line":2,"is_transit":false,"i_long":106.831114,"station_name":"Pondok Cina","station_id":"POC","distance":1109,"transit":false},{"is_transit":false,"station_name":"Depokbaru","distance":2727,"station_id":"DPB","i_lat":-6.391065,"line":2,"i_long":106.819451,"transit":false,"time":4},{"line":2,"station_name":"Depok","i_long":106.816926,"i_lat":-6.405256,"time":3,"distance":1584,"station_id":"DP","transit":false,"is_transit":false},{"i_lat":-6.448811,"is_transit":false,"i_long":106.800298,"station_name":"Citayam","distance":5084,"transit":false,"time":6,"line":2,"station_id":"CTA"},{"time":5,"is_transit":false,"station_id":"BJD","i_long":106.792719,"station_name":"Bojonggede","i_lat":-6.493243,"distance":5197,"line":2,"transit":false},{"i_lat":-6.530544,"station_name":"Cilebut","is_transit":false,"line":2,"station_id":"CLT","distance":4331,"transit":false,"time":5,"i_long":106.800016},{"station_name":"Bogor","transit":false,"is_transit":false,"distance":7514,"station_id":"BOO","i_lat":-6.594596,"line":2,"time":9,"i_long":106.790574}],[{"transit":false,"line":1,"is_transit":false,"station_id":"KAT","i_long":106.816351,"distance":0,"station_name":"Karet","time":0,"i_lat":-6.20132},{"station_name":"Tanah Abang","i_long":106.811091,"distance":2029,"line":1,"transit":false,"time":5,"is_transit":false,"station_id":"THB","i_lat":-6.185545},{"time":8,"distance":3632,"line":1,"station_name":"Duri","i_lat":-6.155215,"is_transit":false,"i_long":106.800832,"station_id":"DU","transit":false},{"station_id":"AK","station_name":"Angke","transit":false,"i_long":106.79867,"i_lat":-6.144674,"time":4,"distance":1230,"line":1,"is_transit":false},{"is_transit":true,"line":4,"time":9,"station_name":"Kampung Bandan","station_id":"KPB","distance":4102,"transit":true,"i_lat":-6.132549,"i_long":106.826365},{"transit":false,"station_id":"RJW","i_long":106.836569,"distance":1444,"station_name":"Rajawali","line":11,"time":3,"is_transit":false,"i_lat":-6.14505},{"line":11,"station_name":"Kemayoran","is_transit":false,"i_long":106.839204,"transit":false,"time":5,"i_lat":-6.161728,"station_id":"KMO","distance":1901},{"distance":1436,"i_lat":-6.174784,"i_long":106.84368,"station_name":"Pasar Senen","line":11,"station_id":"PSE","transit":false,"time":4,"is_transit":false},{"distance":1567,"is_transit":false,"i_lat":-6.185975,"i_long":106.850107,"transit":false,"station_name":"Gang Sentiong","line":11,"station_id":"GST","time":8},{"time":1,"transit":false,"i_lat":-6.193792,"i_long":106.855437,"line":11,"is_transit":false,"station_name":"Kramat","station_id":"KMT","distance":973},{"time":2,"is_transit":false,"transit":false,"line":11,"distance":1829,"i_lat":-6.209188,"station_id":"POK","station_name":"Pondok Jati","i_long":106.861737},{"station_id":"JNG","line":1,"is_transit":true,"i_long":106.86807400000001,"transit":true,"distance":1236,"i_lat":-6.215091,"time":9,"station_name":"Jatinegara"},{"station_name":"Matraman","time":2,"i_lat":-6.212485,"i_long":106.858896,"transit":false,"is_transit":false,"line":1,"station_id":"MTR","distance":1377},{"station_name":"Manggarai","transit":true,"station_id":"MRI","line":2,"i_lat":-6.209883,"is_transit":true,"i_long":106.84912,"time":2,"distance":1275},{"line":2,"station_name":"Tebet","is_transit":false,"station_id":"TEB","time":4,"i_long":106.857948,"transit":false,"i_lat":-6.226659,"distance":2610},{"line":2,"is_transit":false,"distance":1230,"station_name":"Cawang","station_id":"CW","transit":false,"time":2,"i_long":106.856607,"i_lat":-6.242512},{"line":2,"i_lat":-6.255332,"is_transit":false,"station_id":"DRN","time":3,"transit":false,"i_long":106.85449,"distance":1546,"station_name":"Duren Kalibata"},{"transit":false,"time":2,"station_id":"PSMB","station_name":"Pasar Minggu Baru","is_transit":false,"distance":824,"i_lat":-6.263214,"i_long":106.851577,"line":2},{"time":2,"station_id":"PSM","transit":false,"is_transit":false,"i_lat":-6.2842400000000005,"distance":2380,"line":2,"station_name":"Pasar Minggu","i_long":106.843999},{"i_long":106.838896,"transit":false,"station_name":"Tanjung Barat","line":2,"station_id":"TNT","i_lat":-6.3080680000000005,"is_transit":false,"time":4,"distance":2820},{"station_id":"LNA","transit":false,"line":2,"i_long":106.832616,"is_transit":false,"distance":2671,"time":3,"i_lat":-6.330363,"station_name":"Lenteng Agung"},{"distance":1029,"is_transit":false,"transit":false,"i_lat":-6.339291,"i_long":106.834175,"time":2,"line":2,"station_id":"UP","station_name":"Univ. Pancasila"},{"i_lat":-6.360749,"station_id":"UI","distance":2264,"transit":false,"is_transit":false,"station_name":"Univ. Indonesia","time":3,"i_long":106.831474,"line":2},{"transit":false,"i_lat":-6.369073,"station_id":"POC","time":2,"distance":1109,"i_long":106.831114,"station_name":"Pondok Cina","line":2,"is_transit":false},{"station_id":"DPB","is_transit":false,"time":4,"distance":2727,"line":2,"station_name":"Depokbaru","i_long":106.819451,"i_lat":-6.391065,"transit":false},{"transit":false,"i_lat":-6.405256,"i_long":106.816926,"is_transit":false,"line":2,"time":3,"station_name":"Depok","station_id":"DP","distance":1584},{"station_id":"CTA","distance":5084,"is_transit":false,"transit":false,"i_lat":-6.448811,"station_name":"Citayam","time":6,"i_long":106.800298,"line":2},{"time":5,"i_long":106.792719,"line":2,"transit":false,"station_name":"Bojonggede","is_transit":false,"distance":5197,"i_lat":-6.493243,"station_id":"BJD"},{"is_transit":false,"time":5,"transit":false,"distance":4331,"i_lat":-6.530544,"station_id":"CLT","station_name":"Cilebut","i_long":106.800016,"line":2},{"distance":7514,"transit":false,"time":9,"i_lat":-6.594596,"station_id":"BOO","is_transit":false,"i_long":106.790574,"line":2,"station_name":"Bogor"}]]}