{"data":[[{"station_name":"Karet","i_lat":-6.20132,"i_long":106.816351,"line":1,"station_id":"KAT","transit":false,"time":0,"is_transit":false,"distance":0},{"i_long":106.819881,"station_name":"Sudirman Baru","transit":false,"i_lat":-6.201433,"is_transit":false,"distance":471,"line":1,"time":1,"station_id":"SUDB"},{"distance":280,"line":1,"station_name":"Sudirman","time":1,"i_lat":-6.202263,"i_long":106.822649,"is_transit":false,"transit":false,"station_id":"SUD"},{"distance":3186,"station_id":"MRI","i_lat":-6.209883,"is_transit":true,"transit":true,"i_long":106.84912,"station_name":"Manggarai","line":2,"time":4},{"is_transit":false,"time":4,"transit":false,"i_long":106.857948,"i_lat":-6.226659,"line":2,"station_id":"TEB","distance":2610,"station_name":"Tebet"},{"station_id":"CW","is_transit":false,"transit":false,"line":2,"distance":1230,"station_name":"Cawang","time":2,"i_lat":-6.242512,"i_long":106.856607},{"station_name":"Duren Kalibata","station_id":"DRN","is_transit":false,"transit":false,"i_lat":-6.255332,"i_long":106.85449,"time":3,"distance":1546,"line":2},{"time":2,"station_name":"Pasar Minggu Baru","line":2,"i_lat":-6.263214,"station_id":"PSMB","is_transit":false,"distance":824,"transit":false,"i_long":106.851577},{"time":2,"distance":2380,"station_name":"Pasar Minggu","line":2,"station_id":"PSM","transit":false,"i_lat":-6.2842400000000005,"is_transit":false,"i_long":106.843999},{"time":4,"distance":2820,"i_lat":-6.3080680000000005,"line":2,"is_transit":false,"i_long":106.838896,"station_id":"TNT","station_name":"Tanjung Barat","transit":false},{"distance":2671,"is_transit":false,"station_name":"Lenteng Agung","i_long":106.832616,"i_lat":-6.330363,"time":3,"station_id":"LNA","transit":false,"line":2},{"i_lat":-6.339291,"i_long":106.834175,"station_id":"UP","time":2,"distance":1029,"is_transit":false,"transit":false,"line":2,"station_name":"Univ. Pancasila"},{"station_name":"Univ. Indonesia","line":2,"time":3,"transit":false,"i_long":106.831474,"distance":2264,"is_transit":false,"station_id":"UI","i_lat":-6.360749},{"time":2,"is_transit":false,"station_id":"POC","i_long":106.831114,"distance":1109,"station_name":"Pondok Cina","line":2,"i_lat":-6.369073,"transit":false},{"i_lat":-6.391065,"transit":false,"is_transit":false,"i_long":106.819451,"time":4,"distance":2727,"line":2,"station_id":"DPB","station_name":"Depokbaru"},{"time":3,"distance":1584,"i_long":106.816926,"i_lat":-6.405256,"transit":false,"station_id":"DP","station_name":"Depok","line":2,"is_transit":false},{"transit":false,"is_transit":false,"i_lat":-6.448811,"station_name":"Citayam","time":6,"station_id":"CTA","distance":5084,"i_long":106.800298,"line":2},{"distance":5197,"station_id":"BJD","i_lat":-6.493243,"line":2,"is_transit":false,"time":5,"i_long":106.792719,"station_name":"Bojonggede","transit":false}],[{"station_id":"KAT","i_lat":-6.20132,"line":1,"transit":false,"station_name":"Karet","time":0,"is_transit":false,"distance":0,"i_long":106.816351},{"transit":false,"station_id":"THB","is_transit":false,"distance":2029,"time":5,"i_lat":-6.185545,"station_name":"Tanah Abang","i_long":106.811091,"line":1},{"time":8,"station_id":"DU","i_long":106.800832,"distance":3632,"line":1,"transit":false,"station_name":"Duri","i_lat":-6.155215,"is_transit":false},{"time":4,"distance":1230,"i_long":106.79867,"station_name":"Angke","i_lat":-6.144674,"line":1,"transit":false,"is_transit":false,"station_id":"AK"},{"transit":true,"time":9,"station_id":"KPB","station_name":"Kampung Bandan","i_lat":-6.132549,"line":4,"i_long":106.826365,"is_transit":true,"distance":4102},{"distance":1364,"i_long":106.812439,"station_name":"Jakarta Kota","is_transit":true,"transit":true,"time":3,"line":2,"station_id":"JAKK","i_lat":-6.137569},{"station_name":"Jayakarta","i_lat":-6.141205,"line":2,"is_transit":false,"transit":false,"time":4,"i_long":106.820901,"station_id":"JAY","distance":1264},{"transit":false,"is_transit":false,"distance":1080,"i_lat":-6.149769,"line":2,"station_id":"MGB","i_long":106.82482,"station_name":"Manggabesar","time":2},{"station_name":"Sawah Besar","time":2,"distance":906,"line":2,"transit":false,"station_id":"SW","is_transit":false,"i_lat":-6.160725,"i_long":106.827103},{"i_lat":-6.166716,"distance":1149,"is_transit":false,"station_name":"Juanda","time":2,"i_long":106.828284,"line":2,"transit":false,"station_id":"JUA"},{"line":2,"time":4,"transit":false,"station_name":"Gondangdia","i_lat":-6.186295,"is_transit":false,"distance":2015,"station_id":"GDD","i_long":106.832183},{"i_long":106.840169,"line":2,"transit":false,"station_id":"CKI","station_name":"Cikini","is_transit":false,"time":3,"distance":1750,"i_lat":-6.198556},{"line":2,"i_lat":-6.209883,"i_long":106.84912,"distance":1590,"station_id":"MRI","transit":false,"is_transit":false,"station_name":"Manggarai","time":4},{"station_id":"TEB","is_transit":false,"i_lat":-6.226659,"line":2,"time":4,"station_name":"Tebet","distance":2610,"i_long":106.857948,"transit":false},{"distance":1230,"transit":false,"station_name":"Cawang","i_long":106.856607,"line":2,"i_lat":-6.242512,"time":2,"station_id":"CW","is_transit":false},{"is_transit":false,"line":2,"station_name":"Duren Kalibata","transit":false,"i_long":106.85449,"station_id":"DRN","time":3,"i_lat":-6.255332,"distance":1546},{"i_lat":-6.263214,"station_id":"PSMB","line":2,"time":2,"transit":false,"station_name":"Pasar Minggu Baru","is_transit":false,"i_long":106.851577,"distance":824},{"is_transit":false,"transit":false,"station_id":"PSM","i_lat":-6.2842400000000005,"station_name":"Pasar Minggu","time":2,"i_long":106.843999,"line":2,"distance":2380},{"station_name":"Tanjung Barat","i_lat":-6.3080680000000005,"line":2,"is_transit":false,"distance":2820,"time":4,"i_long":106.838896,"transit":false,"station_id":"TNT"},{"i_lat":-6.330363,"station_id":"LNA","station_name":"Lenteng Agung","time":3,"transit":false,"is_transit":false,"distance":2671,"i_long":106.832616,"line":2},{"transit":false,"distance":1029,"station_name":"Univ. Pancasila","i_lat":-6.339291,"station_id":"UP","is_transit":false,"i_long":106.834175,"time":2,"line":2},{"distance":2264,"transit":false,"is_transit":false,"station_name":"Univ. Indonesia","time":3,"i_lat":-6.360749,"line":2,"station_id":"UI","i_long":106.831474},{"distance":1109,"station_id":"POC","line":2,"i_lat":-6.369073,"i_long":106.831114,"station_name":"Pondok Cina","transit":false,"is_transit":false,"time":2},{"is_transit":false,"i_long":106.819451,"line":2,"i_lat":-6.391065,"distance":2727,"transit":false,"station_name":"Depokbaru","time":4,"station_id":"DPB"},{"station_id":"DP","i_lat":-6.405256,"transit":false,"line":2,"time":3,"station_name":"Depok","is_transit":false,"distance":1584,"i_long":106.816926},{"station_id":"CTA","time":6,"distance":5084,"line":2,"i_lat":-6.448811,"i_long":106.800298,"is_transit":false,"station_name":"Citayam","transit":false},{"i_lat":-6.493243,"transit":false,"station_name":"Bojonggede","distance":5197,"station_id":"BJD","i_long":106.792719,"line":2,"is_transit":false,"time":5}],[{"time":0,"i_lat":-6.20132,"station_name":"Karet","station_id":"KAT","line":1,"is_transit":false,"i_long":106.816351,"distance":0,"transit":false},{"transit":false,"station_name":"Tanah Abang","distance":2029,"is_transit":false,"station_id":"THB","i_lat":-6.185545,"i_long":106.811091,"time":5,"line":1},{"transit":false,"is_transit":false,"time":8,"station_id":"DU","station_name":"Duri","distance":3632,"i_lat":-6.155215,"line":1,"i_long":106.800832},{"i_lat":-6.144674,"station_name":"Angke","transit":false,"time":4,"distance":1230,"is_transit":false,"station_id":"AK","i_long":106.79867,"line":1},{"line":4,"time":9,"is_transit":true,"i_lat":-6.132549,"distance":4102,"station_id":"KPB","i_long":106.826365,"transit":true,"station_name":"Kampung Bandan"},{"station_name":"Rajawali","transit":false,"is_transit":false,"distance":1444,"station_id":"RJW","line":11,"time":3,"i_lat":-6.14505,"i_long":106.836569},{"is_transit":false,"transit":false,"station_id":"KMO","i_long":106.839204,"line":11,"i_lat":-6.161728,"station_name":"Kemayoran","time":5,"distance":1901},{"transit":false,"i_lat":-6.174784,"station_name":"Pasar Senen","time":4,"is_transit":false,"station_id":"PSE","line":11,"distance":1436,"i_long":106.84368},{"is_transit":false,"transit":false,"distance":1567,"line":11,"station_name":"Gang Sentiong","station_id":"GST","time":8,"i_lat":-6.185975,"i_long":106.850107},{"i_lat":-6.193792,"line":11,"station_id":"KMT","is_transit":false,"i_long":106.855437,"transit":false,"station_name":"Kramat","time":1,"distance":973},{"transit":false,"station_name":"Pondok Jati","station_id":"POK","i_long":106.861737,"time":2,"line":11,"distance":1829,"i_lat":-6.209188,"is_transit":false},{"station_name":"Jatinegara","is_transit":true,"distance":1236,"line":1,"time":9,"transit":true,"i_lat":-6.215091,"station_id":"JNG","i_long":106.86807400000001},{"station_id":"MTR","line":1,"i_lat":-6.212485,"station_name":"Matraman","transit":false,"is_transit":false,"time":2,"distance":1377,"i_long":106.858896},{"line":2,"i_long":106.84912,"time":2,"transit":true,"station_id":"MRI","is_transit":true,"i_lat":-6.209883,"distance":1275,"station_name":"Manggarai"},{"is_transit":false,"station_id":"TEB","i_lat":-6.226659,"line":2,"station_name":"Tebet","i_long":106.857948,"transit":false,"distance":2610,"time":4},{"distance":1230,"line":2,"station_id":"CW","station_name":"Cawang","transit":false,"is_transit":false,"i_lat":-6.242512,"i_long":106.856607,"time":2},{"station_id":"DRN","i_lat":-6.255332,"i_long":106.85449,"line":2,"transit":false,"distance":1546,"time":3,"station_name":"Duren Kalibata","is_transit":false},{"distance":824,"station_name":"Pasar Minggu Baru","time":2,"i_long":106.851577,"is_transit":false,"i_lat":-6.263214,"station_id":"PSMB","transit":false,"line":2},{"is_transit":false,"time":2,"transit":false,"station_id":"PSM","station_name":"Pasar Minggu","i_long":106.843999,"line":2,"distance":2380,"i_lat":-6.2842400000000005},{"i_lat":-6.3080680000000005,"distance":2820,"i_long":106.838896,"is_transit":false,"station_id":"TNT","station_name":"Tanjung Barat","time":4,"transit":false,"line":2},{"i_long":106.832616,"i_lat":-6.330363,"line":2,"station_name":"Lenteng Agung","is_transit":false,"time":3,"station_id":"LNA","transit":false,"distance":2671},{"station_id":"UP","i_long":106.834175,"line":2,"is_transit":false,"time":2,"i_lat":-6.339291,"station_name":"Univ. Pancasila","transit":false,"distance":1029},{"station_id":"UI","transit":false,"station_name":"Univ. Indonesia","i_long":106.831474,"is_transit":false,"distance":2264,"i_lat":-6.360749,"line":2,"time":3},{"station_id":"POC","transit":false,"i_lat":-6.369073,"station_name":"Pondok Cina","is_transit":false,"distance":1109,"i_long":106.831114,"line":2,"time":2},{"station_name":"Depokbaru","distance":2727,"i_long":106.819451,"time":4,"is_transit":false,"i_lat":-6.391065,"line":2,"station_id":"DPB","transit":false},{"time":3,"line":2,"station_name":"Depok","i_lat":-6.405256,"transit":false,"station_id":"DP","is_transit":false,"distance":1584,"i_long":106.816926},{"is_transit":false,"distance":5084,"i_long":106.800298,"time":6,"station_name":"Citayam","i_lat":-6.448811,"line":2,"station_id":"CTA","transit":false},{"line":2,"i_lat":-6.493243,"distance":5197,"transit":false,"station_name":"Bojonggede","station_id":"BJD","is_transit":false,"time":5,"i_long":106.792719}]]}