{"data":[[{"time":0,"i_lat":-6.20132,"i_long":106.816351,"station_name":"Karet","station_id":"KAT","line":1,"is_transit":false,"transit":false,"distance":0},{"i_long":106.811091,"distance":2029,"is_transit":false,"transit":false,"i_lat":-6.185545,"line":1,"station_id":"THB","time":5,"station_name":"Tanah Abang"},{"is_transit":false,"distance":3632,"time":8,"i_lat":-6.155215,"line":1,"i_long":106.800832,"transit":false,"station_id":"DU","station_name":"Duri"},{"time":4,"station_id":"AK","is_transit":false,"transit":false,"i_long":106.79867,"line":1,"station_name":"Angke","distance":1230,"i_lat":-6.144674},{"is_transit":false,"station_name":"Kampung Bandan","i_lat":-6.132549,"time":9,"line":4,"i_long":106.826365,"distance":4102,"transit":false,"station_id":"KPB"}],[{"station_name":"Karet","is_transit":false,"time":0,"i_lat":-6.20132,"station_id":"KAT","distance":0,"transit":false,"i_long":106.816351,"line":1},{"line":1,"i_long":106.819881,"distance":471,"i_lat":-6.201433,"station_id":"SUDB","is_transit":false,"time":1,"transit":false,"station_name":"Sudirman Baru"},{"time":1,"i_lat":-6.202263,"i_long":106.822649,"transit":false,"station_id":"SUD","station_name":"Sudirman","is_transit":false,"distance":280,"line":1},{"station_id":"MRI","transit":true,"is_transit":true,"i_long":106.84912,"distance":3186,"i_lat":-6.209883,"time":4,"station_name":"Manggarai","line":2},{"i_lat":-6.198556,"station_id":"CKI","transit":false,"line":2,"time":4,"is_transit":false,"station_name":"Cikini","i_long":106.840169,"distance":1590},{"time":3,"is_transit":false,"line":2,"i_long":106.832183,"distance":1750,"station_id":"GDD","i_lat":-6.186295,"station_name":"Gondangdia","transit":false},{"i_long":106.828284,"i_lat":-6.166716,"time":4,"line":2,"station_name":"Juanda","station_id":"JUA","is_transit":false,"transit":false,"distance":2015},{"line":2,"distance":1149,"transit":false,"is_transit":false,"i_lat":-6.160725,"i_long":106.827103,"station_id":"SW","station_name":"Sawah Besar","time":2},{"is_transit":false,"distance":906,"i_long":106.82482,"station_id":"MGB","time":2,"line":2,"i_lat":-6.149769,"station_name":"Manggabesar","transit":false},{"distance":1080,"station_id":"JAY","line":2,"i_lat":-6.141205,"is_transit":false,"i_long":106.820901,"time":2,"station_name":"Jayakarta","transit":false},{"station_name":"Jakarta Kota","is_transit":true,"distance":1264,"transit":true,"i_long":106.812439,"line":2,"i_lat":-6.137569,"station_id":"JAKK","time":4},{"station_name":"Kampung Bandan","i_long":106.826365,"station_id":"KPB","time":3,"i_lat":-6.132549,"line":4,"distance":1364,"transit":false,"is_transit":false}],[{"transit":false,"i_lat":-6.20132,"station_id":"KAT","line":1,"station_name":"Karet","distance":0,"time":0,"is_transit":false,"i_long":106.816351},{"station_name":"Sudirman Baru","i_long":106.819881,"station_id":"SUDB","is_transit":false,"distance":471,"line":1,"transit":false,"i_lat":-6.201433,"time":1},{"i_lat":-6.202263,"distance":280,"transit":false,"station_name":"Sudirman","i_long":106.822649,"is_transit":false,"station_id":"SUD","time":1,"line":1},{"distance":3186,"is_transit":false,"i_lat":-6.209883,"station_name":"Manggarai","transit":false,"line":2,"station_id":"MRI","i_long":106.84912,"time":4},{"is_transit":false,"station_name":"Matraman","i_long":106.858896,"station_id":"MTR","i_lat":-6.212485,"distance":1275,"time":2,"transit":false,"line":1},{"i_long":106.86807400000001,"transit":true,"station_id":"JNG","i_lat":-6.215091,"station_name":"Jatinegara","distance":1377,"is_transit":true,"time":8,"line":1},{"transit":false,"is_transit":false,"i_lat":-6.209188,"time":2,"station_id":"POK","i_long":106.861737,"distance":1236,"station_name":"Pondok Jati","line":11},{"station_name":"Kramat","line":11,"i_long":106.855437,"station_id":"KMT","i_lat":-6.193792,"distance":1829,"is_transit":false,"transit":false,"time":2},{"line":11,"station_name":"Gang Sentiong","distance":973,"station_id":"GST","is_transit":false,"time":1,"transit":false,"i_long":106.850107,"i_lat":-6.185975},{"i_long":106.84368,"is_transit":false,"station_id":"PSE","line":11,"distance":1567,"transit":false,"i_lat":-6.174784,"station_name":"Pasar Senen","time":8},{"station_name":"Kemayoran","i_long":106.839204,"distance":1436,"time":4,"line":11,"transit":false,"station_id":"KMO","is_transit":false,"i_lat":-6.161728},{"i_lat":-6.14505,"distance":1901,"transit":false,"time":5,"station_name":"Rajawali","line":11,"i_long":106.836569,"station_id":"RJW","is_transit":false},{"line":4,"time":3,"is_transit":false,"station_id":"KPB","distance":1444,"station_name":"Kampung Bandan","transit":false,"i_long":106.826365,"i_lat":-6.132549}]]}