{"data":[[{"station_id":"KAT","transit":false,"i_long":106.816351,"distance":0,"line":1,"is_transit":false,"time":0,"station_name":"Karet","i_lat":-6.20132},{"transit":false,"station_id":"THB","i_long":106.811091,"line":1,"is_transit":true,"station_name":"Tanah Abang","time":5,"i_lat":-6.185545,"distance":2029},{"time":8,"station_name":"Duri","transit":true,"station_id":"DU","is_transit":true,"i_lat":-6.155215,"line":1,"distance":3632,"i_long":106.800832},{"line":0,"time":4,"transit":false,"i_lat":-6.144674,"is_transit":false,"distance":1230,"station_id":"AK","i_long":106.79867,"station_name":"Angke"},{"station_name":"Kampung Bandan","line":0,"is_transit":true,"i_lat":-6.132549,"i_long":106.826365,"time":9,"station_id":"KPB","distance":4102,"transit":false},{"is_transit":true,"i_long":106.812439,"i_lat":-6.137569,"time":3,"distance":1364,"line":0,"transit":true,"station_name":"Jakarta Kota","station_id":"JAKK"},{"i_long":106.820901,"distance":1264,"is_transit":false,"station_name":"Jayakarta","i_lat":-6.141205,"station_id":"JAY","time":4,"line":7,"transit":false},{"station_id":"MGB","distance":1080,"transit":false,"i_lat":-6.149769,"line":2,"station_name":"Manggabesar","time":2,"i_long":106.82482,"is_transit":false}],[{"time":0,"distance":0,"is_transit":false,"station_name":"Karet","line":1,"transit":false,"i_long":106.816351,"i_lat":-6.20132,"station_id":"KAT"},{"is_transit":false,"line":1,"distance":471,"station_id":"SUDB","transit":false,"i_lat":-6.201433,"i_long":106.819881,"time":1,"station_name":"Sudirman Baru"},{"time":1,"station_id":"SUD","i_lat":-6.202263,"is_transit":false,"i_long":106.822649,"line":1,"transit":false,"distance":280,"station_name":"Sudirman"},{"line":0,"transit":true,"is_transit":true,"i_long":106.84912,"time":4,"distance":3186,"station_name":"Manggarai","station_id":"MRI","i_lat":-6.209883},{"station_id":"CKI","transit":false,"i_long":106.840169,"line":0,"station_name":"Cikini","distance":1590,"is_transit":false,"time":4,"i_lat":-6.198556},{"i_long":106.832183,"distance":1750,"time":3,"station_id":"GDD","transit":false,"station_name":"Gondangdia","line":2,"is_transit":false,"i_lat":-6.186295},{"station_name":"Juanda","station_id":"JUA","i_lat":-6.166716,"time":4,"transit":false,"is_transit":false,"i_long":106.828284,"line":2,"distance":2015},{"is_transit":false,"station_id":"SW","distance":1149,"station_name":"Sawah Besar","transit":false,"line":2,"i_lat":-6.160725,"time":2,"i_long":106.827103},{"transit":false,"distance":906,"line":2,"i_lat":-6.149769,"i_long":106.82482,"station_name":"Manggabesar","is_transit":false,"time":2,"station_id":"MGB"}],[{"time":0,"i_lat":-6.20132,"distance":0,"line":1,"station_id":"KAT","i_long":106.816351,"is_transit":false,"station_name":"Karet","transit":false},{"distance":471,"time":1,"transit":false,"i_long":106.819881,"is_transit":false,"i_lat":-6.201433,"station_id":"SUDB","station_name":"Sudirman Baru","line":1},{"time":1,"i_long":106.822649,"transit":false,"i_lat":-6.202263,"distance":280,"station_id":"SUD","line":1,"is_transit":false,"station_name":"Sudirman"},{"i_long":106.84912,"distance":3186,"station_id":"MRI","line":0,"station_name":"Manggarai","transit":false,"is_transit":true,"i_lat":-6.209883,"time":4},{"i_lat":-6.212485,"station_name":"Matraman","distance":1275,"time":2,"station_id":"MTR","i_long":106.858896,"line":1,"is_transit":false,"transit":false},{"transit":true,"station_id":"JNG","is_transit":true,"time":8,"distance":1377,"station_name":"Jatinegara","i_lat":-6.215091,"i_long":106.86807400000001,"line":0},{"distance":1236,"is_transit":false,"station_id":"POK","line":11,"time":2,"station_name":"Pondok Jati","i_lat":-6.209188,"i_long":106.861737,"transit":false},{"line":11,"is_transit":false,"i_long":106.855437,"station_name":"Kramat","time":2,"station_id":"KMT","transit":false,"distance":1829,"i_lat":-6.193792},{"transit":false,"distance":973,"line":11,"time":1,"i_long":106.850107,"is_transit":false,"station_id":"GST","i_lat":-6.185975,"station_name":"Gang Sentiong"},{"i_lat":-6.174784,"time":8,"station_name":"Pasar Senen","station_id":"PSE","line":11,"transit":false,"i_long":106.84368,"distance":1567,"is_transit":false},{"transit":false,"distance":1436,"i_long":106.839204,"is_transit":false,"line":11,"station_id":"KMO","station_name":"Kemayoran","time":4,"i_lat":-6.161728},{"i_long":106.836569,"distance":1901,"time":5,"station_name":"Rajawali","i_lat":-6.14505,"line":11,"station_id":"RJW","is_transit":false,"transit":false},{"is_transit":true,"distance":1444,"station_name":"Kampung Bandan","station_id":"KPB","transit":true,"i_lat":-6.132549,"i_long":106.826365,"time":3,"line":0},{"distance":1364,"is_transit":true,"time":3,"station_name":"Jakarta Kota","line":0,"i_long":106.812439,"transit":true,"station_id":"JAKK","i_lat":-6.137569},{"time":4,"station_name":"Jayakarta","i_long":106.820901,"i_lat":-6.141205,"station_id":"JAY","transit":false,"line":7,"distance":1264,"is_transit":false},{"is_transit":false,"station_name":"Manggabesar","distance":1080,"i_lat":-6.149769,"i_long":106.82482,"station_id":"MGB","time":2,"transit":false,"line":2}],[{"is_transit":false,"transit":false,"line":1,"distance":0,"i_lat":-6.20132,"station_name":"Karet","time":0,"station_id":"KAT","i_long":106.816351},{"time":5,"is_transit":true,"transit":false,"distance":2029,"station_name":"Tanah Abang","station_id":"THB","i_lat":-6.185545,"i_long":106.811091,"line":1},{"distance":3632,"station_id":"DU","line":1,"time":8,"i_long":106.800832,"station_name":"Duri","transit":true,"i_lat":-6.155215,"is_transit":true},{"distance":1230,"station_name":"Angke","i_long":106.79867,"is_transit":false,"time":4,"station_id":"AK","transit":false,"i_lat":-6.144674,"line":0},{"station_id":"KPB","line":0,"station_name":"Kampung Bandan","distance":4102,"transit":true,"is_transit":true,"i_long":106.826365,"time":9,"i_lat":-6.132549},{"station_name":"Rajawali","i_lat":-6.14505,"i_long":106.836569,"line":11,"time":3,"station_id":"RJW","transit":false,"distance":1444,"is_transit":false},{"i_long":106.839204,"transit":false,"time":5,"is_transit":false,"station_id":"KMO","i_lat":-6.161728,"line":11,"distance":1901,"station_name":"Kemayoran"},{"transit":false,"distance":1436,"time":4,"station_id":"PSE","line":11,"is_transit":false,"i_lat":-6.174784,"i_long":106.84368,"station_name":"Pasar Senen"},{"is_transit":false,"station_id":"GST","distance":1567,"station_name":"Gang Sentiong","transit":false,"i_lat":-6.185975,"time":8,"i_long":106.850107,"line":11},{"station_name":"Kramat","line":11,"transit":false,"time":1,"i_long":106.855437,"distance":973,"i_lat":-6.193792,"is_transit":false,"station_id":"KMT"},{"station_id":"POK","transit":false,"station_name":"Pondok Jati","is_transit":false,"distance":1829,"i_long":106.861737,"time":2,"i_lat":-6.209188,"line":11},{"is_transit":true,"line":0,"i_long":106.86807400000001,"station_id":"JNG","transit":true,"distance":1236,"time":9,"i_lat":-6.215091,"station_name":"Jatinegara"},{"i_lat":-6.212485,"distance":1377,"transit":false,"is_transit":false,"time":2,"station_id":"MTR","station_name":"Matraman","i_long":106.858896,"line":1},{"station_name":"Manggarai","i_lat":-6.209883,"distance":1275,"station_id":"MRI","transit":true,"line":0,"is_transit":true,"time":2,"i_long":106.84912},{"station_name":"Cikini","i_lat":-6.198556,"i_long":106.840169,"transit":false,"station_id":"CKI","is_transit":false,"distance":1590,"line":0,"time":4},{"station_id":"GDD","transit":false,"distance":1750,"line":2,"i_lat":-6.186295,"is_transit":false,"time":3,"i_long":106.832183,"station_name":"Gondangdia"},{"station_id":"JUA","time":4,"line":2,"i_long":106.828284,"is_transit":false,"distance":2015,"station_name":"Juanda","i_lat":-6.166716,"transit":false},{"i_long":106.827103,"distance":1149,"time":2,"transit":false,"i_lat":-6.160725,"is_transit":false,"station_name":"Sawah Besar","station_id":"SW","line":2},{"time":2,"station_name":"Manggabesar","station_id":"MGB","i_long":106.82482,"i_lat":-6.149769,"line":2,"is_transit":false,"distance":906,"transit":false}]]}