{"data":[[{"station_name":"Karet","station_id":"KAT","i_long":106.816351,"transit":false,"distance":0,"i_lat":-6.20132,"time":0,"line":1,"is_transit":false},{"distance":2029,"i_lat":-6.185545,"time":5,"station_name":"Tanah Abang","transit":true,"is_transit":true,"i_long":106.811091,"line":1,"station_id":"THB"},{"i_long":106.79689,"is_transit":false,"i_lat":-6.207404,"line":6,"time":6,"distance":3191,"station_id":"PLM","transit":false,"station_name":"Palmerah"},{"station_id":"KBY","distance":3737,"i_lat":-6.237242,"line":6,"time":7,"is_transit":false,"i_long":106.780334,"transit":false,"station_name":"Kebayoran"},{"station_name":"Pondokranji","i_lat":-6.276362,"i_long":106.74273,"line":6,"is_transit":false,"distance":6218,"station_id":"PDJ","time":8,"transit":false},{"i_lat":-6.288927,"i_long":106.728916,"line":6,"time":3,"transit":false,"station_name":"Jurangmangu","is_transit":false,"station_id":"JMU","distance":2179},{"i_long":106.712277,"station_id":"SDM","time":4,"i_lat":-6.296963,"line":6,"transit":false,"distance":1994,"is_transit":false,"station_name":"Sudimara"},{"station_id":"RU","is_transit":false,"transit":false,"distance":4566,"i_long":106.675475,"time":6,"line":6,"i_lat":-6.314823,"station_name":"Rawa Buntu"},{"station_name":"Serpong","time":4,"is_transit":false,"station_id":"SRP","transit":false,"i_long":106.66566,"distance":2413,"line":6,"i_lat":-6.319871},{"line":3,"i_lat":-6.32484,"station_name":"Cisauk","time":4,"transit":false,"i_long":106.640411,"is_transit":false,"station_id":"CSK","distance":1784},{"i_long":106.617853,"station_id":"CC","distance":2519,"station_name":"Cicayur","time":4,"transit":false,"i_lat":-6.329547,"line":3,"is_transit":false},{"distance":5968,"i_lat":-6.3441410000000005,"i_long":106.568863,"transit":false,"station_id":"PRP","station_name":"Parung Panjang","is_transit":false,"line":6,"time":8},{"station_id":"CJT","distance":7025,"is_transit":false,"station_name":"Cilejit","i_lat":-6.354349,"line":3,"time":9,"i_long":106.508482,"transit":false},{"station_id":"DAR","transit":false,"time":6,"i_lat":-6.338021,"i_long":106.491338,"distance":2675,"station_name":"Daru","line":0,"is_transit":false},{"station_id":"TEJ","transit":false,"i_lat":-6.327251,"is_transit":false,"station_name":"Tenjo","distance":3902,"i_long":106.460812,"time":5,"line":6},{"transit":false,"distance":2974,"is_transit":false,"station_id":"TGS","i_lat":-6.328533,"i_long":106.425991,"time":5,"line":6,"station_name":"Tigaraksa"}],[{"line":1,"i_lat":-6.20132,"distance":0,"is_transit":false,"station_name":"Karet","i_long":106.816351,"station_id":"KAT","time":0,"transit":false},{"distance":471,"time":1,"transit":false,"i_long":106.819881,"station_id":"SUDB","line":1,"i_lat":-6.201433,"station_name":"Sudirman Baru","is_transit":false},{"line":1,"station_name":"Sudirman","is_transit":false,"transit":false,"station_id":"SUD","i_lat":-6.202263,"distance":280,"time":1,"i_long":106.822649},{"i_lat":-6.209883,"station_name":"Manggarai","station_id":"MRI","distance":3186,"line":2,"i_long":106.84912,"transit":true,"is_transit":true,"time":4},{"station_id":"CKI","i_long":106.840169,"distance":1590,"transit":false,"i_lat":-6.198556,"line":2,"time":4,"is_transit":false,"station_name":"Cikini"},{"station_id":"GDD","transit":false,"distance":1750,"station_name":"Gondangdia","i_long":106.832183,"i_lat":-6.186295,"time":3,"line":2,"is_transit":false},{"station_id":"JUA","transit":false,"distance":2015,"station_name":"Juanda","i_lat":-6.166716,"i_long":106.828284,"is_transit":false,"time":4,"line":2},{"i_long":106.827103,"station_name":"Sawah Besar","is_transit":false,"i_lat":-6.160725,"line":2,"transit":false,"distance":1149,"time":2,"station_id":"SW"},{"distance":906,"i_long":106.82482,"line":2,"is_transit":false,"time":2,"station_name":"Manggabesar","transit":false,"station_id":"MGB","i_lat":-6.149769},{"transit":false,"time":2,"i_lat":-6.141205,"is_transit":false,"station_id":"JAY","line":2,"distance":1080,"station_name":"Jayakarta","i_long":106.820901},{"i_long":106.812439,"station_name":"Jakarta Kota","line":2,"i_lat":-6.137569,"is_transit":true,"station_id":"JAKK","time":4,"transit":true,"distance":1264},{"distance":1364,"transit":true,"line":4,"station_name":"Kampung Bandan","i_long":106.826365,"is_transit":true,"time":3,"station_id":"KPB","i_lat":-6.132549},{"station_name":"Angke","is_transit":false,"i_long":106.79867,"transit":false,"i_lat":-6.144674,"time":9,"line":1,"station_id":"AK","distance":4102},{"i_lat":-6.155215,"line":1,"time":4,"i_long":106.800832,"is_transit":false,"distance":1230,"station_name":"Duri","transit":false,"station_id":"DU"},{"distance":3632,"time":8,"i_lat":-6.185545,"i_long":106.811091,"transit":true,"station_id":"THB","is_transit":true,"line":1,"station_name":"Tanah Abang"},{"station_name":"Palmerah","distance":3191,"time":6,"i_lat":-6.207404,"station_id":"PLM","transit":false,"i_long":106.79689,"is_transit":false,"line":6},{"transit":false,"station_name":"Kebayoran","station_id":"KBY","i_lat":-6.237242,"i_long":106.780334,"line":6,"distance":3737,"time":7,"is_transit":false},{"station_name":"Pondokranji","i_long":106.74273,"line":6,"is_transit":false,"transit":false,"i_lat":-6.276362,"time":8,"distance":6218,"station_id":"PDJ"},{"line":6,"distance":2179,"time":3,"is_transit":false,"transit":false,"station_name":"Jurangmangu","i_lat":-6.288927,"i_long":106.728916,"station_id":"JMU"},{"time":4,"i_lat":-6.296963,"is_transit":false,"station_id":"SDM","transit":false,"distance":1994,"line":6,"i_long":106.712277,"station_name":"Sudimara"},{"station_id":"RU","is_transit":false,"transit":false,"station_name":"Rawa Buntu","i_lat":-6.314823,"distance":4566,"i_long":106.675475,"line":6,"time":6},{"i_lat":-6.319871,"i_long":106.66566,"distance":2413,"time":4,"is_transit":false,"transit":false,"line":6,"station_id":"SRP","station_name":"Serpong"},{"transit":false,"i_long":106.640411,"is_transit":false,"distance":1784,"time":4,"station_id":"CSK","station_name":"Cisauk","line":3,"i_lat":-6.32484},{"is_transit":false,"time":4,"station_name":"Cicayur","transit":false,"i_long":106.617853,"line":3,"station_id":"CC","distance":2519,"i_lat":-6.329547},{"i_lat":-6.3441410000000005,"distance":5968,"time":8,"transit":false,"is_transit":false,"station_id":"PRP","i_long":106.568863,"station_name":"Parung Panjang","line":6},{"time":9,"line":3,"is_transit":false,"station_name":"Cilejit","i_lat":-6.354349,"station_id":"CJT","distance":7025,"i_long":106.508482,"transit":false},{"i_long":106.491338,"i_lat":-6.338021,"transit":false,"time":6,"is_transit":false,"distance":2675,"line":0,"station_name":"Daru","station_id":"DAR"},{"time":5,"distance":3902,"transit":false,"station_id":"TEJ","i_lat":-6.327251,"line":6,"i_long":106.460812,"is_transit":false,"station_name":"Tenjo"},{"distance":2974,"is_transit":false,"time":5,"i_lat":-6.328533,"i_long":106.425991,"station_id":"TGS","transit":false,"line":6,"station_name":"Tigaraksa"}],[{"time":0,"line":1,"distance":0,"transit":false,"station_name":"Karet","i_lat":-6.20132,"is_transit":false,"i_long":106.816351,"station_id":"KAT"},{"station_name":"Sudirman Baru","transit":false,"is_transit":false,"i_long":106.819881,"time":1,"distance":471,"station_id":"SUDB","i_lat":-6.201433,"line":1},{"i_lat":-6.202263,"station_id":"SUD","time":1,"distance":280,"station_name":"Sudirman","line":1,"transit":false,"is_transit":false,"i_long":106.822649},{"station_name":"Manggarai","i_lat":-6.209883,"line":2,"transit":false,"station_id":"MRI","distance":3186,"is_transit":false,"i_long":106.84912,"time":4},{"distance":1275,"i_long":106.858896,"time":2,"station_name":"Matraman","i_lat":-6.212485,"transit":false,"line":1,"is_transit":false,"station_id":"MTR"},{"i_long":106.86807400000001,"station_id":"JNG","distance":1377,"transit":true,"time":8,"station_name":"Jatinegara","line":1,"is_transit":true,"i_lat":-6.215091},{"is_transit":false,"i_lat":-6.209188,"distance":1236,"station_id":"POK","station_name":"Pondok Jati","transit":false,"time":2,"line":11,"i_long":106.861737},{"is_transit":false,"transit":false,"station_id":"KMT","i_lat":-6.193792,"station_name":"Kramat","time":2,"distance":1829,"line":11,"i_long":106.855437},{"transit":false,"station_name":"Gang Sentiong","time":1,"i_lat":-6.185975,"distance":973,"station_id":"GST","i_long":106.850107,"is_transit":false,"line":11},{"station_name":"Pasar Senen","distance":1567,"transit":false,"i_lat":-6.174784,"station_id":"PSE","i_long":106.84368,"line":11,"time":8,"is_transit":false},{"station_name":"Kemayoran","transit":false,"is_transit":false,"station_id":"KMO","i_long":106.839204,"line":11,"time":4,"distance":1436,"i_lat":-6.161728},{"time":5,"transit":false,"i_lat":-6.14505,"i_long":106.836569,"is_transit":false,"station_name":"Rajawali","line":11,"station_id":"RJW","distance":1901},{"is_transit":true,"i_lat":-6.132549,"station_id":"KPB","transit":true,"distance":1444,"i_long":106.826365,"station_name":"Kampung Bandan","time":3,"line":4},{"i_long":106.79867,"line":1,"is_transit":false,"station_id":"AK","station_name":"Angke","time":9,"distance":4102,"i_lat":-6.144674,"transit":false},{"station_name":"Duri","distance":1230,"transit":false,"line":1,"station_id":"DU","is_transit":false,"i_lat":-6.155215,"time":4,"i_long":106.800832},{"station_id":"THB","i_lat":-6.185545,"is_transit":true,"i_long":106.811091,"line":1,"time":8,"distance":3632,"station_name":"Tanah Abang","transit":true},{"line":6,"distance":3191,"i_long":106.79689,"station_name":"Palmerah","station_id":"PLM","time":6,"transit":false,"is_transit":false,"i_lat":-6.207404},{"is_transit":false,"time":7,"i_long":106.780334,"i_lat":-6.237242,"transit":false,"station_name":"Kebayoran","distance":3737,"station_id":"KBY","line":6},{"distance":6218,"station_name":"Pondokranji","transit":false,"line":6,"station_id":"PDJ","i_long":106.74273,"time":8,"i_lat":-6.276362,"is_transit":false},{"time":3,"distance":2179,"i_long":106.728916,"line":6,"transit":false,"station_name":"Jurangmangu","station_id":"JMU","i_lat":-6.288927,"is_transit":false},{"station_name":"Sudimara","i_long":106.712277,"line":6,"is_transit":false,"i_lat":-6.296963,"station_id":"SDM","time":4,"distance":1994,"transit":false},{"station_id":"RU","time":6,"i_lat":-6.314823,"i_long":106.675475,"is_transit":false,"transit":false,"distance":4566,"station_name":"Rawa Buntu","line":6},{"i_long":106.66566,"distance":2413,"transit":false,"station_name":"Serpong","i_lat":-6.319871,"is_transit":false,"station_id":"SRP","line":6,"time":4},{"i_long":106.640411,"station_id":"CSK","time":4,"line":3,"station_name":"Cisauk","distance":1784,"is_transit":false,"i_lat":-6.32484,"transit":false},{"station_id":"CC","line":3,"is_transit":false,"station_name":"Cicayur","distance":2519,"i_long":106.617853,"time":4,"transit":false,"i_lat":-6.329547},{"line":6,"is_transit":false,"station_id":"PRP","station_name":"Parung Panjang","transit":false,"i_long":106.568863,"time":8,"distance":5968,"i_lat":-6.3441410000000005},{"line":3,"is_transit":false,"transit":false,"station_name":"Cilejit","distance":7025,"station_id":"CJT","time":9,"i_lat":-6.354349,"i_long":106.508482},{"station_name":"Daru","i_long":106.491338,"line":0,"i_lat":-6.338021,"time":6,"distance":2675,"is_transit":false,"station_id":"DAR","transit":false},{"line":6,"time":5,"transit":false,"distance":3902,"i_long":106.460812,"is_transit":false,"station_name":"Tenjo","station_id":"TEJ","i_lat":-6.327251},{"transit":false,"is_transit":false,"line":6,"station_id":"TGS","distance":2974,"station_name":"Tigaraksa","i_long":106.425991,"i_lat":-6.328533,"time":5}]]}