{"data":[[{"station_id":"KAT","is_transit":false,"line":1,"i_long":106.816351,"distance":0,"time":0,"i_lat":-6.20132,"transit":false,"station_name":"Karet"},{"time":5,"i_long":106.811091,"station_id":"THB","i_lat":-6.185545,"distance":2029,"is_transit":true,"line":1,"transit":true,"station_name":"Tanah Abang"},{"is_transit":false,"station_id":"PLM","line":6,"transit":false,"station_name":"Palmerah","time":6,"distance":3191,"i_long":106.79689,"i_lat":-6.207404},{"distance":3737,"transit":false,"line":6,"station_name":"Kebayoran","is_transit":false,"time":7,"i_lat":-6.237242,"station_id":"KBY","i_long":106.780334},{"line":6,"i_long":106.74273,"station_name":"Pondokranji","i_lat":-6.276362,"time":8,"transit":false,"station_id":"PDJ","is_transit":false,"distance":6218},{"line":6,"time":3,"distance":2179,"transit":false,"station_id":"JMU","station_name":"Jurangmangu","i_lat":-6.288927,"i_long":106.728916,"is_transit":false},{"station_name":"Sudimara","transit":false,"time":4,"distance":1994,"i_lat":-6.296963,"station_id":"SDM","i_long":106.712277,"line":6,"is_transit":false},{"is_transit":false,"station_id":"RU","i_lat":-6.314823,"time":6,"line":6,"transit":false,"distance":4566,"i_long":106.675475,"station_name":"Rawa Buntu"},{"i_long":106.66566,"transit":false,"line":6,"i_lat":-6.319871,"station_id":"SRP","time":4,"distance":2413,"is_transit":false,"station_name":"Serpong"},{"transit":false,"i_lat":-6.32484,"station_name":"Cisauk","i_long":106.640411,"line":0,"distance":1784,"time":4,"station_id":"CSK","is_transit":false},{"time":4,"line":0,"station_id":"CC","distance":2519,"station_name":"Cicayur","transit":false,"is_transit":false,"i_lat":-6.329547,"i_long":106.617853},{"station_name":"Parung Panjang","i_lat":-6.3441410000000005,"distance":5968,"i_long":106.568863,"line":6,"is_transit":false,"station_id":"PRP","time":8,"transit":false},{"is_transit":false,"time":9,"station_name":"Cilejit","i_lat":-6.354349,"line":0,"distance":7025,"transit":false,"i_long":106.508482,"station_id":"CJT"},{"station_name":"Daru","i_lat":-6.338021,"transit":false,"is_transit":false,"time":6,"distance":2675,"i_long":106.491338,"line":0,"station_id":"DAR"},{"station_name":"Tenjo","line":6,"station_id":"TEJ","is_transit":false,"transit":false,"time":5,"distance":3902,"i_lat":-6.327251,"i_long":106.460812},{"station_name":"Tigaraksa","transit":false,"time":5,"distance":2974,"i_lat":-6.328533,"station_id":"TGS","is_transit":false,"i_long":106.425991,"line":6},{"is_transit":false,"i_lat":-6.33561,"i_long":106.411216,"station_name":"Cikoya","time":3,"station_id":"CKY","line":0,"distance":2651,"transit":false}],[{"line":1,"i_long":106.816351,"i_lat":-6.20132,"transit":false,"time":0,"station_id":"KAT","station_name":"Karet","is_transit":false,"distance":0},{"line":1,"station_name":"Sudirman Baru","time":1,"i_long":106.819881,"is_transit":false,"transit":false,"distance":471,"station_id":"SUDB","i_lat":-6.201433},{"i_lat":-6.202263,"distance":280,"is_transit":false,"transit":false,"station_name":"Sudirman","time":1,"station_id":"SUD","line":1,"i_long":106.822649},{"line":0,"station_id":"MRI","is_transit":true,"station_name":"Manggarai","transit":true,"i_lat":-6.209883,"distance":3186,"i_long":106.84912,"time":4},{"is_transit":false,"distance":1590,"station_id":"CKI","i_lat":-6.198556,"line":0,"transit":false,"station_name":"Cikini","time":4,"i_long":106.840169},{"station_id":"GDD","station_name":"Gondangdia","transit":false,"i_lat":-6.186295,"line":2,"is_transit":false,"time":3,"distance":1750,"i_long":106.832183},{"station_id":"JUA","station_name":"Juanda","time":4,"distance":2015,"i_long":106.828284,"is_transit":false,"i_lat":-6.166716,"line":2,"transit":false},{"station_name":"Sawah Besar","i_lat":-6.160725,"station_id":"SW","transit":false,"is_transit":false,"distance":1149,"time":2,"i_long":106.827103,"line":2},{"station_id":"MGB","i_lat":-6.149769,"is_transit":false,"station_name":"Manggabesar","line":2,"i_long":106.82482,"distance":906,"time":2,"transit":false},{"i_lat":-6.141205,"transit":false,"line":7,"station_name":"Jayakarta","station_id":"JAY","distance":1080,"is_transit":false,"time":2,"i_long":106.820901},{"station_name":"Jakarta Kota","transit":true,"is_transit":true,"i_long":106.812439,"line":0,"i_lat":-6.137569,"time":4,"station_id":"JAKK","distance":1264},{"distance":1364,"time":3,"station_name":"Kampung Bandan","transit":false,"i_long":106.826365,"station_id":"KPB","is_transit":true,"i_lat":-6.132549,"line":0},{"i_lat":-6.144674,"time":9,"distance":4102,"is_transit":false,"station_name":"Angke","transit":false,"i_long":106.79867,"line":0,"station_id":"AK"},{"station_id":"DU","i_lat":-6.155215,"i_long":106.800832,"line":1,"time":4,"distance":1230,"transit":true,"is_transit":true,"station_name":"Duri"},{"distance":3632,"transit":true,"time":8,"station_id":"THB","i_long":106.811091,"line":1,"i_lat":-6.185545,"is_transit":true,"station_name":"Tanah Abang"},{"i_long":106.79689,"i_lat":-6.207404,"is_transit":false,"time":6,"station_id":"PLM","distance":3191,"station_name":"Palmerah","transit":false,"line":6},{"distance":3737,"line":6,"is_transit":false,"station_id":"KBY","i_lat":-6.237242,"time":7,"i_long":106.780334,"transit":false,"station_name":"Kebayoran"},{"station_id":"PDJ","i_long":106.74273,"line":6,"station_name":"Pondokranji","distance":6218,"time":8,"is_transit":false,"i_lat":-6.276362,"transit":false},{"line":6,"station_name":"Jurangmangu","station_id":"JMU","is_transit":false,"time":3,"transit":false,"i_lat":-6.288927,"distance":2179,"i_long":106.728916},{"station_id":"SDM","is_transit":false,"transit":false,"i_lat":-6.296963,"time":4,"i_long":106.712277,"line":6,"station_name":"Sudimara","distance":1994},{"station_name":"Rawa Buntu","transit":false,"is_transit":false,"distance":4566,"time":6,"i_lat":-6.314823,"line":6,"i_long":106.675475,"station_id":"RU"},{"station_id":"SRP","time":4,"line":6,"distance":2413,"is_transit":false,"i_lat":-6.319871,"station_name":"Serpong","i_long":106.66566,"transit":false},{"is_transit":false,"station_name":"Cisauk","i_long":106.640411,"transit":false,"line":0,"i_lat":-6.32484,"station_id":"CSK","distance":1784,"time":4},{"distance":2519,"is_transit":false,"i_lat":-6.329547,"i_long":106.617853,"station_id":"CC","time":4,"station_name":"Cicayur","transit":false,"line":0},{"distance":5968,"time":8,"station_name":"Parung Panjang","station_id":"PRP","i_lat":-6.3441410000000005,"is_transit":false,"line":6,"transit":false,"i_long":106.568863},{"time":9,"is_transit":false,"distance":7025,"i_lat":-6.354349,"line":0,"station_id":"CJT","station_name":"Cilejit","transit":false,"i_long":106.508482},{"distance":2675,"station_id":"DAR","line":0,"station_name":"Daru","is_transit":false,"transit":false,"i_lat":-6.338021,"i_long":106.491338,"time":6},{"line":6,"station_name":"Tenjo","is_transit":false,"distance":3902,"station_id":"TEJ","time":5,"i_lat":-6.327251,"i_long":106.460812,"transit":false},{"transit":false,"i_long":106.425991,"station_id":"TGS","station_name":"Tigaraksa","time":5,"i_lat":-6.328533,"is_transit":false,"line":6,"distance":2974},{"station_id":"CKY","i_long":106.411216,"is_transit":false,"line":0,"time":3,"station_name":"Cikoya","i_lat":-6.33561,"transit":false,"distance":2651}],[{"i_long":106.816351,"is_transit":false,"i_lat":-6.20132,"distance":0,"station_name":"Karet","station_id":"KAT","line":1,"time":0,"transit":false},{"i_lat":-6.201433,"i_long":106.819881,"line":1,"time":1,"station_name":"Sudirman Baru","distance":471,"station_id":"SUDB","is_transit":false,"transit":false},{"station_id":"SUD","distance":280,"station_name":"Sudirman","line":1,"i_long":106.822649,"transit":false,"time":1,"i_lat":-6.202263,"is_transit":false},{"i_lat":-6.209883,"distance":3186,"is_transit":true,"station_name":"Manggarai","transit":false,"line":0,"station_id":"MRI","time":4,"i_long":106.84912},{"station_name":"Matraman","time":2,"is_transit":false,"i_lat":-6.212485,"station_id":"MTR","distance":1275,"line":1,"i_long":106.858896,"transit":false},{"is_transit":true,"line":0,"distance":1377,"transit":true,"i_lat":-6.215091,"i_long":106.86807400000001,"time":8,"station_name":"Jatinegara","station_id":"JNG"},{"i_long":106.861737,"i_lat":-6.209188,"line":11,"station_name":"Pondok Jati","is_transit":false,"transit":false,"station_id":"POK","time":2,"distance":1236},{"station_name":"Kramat","is_transit":false,"time":2,"transit":false,"line":11,"distance":1829,"station_id":"KMT","i_long":106.855437,"i_lat":-6.193792},{"transit":false,"distance":973,"i_long":106.850107,"is_transit":false,"station_name":"Gang Sentiong","time":1,"i_lat":-6.185975,"line":11,"station_id":"GST"},{"line":11,"time":8,"i_long":106.84368,"station_id":"PSE","distance":1567,"i_lat":-6.174784,"station_name":"Pasar Senen","is_transit":false,"transit":false},{"distance":1436,"transit":false,"i_long":106.839204,"station_id":"KMO","time":4,"i_lat":-6.161728,"station_name":"Kemayoran","line":11,"is_transit":false},{"distance":1901,"i_lat":-6.14505,"station_id":"RJW","is_transit":false,"station_name":"Rajawali","i_long":106.836569,"transit":false,"time":5,"line":11},{"line":0,"i_lat":-6.132549,"i_long":106.826365,"station_name":"Kampung Bandan","distance":1444,"station_id":"KPB","time":3,"transit":true,"is_transit":true},{"distance":4102,"i_long":106.79867,"i_lat":-6.144674,"line":0,"transit":false,"station_name":"Angke","is_transit":false,"station_id":"AK","time":9},{"station_id":"DU","station_name":"Duri","i_lat":-6.155215,"line":1,"transit":true,"is_transit":true,"i_long":106.800832,"time":4,"distance":1230},{"is_transit":true,"distance":3632,"station_id":"THB","i_lat":-6.185545,"station_name":"Tanah Abang","line":1,"time":8,"transit":true,"i_long":106.811091},{"i_long":106.79689,"line":6,"is_transit":false,"station_id":"PLM","time":6,"distance":3191,"station_name":"Palmerah","transit":false,"i_lat":-6.207404},{"distance":3737,"transit":false,"station_name":"Kebayoran","station_id":"KBY","time":7,"i_lat":-6.237242,"i_long":106.780334,"line":6,"is_transit":false},{"i_long":106.74273,"line":6,"station_id":"PDJ","time":8,"is_transit":false,"distance":6218,"transit":false,"station_name":"Pondokranji","i_lat":-6.276362},{"is_transit":false,"i_long":106.728916,"transit":false,"time":3,"station_name":"Jurangmangu","distance":2179,"i_lat":-6.288927,"line":6,"station_id":"JMU"},{"distance":1994,"i_long":106.712277,"i_lat":-6.296963,"is_transit":false,"time":4,"transit":false,"station_name":"Sudimara","station_id":"SDM","line":6},{"distance":4566,"i_long":106.675475,"time":6,"transit":false,"station_name":"Rawa Buntu","station_id":"RU","i_lat":-6.314823,"line":6,"is_transit":false},{"i_long":106.66566,"line":6,"station_id":"SRP","time":4,"distance":2413,"station_name":"Serpong","i_lat":-6.319871,"transit":false,"is_transit":false},{"time":4,"transit":false,"i_lat":-6.32484,"i_long":106.640411,"line":0,"station_id":"CSK","distance":1784,"is_transit":false,"station_name":"Cisauk"},{"transit":false,"station_name":"Cicayur","station_id":"CC","i_long":106.617853,"i_lat":-6.329547,"is_transit":false,"time":4,"line":0,"distance":2519},{"station_name":"Parung Panjang","distance":5968,"i_lat":-6.3441410000000005,"station_id":"PRP","time":8,"i_long":106.568863,"line":6,"transit":false,"is_transit":false},{"transit":false,"i_long":106.508482,"station_name":"Cilejit","is_transit":false,"distance":7025,"i_lat":-6.354349,"line":0,"station_id":"CJT","time":9},{"transit":false,"line":0,"i_lat":-6.338021,"i_long":106.491338,"is_transit":false,"station_name":"Daru","time":6,"distance":2675,"station_id":"DAR"},{"i_lat":-6.327251,"is_transit":false,"station_name":"Tenjo","line":6,"station_id":"TEJ","transit":false,"distance":3902,"i_long":106.460812,"time":5},{"i_lat":-6.328533,"line":6,"is_transit":false,"transit":false,"i_long":106.425991,"time":5,"station_name":"Tigaraksa","station_id":"TGS","distance":2974},{"is_transit":false,"time":3,"i_long":106.411216,"station_name":"Cikoya","distance":2651,"transit":false,"line":0,"i_lat":-6.33561,"station_id":"CKY"}]]}