{"data":[[{"station_id":"KAT","station_name":"Karet","distance":0,"line":1,"i_lat":-6.20132,"transit":false,"i_long":106.816351,"is_transit":false,"time":0},{"transit":false,"line":1,"distance":2029,"station_name":"Tanah Abang","station_id":"THB","i_lat":-6.185545,"i_long":106.811091,"time":5,"is_transit":false},{"distance":3632,"transit":false,"i_lat":-6.155215,"station_id":"DU","time":8,"i_long":106.800832,"is_transit":false,"line":1,"station_name":"Duri"}],[{"time":0,"station_id":"KAT","i_lat":-6.20132,"i_long":106.816351,"station_name":"Karet","line":1,"transit":false,"is_transit":false,"distance":0},{"is_transit":false,"distance":471,"i_lat":-6.201433,"time":1,"station_name":"Sudirman Baru","transit":false,"i_long":106.819881,"station_id":"SUDB","line":1},{"line":1,"transit":false,"station_id":"SUD","distance":280,"station_name":"Sudirman","i_long":106.822649,"time":1,"i_lat":-6.202263,"is_transit":false},{"i_lat":-6.209883,"station_id":"MRI","distance":3186,"station_name":"Manggarai","i_long":106.84912,"line":2,"is_transit":true,"transit":true,"time":4},{"station_id":"CKI","station_name":"Cikini","time":4,"is_transit":false,"distance":1590,"line":2,"transit":false,"i_long":106.840169,"i_lat":-6.198556},{"transit":false,"station_name":"Gondangdia","i_lat":-6.186295,"line":2,"is_transit":false,"distance":1750,"i_long":106.832183,"station_id":"GDD","time":3},{"i_long":106.828284,"line":2,"station_name":"Juanda","distance":2015,"time":4,"station_id":"JUA","transit":false,"i_lat":-6.166716,"is_transit":false},{"time":2,"is_transit":false,"line":2,"station_id":"SW","distance":1149,"transit":false,"i_long":106.827103,"station_name":"Sawah Besar","i_lat":-6.160725},{"transit":false,"i_lat":-6.149769,"line":2,"station_id":"MGB","is_transit":false,"distance":906,"station_name":"Manggabesar","time":2,"i_long":106.82482},{"distance":1080,"station_name":"Jayakarta","is_transit":false,"time":2,"i_long":106.820901,"line":2,"transit":false,"i_lat":-6.141205,"station_id":"JAY"},{"is_transit":true,"time":4,"line":2,"i_long":106.812439,"distance":1264,"i_lat":-6.137569,"station_name":"Jakarta Kota","station_id":"JAKK","transit":true},{"i_lat":-6.132549,"is_transit":true,"transit":true,"time":3,"line":4,"station_name":"Kampung Bandan","i_long":106.826365,"station_id":"KPB","distance":1364},{"time":9,"station_id":"AK","distance":4102,"transit":false,"i_long":106.79867,"station_name":"Angke","line":1,"i_lat":-6.144674,"is_transit":false},{"i_lat":-6.155215,"transit":false,"station_name":"Duri","i_long":106.800832,"is_transit":false,"station_id":"DU","line":1,"distance":1230,"time":4}],[{"time":0,"station_id":"KAT","distance":0,"station_name":"Karet","i_lat":-6.20132,"transit":false,"line":1,"i_long":106.816351,"is_transit":false},{"station_id":"SUDB","transit":false,"distance":471,"i_lat":-6.201433,"line":1,"is_transit":false,"station_name":"Sudirman Baru","time":1,"i_long":106.819881},{"i_long":106.822649,"line":1,"is_transit":false,"station_name":"Sudirman","time":1,"transit":false,"i_lat":-6.202263,"station_id":"SUD","distance":280},{"line":2,"time":4,"is_transit":false,"transit":false,"distance":3186,"i_long":106.84912,"station_id":"MRI","station_name":"Manggarai","i_lat":-6.209883},{"i_long":106.858896,"distance":1275,"station_name":"Matraman","transit":false,"i_lat":-6.212485,"time":2,"line":1,"station_id":"MTR","is_transit":false},{"line":1,"distance":1377,"station_name":"Jatinegara","transit":true,"time":8,"is_transit":true,"station_id":"JNG","i_lat":-6.215091,"i_long":106.86807400000001},{"time":2,"is_transit":false,"station_id":"POK","station_name":"Pondok Jati","i_lat":-6.209188,"line":11,"distance":1236,"transit":false,"i_long":106.861737},{"transit":false,"i_long":106.855437,"station_name":"Kramat","station_id":"KMT","i_lat":-6.193792,"distance":1829,"time":2,"line":11,"is_transit":false},{"i_lat":-6.185975,"station_id":"GST","transit":false,"station_name":"Gang Sentiong","distance":973,"line":11,"time":1,"i_long":106.850107,"is_transit":false},{"i_long":106.84368,"i_lat":-6.174784,"transit":false,"station_id":"PSE","station_name":"Pasar Senen","line":11,"time":8,"is_transit":false,"distance":1567},{"station_name":"Kemayoran","line":11,"station_id":"KMO","i_long":106.839204,"is_transit":false,"transit":false,"distance":1436,"i_lat":-6.161728,"time":4},{"i_lat":-6.14505,"station_id":"RJW","line":11,"station_name":"Rajawali","is_transit":false,"time":5,"transit":false,"distance":1901,"i_long":106.836569},{"i_lat":-6.132549,"transit":true,"station_name":"Kampung Bandan","line":4,"station_id":"KPB","time":3,"i_long":106.826365,"is_transit":true,"distance":1444},{"distance":4102,"i_lat":-6.144674,"station_name":"Angke","time":9,"i_long":106.79867,"transit":false,"station_id":"AK","is_transit":false,"line":1},{"transit":false,"time":4,"distance":1230,"i_lat":-6.155215,"i_long":106.800832,"station_name":"Duri","is_transit":false,"station_id":"DU","line":1}]]}