{"data":[[{"station_name":"Karet","station_id":"KAT","line":1,"i_long":106.816351,"is_transit":false,"distance":0,"i_lat":-6.20132,"transit":false,"time":0},{"distance":2029,"transit":false,"is_transit":false,"station_name":"Tanah Abang","station_id":"THB","time":5,"i_lat":-6.185545,"i_long":106.811091,"line":1},{"is_transit":false,"station_id":"DU","transit":false,"distance":3632,"i_lat":-6.155215,"station_name":"Duri","i_long":106.800832,"line":1,"time":8},{"is_transit":false,"station_name":"Angke","transit":false,"distance":1230,"i_lat":-6.144674,"time":4,"station_id":"AK","i_long":106.79867,"line":1},{"line":4,"time":9,"station_id":"KPB","i_lat":-6.132549,"i_long":106.826365,"station_name":"Kampung Bandan","transit":false,"is_transit":false,"distance":4102}],[{"station_id":"KAT","time":0,"transit":false,"i_long":106.816351,"line":1,"distance":0,"is_transit":false,"station_name":"Karet","i_lat":-6.20132},{"station_id":"SUDB","i_lat":-6.201433,"transit":false,"line":1,"i_long":106.819881,"time":1,"distance":471,"station_name":"Sudirman Baru","is_transit":false},{"line":1,"time":1,"is_transit":false,"transit":false,"i_lat":-6.202263,"i_long":106.822649,"station_name":"Sudirman","distance":280,"station_id":"SUD"},{"station_id":"MRI","time":4,"i_lat":-6.209883,"station_name":"Manggarai","line":2,"i_long":106.84912,"distance":3186,"is_transit":true,"transit":true},{"station_name":"Cikini","i_lat":-6.198556,"time":4,"i_long":106.840169,"transit":false,"line":2,"is_transit":false,"distance":1590,"station_id":"CKI"},{"time":3,"i_lat":-6.186295,"i_long":106.832183,"transit":false,"station_id":"GDD","distance":1750,"station_name":"Gondangdia","line":2,"is_transit":false},{"transit":false,"distance":2015,"i_lat":-6.166716,"line":2,"is_transit":false,"station_id":"JUA","time":4,"i_long":106.828284,"station_name":"Juanda"},{"time":2,"i_long":106.827103,"is_transit":false,"station_name":"Sawah Besar","line":2,"station_id":"SW","transit":false,"i_lat":-6.160725,"distance":1149},{"station_id":"MGB","i_long":106.82482,"i_lat":-6.149769,"is_transit":false,"transit":false,"line":2,"station_name":"Manggabesar","distance":906,"time":2},{"i_long":106.820901,"distance":1080,"is_transit":false,"i_lat":-6.141205,"transit":false,"time":2,"line":2,"station_id":"JAY","station_name":"Jayakarta"},{"time":4,"line":2,"station_id":"JAKK","i_lat":-6.137569,"distance":1264,"i_long":106.812439,"is_transit":true,"station_name":"Jakarta Kota","transit":true},{"is_transit":false,"line":4,"distance":1364,"transit":false,"time":3,"station_name":"Kampung Bandan","station_id":"KPB","i_lat":-6.132549,"i_long":106.826365}],[{"is_transit":false,"distance":0,"i_lat":-6.20132,"line":1,"station_id":"KAT","transit":false,"station_name":"Karet","time":0,"i_long":106.816351},{"station_name":"Sudirman Baru","transit":false,"line":1,"time":1,"station_id":"SUDB","i_lat":-6.201433,"i_long":106.819881,"distance":471,"is_transit":false},{"transit":false,"distance":280,"i_lat":-6.202263,"line":1,"station_name":"Sudirman","station_id":"SUD","is_transit":false,"i_long":106.822649,"time":1},{"line":2,"is_transit":false,"station_name":"Manggarai","station_id":"MRI","transit":false,"distance":3186,"i_lat":-6.209883,"i_long":106.84912,"time":4},{"i_long":106.858896,"station_name":"Matraman","transit":false,"line":1,"is_transit":false,"i_lat":-6.212485,"station_id":"MTR","time":2,"distance":1275},{"time":8,"is_transit":true,"distance":1377,"line":1,"station_name":"Jatinegara","station_id":"JNG","i_long":106.86807400000001,"i_lat":-6.215091,"transit":true},{"is_transit":false,"station_id":"POK","i_lat":-6.209188,"transit":false,"distance":1236,"i_long":106.861737,"station_name":"Pondok Jati","time":2,"line":11},{"is_transit":false,"distance":1829,"transit":false,"station_name":"Kramat","time":2,"line":11,"station_id":"KMT","i_lat":-6.193792,"i_long":106.855437},{"transit":false,"time":1,"i_lat":-6.185975,"station_id":"GST","station_name":"Gang Sentiong","is_transit":false,"line":11,"distance":973,"i_long":106.850107},{"time":8,"i_long":106.84368,"station_name":"Pasar Senen","station_id":"PSE","transit":false,"line":11,"is_transit":false,"i_lat":-6.174784,"distance":1567},{"distance":1436,"transit":false,"station_name":"Kemayoran","time":4,"is_transit":false,"station_id":"KMO","i_lat":-6.161728,"i_long":106.839204,"line":11},{"i_long":106.836569,"line":11,"distance":1901,"is_transit":false,"time":5,"station_id":"RJW","station_name":"Rajawali","i_lat":-6.14505,"transit":false},{"i_lat":-6.132549,"transit":false,"distance":1444,"station_name":"Kampung Bandan","time":3,"is_transit":false,"line":4,"station_id":"KPB","i_long":106.826365}]]}