{"data":[[{"i_long":106.816351,"station_id":"KAT","time":0,"distance":0,"is_transit":false,"station_name":"Karet","transit":false,"i_lat":-6.20132,"line":1},{"distance":471,"station_name":"Sudirman Baru","is_transit":false,"time":1,"station_id":"SUDB","i_lat":-6.201433,"line":1,"i_long":106.819881,"transit":false},{"is_transit":false,"time":1,"station_name":"Sudirman","distance":280,"line":1,"transit":false,"i_lat":-6.202263,"station_id":"SUD","i_long":106.822649},{"transit":true,"is_transit":true,"time":4,"i_long":106.84912,"line":2,"station_name":"Manggarai","distance":3186,"station_id":"MRI","i_lat":-6.209883},{"i_long":106.857948,"transit":false,"i_lat":-6.226659,"station_name":"Tebet","line":2,"distance":2610,"is_transit":false,"time":4,"station_id":"TEB"},{"is_transit":false,"time":2,"station_id":"CW","line":2,"station_name":"Cawang","i_lat":-6.242512,"distance":1230,"transit":false,"i_long":106.856607},{"time":3,"i_long":106.85449,"station_id":"DRN","distance":1546,"i_lat":-6.255332,"station_name":"Duren Kalibata","line":2,"is_transit":false,"transit":false},{"i_long":106.851577,"line":2,"is_transit":false,"time":2,"distance":824,"station_id":"PSMB","station_name":"Pasar Minggu Baru","i_lat":-6.263214,"transit":false},{"i_lat":-6.2842400000000005,"time":2,"transit":false,"i_long":106.843999,"station_id":"PSM","distance":2380,"station_name":"Pasar Minggu","is_transit":false,"line":2},{"distance":2820,"station_id":"TNT","station_name":"Tanjung Barat","transit":false,"line":2,"i_lat":-6.3080680000000005,"is_transit":false,"time":4,"i_long":106.838896},{"station_id":"LNA","is_transit":false,"i_lat":-6.330363,"station_name":"Lenteng Agung","time":3,"i_long":106.832616,"distance":2671,"line":2,"transit":false},{"i_long":106.834175,"line":2,"station_id":"UP","is_transit":false,"station_name":"Univ. Pancasila","i_lat":-6.339291,"time":2,"transit":false,"distance":1029},{"i_lat":-6.360749,"i_long":106.831474,"is_transit":false,"line":2,"time":3,"distance":2264,"station_name":"Univ. Indonesia","transit":false,"station_id":"UI"},{"station_name":"Pondok Cina","is_transit":false,"time":2,"i_long":106.831114,"line":2,"distance":1109,"i_lat":-6.369073,"station_id":"POC","transit":false},{"is_transit":false,"distance":2727,"transit":false,"station_id":"DPB","time":4,"station_name":"Depokbaru","i_long":106.819451,"i_lat":-6.391065,"line":2}],[{"distance":0,"station_name":"Karet","line":1,"station_id":"KAT","i_lat":-6.20132,"is_transit":false,"time":0,"i_long":106.816351,"transit":false},{"is_transit":false,"transit":false,"i_lat":-6.185545,"station_id":"THB","time":5,"line":1,"station_name":"Tanah Abang","distance":2029,"i_long":106.811091},{"transit":false,"distance":3632,"station_name":"Duri","time":8,"line":1,"i_lat":-6.155215,"is_transit":false,"station_id":"DU","i_long":106.800832},{"distance":1230,"station_name":"Angke","station_id":"AK","time":4,"line":1,"i_long":106.79867,"transit":false,"is_transit":false,"i_lat":-6.144674},{"line":4,"transit":true,"i_long":106.826365,"is_transit":true,"station_id":"KPB","distance":4102,"station_name":"Kampung Bandan","time":9,"i_lat":-6.132549},{"station_name":"Jakarta Kota","i_long":106.812439,"i_lat":-6.137569,"transit":true,"is_transit":true,"distance":1364,"time":3,"station_id":"JAKK","line":2},{"distance":1264,"is_transit":false,"i_lat":-6.141205,"i_long":106.820901,"line":2,"station_name":"Jayakarta","time":4,"transit":false,"station_id":"JAY"},{"is_transit":false,"line":2,"distance":1080,"station_name":"Manggabesar","i_long":106.82482,"time":2,"i_lat":-6.149769,"transit":false,"station_id":"MGB"},{"line":2,"is_transit":false,"transit":false,"i_long":106.827103,"station_name":"Sawah Besar","time":2,"distance":906,"i_lat":-6.160725,"station_id":"SW"},{"distance":1149,"i_lat":-6.166716,"is_transit":false,"transit":false,"station_id":"JUA","line":2,"station_name":"Juanda","time":2,"i_long":106.828284},{"i_long":106.832183,"station_name":"Gondangdia","time":4,"is_transit":false,"i_lat":-6.186295,"station_id":"GDD","transit":false,"distance":2015,"line":2},{"is_transit":false,"distance":1750,"time":3,"station_name":"Cikini","line":2,"i_lat":-6.198556,"station_id":"CKI","transit":false,"i_long":106.840169},{"distance":1590,"line":2,"is_transit":false,"station_name":"Manggarai","transit":false,"i_lat":-6.209883,"i_long":106.84912,"time":4,"station_id":"MRI"},{"time":4,"transit":false,"i_lat":-6.226659,"i_long":106.857948,"station_name":"Tebet","distance":2610,"line":2,"station_id":"TEB","is_transit":false},{"transit":false,"line":2,"station_name":"Cawang","station_id":"CW","i_long":106.856607,"time":2,"i_lat":-6.242512,"distance":1230,"is_transit":false},{"i_lat":-6.255332,"i_long":106.85449,"station_id":"DRN","distance":1546,"is_transit":false,"time":3,"line":2,"transit":false,"station_name":"Duren Kalibata"},{"distance":824,"time":2,"i_lat":-6.263214,"line":2,"is_transit":false,"transit":false,"station_name":"Pasar Minggu Baru","i_long":106.851577,"station_id":"PSMB"},{"station_id":"PSM","station_name":"Pasar Minggu","line":2,"transit":false,"time":2,"is_transit":false,"i_long":106.843999,"distance":2380,"i_lat":-6.2842400000000005},{"i_long":106.838896,"line":2,"transit":false,"station_name":"Tanjung Barat","is_transit":false,"time":4,"station_id":"TNT","distance":2820,"i_lat":-6.3080680000000005},{"line":2,"i_lat":-6.330363,"i_long":106.832616,"time":3,"distance":2671,"station_id":"LNA","transit":false,"is_transit":false,"station_name":"Lenteng Agung"},{"station_id":"UP","time":2,"line":2,"distance":1029,"station_name":"Univ. Pancasila","i_lat":-6.339291,"i_long":106.834175,"is_transit":false,"transit":false},{"line":2,"i_lat":-6.360749,"transit":false,"station_id":"UI","distance":2264,"i_long":106.831474,"station_name":"Univ. Indonesia","time":3,"is_transit":false},{"i_lat":-6.369073,"line":2,"is_transit":false,"station_id":"POC","transit":false,"distance":1109,"time":2,"i_long":106.831114,"station_name":"Pondok Cina"},{"time":4,"station_name":"Depokbaru","line":2,"transit":false,"i_long":106.819451,"station_id":"DPB","distance":2727,"is_transit":false,"i_lat":-6.391065}],[{"station_id":"KAT","i_long":106.816351,"transit":false,"is_transit":false,"distance":0,"station_name":"Karet","time":0,"i_lat":-6.20132,"line":1},{"i_long":106.811091,"transit":false,"station_id":"THB","line":1,"distance":2029,"is_transit":false,"time":5,"i_lat":-6.185545,"station_name":"Tanah Abang"},{"station_name":"Duri","distance":3632,"transit":false,"time":8,"station_id":"DU","i_long":106.800832,"is_transit":false,"i_lat":-6.155215,"line":1},{"transit":false,"distance":1230,"station_name":"Angke","station_id":"AK","is_transit":false,"i_lat":-6.144674,"i_long":106.79867,"line":1,"time":4},{"i_long":106.826365,"time":9,"station_id":"KPB","i_lat":-6.132549,"transit":true,"distance":4102,"line":4,"station_name":"Kampung Bandan","is_transit":true},{"distance":1444,"i_long":106.836569,"i_lat":-6.14505,"transit":false,"station_id":"RJW","station_name":"Rajawali","time":3,"is_transit":false,"line":11},{"i_lat":-6.161728,"station_id":"KMO","station_name":"Kemayoran","i_long":106.839204,"time":5,"line":11,"transit":false,"is_transit":false,"distance":1901},{"line":11,"transit":false,"is_transit":false,"station_name":"Pasar Senen","distance":1436,"station_id":"PSE","time":4,"i_lat":-6.174784,"i_long":106.84368},{"time":8,"i_long":106.850107,"i_lat":-6.185975,"station_name":"Gang Sentiong","transit":false,"is_transit":false,"line":11,"station_id":"GST","distance":1567},{"i_long":106.855437,"time":1,"distance":973,"transit":false,"i_lat":-6.193792,"line":11,"station_id":"KMT","is_transit":false,"station_name":"Kramat"},{"i_long":106.861737,"distance":1829,"station_name":"Pondok Jati","station_id":"POK","is_transit":false,"i_lat":-6.209188,"line":11,"time":2,"transit":false},{"transit":true,"station_name":"Jatinegara","time":9,"i_long":106.86807400000001,"is_transit":true,"station_id":"JNG","distance":1236,"i_lat":-6.215091,"line":1},{"station_name":"Matraman","time":2,"distance":1377,"line":1,"i_long":106.858896,"i_lat":-6.212485,"station_id":"MTR","is_transit":false,"transit":false},{"distance":1275,"is_transit":true,"time":2,"i_long":106.84912,"station_name":"Manggarai","i_lat":-6.209883,"station_id":"MRI","transit":true,"line":2},{"is_transit":false,"station_id":"TEB","transit":false,"time":4,"distance":2610,"station_name":"Tebet","i_lat":-6.226659,"line":2,"i_long":106.857948},{"station_name":"Cawang","i_long":106.856607,"time":2,"is_transit":false,"line":2,"i_lat":-6.242512,"station_id":"CW","distance":1230,"transit":false},{"transit":false,"line":2,"station_name":"Duren Kalibata","distance":1546,"station_id":"DRN","i_lat":-6.255332,"is_transit":false,"time":3,"i_long":106.85449},{"station_id":"PSMB","station_name":"Pasar Minggu Baru","is_transit":false,"i_lat":-6.263214,"line":2,"distance":824,"time":2,"transit":false,"i_long":106.851577},{"station_name":"Pasar Minggu","is_transit":false,"i_long":106.843999,"line":2,"time":2,"station_id":"PSM","transit":false,"i_lat":-6.2842400000000005,"distance":2380},{"transit":false,"distance":2820,"i_long":106.838896,"time":4,"line":2,"station_id":"TNT","i_lat":-6.3080680000000005,"station_name":"Tanjung Barat","is_transit":false},{"i_long":106.832616,"line":2,"is_transit":false,"station_id":"LNA","transit":false,"station_name":"Lenteng Agung","distance":2671,"i_lat":-6.330363,"time":3},{"station_id":"UP","line":2,"transit":false,"is_transit":false,"i_lat":-6.339291,"distance":1029,"station_name":"Univ. Pancasila","time":2,"i_long":106.834175},{"i_lat":-6.360749,"time":3,"line":2,"is_transit":false,"distance":2264,"station_name":"Univ. Indonesia","i_long":106.831474,"transit":false,"station_id":"UI"},{"time":2,"i_lat":-6.369073,"i_long":106.831114,"line":2,"station_name":"Pondok Cina","transit":false,"station_id":"POC","distance":1109,"is_transit":false},{"station_name":"Depokbaru","i_long":106.819451,"line":2,"i_lat":-6.391065,"distance":2727,"is_transit":false,"transit":false,"time":4,"station_id":"DPB"}]]}