{"data":[[{"transit":false,"i_lat":-6.20132,"station_name":"Karet","distance":0,"is_transit":false,"time":0,"station_id":"KAT","line":1,"i_long":106.816351},{"transit":false,"is_transit":false,"i_lat":-6.201433,"distance":471,"station_id":"SUDB","line":1,"i_long":106.819881,"time":1,"station_name":"Sudirman Baru"},{"i_lat":-6.202263,"i_long":106.822649,"time":1,"distance":280,"station_id":"SUD","station_name":"Sudirman","is_transit":false,"transit":false,"line":1},{"is_transit":true,"distance":3186,"i_lat":-6.209883,"station_id":"MRI","time":4,"line":2,"transit":true,"i_long":106.84912,"station_name":"Manggarai"},{"distance":2610,"i_lat":-6.226659,"transit":false,"i_long":106.857948,"line":2,"station_name":"Tebet","time":4,"station_id":"TEB","is_transit":false},{"i_lat":-6.242512,"line":2,"is_transit":false,"distance":1230,"station_id":"CW","transit":false,"i_long":106.856607,"station_name":"Cawang","time":2}],[{"line":1,"station_name":"Karet","transit":false,"distance":0,"i_long":106.816351,"time":0,"is_transit":false,"station_id":"KAT","i_lat":-6.20132},{"is_transit":false,"transit":false,"distance":2029,"i_lat":-6.185545,"i_long":106.811091,"station_id":"THB","time":5,"line":1,"station_name":"Tanah Abang"},{"station_name":"Duri","i_lat":-6.155215,"time":8,"line":1,"transit":false,"is_transit":false,"i_long":106.800832,"station_id":"DU","distance":3632},{"is_transit":false,"transit":false,"time":4,"distance":1230,"i_lat":-6.144674,"line":1,"station_id":"AK","station_name":"Angke","i_long":106.79867},{"i_lat":-6.132549,"i_long":106.826365,"station_id":"KPB","time":9,"distance":4102,"station_name":"Kampung Bandan","is_transit":true,"line":4,"transit":true},{"line":2,"distance":1364,"station_name":"Jakarta Kota","transit":true,"i_lat":-6.137569,"station_id":"JAKK","is_transit":true,"time":3,"i_long":106.812439},{"distance":1264,"line":2,"time":4,"station_id":"JAY","is_transit":false,"station_name":"Jayakarta","transit":false,"i_lat":-6.141205,"i_long":106.820901},{"distance":1080,"station_id":"MGB","transit":false,"i_long":106.82482,"is_transit":false,"i_lat":-6.149769,"time":2,"station_name":"Manggabesar","line":2},{"i_long":106.827103,"transit":false,"distance":906,"time":2,"station_id":"SW","station_name":"Sawah Besar","is_transit":false,"line":2,"i_lat":-6.160725},{"distance":1149,"station_id":"JUA","i_lat":-6.166716,"station_name":"Juanda","i_long":106.828284,"line":2,"transit":false,"is_transit":false,"time":2},{"transit":false,"line":2,"i_long":106.832183,"station_name":"Gondangdia","time":4,"is_transit":false,"station_id":"GDD","i_lat":-6.186295,"distance":2015},{"is_transit":false,"distance":1750,"i_lat":-6.198556,"station_id":"CKI","i_long":106.840169,"line":2,"time":3,"transit":false,"station_name":"Cikini"},{"distance":1590,"is_transit":false,"station_id":"MRI","station_name":"Manggarai","transit":false,"i_long":106.84912,"i_lat":-6.209883,"time":4,"line":2},{"i_long":106.857948,"line":2,"transit":false,"station_id":"TEB","station_name":"Tebet","time":4,"distance":2610,"is_transit":false,"i_lat":-6.226659},{"line":2,"station_name":"Cawang","i_long":106.856607,"is_transit":false,"transit":false,"station_id":"CW","i_lat":-6.242512,"time":2,"distance":1230}],[{"i_long":106.816351,"distance":0,"station_id":"KAT","line":1,"time":0,"is_transit":false,"transit":false,"i_lat":-6.20132,"station_name":"Karet"},{"transit":false,"time":5,"distance":2029,"station_id":"THB","station_name":"Tanah Abang","i_long":106.811091,"line":1,"is_transit":false,"i_lat":-6.185545},{"i_lat":-6.155215,"station_name":"Duri","line":1,"transit":false,"i_long":106.800832,"distance":3632,"time":8,"is_transit":false,"station_id":"DU"},{"time":4,"station_name":"Angke","distance":1230,"station_id":"AK","is_transit":false,"i_lat":-6.144674,"i_long":106.79867,"line":1,"transit":false},{"station_id":"KPB","distance":4102,"is_transit":true,"time":9,"transit":true,"i_lat":-6.132549,"line":4,"station_name":"Kampung Bandan","i_long":106.826365},{"time":3,"transit":false,"line":11,"distance":1444,"is_transit":false,"station_id":"RJW","station_name":"Rajawali","i_lat":-6.14505,"i_long":106.836569},{"i_lat":-6.161728,"line":11,"station_name":"Kemayoran","time":5,"transit":false,"i_long":106.839204,"is_transit":false,"distance":1901,"station_id":"KMO"},{"i_lat":-6.174784,"transit":false,"distance":1436,"station_id":"PSE","is_transit":false,"i_long":106.84368,"line":11,"time":4,"station_name":"Pasar Senen"},{"station_id":"GST","station_name":"Gang Sentiong","is_transit":false,"line":11,"time":8,"distance":1567,"i_lat":-6.185975,"transit":false,"i_long":106.850107},{"i_long":106.855437,"line":11,"distance":973,"station_id":"KMT","time":1,"transit":false,"station_name":"Kramat","i_lat":-6.193792,"is_transit":false},{"i_long":106.861737,"time":2,"station_id":"POK","transit":false,"station_name":"Pondok Jati","line":11,"is_transit":false,"distance":1829,"i_lat":-6.209188},{"station_name":"Jatinegara","i_long":106.86807400000001,"is_transit":true,"time":9,"i_lat":-6.215091,"line":1,"station_id":"JNG","transit":true,"distance":1236},{"distance":1377,"transit":false,"station_name":"Matraman","time":2,"station_id":"MTR","i_long":106.858896,"is_transit":false,"i_lat":-6.212485,"line":1},{"station_name":"Manggarai","line":2,"station_id":"MRI","time":2,"transit":true,"i_lat":-6.209883,"is_transit":true,"i_long":106.84912,"distance":1275},{"time":4,"station_id":"TEB","i_long":106.857948,"i_lat":-6.226659,"distance":2610,"line":2,"is_transit":false,"station_name":"Tebet","transit":false},{"i_lat":-6.242512,"is_transit":false,"station_name":"Cawang","line":2,"station_id":"CW","distance":1230,"time":2,"transit":false,"i_long":106.856607}]]}