{"data":[[{"line":1,"i_long":106.816351,"station_id":"KAT","i_lat":-6.20132,"time":0,"distance":0,"station_name":"Karet","transit":false,"is_transit":false},{"i_lat":-6.201433,"time":1,"distance":471,"station_name":"Sudirman Baru","is_transit":false,"transit":false,"station_id":"SUDB","line":1,"i_long":106.819881},{"station_id":"SUD","station_name":"Sudirman","transit":false,"is_transit":false,"i_long":106.822649,"line":1,"distance":280,"i_lat":-6.202263,"time":1},{"transit":false,"is_transit":false,"station_id":"MRI","time":4,"i_long":106.84912,"station_name":"Manggarai","line":2,"distance":3186,"i_lat":-6.209883},{"line":1,"station_id":"MTR","transit":false,"time":2,"station_name":"Matraman","i_long":106.858896,"distance":1275,"i_lat":-6.212485,"is_transit":false},{"i_lat":-6.215091,"is_transit":false,"distance":1377,"i_long":106.86807400000001,"transit":false,"time":8,"station_name":"Jatinegara","line":1,"station_id":"JNG"},{"line":1,"station_name":"Klender","transit":false,"distance":3395,"i_long":106.899548,"time":3,"is_transit":false,"station_id":"KLD","i_lat":-6.2135},{"station_id":"BUA","time":2,"i_long":106.922662,"is_transit":false,"line":1,"i_lat":-6.215568,"station_name":"Buaran","distance":3100,"transit":false},{"station_name":"Klenderbaru","i_lat":-6.217455,"time":1,"i_long":106.939679,"station_id":"KLDB","distance":1305,"line":1,"transit":false,"is_transit":false},{"station_id":"CUK","is_transit":false,"station_name":"Cakung","i_long":106.951283,"line":1,"distance":1385,"transit":false,"time":8,"i_lat":-6.219053},{"is_transit":false,"station_name":"Kranji","i_lat":-6.224515,"line":1,"i_long":106.977657,"station_id":"KRI","time":3,"transit":false,"distance":3097},{"i_lat":-6.236616,"station_name":"Bekasi","line":1,"transit":false,"distance":2520,"i_long":106.997013,"station_id":"BKS","time":4,"is_transit":false},{"i_lat":-6.248029,"distance":2368,"line":1,"time":2,"is_transit":false,"station_name":"Bekasi Timur","i_long":107.016735,"station_id":"BKST","transit":false},{"time":7,"station_name":"Tambun","distance":4460,"station_id":"TB","is_transit":false,"line":1,"i_lat":-6.258864,"i_long":107.055722,"transit":false},{"station_name":"Cibitung","line":1,"time":3,"station_id":"CIT","distance":3420,"transit":false,"is_transit":false,"i_long":107.083084,"i_lat":-6.261877},{"transit":false,"i_long":107.093313,"line":1,"distance":2800,"station_id":"TLM","is_transit":false,"time":2,"station_name":"Metland Telaga Murni","i_lat":-6.262938},{"transit":false,"time":4,"distance":3689,"station_name":"Cikarang","i_long":107.144613,"is_transit":false,"station_id":"CKR","i_lat":-6.2553149999999995,"line":1}],[{"is_transit":false,"line":1,"transit":false,"distance":0,"station_id":"KAT","time":0,"i_lat":-6.20132,"i_long":106.816351,"station_name":"Karet"},{"station_id":"THB","time":5,"is_transit":false,"i_long":106.811091,"station_name":"Tanah Abang","distance":2029,"line":1,"transit":false,"i_lat":-6.185545},{"time":8,"is_transit":false,"transit":false,"i_lat":-6.155215,"distance":3632,"station_id":"DU","station_name":"Duri","i_long":106.800832,"line":1},{"is_transit":false,"station_name":"Angke","distance":1230,"transit":false,"station_id":"AK","line":1,"i_lat":-6.144674,"i_long":106.79867,"time":4},{"time":9,"i_lat":-6.132549,"i_long":106.826365,"line":4,"distance":4102,"transit":true,"station_id":"KPB","station_name":"Kampung Bandan","is_transit":true},{"time":3,"transit":false,"i_long":106.836569,"line":11,"is_transit":false,"distance":1444,"station_id":"RJW","i_lat":-6.14505,"station_name":"Rajawali"},{"time":5,"station_name":"Kemayoran","is_transit":false,"i_long":106.839204,"distance":1901,"i_lat":-6.161728,"transit":false,"station_id":"KMO","line":11},{"station_id":"PSE","transit":false,"line":11,"station_name":"Pasar Senen","i_long":106.84368,"is_transit":false,"distance":1436,"time":4,"i_lat":-6.174784},{"transit":false,"distance":1567,"i_lat":-6.185975,"time":8,"i_long":106.850107,"line":11,"station_name":"Gang Sentiong","is_transit":false,"station_id":"GST"},{"station_name":"Kramat","is_transit":false,"i_lat":-6.193792,"line":11,"i_long":106.855437,"time":1,"distance":973,"transit":false,"station_id":"KMT"},{"station_id":"POK","is_transit":false,"station_name":"Pondok Jati","transit":false,"distance":1829,"i_long":106.861737,"i_lat":-6.209188,"line":11,"time":2},{"time":9,"distance":1236,"is_transit":true,"transit":true,"i_lat":-6.215091,"i_long":106.86807400000001,"line":1,"station_id":"JNG","station_name":"Jatinegara"},{"station_name":"Klender","station_id":"KLD","distance":3395,"i_lat":-6.2135,"is_transit":false,"transit":false,"i_long":106.899548,"line":1,"time":3},{"is_transit":false,"time":2,"i_lat":-6.215568,"station_id":"BUA","station_name":"Buaran","distance":3100,"line":1,"i_long":106.922662,"transit":false},{"station_id":"KLDB","distance":1305,"station_name":"Klenderbaru","i_long":106.939679,"i_lat":-6.217455,"is_transit":false,"transit":false,"line":1,"time":1},{"line":1,"i_lat":-6.219053,"is_transit":false,"distance":1385,"time":8,"station_name":"Cakung","transit":false,"i_long":106.951283,"station_id":"CUK"},{"i_lat":-6.224515,"line":1,"i_long":106.977657,"station_name":"Kranji","station_id":"KRI","is_transit":false,"transit":false,"time":3,"distance":3097},{"is_transit":false,"time":4,"transit":false,"i_lat":-6.236616,"i_long":106.997013,"station_id":"BKS","line":1,"station_name":"Bekasi","distance":2520},{"i_long":107.016735,"distance":2368,"line":1,"transit":false,"station_name":"Bekasi Timur","station_id":"BKST","i_lat":-6.248029,"is_transit":false,"time":2},{"time":7,"line":1,"distance":4460,"station_name":"Tambun","station_id":"TB","i_lat":-6.258864,"i_long":107.055722,"is_transit":false,"transit":false},{"is_transit":false,"distance":3420,"line":1,"i_long":107.083084,"transit":false,"time":3,"station_id":"CIT","i_lat":-6.261877,"station_name":"Cibitung"},{"transit":false,"i_lat":-6.262938,"i_long":107.093313,"line":1,"time":2,"station_name":"Metland Telaga Murni","station_id":"TLM","is_transit":false,"distance":2800},{"time":4,"i_long":107.144613,"station_id":"CKR","transit":false,"distance":3689,"line":1,"i_lat":-6.2553149999999995,"station_name":"Cikarang","is_transit":false}],[{"station_name":"Karet","i_long":106.816351,"is_transit":false,"i_lat":-6.20132,"line":1,"transit":false,"time":0,"station_id":"KAT","distance":0},{"station_name":"Tanah Abang","distance":2029,"station_id":"THB","i_lat":-6.185545,"i_long":106.811091,"time":5,"line":1,"transit":false,"is_transit":false},{"station_name":"Duri","i_lat":-6.155215,"station_id":"DU","is_transit":false,"distance":3632,"time":8,"transit":false,"i_long":106.800832,"line":1},{"time":4,"station_id":"AK","line":1,"transit":false,"i_long":106.79867,"is_transit":false,"i_lat":-6.144674,"distance":1230,"station_name":"Angke"},{"i_long":106.826365,"station_id":"KPB","station_name":"Kampung Bandan","transit":true,"time":9,"distance":4102,"i_lat":-6.132549,"is_transit":true,"line":4},{"distance":1364,"i_lat":-6.137569,"i_long":106.812439,"station_name":"Jakarta Kota","line":2,"station_id":"JAKK","is_transit":true,"transit":true,"time":3},{"station_id":"JAY","transit":false,"station_name":"Jayakarta","line":2,"i_long":106.820901,"distance":1264,"time":4,"i_lat":-6.141205,"is_transit":false},{"transit":false,"i_long":106.82482,"line":2,"time":2,"station_name":"Manggabesar","station_id":"MGB","distance":1080,"i_lat":-6.149769,"is_transit":false},{"station_name":"Sawah Besar","is_transit":false,"distance":906,"station_id":"SW","i_long":106.827103,"i_lat":-6.160725,"transit":false,"time":2,"line":2},{"station_id":"JUA","line":2,"transit":false,"station_name":"Juanda","is_transit":false,"distance":1149,"time":2,"i_lat":-6.166716,"i_long":106.828284},{"station_id":"GDD","is_transit":false,"transit":false,"time":4,"line":2,"i_lat":-6.186295,"distance":2015,"i_long":106.832183,"station_name":"Gondangdia"},{"transit":false,"distance":1750,"i_long":106.840169,"station_id":"CKI","station_name":"Cikini","line":2,"is_transit":false,"i_lat":-6.198556,"time":3},{"i_long":106.84912,"station_id":"MRI","transit":true,"time":4,"distance":1590,"i_lat":-6.209883,"is_transit":true,"line":2,"station_name":"Manggarai"},{"station_name":"Matraman","distance":1275,"transit":false,"i_long":106.858896,"line":1,"station_id":"MTR","i_lat":-6.212485,"is_transit":false,"time":2},{"time":8,"is_transit":false,"transit":false,"i_lat":-6.215091,"line":1,"distance":1377,"i_long":106.86807400000001,"station_id":"JNG","station_name":"Jatinegara"},{"i_lat":-6.2135,"station_name":"Klender","transit":false,"line":1,"is_transit":false,"distance":3395,"station_id":"KLD","i_long":106.899548,"time":3},{"station_id":"BUA","line":1,"distance":3100,"is_transit":false,"time":2,"transit":false,"station_name":"Buaran","i_lat":-6.215568,"i_long":106.922662},{"transit":false,"station_name":"Klenderbaru","time":1,"is_transit":false,"distance":1305,"i_long":106.939679,"station_id":"KLDB","i_lat":-6.217455,"line":1},{"distance":1385,"i_lat":-6.219053,"is_transit":false,"i_long":106.951283,"station_id":"CUK","transit":false,"line":1,"time":8,"station_name":"Cakung"},{"is_transit":false,"i_lat":-6.224515,"transit":false,"i_long":106.977657,"time":3,"distance":3097,"station_id":"KRI","line":1,"station_name":"Kranji"},{"i_long":106.997013,"line":1,"time":4,"i_lat":-6.236616,"is_transit":false,"transit":false,"distance":2520,"station_id":"BKS","station_name":"Bekasi"},{"station_name":"Bekasi Timur","transit":false,"distance":2368,"i_lat":-6.248029,"time":2,"station_id":"BKST","line":1,"is_transit":false,"i_long":107.016735},{"station_name":"Tambun","transit":false,"distance":4460,"line":1,"is_transit":false,"station_id":"TB","time":7,"i_long":107.055722,"i_lat":-6.258864},{"line":1,"i_lat":-6.261877,"station_name":"Cibitung","station_id":"CIT","is_transit":false,"time":3,"i_long":107.083084,"transit":false,"distance":3420},{"distance":2800,"line":1,"station_name":"Metland Telaga Murni","time":2,"transit":false,"is_transit":false,"i_lat":-6.262938,"i_long":107.093313,"station_id":"TLM"},{"i_lat":-6.2553149999999995,"line":1,"is_transit":false,"time":4,"distance":3689,"station_id":"CKR","i_long":107.144613,"station_name":"Cikarang","transit":false}],[{"station_id":"KAT","line":1,"i_lat":-6.20132,"station_name":"Karet","transit":false,"is_transit":false,"distance":0,"time":0,"i_long":106.816351},{"station_name":"Sudirman Baru","line":1,"i_long":106.819881,"i_lat":-6.201433,"distance":471,"station_id":"SUDB","time":1,"is_transit":false,"transit":false},{"distance":280,"i_long":106.822649,"time":1,"station_id":"SUD","i_lat":-6.202263,"station_name":"Sudirman","line":1,"transit":false,"is_transit":false},{"time":4,"line":2,"station_name":"Manggarai","station_id":"MRI","transit":true,"is_transit":true,"distance":3186,"i_lat":-6.209883,"i_long":106.84912},{"station_id":"CKI","station_name":"Cikini","is_transit":false,"transit":false,"i_lat":-6.198556,"i_long":106.840169,"time":4,"line":2,"distance":1590},{"transit":false,"station_id":"GDD","i_lat":-6.186295,"i_long":106.832183,"is_transit":false,"line":2,"time":3,"distance":1750,"station_name":"Gondangdia"},{"time":4,"station_name":"Juanda","i_lat":-6.166716,"transit":false,"line":2,"distance":2015,"is_transit":false,"i_long":106.828284,"station_id":"JUA"},{"distance":1149,"station_id":"SW","is_transit":false,"transit":false,"station_name":"Sawah Besar","i_long":106.827103,"line":2,"time":2,"i_lat":-6.160725},{"time":2,"station_name":"Manggabesar","line":2,"station_id":"MGB","i_lat":-6.149769,"i_long":106.82482,"is_transit":false,"transit":false,"distance":906},{"station_name":"Jayakarta","is_transit":false,"time":2,"i_lat":-6.141205,"station_id":"JAY","i_long":106.820901,"distance":1080,"line":2,"transit":false},{"is_transit":true,"time":4,"line":2,"i_lat":-6.137569,"station_id":"JAKK","transit":true,"i_long":106.812439,"station_name":"Jakarta Kota","distance":1264},{"is_transit":true,"line":4,"i_lat":-6.132549,"distance":1364,"transit":true,"time":3,"station_id":"KPB","station_name":"Kampung Bandan","i_long":106.826365},{"i_lat":-6.14505,"transit":false,"line":11,"station_name":"Rajawali","station_id":"RJW","is_transit":false,"distance":1444,"i_long":106.836569,"time":3},{"distance":1901,"transit":false,"is_transit":false,"time":5,"station_name":"Kemayoran","i_long":106.839204,"i_lat":-6.161728,"line":11,"station_id":"KMO"},{"line":11,"distance":1436,"i_lat":-6.174784,"is_transit":false,"time":4,"station_id":"PSE","station_name":"Pasar Senen","i_long":106.84368,"transit":false},{"station_name":"Gang Sentiong","i_lat":-6.185975,"time":8,"distance":1567,"station_id":"GST","is_transit":false,"i_long":106.850107,"line":11,"transit":false},{"distance":973,"station_name":"Kramat","is_transit":false,"transit":false,"time":1,"i_long":106.855437,"line":11,"station_id":"KMT","i_lat":-6.193792},{"transit":false,"i_long":106.861737,"distance":1829,"station_id":"POK","i_lat":-6.209188,"time":2,"line":11,"station_name":"Pondok Jati","is_transit":false},{"i_long":106.86807400000001,"station_id":"JNG","transit":true,"is_transit":true,"station_name":"Jatinegara","distance":1236,"time":9,"i_lat":-6.215091,"line":1},{"i_long":106.899548,"station_name":"Klender","line":1,"i_lat":-6.2135,"transit":false,"distance":3395,"time":3,"is_transit":false,"station_id":"KLD"},{"station_id":"BUA","is_transit":false,"station_name":"Buaran","time":2,"transit":false,"distance":3100,"i_long":106.922662,"line":1,"i_lat":-6.215568},{"i_long":106.939679,"time":1,"station_name":"Klenderbaru","line":1,"transit":false,"distance":1305,"i_lat":-6.217455,"is_transit":false,"station_id":"KLDB"},{"distance":1385,"is_transit":false,"i_lat":-6.219053,"line":1,"transit":false,"station_id":"CUK","time":8,"station_name":"Cakung","i_long":106.951283},{"station_id":"KRI","station_name":"Kranji","distance":3097,"i_lat":-6.224515,"is_transit":false,"time":3,"i_long":106.977657,"line":1,"transit":false},{"i_long":106.997013,"station_name":"Bekasi","is_transit":false,"line":1,"distance":2520,"i_lat":-6.236616,"transit":false,"time":4,"station_id":"BKS"},{"time":2,"i_long":107.016735,"i_lat":-6.248029,"station_name":"Bekasi Timur","station_id":"BKST","is_transit":false,"line":1,"distance":2368,"transit":false},{"i_lat":-6.258864,"i_long":107.055722,"is_transit":false,"line":1,"distance":4460,"station_id":"TB","time":7,"station_name":"Tambun","transit":false},{"station_name":"Cibitung","is_transit":false,"i_lat":-6.261877,"station_id":"CIT","transit":false,"time":3,"distance":3420,"line":1,"i_long":107.083084},{"i_lat":-6.262938,"station_name":"Metland Telaga Murni","is_transit":false,"station_id":"TLM","time":2,"transit":false,"line":1,"distance":2800,"i_long":107.093313},{"is_transit":false,"station_name":"Cikarang","i_lat":-6.2553149999999995,"distance":3689,"i_long":107.144613,"station_id":"CKR","time":4,"line":1,"transit":false}]]}