{"data":[[{"station_id":"KAT","line":1,"distance":0,"station_name":"Karet","transit":false,"i_long":106.816351,"is_transit":false,"time":0,"i_lat":-6.20132},{"i_long":106.819881,"i_lat":-6.201433,"is_transit":false,"station_name":"Sudirman Baru","line":1,"transit":false,"time":1,"distance":471,"station_id":"SUDB"},{"i_long":106.822649,"station_id":"SUD","line":1,"transit":false,"time":1,"station_name":"Sudirman","distance":280,"i_lat":-6.202263,"is_transit":false},{"i_long":106.84912,"line":2,"station_name":"Manggarai","distance":3186,"i_lat":-6.209883,"is_transit":false,"time":4,"station_id":"MRI","transit":false},{"distance":1275,"i_long":106.858896,"time":2,"transit":false,"station_id":"MTR","line":1,"i_lat":-6.212485,"is_transit":false,"station_name":"Matraman"},{"station_id":"JNG","station_name":"Jatinegara","line":1,"is_transit":false,"time":8,"i_long":106.86807400000001,"i_lat":-6.215091,"transit":false,"distance":1377},{"time":3,"station_name":"Klender","line":1,"i_long":106.899548,"i_lat":-6.2135,"station_id":"KLD","is_transit":false,"distance":3395,"transit":false},{"i_long":106.922662,"line":1,"transit":false,"station_id":"BUA","is_transit":false,"station_name":"Buaran","distance":3100,"time":2,"i_lat":-6.215568},{"distance":1305,"time":1,"station_name":"Klenderbaru","transit":false,"i_lat":-6.217455,"line":1,"station_id":"KLDB","i_long":106.939679,"is_transit":false}],[{"i_long":106.816351,"station_name":"Karet","is_transit":false,"distance":0,"station_id":"KAT","i_lat":-6.20132,"transit":false,"line":1,"time":0},{"distance":2029,"transit":false,"line":1,"is_transit":false,"time":5,"station_id":"THB","station_name":"Tanah Abang","i_lat":-6.185545,"i_long":106.811091},{"i_lat":-6.155215,"i_long":106.800832,"distance":3632,"transit":false,"station_id":"DU","station_name":"Duri","line":1,"time":8,"is_transit":false},{"transit":false,"i_lat":-6.144674,"i_long":106.79867,"is_transit":false,"time":4,"station_id":"AK","line":1,"station_name":"Angke","distance":1230},{"transit":true,"line":4,"station_name":"Kampung Bandan","time":9,"is_transit":true,"i_long":106.826365,"i_lat":-6.132549,"distance":4102,"station_id":"KPB"},{"line":11,"distance":1444,"transit":false,"time":3,"station_name":"Rajawali","station_id":"RJW","is_transit":false,"i_lat":-6.14505,"i_long":106.836569},{"i_long":106.839204,"i_lat":-6.161728,"station_name":"Kemayoran","transit":false,"is_transit":false,"time":5,"station_id":"KMO","distance":1901,"line":11},{"station_name":"Pasar Senen","transit":false,"is_transit":false,"distance":1436,"time":4,"i_lat":-6.174784,"station_id":"PSE","line":11,"i_long":106.84368},{"station_id":"GST","station_name":"Gang Sentiong","transit":false,"line":11,"is_transit":false,"time":8,"i_lat":-6.185975,"distance":1567,"i_long":106.850107},{"i_long":106.855437,"time":1,"distance":973,"i_lat":-6.193792,"is_transit":false,"station_name":"Kramat","line":11,"station_id":"KMT","transit":false},{"station_id":"POK","is_transit":false,"transit":false,"i_long":106.861737,"line":11,"i_lat":-6.209188,"time":2,"station_name":"Pondok Jati","distance":1829},{"station_name":"Jatinegara","transit":true,"distance":1236,"station_id":"JNG","i_long":106.86807400000001,"line":1,"i_lat":-6.215091,"time":9,"is_transit":true},{"station_name":"Klender","station_id":"KLD","distance":3395,"i_lat":-6.2135,"i_long":106.899548,"line":1,"is_transit":false,"time":3,"transit":false},{"i_long":106.922662,"station_name":"Buaran","time":2,"transit":false,"i_lat":-6.215568,"line":1,"is_transit":false,"distance":3100,"station_id":"BUA"},{"time":1,"i_long":106.939679,"is_transit":false,"i_lat":-6.217455,"transit":false,"station_name":"Klenderbaru","distance":1305,"line":1,"station_id":"KLDB"}],[{"is_transit":false,"distance":0,"time":0,"station_name":"Karet","line":1,"i_lat":-6.20132,"transit":false,"station_id":"KAT","i_long":106.816351},{"i_long":106.811091,"line":1,"distance":2029,"i_lat":-6.185545,"time":5,"station_name":"Tanah Abang","station_id":"THB","is_transit":false,"transit":false},{"i_lat":-6.155215,"station_id":"DU","i_long":106.800832,"is_transit":false,"distance":3632,"transit":false,"time":8,"station_name":"Duri","line":1},{"distance":1230,"i_lat":-6.144674,"station_id":"AK","i_long":106.79867,"time":4,"line":1,"transit":false,"is_transit":false,"station_name":"Angke"},{"i_lat":-6.132549,"transit":true,"time":9,"station_name":"Kampung Bandan","station_id":"KPB","distance":4102,"i_long":106.826365,"line":4,"is_transit":true},{"i_lat":-6.137569,"station_id":"JAKK","is_transit":true,"line":2,"station_name":"Jakarta Kota","i_long":106.812439,"distance":1364,"time":3,"transit":true},{"station_id":"JAY","station_name":"Jayakarta","i_lat":-6.141205,"i_long":106.820901,"time":4,"is_transit":false,"line":2,"transit":false,"distance":1264},{"is_transit":false,"station_id":"MGB","distance":1080,"station_name":"Manggabesar","transit":false,"time":2,"i_lat":-6.149769,"i_long":106.82482,"line":2},{"transit":false,"i_lat":-6.160725,"line":2,"station_name":"Sawah Besar","station_id":"SW","is_transit":false,"distance":906,"i_long":106.827103,"time":2},{"distance":1149,"is_transit":false,"transit":false,"time":2,"i_lat":-6.166716,"station_name":"Juanda","i_long":106.828284,"station_id":"JUA","line":2},{"is_transit":false,"time":4,"transit":false,"i_lat":-6.186295,"i_long":106.832183,"distance":2015,"station_id":"GDD","line":2,"station_name":"Gondangdia"},{"distance":1750,"i_lat":-6.198556,"i_long":106.840169,"time":3,"line":2,"is_transit":false,"transit":false,"station_name":"Cikini","station_id":"CKI"},{"station_id":"MRI","distance":1590,"line":2,"is_transit":true,"transit":true,"time":4,"i_lat":-6.209883,"i_long":106.84912,"station_name":"Manggarai"},{"i_lat":-6.212485,"station_id":"MTR","is_transit":false,"line":1,"i_long":106.858896,"transit":false,"distance":1275,"time":2,"station_name":"Matraman"},{"i_lat":-6.215091,"station_name":"Jatinegara","station_id":"JNG","i_long":106.86807400000001,"line":1,"transit":false,"time":8,"distance":1377,"is_transit":false},{"station_name":"Klender","station_id":"KLD","i_long":106.899548,"transit":false,"distance":3395,"i_lat":-6.2135,"time":3,"line":1,"is_transit":false},{"distance":3100,"i_lat":-6.215568,"time":2,"station_name":"Buaran","transit":false,"is_transit":false,"i_long":106.922662,"line":1,"station_id":"BUA"},{"station_id":"KLDB","transit":false,"i_long":106.939679,"time":1,"is_transit":false,"distance":1305,"i_lat":-6.217455,"station_name":"Klenderbaru","line":1}],[{"time":0,"station_id":"KAT","transit":false,"i_long":106.816351,"distance":0,"station_name":"Karet","i_lat":-6.20132,"line":1,"is_transit":false},{"transit":false,"i_lat":-6.201433,"line":1,"is_transit":false,"i_long":106.819881,"distance":471,"station_id":"SUDB","station_name":"Sudirman Baru","time":1},{"i_long":106.822649,"station_id":"SUD","line":1,"transit":false,"distance":280,"i_lat":-6.202263,"is_transit":false,"station_name":"Sudirman","time":1},{"station_id":"MRI","is_transit":true,"distance":3186,"transit":true,"i_long":106.84912,"time":4,"station_name":"Manggarai","i_lat":-6.209883,"line":2},{"transit":false,"is_transit":false,"line":2,"distance":1590,"time":4,"station_id":"CKI","i_long":106.840169,"i_lat":-6.198556,"station_name":"Cikini"},{"is_transit":false,"i_long":106.832183,"i_lat":-6.186295,"station_id":"GDD","line":2,"transit":false,"distance":1750,"station_name":"Gondangdia","time":3},{"station_name":"Juanda","transit":false,"distance":2015,"line":2,"station_id":"JUA","time":4,"i_long":106.828284,"i_lat":-6.166716,"is_transit":false},{"i_long":106.827103,"line":2,"station_name":"Sawah Besar","station_id":"SW","time":2,"transit":false,"is_transit":false,"distance":1149,"i_lat":-6.160725},{"distance":906,"transit":false,"station_id":"MGB","i_lat":-6.149769,"is_transit":false,"station_name":"Manggabesar","i_long":106.82482,"time":2,"line":2},{"distance":1080,"transit":false,"i_lat":-6.141205,"time":2,"station_id":"JAY","station_name":"Jayakarta","line":2,"is_transit":false,"i_long":106.820901},{"distance":1264,"station_name":"Jakarta Kota","i_lat":-6.137569,"line":2,"time":4,"is_transit":true,"i_long":106.812439,"station_id":"JAKK","transit":true},{"station_name":"Kampung Bandan","i_lat":-6.132549,"i_long":106.826365,"distance":1364,"line":4,"time":3,"station_id":"KPB","transit":true,"is_transit":true},{"i_lat":-6.14505,"transit":false,"time":3,"station_id":"RJW","distance":1444,"i_long":106.836569,"station_name":"Rajawali","is_transit":false,"line":11},{"station_name":"Kemayoran","station_id":"KMO","i_long":106.839204,"distance":1901,"i_lat":-6.161728,"transit":false,"is_transit":false,"time":5,"line":11},{"is_transit":false,"station_id":"PSE","i_long":106.84368,"time":4,"line":11,"distance":1436,"station_name":"Pasar Senen","transit":false,"i_lat":-6.174784},{"i_long":106.850107,"station_id":"GST","distance":1567,"is_transit":false,"time":8,"transit":false,"i_lat":-6.185975,"station_name":"Gang Sentiong","line":11},{"time":1,"i_long":106.855437,"distance":973,"station_name":"Kramat","station_id":"KMT","i_lat":-6.193792,"transit":false,"is_transit":false,"line":11},{"station_name":"Pondok Jati","distance":1829,"is_transit":false,"station_id":"POK","transit":false,"i_long":106.861737,"i_lat":-6.209188,"line":11,"time":2},{"station_name":"Jatinegara","i_lat":-6.215091,"is_transit":true,"time":9,"line":1,"transit":true,"distance":1236,"station_id":"JNG","i_long":106.86807400000001},{"station_name":"Klender","i_lat":-6.2135,"is_transit":false,"line":1,"time":3,"distance":3395,"i_long":106.899548,"station_id":"KLD","transit":false},{"i_long":106.922662,"line":1,"distance":3100,"transit":false,"i_lat":-6.215568,"is_transit":false,"time":2,"station_name":"Buaran","station_id":"BUA"},{"i_long":106.939679,"transit":false,"i_lat":-6.217455,"station_name":"Klenderbaru","time":1,"station_id":"KLDB","is_transit":false,"distance":1305,"line":1}]]}