{"data":[[{"line":1,"distance":0,"is_transit":false,"i_long":106.816351,"station_id":"KAT","transit":false,"station_name":"Karet","i_lat":-6.20132,"time":0},{"time":1,"station_name":"Sudirman Baru","line":1,"i_lat":-6.201433,"station_id":"SUDB","distance":471,"i_long":106.819881,"transit":false,"is_transit":false},{"time":1,"station_id":"SUD","distance":280,"transit":false,"i_lat":-6.202263,"station_name":"Sudirman","line":1,"is_transit":false,"i_long":106.822649},{"time":4,"i_lat":-6.209883,"is_transit":true,"transit":true,"line":2,"distance":3186,"i_long":106.84912,"station_name":"Manggarai","station_id":"MRI"},{"transit":false,"i_lat":-6.226659,"i_long":106.857948,"station_name":"Tebet","line":2,"time":4,"station_id":"TEB","distance":2610,"is_transit":false},{"station_name":"Cawang","i_lat":-6.242512,"i_long":106.856607,"line":2,"distance":1230,"station_id":"CW","transit":false,"is_transit":false,"time":2}],[{"i_long":106.816351,"is_transit":false,"time":0,"i_lat":-6.20132,"transit":false,"station_name":"Karet","line":1,"distance":0,"station_id":"KAT"},{"station_name":"Tanah Abang","distance":2029,"time":5,"i_lat":-6.185545,"is_transit":false,"i_long":106.811091,"station_id":"THB","transit":false,"line":1},{"station_id":"DU","is_transit":false,"distance":3632,"line":1,"station_name":"Duri","transit":false,"i_lat":-6.155215,"time":8,"i_long":106.800832},{"station_id":"AK","is_transit":false,"time":4,"station_name":"Angke","distance":1230,"i_lat":-6.144674,"i_long":106.79867,"transit":false,"line":1},{"line":4,"i_long":106.826365,"station_id":"KPB","i_lat":-6.132549,"transit":true,"is_transit":true,"station_name":"Kampung Bandan","distance":4102,"time":9},{"distance":1364,"time":3,"transit":true,"station_name":"Jakarta Kota","station_id":"JAKK","i_long":106.812439,"line":2,"i_lat":-6.137569,"is_transit":true},{"station_id":"JAY","distance":1264,"transit":false,"time":4,"station_name":"Jayakarta","is_transit":false,"i_long":106.820901,"line":2,"i_lat":-6.141205},{"i_long":106.82482,"distance":1080,"transit":false,"is_transit":false,"i_lat":-6.149769,"line":2,"time":2,"station_name":"Manggabesar","station_id":"MGB"},{"i_lat":-6.160725,"i_long":106.827103,"station_id":"SW","distance":906,"station_name":"Sawah Besar","is_transit":false,"transit":false,"line":2,"time":2},{"distance":1149,"i_lat":-6.166716,"station_id":"JUA","is_transit":false,"line":2,"i_long":106.828284,"transit":false,"time":2,"station_name":"Juanda"},{"i_lat":-6.186295,"distance":2015,"station_id":"GDD","transit":false,"time":4,"line":2,"i_long":106.832183,"is_transit":false,"station_name":"Gondangdia"},{"i_lat":-6.198556,"distance":1750,"line":2,"station_id":"CKI","station_name":"Cikini","time":3,"transit":false,"is_transit":false,"i_long":106.840169},{"distance":1590,"time":4,"i_long":106.84912,"i_lat":-6.209883,"line":2,"station_name":"Manggarai","is_transit":false,"transit":false,"station_id":"MRI"},{"station_name":"Tebet","is_transit":false,"station_id":"TEB","i_long":106.857948,"i_lat":-6.226659,"line":2,"distance":2610,"time":4,"transit":false},{"station_id":"CW","transit":false,"i_lat":-6.242512,"i_long":106.856607,"line":2,"station_name":"Cawang","time":2,"distance":1230,"is_transit":false}],[{"time":0,"i_long":106.816351,"station_id":"KAT","distance":0,"line":1,"station_name":"Karet","i_lat":-6.20132,"transit":false,"is_transit":false},{"distance":2029,"station_name":"Tanah Abang","line":1,"transit":false,"time":5,"is_transit":false,"i_lat":-6.185545,"i_long":106.811091,"station_id":"THB"},{"time":8,"station_id":"DU","distance":3632,"is_transit":false,"station_name":"Duri","i_long":106.800832,"i_lat":-6.155215,"line":1,"transit":false},{"i_long":106.79867,"line":1,"i_lat":-6.144674,"is_transit":false,"station_name":"Angke","transit":false,"station_id":"AK","distance":1230,"time":4},{"distance":4102,"i_lat":-6.132549,"line":4,"transit":true,"time":9,"station_name":"Kampung Bandan","station_id":"KPB","i_long":106.826365,"is_transit":true},{"i_long":106.836569,"transit":false,"time":3,"station_name":"Rajawali","i_lat":-6.14505,"distance":1444,"station_id":"RJW","line":11,"is_transit":false},{"i_long":106.839204,"transit":false,"is_transit":false,"time":5,"station_name":"Kemayoran","i_lat":-6.161728,"distance":1901,"line":11,"station_id":"KMO"},{"line":11,"i_long":106.84368,"station_name":"Pasar Senen","distance":1436,"station_id":"PSE","transit":false,"time":4,"i_lat":-6.174784,"is_transit":false},{"distance":1567,"i_lat":-6.185975,"i_long":106.850107,"line":11,"time":8,"is_transit":false,"station_id":"GST","transit":false,"station_name":"Gang Sentiong"},{"transit":false,"station_name":"Kramat","i_lat":-6.193792,"is_transit":false,"line":11,"distance":973,"time":1,"i_long":106.855437,"station_id":"KMT"},{"transit":false,"station_id":"POK","line":11,"time":2,"i_long":106.861737,"station_name":"Pondok Jati","distance":1829,"is_transit":false,"i_lat":-6.209188},{"i_long":106.86807400000001,"time":9,"i_lat":-6.215091,"station_name":"Jatinegara","line":1,"distance":1236,"transit":true,"station_id":"JNG","is_transit":true},{"transit":false,"i_long":106.858896,"is_transit":false,"station_id":"MTR","distance":1377,"station_name":"Matraman","time":2,"i_lat":-6.212485,"line":1},{"i_lat":-6.209883,"time":2,"i_long":106.84912,"transit":true,"station_id":"MRI","distance":1275,"is_transit":true,"line":2,"station_name":"Manggarai"},{"i_lat":-6.226659,"transit":false,"station_name":"Tebet","line":2,"i_long":106.857948,"station_id":"TEB","distance":2610,"time":4,"is_transit":false},{"station_name":"Cawang","time":2,"distance":1230,"transit":false,"is_transit":false,"i_lat":-6.242512,"line":2,"i_long":106.856607,"station_id":"CW"}]]}