{"data":[[{"station_name":"Karet","line":1,"time":0,"transit":false,"distance":0,"is_transit":false,"station_id":"KAT","i_lat":-6.20132,"i_long":106.816351},{"station_name":"Tanah Abang","time":5,"i_lat":-6.185545,"i_long":106.811091,"distance":2029,"line":1,"station_id":"THB","is_transit":false,"transit":false},{"station_name":"Duri","transit":false,"distance":3632,"station_id":"DU","line":1,"time":8,"i_long":106.800832,"i_lat":-6.155215,"is_transit":false},{"time":4,"station_name":"Angke","i_long":106.79867,"transit":false,"distance":1230,"i_lat":-6.144674,"line":1,"station_id":"AK","is_transit":false},{"line":4,"time":9,"i_long":106.826365,"is_transit":false,"station_id":"KPB","transit":false,"station_name":"Kampung Bandan","distance":4102,"i_lat":-6.132549}],[{"station_id":"KAT","time":0,"i_long":106.816351,"i_lat":-6.20132,"transit":false,"station_name":"Karet","line":1,"distance":0,"is_transit":false},{"i_long":106.819881,"distance":471,"station_name":"Sudirman Baru","line":1,"transit":false,"i_lat":-6.201433,"is_transit":false,"station_id":"SUDB","time":1},{"station_name":"Sudirman","is_transit":false,"time":1,"distance":280,"line":1,"i_long":106.822649,"station_id":"SUD","transit":false,"i_lat":-6.202263},{"station_id":"MRI","is_transit":true,"transit":true,"time":4,"i_lat":-6.209883,"line":2,"i_long":106.84912,"station_name":"Manggarai","distance":3186},{"distance":1590,"station_id":"CKI","i_lat":-6.198556,"transit":false,"i_long":106.840169,"station_name":"Cikini","is_transit":false,"time":4,"line":2},{"transit":false,"i_long":106.832183,"is_transit":false,"distance":1750,"station_name":"Gondangdia","time":3,"i_lat":-6.186295,"station_id":"GDD","line":2},{"i_lat":-6.166716,"is_transit":false,"distance":2015,"station_name":"Juanda","transit":false,"line":2,"time":4,"station_id":"JUA","i_long":106.828284},{"transit":false,"station_name":"Sawah Besar","time":2,"station_id":"SW","i_lat":-6.160725,"line":2,"is_transit":false,"distance":1149,"i_long":106.827103},{"i_lat":-6.149769,"is_transit":false,"line":2,"distance":906,"station_name":"Manggabesar","station_id":"MGB","transit":false,"i_long":106.82482,"time":2},{"i_long":106.820901,"distance":1080,"time":2,"station_name":"Jayakarta","is_transit":false,"i_lat":-6.141205,"line":2,"station_id":"JAY","transit":false},{"distance":1264,"is_transit":true,"time":4,"line":2,"station_id":"JAKK","transit":true,"i_lat":-6.137569,"station_name":"Jakarta Kota","i_long":106.812439},{"station_id":"KPB","distance":1364,"i_lat":-6.132549,"transit":false,"is_transit":false,"time":3,"i_long":106.826365,"line":4,"station_name":"Kampung Bandan"}],[{"station_name":"Karet","is_transit":false,"i_long":106.816351,"station_id":"KAT","transit":false,"time":0,"i_lat":-6.20132,"line":1,"distance":0},{"i_long":106.819881,"i_lat":-6.201433,"distance":471,"is_transit":false,"station_name":"Sudirman Baru","station_id":"SUDB","time":1,"transit":false,"line":1},{"transit":false,"is_transit":false,"i_lat":-6.202263,"i_long":106.822649,"station_name":"Sudirman","station_id":"SUD","distance":280,"time":1,"line":1},{"i_lat":-6.209883,"time":4,"distance":3186,"line":2,"transit":false,"station_name":"Manggarai","station_id":"MRI","is_transit":false,"i_long":106.84912},{"i_lat":-6.212485,"station_id":"MTR","time":2,"distance":1275,"i_long":106.858896,"transit":false,"line":1,"is_transit":false,"station_name":"Matraman"},{"station_name":"Jatinegara","line":1,"is_transit":true,"i_lat":-6.215091,"distance":1377,"station_id":"JNG","i_long":106.86807400000001,"time":8,"transit":true},{"station_name":"Pondok Jati","i_lat":-6.209188,"distance":1236,"station_id":"POK","transit":false,"i_long":106.861737,"line":11,"is_transit":false,"time":2},{"i_long":106.855437,"time":2,"transit":false,"station_name":"Kramat","distance":1829,"i_lat":-6.193792,"is_transit":false,"line":11,"station_id":"KMT"},{"i_lat":-6.185975,"distance":973,"transit":false,"station_id":"GST","is_transit":false,"station_name":"Gang Sentiong","time":1,"i_long":106.850107,"line":11},{"line":11,"station_name":"Pasar Senen","time":8,"transit":false,"station_id":"PSE","i_lat":-6.174784,"is_transit":false,"i_long":106.84368,"distance":1567},{"line":11,"i_lat":-6.161728,"distance":1436,"station_name":"Kemayoran","is_transit":false,"i_long":106.839204,"station_id":"KMO","transit":false,"time":4},{"line":11,"station_name":"Rajawali","station_id":"RJW","transit":false,"is_transit":false,"time":5,"distance":1901,"i_lat":-6.14505,"i_long":106.836569},{"time":3,"station_name":"Kampung Bandan","i_lat":-6.132549,"transit":false,"distance":1444,"line":4,"station_id":"KPB","is_transit":false,"i_long":106.826365}]]}