{"data":[[{"distance":0,"station_name":"Karet","line":1,"station_id":"KAT","i_long":106.816351,"transit":false,"time":0,"is_transit":false,"i_lat":-6.20132},{"line":1,"time":1,"is_transit":false,"station_name":"Sudirman Baru","i_lat":-6.201433,"distance":471,"station_id":"SUDB","transit":false,"i_long":106.819881},{"i_long":106.822649,"transit":false,"line":1,"distance":280,"is_transit":false,"i_lat":-6.202263,"station_id":"SUD","time":1,"station_name":"Sudirman"},{"i_long":106.84912,"station_id":"MRI","station_name":"Manggarai","distance":3186,"is_transit":false,"transit":false,"i_lat":-6.209883,"line":2,"time":4},{"station_name":"Matraman","is_transit":false,"line":1,"transit":false,"time":2,"station_id":"MTR","i_lat":-6.212485,"i_long":106.858896,"distance":1275},{"i_long":106.86807400000001,"station_name":"Jatinegara","i_lat":-6.215091,"distance":1377,"line":1,"is_transit":false,"time":8,"transit":false,"station_id":"JNG"},{"time":3,"distance":3395,"station_name":"Klender","i_lat":-6.2135,"transit":false,"line":1,"is_transit":false,"i_long":106.899548,"station_id":"KLD"},{"transit":false,"distance":3100,"station_name":"Buaran","station_id":"BUA","i_lat":-6.215568,"i_long":106.922662,"line":1,"time":2,"is_transit":false},{"time":1,"transit":false,"distance":1305,"station_name":"Klenderbaru","i_lat":-6.217455,"line":1,"i_long":106.939679,"station_id":"KLDB","is_transit":false},{"transit":false,"line":1,"distance":1385,"time":8,"is_transit":false,"i_long":106.951283,"station_name":"Cakung","station_id":"CUK","i_lat":-6.219053},{"time":3,"transit":false,"i_long":106.977657,"distance":3097,"is_transit":false,"station_id":"KRI","line":1,"i_lat":-6.224515,"station_name":"Kranji"},{"is_transit":false,"time":4,"i_lat":-6.236616,"transit":false,"distance":2520,"line":1,"i_long":106.997013,"station_id":"BKS","station_name":"Bekasi"},{"i_long":107.016735,"i_lat":-6.248029,"time":2,"distance":2368,"station_name":"Bekasi Timur","station_id":"BKST","is_transit":false,"line":1,"transit":false},{"station_id":"TB","transit":false,"distance":4460,"station_name":"Tambun","i_lat":-6.258864,"line":1,"time":7,"is_transit":false,"i_long":107.055722},{"station_name":"Cibitung","station_id":"CIT","i_lat":-6.261877,"i_long":107.083084,"transit":false,"line":1,"is_transit":false,"time":3,"distance":3420}],[{"station_id":"KAT","is_transit":false,"station_name":"Karet","i_lat":-6.20132,"distance":0,"transit":false,"line":1,"time":0,"i_long":106.816351},{"line":1,"i_lat":-6.185545,"station_name":"Tanah Abang","i_long":106.811091,"distance":2029,"station_id":"THB","is_transit":false,"time":5,"transit":false},{"i_lat":-6.155215,"transit":false,"station_name":"Duri","line":1,"distance":3632,"station_id":"DU","is_transit":false,"i_long":106.800832,"time":8},{"distance":1230,"station_name":"Angke","i_lat":-6.144674,"i_long":106.79867,"line":1,"station_id":"AK","transit":false,"time":4,"is_transit":false},{"distance":4102,"transit":true,"station_id":"KPB","i_lat":-6.132549,"line":4,"time":9,"is_transit":true,"station_name":"Kampung Bandan","i_long":106.826365},{"i_lat":-6.14505,"i_long":106.836569,"line":11,"distance":1444,"station_id":"RJW","station_name":"Rajawali","transit":false,"time":3,"is_transit":false},{"i_long":106.839204,"station_name":"Kemayoran","station_id":"KMO","distance":1901,"is_transit":false,"line":11,"transit":false,"i_lat":-6.161728,"time":5},{"is_transit":false,"time":4,"distance":1436,"transit":false,"i_lat":-6.174784,"i_long":106.84368,"line":11,"station_name":"Pasar Senen","station_id":"PSE"},{"time":8,"station_id":"GST","distance":1567,"is_transit":false,"transit":false,"i_lat":-6.185975,"i_long":106.850107,"station_name":"Gang Sentiong","line":11},{"station_name":"Kramat","time":1,"is_transit":false,"i_lat":-6.193792,"distance":973,"line":11,"station_id":"KMT","i_long":106.855437,"transit":false},{"i_lat":-6.209188,"station_name":"Pondok Jati","distance":1829,"time":2,"is_transit":false,"transit":false,"line":11,"i_long":106.861737,"station_id":"POK"},{"line":1,"is_transit":true,"station_name":"Jatinegara","transit":true,"i_lat":-6.215091,"distance":1236,"i_long":106.86807400000001,"time":9,"station_id":"JNG"},{"station_id":"KLD","i_long":106.899548,"i_lat":-6.2135,"time":3,"line":1,"transit":false,"distance":3395,"station_name":"Klender","is_transit":false},{"distance":3100,"i_long":106.922662,"line":1,"station_name":"Buaran","time":2,"station_id":"BUA","i_lat":-6.215568,"transit":false,"is_transit":false},{"i_lat":-6.217455,"transit":false,"line":1,"is_transit":false,"i_long":106.939679,"distance":1305,"station_name":"Klenderbaru","station_id":"KLDB","time":1},{"time":8,"station_name":"Cakung","station_id":"CUK","i_long":106.951283,"transit":false,"i_lat":-6.219053,"is_transit":false,"line":1,"distance":1385},{"is_transit":false,"time":3,"transit":false,"distance":3097,"station_name":"Kranji","i_lat":-6.224515,"line":1,"station_id":"KRI","i_long":106.977657},{"station_id":"BKS","is_transit":false,"time":4,"distance":2520,"station_name":"Bekasi","i_long":106.997013,"line":1,"i_lat":-6.236616,"transit":false},{"time":2,"is_transit":false,"station_name":"Bekasi Timur","station_id":"BKST","i_lat":-6.248029,"i_long":107.016735,"transit":false,"distance":2368,"line":1},{"i_lat":-6.258864,"transit":false,"station_name":"Tambun","line":1,"is_transit":false,"i_long":107.055722,"station_id":"TB","time":7,"distance":4460},{"is_transit":false,"time":3,"i_long":107.083084,"line":1,"station_name":"Cibitung","distance":3420,"i_lat":-6.261877,"transit":false,"station_id":"CIT"}],[{"time":0,"i_lat":-6.20132,"station_name":"Karet","distance":0,"station_id":"KAT","is_transit":false,"transit":false,"line":1,"i_long":106.816351},{"distance":2029,"i_long":106.811091,"i_lat":-6.185545,"line":1,"station_name":"Tanah Abang","transit":false,"is_transit":false,"time":5,"station_id":"THB"},{"distance":3632,"time":8,"is_transit":false,"transit":false,"station_id":"DU","i_lat":-6.155215,"station_name":"Duri","i_long":106.800832,"line":1},{"i_lat":-6.144674,"i_long":106.79867,"transit":false,"station_name":"Angke","line":1,"distance":1230,"time":4,"is_transit":false,"station_id":"AK"},{"transit":true,"time":9,"station_name":"Kampung Bandan","i_long":106.826365,"distance":4102,"is_transit":true,"i_lat":-6.132549,"station_id":"KPB","line":4},{"transit":true,"is_transit":true,"i_lat":-6.137569,"distance":1364,"station_id":"JAKK","station_name":"Jakarta Kota","line":2,"time":3,"i_long":106.812439},{"line":2,"i_long":106.820901,"transit":false,"station_name":"Jayakarta","time":4,"distance":1264,"i_lat":-6.141205,"station_id":"JAY","is_transit":false},{"distance":1080,"station_name":"Manggabesar","is_transit":false,"transit":false,"i_long":106.82482,"station_id":"MGB","line":2,"i_lat":-6.149769,"time":2},{"line":2,"time":2,"transit":false,"is_transit":false,"distance":906,"station_id":"SW","i_lat":-6.160725,"station_name":"Sawah Besar","i_long":106.827103},{"transit":false,"line":2,"distance":1149,"is_transit":false,"time":2,"i_lat":-6.166716,"station_id":"JUA","station_name":"Juanda","i_long":106.828284},{"station_id":"GDD","is_transit":false,"i_lat":-6.186295,"transit":false,"i_long":106.832183,"distance":2015,"station_name":"Gondangdia","line":2,"time":4},{"line":2,"is_transit":false,"transit":false,"time":3,"i_long":106.840169,"station_id":"CKI","station_name":"Cikini","distance":1750,"i_lat":-6.198556},{"station_name":"Manggarai","distance":1590,"i_lat":-6.209883,"i_long":106.84912,"is_transit":true,"time":4,"station_id":"MRI","transit":true,"line":2},{"station_name":"Matraman","is_transit":false,"time":2,"i_lat":-6.212485,"i_long":106.858896,"distance":1275,"transit":false,"line":1,"station_id":"MTR"},{"line":1,"time":8,"i_lat":-6.215091,"station_name":"Jatinegara","transit":false,"distance":1377,"i_long":106.86807400000001,"station_id":"JNG","is_transit":false},{"is_transit":false,"i_lat":-6.2135,"line":1,"transit":false,"station_name":"Klender","station_id":"KLD","time":3,"i_long":106.899548,"distance":3395},{"is_transit":false,"line":1,"transit":false,"station_id":"BUA","distance":3100,"time":2,"station_name":"Buaran","i_long":106.922662,"i_lat":-6.215568},{"i_long":106.939679,"line":1,"transit":false,"i_lat":-6.217455,"station_name":"Klenderbaru","distance":1305,"is_transit":false,"time":1,"station_id":"KLDB"},{"i_lat":-6.219053,"i_long":106.951283,"line":1,"is_transit":false,"station_name":"Cakung","distance":1385,"station_id":"CUK","transit":false,"time":8},{"is_transit":false,"time":3,"station_id":"KRI","transit":false,"i_lat":-6.224515,"distance":3097,"i_long":106.977657,"line":1,"station_name":"Kranji"},{"i_long":106.997013,"transit":false,"distance":2520,"line":1,"station_name":"Bekasi","i_lat":-6.236616,"time":4,"station_id":"BKS","is_transit":false},{"distance":2368,"station_id":"BKST","station_name":"Bekasi Timur","i_long":107.016735,"is_transit":false,"time":2,"i_lat":-6.248029,"line":1,"transit":false},{"station_id":"TB","is_transit":false,"time":7,"distance":4460,"i_lat":-6.258864,"line":1,"station_name":"Tambun","i_long":107.055722,"transit":false},{"transit":false,"station_id":"CIT","time":3,"i_long":107.083084,"is_transit":false,"line":1,"distance":3420,"i_lat":-6.261877,"station_name":"Cibitung"}],[{"station_id":"KAT","is_transit":false,"time":0,"line":1,"transit":false,"i_long":106.816351,"station_name":"Karet","i_lat":-6.20132,"distance":0},{"station_id":"SUDB","is_transit":false,"distance":471,"station_name":"Sudirman Baru","i_lat":-6.201433,"time":1,"i_long":106.819881,"transit":false,"line":1},{"time":1,"i_lat":-6.202263,"station_name":"Sudirman","station_id":"SUD","line":1,"is_transit":false,"i_long":106.822649,"transit":false,"distance":280},{"time":4,"line":2,"is_transit":true,"i_long":106.84912,"station_id":"MRI","station_name":"Manggarai","distance":3186,"i_lat":-6.209883,"transit":true},{"station_name":"Cikini","station_id":"CKI","line":2,"i_lat":-6.198556,"i_long":106.840169,"time":4,"is_transit":false,"transit":false,"distance":1590},{"station_name":"Gondangdia","station_id":"GDD","time":3,"transit":false,"i_lat":-6.186295,"distance":1750,"is_transit":false,"i_long":106.832183,"line":2},{"distance":2015,"line":2,"i_lat":-6.166716,"time":4,"transit":false,"station_name":"Juanda","station_id":"JUA","is_transit":false,"i_long":106.828284},{"is_transit":false,"station_id":"SW","distance":1149,"station_name":"Sawah Besar","time":2,"i_lat":-6.160725,"i_long":106.827103,"line":2,"transit":false},{"line":2,"i_lat":-6.149769,"is_transit":false,"i_long":106.82482,"time":2,"transit":false,"distance":906,"station_id":"MGB","station_name":"Manggabesar"},{"is_transit":false,"transit":false,"distance":1080,"i_lat":-6.141205,"line":2,"i_long":106.820901,"time":2,"station_id":"JAY","station_name":"Jayakarta"},{"time":4,"transit":true,"station_name":"Jakarta Kota","line":2,"station_id":"JAKK","is_transit":true,"i_lat":-6.137569,"distance":1264,"i_long":106.812439},{"i_long":106.826365,"station_name":"Kampung Bandan","distance":1364,"i_lat":-6.132549,"transit":true,"is_transit":true,"station_id":"KPB","time":3,"line":4},{"line":11,"station_name":"Rajawali","i_long":106.836569,"station_id":"RJW","is_transit":false,"transit":false,"distance":1444,"time":3,"i_lat":-6.14505},{"station_id":"KMO","transit":false,"is_transit":false,"station_name":"Kemayoran","distance":1901,"i_lat":-6.161728,"line":11,"time":5,"i_long":106.839204},{"station_name":"Pasar Senen","time":4,"i_long":106.84368,"station_id":"PSE","i_lat":-6.174784,"line":11,"is_transit":false,"distance":1436,"transit":false},{"transit":false,"i_lat":-6.185975,"i_long":106.850107,"is_transit":false,"time":8,"distance":1567,"station_id":"GST","station_name":"Gang Sentiong","line":11},{"distance":973,"time":1,"station_id":"KMT","station_name":"Kramat","transit":false,"i_lat":-6.193792,"is_transit":false,"i_long":106.855437,"line":11},{"i_long":106.861737,"transit":false,"distance":1829,"time":2,"line":11,"station_id":"POK","is_transit":false,"station_name":"Pondok Jati","i_lat":-6.209188},{"distance":1236,"i_lat":-6.215091,"i_long":106.86807400000001,"transit":true,"line":1,"station_id":"JNG","time":9,"is_transit":true,"station_name":"Jatinegara"},{"station_name":"Klender","distance":3395,"transit":false,"station_id":"KLD","i_lat":-6.2135,"time":3,"is_transit":false,"i_long":106.899548,"line":1},{"station_name":"Buaran","distance":3100,"is_transit":false,"station_id":"BUA","time":2,"transit":false,"i_long":106.922662,"i_lat":-6.215568,"line":1},{"station_id":"KLDB","transit":false,"is_transit":false,"time":1,"distance":1305,"i_lat":-6.217455,"station_name":"Klenderbaru","line":1,"i_long":106.939679},{"is_transit":false,"transit":false,"distance":1385,"time":8,"i_lat":-6.219053,"line":1,"i_long":106.951283,"station_id":"CUK","station_name":"Cakung"},{"distance":3097,"is_transit":false,"i_lat":-6.224515,"transit":false,"station_id":"KRI","time":3,"i_long":106.977657,"station_name":"Kranji","line":1},{"station_name":"Bekasi","line":1,"distance":2520,"transit":false,"time":4,"is_transit":false,"i_lat":-6.236616,"station_id":"BKS","i_long":106.997013},{"transit":false,"is_transit":false,"station_name":"Bekasi Timur","distance":2368,"time":2,"i_lat":-6.248029,"line":1,"i_long":107.016735,"station_id":"BKST"},{"is_transit":false,"station_name":"Tambun","line":1,"transit":false,"time":7,"i_long":107.055722,"station_id":"TB","distance":4460,"i_lat":-6.258864},{"station_id":"CIT","transit":false,"station_name":"Cibitung","distance":3420,"i_long":107.083084,"time":3,"is_transit":false,"line":1,"i_lat":-6.261877}]]}