{"data":[[{"time":0,"station_id":"KAT","is_transit":false,"station_name":"Karet","i_lat":-6.20132,"distance":0,"transit":false,"i_long":106.816351,"line":1},{"station_id":"THB","is_transit":true,"i_lat":-6.185545,"line":1,"time":5,"i_long":106.811091,"transit":false,"station_name":"Tanah Abang","distance":2029},{"time":8,"is_transit":true,"i_lat":-6.155215,"line":1,"distance":3632,"i_long":106.800832,"station_name":"Duri","station_id":"DU","transit":false}],[{"station_id":"KAT","transit":false,"line":1,"is_transit":false,"time":0,"i_long":106.816351,"distance":0,"station_name":"Karet","i_lat":-6.20132},{"transit":false,"station_id":"SUDB","time":1,"is_transit":false,"i_long":106.819881,"i_lat":-6.201433,"line":1,"distance":471,"station_name":"Sudirman Baru"},{"station_id":"SUD","is_transit":false,"time":1,"station_name":"Sudirman","distance":280,"i_long":106.822649,"line":1,"transit":false,"i_lat":-6.202263},{"transit":true,"i_lat":-6.209883,"line":0,"i_long":106.84912,"is_transit":true,"station_id":"MRI","station_name":"Manggarai","time":4,"distance":3186},{"station_name":"Cikini","station_id":"CKI","time":4,"distance":1590,"i_long":106.840169,"i_lat":-6.198556,"is_transit":false,"line":0,"transit":false},{"distance":1750,"transit":false,"i_lat":-6.186295,"station_name":"Gondangdia","i_long":106.832183,"line":2,"station_id":"GDD","time":3,"is_transit":false},{"line":2,"time":4,"distance":2015,"i_lat":-6.166716,"transit":false,"is_transit":false,"station_id":"JUA","i_long":106.828284,"station_name":"Juanda"},{"i_lat":-6.160725,"i_long":106.827103,"transit":false,"is_transit":false,"station_name":"Sawah Besar","distance":1149,"line":2,"station_id":"SW","time":2},{"transit":false,"line":2,"station_name":"Manggabesar","station_id":"MGB","is_transit":false,"time":2,"i_lat":-6.149769,"distance":906,"i_long":106.82482},{"i_long":106.820901,"line":7,"station_id":"JAY","is_transit":false,"time":2,"transit":false,"station_name":"Jayakarta","distance":1080,"i_lat":-6.141205},{"i_long":106.812439,"line":0,"distance":1264,"is_transit":true,"time":4,"transit":true,"station_id":"JAKK","i_lat":-6.137569,"station_name":"Jakarta Kota"},{"i_long":106.826365,"line":0,"i_lat":-6.132549,"station_id":"KPB","is_transit":true,"station_name":"Kampung Bandan","distance":1364,"transit":false,"time":3},{"line":0,"time":9,"transit":false,"distance":4102,"i_long":106.79867,"is_transit":false,"station_id":"AK","station_name":"Angke","i_lat":-6.144674},{"transit":false,"station_name":"Duri","i_lat":-6.155215,"station_id":"DU","time":4,"i_long":106.800832,"is_transit":true,"distance":1230,"line":1}],[{"transit":false,"time":0,"station_name":"Karet","station_id":"KAT","distance":0,"i_lat":-6.20132,"i_long":106.816351,"is_transit":false,"line":1},{"time":1,"i_lat":-6.201433,"distance":471,"line":1,"station_name":"Sudirman Baru","is_transit":false,"station_id":"SUDB","i_long":106.819881,"transit":false},{"station_name":"Sudirman","station_id":"SUD","transit":false,"i_long":106.822649,"is_transit":false,"line":1,"i_lat":-6.202263,"time":1,"distance":280},{"is_transit":true,"line":0,"station_id":"MRI","transit":false,"distance":3186,"i_long":106.84912,"time":4,"station_name":"Manggarai","i_lat":-6.209883},{"i_lat":-6.212485,"is_transit":false,"time":2,"transit":false,"station_id":"MTR","station_name":"Matraman","line":1,"distance":1275,"i_long":106.858896},{"transit":true,"i_lat":-6.215091,"is_transit":true,"time":8,"distance":1377,"station_id":"JNG","i_long":106.86807400000001,"line":0,"station_name":"Jatinegara"},{"station_name":"Pondok Jati","time":2,"station_id":"POK","transit":false,"i_lat":-6.209188,"i_long":106.861737,"distance":1236,"line":11,"is_transit":false},{"is_transit":false,"distance":1829,"i_lat":-6.193792,"transit":false,"station_id":"KMT","time":2,"i_long":106.855437,"station_name":"Kramat","line":11},{"i_lat":-6.185975,"line":11,"is_transit":false,"station_id":"GST","i_long":106.850107,"time":1,"distance":973,"station_name":"Gang Sentiong","transit":false},{"is_transit":false,"station_id":"PSE","distance":1567,"transit":false,"i_lat":-6.174784,"i_long":106.84368,"time":8,"line":11,"station_name":"Pasar Senen"},{"station_name":"Kemayoran","i_lat":-6.161728,"is_transit":false,"distance":1436,"transit":false,"station_id":"KMO","time":4,"i_long":106.839204,"line":11},{"is_transit":false,"station_name":"Rajawali","time":5,"i_lat":-6.14505,"line":11,"transit":false,"i_long":106.836569,"station_id":"RJW","distance":1901},{"distance":1444,"time":3,"i_lat":-6.132549,"i_long":106.826365,"transit":true,"station_id":"KPB","line":0,"station_name":"Kampung Bandan","is_transit":true},{"transit":false,"i_lat":-6.144674,"i_long":106.79867,"time":9,"distance":4102,"is_transit":false,"station_name":"Angke","station_id":"AK","line":0},{"transit":false,"line":1,"station_id":"DU","i_lat":-6.155215,"i_long":106.800832,"is_transit":true,"time":4,"distance":1230,"station_name":"Duri"}]]}