{"data":[[{"transit":false,"is_transit":false,"distance":0,"i_lat":-6.20132,"time":0,"station_id":"KAT","i_long":106.816351,"line":1,"station_name":"Karet"},{"time":1,"station_name":"Sudirman Baru","station_id":"SUDB","is_transit":false,"i_lat":-6.201433,"transit":false,"i_long":106.819881,"distance":471,"line":1},{"station_id":"SUD","line":1,"i_lat":-6.202263,"i_long":106.822649,"station_name":"Sudirman","transit":false,"distance":280,"is_transit":false,"time":1},{"is_transit":false,"station_name":"Manggarai","i_lat":-6.209883,"distance":3186,"time":4,"transit":false,"station_id":"MRI","i_long":106.84912,"line":2},{"station_name":"Matraman","transit":false,"station_id":"MTR","i_lat":-6.212485,"line":1,"distance":1275,"i_long":106.858896,"is_transit":false,"time":2},{"i_lat":-6.215091,"i_long":106.86807400000001,"line":1,"station_id":"JNG","transit":false,"station_name":"Jatinegara","is_transit":false,"distance":1377,"time":8},{"time":3,"i_lat":-6.2135,"line":1,"transit":false,"station_id":"KLD","is_transit":false,"distance":3395,"i_long":106.899548,"station_name":"Klender"},{"distance":3100,"transit":false,"i_lat":-6.215568,"station_id":"BUA","station_name":"Buaran","is_transit":false,"i_long":106.922662,"line":1,"time":2},{"transit":false,"time":1,"is_transit":false,"distance":1305,"i_lat":-6.217455,"line":1,"station_name":"Klenderbaru","i_long":106.939679,"station_id":"KLDB"},{"station_id":"CUK","i_lat":-6.219053,"line":1,"transit":false,"distance":1385,"i_long":106.951283,"station_name":"Cakung","time":8,"is_transit":false},{"is_transit":false,"i_lat":-6.224515,"line":1,"time":3,"transit":false,"station_name":"Kranji","distance":3097,"i_long":106.977657,"station_id":"KRI"},{"time":4,"transit":false,"i_lat":-6.236616,"station_name":"Bekasi","is_transit":false,"line":1,"station_id":"BKS","distance":2520,"i_long":106.997013}],[{"transit":false,"is_transit":false,"line":1,"station_name":"Karet","time":0,"distance":0,"station_id":"KAT","i_lat":-6.20132,"i_long":106.816351},{"i_lat":-6.185545,"transit":false,"is_transit":false,"line":1,"time":5,"station_id":"THB","station_name":"Tanah Abang","distance":2029,"i_long":106.811091},{"is_transit":false,"transit":false,"station_name":"Duri","distance":3632,"station_id":"DU","i_lat":-6.155215,"i_long":106.800832,"time":8,"line":1},{"transit":false,"is_transit":false,"time":4,"distance":1230,"station_id":"AK","line":1,"station_name":"Angke","i_long":106.79867,"i_lat":-6.144674},{"i_lat":-6.132549,"distance":4102,"i_long":106.826365,"transit":true,"station_name":"Kampung Bandan","is_transit":true,"station_id":"KPB","time":9,"line":4},{"distance":1444,"transit":false,"i_lat":-6.14505,"is_transit":false,"station_id":"RJW","time":3,"i_long":106.836569,"line":11,"station_name":"Rajawali"},{"i_lat":-6.161728,"station_name":"Kemayoran","transit":false,"is_transit":false,"time":5,"i_long":106.839204,"distance":1901,"station_id":"KMO","line":11},{"is_transit":false,"station_id":"PSE","station_name":"Pasar Senen","transit":false,"i_lat":-6.174784,"i_long":106.84368,"time":4,"distance":1436,"line":11},{"transit":false,"i_long":106.850107,"is_transit":false,"time":8,"i_lat":-6.185975,"station_id":"GST","line":11,"station_name":"Gang Sentiong","distance":1567},{"time":1,"distance":973,"transit":false,"station_id":"KMT","i_lat":-6.193792,"line":11,"is_transit":false,"i_long":106.855437,"station_name":"Kramat"},{"is_transit":false,"line":11,"time":2,"station_id":"POK","station_name":"Pondok Jati","transit":false,"i_long":106.861737,"i_lat":-6.209188,"distance":1829},{"is_transit":true,"station_id":"JNG","i_lat":-6.215091,"transit":true,"distance":1236,"i_long":106.86807400000001,"time":9,"station_name":"Jatinegara","line":1},{"line":1,"distance":3395,"station_name":"Klender","is_transit":false,"station_id":"KLD","i_lat":-6.2135,"transit":false,"i_long":106.899548,"time":3},{"distance":3100,"i_lat":-6.215568,"line":1,"transit":false,"is_transit":false,"station_id":"BUA","time":2,"station_name":"Buaran","i_long":106.922662},{"station_name":"Klenderbaru","i_long":106.939679,"is_transit":false,"time":1,"line":1,"transit":false,"distance":1305,"station_id":"KLDB","i_lat":-6.217455},{"station_name":"Cakung","i_long":106.951283,"line":1,"transit":false,"station_id":"CUK","i_lat":-6.219053,"is_transit":false,"time":8,"distance":1385},{"is_transit":false,"station_name":"Kranji","transit":false,"line":1,"i_long":106.977657,"time":3,"station_id":"KRI","distance":3097,"i_lat":-6.224515},{"i_lat":-6.236616,"line":1,"time":4,"station_name":"Bekasi","is_transit":false,"distance":2520,"station_id":"BKS","i_long":106.997013,"transit":false}],[{"transit":false,"is_transit":false,"station_id":"KAT","station_name":"Karet","i_lat":-6.20132,"i_long":106.816351,"distance":0,"time":0,"line":1},{"transit":false,"i_long":106.811091,"line":1,"is_transit":false,"i_lat":-6.185545,"distance":2029,"time":5,"station_id":"THB","station_name":"Tanah Abang"},{"distance":3632,"station_id":"DU","transit":false,"station_name":"Duri","time":8,"i_long":106.800832,"is_transit":false,"line":1,"i_lat":-6.155215},{"line":1,"is_transit":false,"transit":false,"station_id":"AK","time":4,"i_long":106.79867,"station_name":"Angke","i_lat":-6.144674,"distance":1230},{"i_long":106.826365,"transit":true,"i_lat":-6.132549,"line":4,"time":9,"is_transit":true,"distance":4102,"station_name":"Kampung Bandan","station_id":"KPB"},{"i_long":106.812439,"time":3,"station_id":"JAKK","station_name":"Jakarta Kota","line":2,"i_lat":-6.137569,"distance":1364,"transit":true,"is_transit":true},{"station_id":"JAY","line":2,"i_long":106.820901,"i_lat":-6.141205,"station_name":"Jayakarta","transit":false,"is_transit":false,"distance":1264,"time":4},{"station_id":"MGB","station_name":"Manggabesar","line":2,"i_long":106.82482,"i_lat":-6.149769,"is_transit":false,"distance":1080,"transit":false,"time":2},{"station_name":"Sawah Besar","time":2,"station_id":"SW","i_long":106.827103,"i_lat":-6.160725,"transit":false,"is_transit":false,"line":2,"distance":906},{"i_lat":-6.166716,"is_transit":false,"station_id":"JUA","distance":1149,"station_name":"Juanda","time":2,"i_long":106.828284,"transit":false,"line":2},{"time":4,"is_transit":false,"transit":false,"station_name":"Gondangdia","station_id":"GDD","i_long":106.832183,"line":2,"distance":2015,"i_lat":-6.186295},{"time":3,"distance":1750,"station_name":"Cikini","i_long":106.840169,"station_id":"CKI","is_transit":false,"i_lat":-6.198556,"transit":false,"line":2},{"station_id":"MRI","distance":1590,"time":4,"i_lat":-6.209883,"i_long":106.84912,"transit":true,"station_name":"Manggarai","is_transit":true,"line":2},{"i_long":106.858896,"line":1,"distance":1275,"is_transit":false,"station_id":"MTR","station_name":"Matraman","transit":false,"time":2,"i_lat":-6.212485},{"station_name":"Jatinegara","distance":1377,"time":8,"transit":false,"i_long":106.86807400000001,"i_lat":-6.215091,"station_id":"JNG","line":1,"is_transit":false},{"station_id":"KLD","station_name":"Klender","is_transit":false,"i_lat":-6.2135,"line":1,"distance":3395,"transit":false,"i_long":106.899548,"time":3},{"station_name":"Buaran","transit":false,"is_transit":false,"station_id":"BUA","line":1,"i_long":106.922662,"i_lat":-6.215568,"distance":3100,"time":2},{"station_id":"KLDB","line":1,"station_name":"Klenderbaru","transit":false,"time":1,"is_transit":false,"i_long":106.939679,"distance":1305,"i_lat":-6.217455},{"station_id":"CUK","transit":false,"distance":1385,"is_transit":false,"i_lat":-6.219053,"line":1,"station_name":"Cakung","i_long":106.951283,"time":8},{"time":3,"i_lat":-6.224515,"i_long":106.977657,"line":1,"distance":3097,"transit":false,"is_transit":false,"station_id":"KRI","station_name":"Kranji"},{"transit":false,"station_id":"BKS","is_transit":false,"i_long":106.997013,"time":4,"distance":2520,"line":1,"station_name":"Bekasi","i_lat":-6.236616}],[{"time":0,"is_transit":false,"station_name":"Karet","i_lat":-6.20132,"station_id":"KAT","distance":0,"transit":false,"i_long":106.816351,"line":1},{"distance":471,"transit":false,"time":1,"line":1,"station_name":"Sudirman Baru","station_id":"SUDB","is_transit":false,"i_lat":-6.201433,"i_long":106.819881},{"station_id":"SUD","distance":280,"is_transit":false,"station_name":"Sudirman","i_lat":-6.202263,"time":1,"transit":false,"i_long":106.822649,"line":1},{"station_name":"Manggarai","i_long":106.84912,"line":2,"transit":true,"time":4,"distance":3186,"i_lat":-6.209883,"station_id":"MRI","is_transit":true},{"station_name":"Cikini","distance":1590,"i_long":106.840169,"i_lat":-6.198556,"is_transit":false,"station_id":"CKI","line":2,"transit":false,"time":4},{"distance":1750,"line":2,"transit":false,"station_id":"GDD","time":3,"is_transit":false,"station_name":"Gondangdia","i_long":106.832183,"i_lat":-6.186295},{"i_lat":-6.166716,"transit":false,"is_transit":false,"station_name":"Juanda","time":4,"station_id":"JUA","distance":2015,"i_long":106.828284,"line":2},{"transit":false,"distance":1149,"station_id":"SW","station_name":"Sawah Besar","i_lat":-6.160725,"line":2,"time":2,"i_long":106.827103,"is_transit":false},{"line":2,"i_long":106.82482,"station_name":"Manggabesar","i_lat":-6.149769,"transit":false,"is_transit":false,"distance":906,"station_id":"MGB","time":2},{"time":2,"is_transit":false,"i_long":106.820901,"distance":1080,"transit":false,"station_id":"JAY","station_name":"Jayakarta","i_lat":-6.141205,"line":2},{"i_long":106.812439,"is_transit":true,"distance":1264,"station_id":"JAKK","station_name":"Jakarta Kota","line":2,"time":4,"i_lat":-6.137569,"transit":true},{"station_id":"KPB","station_name":"Kampung Bandan","time":3,"line":4,"i_lat":-6.132549,"i_long":106.826365,"distance":1364,"is_transit":true,"transit":true},{"is_transit":false,"station_name":"Rajawali","distance":1444,"transit":false,"station_id":"RJW","time":3,"line":11,"i_long":106.836569,"i_lat":-6.14505},{"i_lat":-6.161728,"i_long":106.839204,"line":11,"station_name":"Kemayoran","is_transit":false,"distance":1901,"transit":false,"station_id":"KMO","time":5},{"i_lat":-6.174784,"station_name":"Pasar Senen","transit":false,"station_id":"PSE","time":4,"i_long":106.84368,"distance":1436,"line":11,"is_transit":false},{"line":11,"distance":1567,"transit":false,"is_transit":false,"i_long":106.850107,"station_id":"GST","time":8,"station_name":"Gang Sentiong","i_lat":-6.185975},{"is_transit":false,"station_name":"Kramat","line":11,"i_long":106.855437,"distance":973,"station_id":"KMT","transit":false,"time":1,"i_lat":-6.193792},{"station_id":"POK","time":2,"station_name":"Pondok Jati","distance":1829,"i_lat":-6.209188,"i_long":106.861737,"line":11,"transit":false,"is_transit":false},{"i_lat":-6.215091,"station_id":"JNG","transit":true,"time":9,"station_name":"Jatinegara","line":1,"i_long":106.86807400000001,"distance":1236,"is_transit":true},{"line":1,"station_name":"Klender","station_id":"KLD","transit":false,"i_lat":-6.2135,"distance":3395,"is_transit":false,"time":3,"i_long":106.899548},{"i_lat":-6.215568,"station_id":"BUA","distance":3100,"is_transit":false,"transit":false,"time":2,"station_name":"Buaran","i_long":106.922662,"line":1},{"station_name":"Klenderbaru","is_transit":false,"time":1,"i_long":106.939679,"distance":1305,"i_lat":-6.217455,"line":1,"station_id":"KLDB","transit":false},{"transit":false,"i_long":106.951283,"line":1,"i_lat":-6.219053,"time":8,"is_transit":false,"station_name":"Cakung","distance":1385,"station_id":"CUK"},{"is_transit":false,"line":1,"station_name":"Kranji","transit":false,"i_long":106.977657,"i_lat":-6.224515,"distance":3097,"station_id":"KRI","time":3},{"station_name":"Bekasi","station_id":"BKS","i_lat":-6.236616,"time":4,"line":1,"transit":false,"i_long":106.997013,"is_transit":false,"distance":2520}]]}