{"data":[[{"station_id":"KAT","is_transit":false,"i_lat":-6.20132,"line":1,"distance":0,"time":0,"i_long":106.816351,"transit":false,"station_name":"Karet"},{"is_transit":false,"distance":471,"station_name":"Sudirman Baru","time":1,"i_lat":-6.201433,"line":1,"station_id":"SUDB","transit":false,"i_long":106.819881},{"station_name":"Sudirman","is_transit":false,"time":1,"station_id":"SUD","distance":280,"transit":false,"i_lat":-6.202263,"i_long":106.822649,"line":1},{"station_id":"MRI","station_name":"Manggarai","distance":3186,"i_lat":-6.209883,"transit":false,"time":4,"line":0,"i_long":106.84912,"is_transit":true},{"station_id":"MTR","station_name":"Matraman","time":2,"distance":1275,"is_transit":false,"i_long":106.858896,"line":1,"transit":false,"i_lat":-6.212485},{"station_id":"JNG","transit":false,"time":8,"station_name":"Jatinegara","i_lat":-6.215091,"i_long":106.86807400000001,"line":0,"is_transit":true,"distance":1377},{"i_lat":-6.2135,"station_id":"KLD","distance":3395,"line":1,"station_name":"Klender","time":3,"is_transit":false,"transit":false,"i_long":106.899548},{"i_lat":-6.215568,"is_transit":false,"transit":false,"line":0,"distance":3100,"time":2,"station_id":"BUA","i_long":106.922662,"station_name":"Buaran"},{"station_id":"KLDB","is_transit":false,"time":1,"distance":1305,"station_name":"Klenderbaru","i_long":106.939679,"line":1,"transit":false,"i_lat":-6.217455},{"transit":false,"line":0,"distance":1385,"station_name":"Cakung","is_transit":false,"i_long":106.951283,"i_lat":-6.219053,"time":8,"station_id":"CUK"},{"station_id":"KRI","station_name":"Kranji","transit":false,"is_transit":false,"i_lat":-6.224515,"line":1,"distance":3097,"i_long":106.977657,"time":3},{"time":4,"station_id":"BKS","station_name":"Bekasi","distance":2520,"transit":false,"is_transit":false,"i_lat":-6.236616,"i_long":106.997013,"line":0},{"transit":false,"distance":2368,"is_transit":false,"i_lat":-6.248029,"line":0,"station_name":"Bekasi Timur","time":2,"i_long":107.016735,"station_id":"BKST"},{"station_id":"TB","line":1,"station_name":"Tambun","distance":4460,"transit":false,"i_lat":-6.258864,"time":7,"i_long":107.055722,"is_transit":false},{"transit":false,"i_lat":-6.261877,"is_transit":false,"i_long":107.083084,"line":0,"station_id":"CIT","distance":3420,"station_name":"Cibitung","time":3},{"line":1,"transit":false,"is_transit":false,"i_lat":-6.262938,"i_long":107.093313,"station_name":"Metland Telaga Murni","time":2,"distance":2800,"station_id":"TLM"},{"line":0,"station_id":"CKR","distance":3689,"i_lat":-6.2553149999999995,"is_transit":false,"transit":false,"time":4,"station_name":"Cikarang","i_long":107.144613}],[{"distance":0,"i_long":106.816351,"line":1,"station_name":"Karet","time":0,"transit":false,"station_id":"KAT","is_transit":false,"i_lat":-6.20132},{"line":1,"station_id":"THB","station_name":"Tanah Abang","i_long":106.811091,"i_lat":-6.185545,"is_transit":true,"distance":2029,"transit":false,"time":5},{"time":8,"station_id":"DU","transit":true,"station_name":"Duri","i_lat":-6.155215,"i_long":106.800832,"line":1,"distance":3632,"is_transit":true},{"line":0,"i_lat":-6.144674,"distance":1230,"station_id":"AK","transit":false,"station_name":"Angke","is_transit":false,"i_long":106.79867,"time":4},{"station_id":"KPB","time":9,"distance":4102,"transit":true,"i_long":106.826365,"line":0,"station_name":"Kampung Bandan","i_lat":-6.132549,"is_transit":true},{"distance":1444,"station_name":"Rajawali","transit":false,"i_long":106.836569,"station_id":"RJW","time":3,"is_transit":false,"line":11,"i_lat":-6.14505},{"time":5,"station_name":"Kemayoran","transit":false,"line":11,"i_lat":-6.161728,"distance":1901,"i_long":106.839204,"is_transit":false,"station_id":"KMO"},{"is_transit":false,"time":4,"line":11,"transit":false,"distance":1436,"station_id":"PSE","i_lat":-6.174784,"station_name":"Pasar Senen","i_long":106.84368},{"line":11,"is_transit":false,"distance":1567,"time":8,"i_long":106.850107,"station_id":"GST","i_lat":-6.185975,"transit":false,"station_name":"Gang Sentiong"},{"distance":973,"is_transit":false,"transit":false,"i_long":106.855437,"time":1,"station_name":"Kramat","i_lat":-6.193792,"line":11,"station_id":"KMT"},{"station_name":"Pondok Jati","i_lat":-6.209188,"line":11,"is_transit":false,"distance":1829,"time":2,"transit":false,"i_long":106.861737,"station_id":"POK"},{"station_id":"JNG","station_name":"Jatinegara","is_transit":true,"time":9,"distance":1236,"transit":true,"i_lat":-6.215091,"i_long":106.86807400000001,"line":0},{"distance":3395,"is_transit":false,"station_id":"KLD","i_lat":-6.2135,"time":3,"station_name":"Klender","line":1,"transit":false,"i_long":106.899548},{"transit":false,"i_lat":-6.215568,"line":0,"i_long":106.922662,"time":2,"station_name":"Buaran","station_id":"BUA","distance":3100,"is_transit":false},{"transit":false,"i_long":106.939679,"line":1,"station_id":"KLDB","station_name":"Klenderbaru","is_transit":false,"distance":1305,"i_lat":-6.217455,"time":1},{"station_id":"CUK","station_name":"Cakung","distance":1385,"i_lat":-6.219053,"i_long":106.951283,"is_transit":false,"time":8,"line":0,"transit":false},{"transit":false,"station_id":"KRI","is_transit":false,"i_long":106.977657,"line":1,"time":3,"distance":3097,"i_lat":-6.224515,"station_name":"Kranji"},{"station_name":"Bekasi","is_transit":false,"time":4,"distance":2520,"i_lat":-6.236616,"line":0,"transit":false,"station_id":"BKS","i_long":106.997013},{"transit":false,"station_id":"BKST","distance":2368,"i_long":107.016735,"time":2,"i_lat":-6.248029,"line":0,"station_name":"Bekasi Timur","is_transit":false},{"station_id":"TB","is_transit":false,"line":1,"transit":false,"i_long":107.055722,"time":7,"station_name":"Tambun","distance":4460,"i_lat":-6.258864},{"time":3,"transit":false,"station_name":"Cibitung","i_long":107.083084,"i_lat":-6.261877,"is_transit":false,"distance":3420,"line":0,"station_id":"CIT"},{"time":2,"station_id":"TLM","line":1,"station_name":"Metland Telaga Murni","transit":false,"i_long":107.093313,"i_lat":-6.262938,"distance":2800,"is_transit":false},{"transit":false,"is_transit":false,"i_lat":-6.2553149999999995,"i_long":107.144613,"line":0,"station_id":"CKR","station_name":"Cikarang","time":4,"distance":3689}],[{"time":0,"transit":false,"distance":0,"i_lat":-6.20132,"station_id":"KAT","station_name":"Karet","i_long":106.816351,"line":1,"is_transit":false},{"station_name":"Tanah Abang","station_id":"THB","distance":2029,"is_transit":true,"line":1,"time":5,"transit":false,"i_long":106.811091,"i_lat":-6.185545},{"line":1,"i_lat":-6.155215,"i_long":106.800832,"time":8,"station_id":"DU","is_transit":true,"station_name":"Duri","distance":3632,"transit":true},{"i_long":106.79867,"line":0,"station_id":"AK","transit":false,"time":4,"station_name":"Angke","is_transit":false,"distance":1230,"i_lat":-6.144674},{"station_name":"Kampung Bandan","is_transit":true,"time":9,"distance":4102,"station_id":"KPB","transit":false,"i_lat":-6.132549,"i_long":106.826365,"line":0},{"station_name":"Jakarta Kota","i_long":106.812439,"line":0,"distance":1364,"time":3,"transit":true,"i_lat":-6.137569,"is_transit":true,"station_id":"JAKK"},{"time":4,"i_long":106.820901,"station_id":"JAY","is_transit":false,"transit":false,"distance":1264,"i_lat":-6.141205,"line":7,"station_name":"Jayakarta"},{"i_lat":-6.149769,"line":2,"station_id":"MGB","station_name":"Manggabesar","distance":1080,"transit":false,"i_long":106.82482,"is_transit":false,"time":2},{"time":2,"line":2,"is_transit":false,"distance":906,"i_long":106.827103,"station_id":"SW","transit":false,"i_lat":-6.160725,"station_name":"Sawah Besar"},{"i_long":106.828284,"distance":1149,"transit":false,"station_id":"JUA","i_lat":-6.166716,"is_transit":false,"time":2,"line":2,"station_name":"Juanda"},{"distance":2015,"i_long":106.832183,"i_lat":-6.186295,"line":2,"time":4,"is_transit":false,"station_id":"GDD","transit":false,"station_name":"Gondangdia"},{"transit":false,"i_lat":-6.198556,"i_long":106.840169,"is_transit":false,"line":0,"distance":1750,"station_id":"CKI","station_name":"Cikini","time":3},{"i_long":106.84912,"line":0,"station_id":"MRI","station_name":"Manggarai","distance":1590,"time":4,"transit":true,"i_lat":-6.209883,"is_transit":true},{"station_id":"MTR","is_transit":false,"time":2,"transit":false,"i_lat":-6.212485,"station_name":"Matraman","i_long":106.858896,"line":1,"distance":1275},{"transit":false,"i_lat":-6.215091,"is_transit":true,"distance":1377,"i_long":106.86807400000001,"station_id":"JNG","line":0,"station_name":"Jatinegara","time":8},{"distance":3395,"transit":false,"i_lat":-6.2135,"station_id":"KLD","is_transit":false,"line":1,"station_name":"Klender","i_long":106.899548,"time":3},{"i_lat":-6.215568,"is_transit":false,"station_name":"Buaran","station_id":"BUA","time":2,"line":0,"distance":3100,"i_long":106.922662,"transit":false},{"line":1,"is_transit":false,"station_name":"Klenderbaru","transit":false,"i_long":106.939679,"station_id":"KLDB","time":1,"distance":1305,"i_lat":-6.217455},{"station_name":"Cakung","i_lat":-6.219053,"station_id":"CUK","is_transit":false,"transit":false,"time":8,"i_long":106.951283,"line":0,"distance":1385},{"line":1,"station_name":"Kranji","time":3,"transit":false,"i_lat":-6.224515,"is_transit":false,"i_long":106.977657,"station_id":"KRI","distance":3097},{"station_id":"BKS","time":4,"distance":2520,"line":0,"i_lat":-6.236616,"is_transit":false,"i_long":106.997013,"station_name":"Bekasi","transit":false},{"i_long":107.016735,"station_name":"Bekasi Timur","time":2,"distance":2368,"line":0,"i_lat":-6.248029,"station_id":"BKST","transit":false,"is_transit":false},{"time":7,"station_id":"TB","is_transit":false,"station_name":"Tambun","transit":false,"i_long":107.055722,"distance":4460,"line":1,"i_lat":-6.258864},{"line":0,"time":3,"station_name":"Cibitung","transit":false,"distance":3420,"station_id":"CIT","is_transit":false,"i_long":107.083084,"i_lat":-6.261877},{"distance":2800,"i_lat":-6.262938,"station_name":"Metland Telaga Murni","is_transit":false,"i_long":107.093313,"station_id":"TLM","time":2,"line":1,"transit":false},{"distance":3689,"time":4,"line":0,"station_name":"Cikarang","is_transit":false,"station_id":"CKR","transit":false,"i_lat":-6.2553149999999995,"i_long":107.144613}],[{"transit":false,"station_id":"KAT","is_transit":false,"station_name":"Karet","i_long":106.816351,"line":1,"time":0,"i_lat":-6.20132,"distance":0},{"is_transit":false,"time":1,"station_name":"Sudirman Baru","distance":471,"line":1,"i_long":106.819881,"i_lat":-6.201433,"transit":false,"station_id":"SUDB"},{"distance":280,"station_name":"Sudirman","time":1,"transit":false,"i_long":106.822649,"is_transit":false,"station_id":"SUD","line":1,"i_lat":-6.202263},{"i_lat":-6.209883,"line":0,"is_transit":true,"time":4,"i_long":106.84912,"station_name":"Manggarai","transit":true,"station_id":"MRI","distance":3186},{"station_name":"Cikini","time":4,"distance":1590,"i_long":106.840169,"is_transit":false,"station_id":"CKI","transit":false,"i_lat":-6.198556,"line":0},{"is_transit":false,"i_long":106.832183,"line":2,"time":3,"station_id":"GDD","distance":1750,"transit":false,"i_lat":-6.186295,"station_name":"Gondangdia"},{"i_long":106.828284,"is_transit":false,"station_id":"JUA","time":4,"transit":false,"i_lat":-6.166716,"line":2,"station_name":"Juanda","distance":2015},{"time":2,"transit":false,"station_name":"Sawah Besar","station_id":"SW","is_transit":false,"distance":1149,"i_lat":-6.160725,"i_long":106.827103,"line":2},{"transit":false,"i_lat":-6.149769,"line":2,"is_transit":false,"i_long":106.82482,"station_name":"Manggabesar","time":2,"station_id":"MGB","distance":906},{"is_transit":false,"station_name":"Jayakarta","line":7,"transit":false,"distance":1080,"i_lat":-6.141205,"i_long":106.820901,"station_id":"JAY","time":2},{"i_long":106.812439,"is_transit":true,"distance":1264,"transit":true,"station_id":"JAKK","time":4,"line":0,"i_lat":-6.137569,"station_name":"Jakarta Kota"},{"station_name":"Kampung Bandan","distance":1364,"transit":true,"i_long":106.826365,"line":0,"is_transit":true,"i_lat":-6.132549,"time":3,"station_id":"KPB"},{"i_long":106.836569,"station_name":"Rajawali","is_transit":false,"i_lat":-6.14505,"line":11,"time":3,"distance":1444,"station_id":"RJW","transit":false},{"i_lat":-6.161728,"distance":1901,"station_id":"KMO","time":5,"line":11,"is_transit":false,"i_long":106.839204,"transit":false,"station_name":"Kemayoran"},{"station_name":"Pasar Senen","i_lat":-6.174784,"time":4,"line":11,"transit":false,"is_transit":false,"distance":1436,"station_id":"PSE","i_long":106.84368},{"is_transit":false,"station_id":"GST","distance":1567,"time":8,"transit":false,"line":11,"station_name":"Gang Sentiong","i_lat":-6.185975,"i_long":106.850107},{"station_id":"KMT","station_name":"Kramat","time":1,"is_transit":false,"distance":973,"transit":false,"i_lat":-6.193792,"line":11,"i_long":106.855437},{"i_long":106.861737,"station_name":"Pondok Jati","is_transit":false,"line":11,"transit":false,"station_id":"POK","i_lat":-6.209188,"time":2,"distance":1829},{"line":0,"time":9,"i_lat":-6.215091,"station_id":"JNG","transit":true,"station_name":"Jatinegara","i_long":106.86807400000001,"distance":1236,"is_transit":true},{"is_transit":false,"i_long":106.899548,"distance":3395,"transit":false,"station_id":"KLD","line":1,"station_name":"Klender","time":3,"i_lat":-6.2135},{"station_name":"Buaran","is_transit":false,"distance":3100,"line":0,"transit":false,"station_id":"BUA","time":2,"i_long":106.922662,"i_lat":-6.215568},{"i_long":106.939679,"station_name":"Klenderbaru","transit":false,"time":1,"line":1,"distance":1305,"is_transit":false,"i_lat":-6.217455,"station_id":"KLDB"},{"transit":false,"i_lat":-6.219053,"station_name":"Cakung","station_id":"CUK","is_transit":false,"i_long":106.951283,"line":0,"time":8,"distance":1385},{"transit":false,"is_transit":false,"line":1,"i_lat":-6.224515,"i_long":106.977657,"station_id":"KRI","time":3,"station_name":"Kranji","distance":3097},{"transit":false,"i_long":106.997013,"line":0,"is_transit":false,"time":4,"distance":2520,"station_name":"Bekasi","i_lat":-6.236616,"station_id":"BKS"},{"i_long":107.016735,"station_id":"BKST","line":0,"is_transit":false,"distance":2368,"transit":false,"i_lat":-6.248029,"station_name":"Bekasi Timur","time":2},{"station_id":"TB","time":7,"distance":4460,"i_lat":-6.258864,"station_name":"Tambun","line":1,"is_transit":false,"i_long":107.055722,"transit":false},{"distance":3420,"i_lat":-6.261877,"transit":false,"station_name":"Cibitung","time":3,"line":0,"station_id":"CIT","is_transit":false,"i_long":107.083084},{"station_id":"TLM","distance":2800,"station_name":"Metland Telaga Murni","i_lat":-6.262938,"i_long":107.093313,"is_transit":false,"transit":false,"time":2,"line":1},{"i_long":107.144613,"i_lat":-6.2553149999999995,"line":0,"transit":false,"distance":3689,"is_transit":false,"station_name":"Cikarang","time":4,"station_id":"CKR"}]]}