{"data":[[{"line":1,"distance":0,"time":0,"is_transit":false,"i_long":106.816351,"transit":false,"station_id":"KAT","i_lat":-6.20132,"station_name":"Karet"},{"i_lat":-6.201433,"transit":false,"station_id":"SUDB","is_transit":false,"time":1,"distance":471,"station_name":"Sudirman Baru","i_long":106.819881,"line":1},{"time":1,"distance":280,"transit":false,"i_lat":-6.202263,"line":1,"station_id":"SUD","station_name":"Sudirman","i_long":106.822649,"is_transit":false},{"i_lat":-6.209883,"time":4,"station_name":"Manggarai","station_id":"MRI","line":2,"transit":false,"i_long":106.84912,"distance":3186,"is_transit":false},{"i_lat":-6.212485,"station_id":"MTR","transit":false,"time":2,"distance":1275,"station_name":"Matraman","i_long":106.858896,"line":1,"is_transit":false},{"distance":1377,"station_name":"Jatinegara","transit":false,"station_id":"JNG","i_lat":-6.215091,"is_transit":false,"time":8,"i_long":106.86807400000001,"line":1},{"i_long":106.899548,"transit":false,"line":1,"time":3,"station_id":"KLD","is_transit":false,"distance":3395,"station_name":"Klender","i_lat":-6.2135},{"station_name":"Buaran","time":2,"is_transit":false,"i_lat":-6.215568,"i_long":106.922662,"line":1,"distance":3100,"station_id":"BUA","transit":false},{"i_long":106.939679,"line":1,"is_transit":false,"i_lat":-6.217455,"distance":1305,"station_name":"Klenderbaru","time":1,"transit":false,"station_id":"KLDB"},{"station_name":"Cakung","distance":1385,"transit":false,"is_transit":false,"time":8,"station_id":"CUK","i_long":106.951283,"line":1,"i_lat":-6.219053},{"station_name":"Kranji","is_transit":false,"i_long":106.977657,"line":1,"i_lat":-6.224515,"transit":false,"distance":3097,"station_id":"KRI","time":3},{"line":1,"is_transit":false,"transit":false,"station_name":"Bekasi","time":4,"distance":2520,"station_id":"BKS","i_lat":-6.236616,"i_long":106.997013},{"distance":2368,"station_id":"BKST","is_transit":false,"i_lat":-6.248029,"line":1,"time":2,"transit":false,"i_long":107.016735,"station_name":"Bekasi Timur"},{"station_id":"TB","time":7,"distance":4460,"transit":false,"is_transit":false,"station_name":"Tambun","i_long":107.055722,"line":1,"i_lat":-6.258864},{"station_name":"Cibitung","transit":false,"station_id":"CIT","is_transit":false,"line":1,"time":3,"i_lat":-6.261877,"i_long":107.083084,"distance":3420}],[{"transit":false,"i_long":106.816351,"distance":0,"time":0,"station_name":"Karet","station_id":"KAT","is_transit":false,"i_lat":-6.20132,"line":1},{"station_name":"Tanah Abang","is_transit":false,"i_long":106.811091,"i_lat":-6.185545,"transit":false,"time":5,"station_id":"THB","line":1,"distance":2029},{"line":1,"transit":false,"station_name":"Duri","i_long":106.800832,"station_id":"DU","time":8,"distance":3632,"is_transit":false,"i_lat":-6.155215},{"time":4,"station_name":"Angke","transit":false,"is_transit":false,"station_id":"AK","i_long":106.79867,"line":1,"i_lat":-6.144674,"distance":1230},{"time":9,"station_id":"KPB","distance":4102,"transit":true,"i_lat":-6.132549,"station_name":"Kampung Bandan","is_transit":true,"i_long":106.826365,"line":4},{"is_transit":false,"transit":false,"station_id":"RJW","line":11,"time":3,"i_long":106.836569,"station_name":"Rajawali","i_lat":-6.14505,"distance":1444},{"transit":false,"station_id":"KMO","station_name":"Kemayoran","i_long":106.839204,"time":5,"i_lat":-6.161728,"distance":1901,"is_transit":false,"line":11},{"i_long":106.84368,"time":4,"station_name":"Pasar Senen","line":11,"is_transit":false,"i_lat":-6.174784,"station_id":"PSE","distance":1436,"transit":false},{"i_lat":-6.185975,"is_transit":false,"time":8,"station_id":"GST","transit":false,"station_name":"Gang Sentiong","distance":1567,"i_long":106.850107,"line":11},{"distance":973,"i_lat":-6.193792,"time":1,"station_id":"KMT","is_transit":false,"station_name":"Kramat","line":11,"i_long":106.855437,"transit":false},{"distance":1829,"station_id":"POK","station_name":"Pondok Jati","is_transit":false,"transit":false,"i_lat":-6.209188,"line":11,"time":2,"i_long":106.861737},{"is_transit":true,"line":1,"station_name":"Jatinegara","distance":1236,"i_lat":-6.215091,"station_id":"JNG","time":9,"transit":true,"i_long":106.86807400000001},{"time":3,"i_lat":-6.2135,"distance":3395,"is_transit":false,"station_name":"Klender","i_long":106.899548,"line":1,"transit":false,"station_id":"KLD"},{"distance":3100,"station_name":"Buaran","i_long":106.922662,"time":2,"station_id":"BUA","line":1,"transit":false,"is_transit":false,"i_lat":-6.215568},{"is_transit":false,"i_lat":-6.217455,"transit":false,"station_id":"KLDB","i_long":106.939679,"distance":1305,"line":1,"station_name":"Klenderbaru","time":1},{"transit":false,"i_long":106.951283,"distance":1385,"station_name":"Cakung","station_id":"CUK","is_transit":false,"i_lat":-6.219053,"line":1,"time":8},{"is_transit":false,"station_name":"Kranji","distance":3097,"line":1,"i_lat":-6.224515,"station_id":"KRI","transit":false,"i_long":106.977657,"time":3},{"is_transit":false,"i_long":106.997013,"station_name":"Bekasi","transit":false,"station_id":"BKS","time":4,"line":1,"distance":2520,"i_lat":-6.236616},{"station_name":"Bekasi Timur","time":2,"transit":false,"station_id":"BKST","i_lat":-6.248029,"i_long":107.016735,"distance":2368,"line":1,"is_transit":false},{"i_lat":-6.258864,"transit":false,"i_long":107.055722,"line":1,"time":7,"is_transit":false,"station_id":"TB","distance":4460,"station_name":"Tambun"},{"distance":3420,"time":3,"station_id":"CIT","station_name":"Cibitung","is_transit":false,"i_lat":-6.261877,"i_long":107.083084,"line":1,"transit":false}],[{"time":0,"transit":false,"i_long":106.816351,"station_name":"Karet","distance":0,"station_id":"KAT","i_lat":-6.20132,"is_transit":false,"line":1},{"transit":false,"i_lat":-6.185545,"is_transit":false,"time":5,"i_long":106.811091,"station_id":"THB","station_name":"Tanah Abang","line":1,"distance":2029},{"time":8,"station_id":"DU","i_long":106.800832,"transit":false,"distance":3632,"is_transit":false,"station_name":"Duri","i_lat":-6.155215,"line":1},{"station_name":"Angke","i_long":106.79867,"is_transit":false,"transit":false,"i_lat":-6.144674,"time":4,"distance":1230,"station_id":"AK","line":1},{"station_id":"KPB","transit":true,"is_transit":true,"station_name":"Kampung Bandan","line":4,"time":9,"distance":4102,"i_lat":-6.132549,"i_long":106.826365},{"station_name":"Jakarta Kota","is_transit":true,"time":3,"i_lat":-6.137569,"i_long":106.812439,"line":2,"transit":true,"station_id":"JAKK","distance":1364},{"transit":false,"distance":1264,"time":4,"station_id":"JAY","is_transit":false,"i_long":106.820901,"station_name":"Jayakarta","line":2,"i_lat":-6.141205},{"time":2,"transit":false,"station_name":"Manggabesar","i_lat":-6.149769,"i_long":106.82482,"is_transit":false,"line":2,"distance":1080,"station_id":"MGB"},{"line":2,"time":2,"transit":false,"station_id":"SW","is_transit":false,"i_long":106.827103,"i_lat":-6.160725,"distance":906,"station_name":"Sawah Besar"},{"station_id":"JUA","i_long":106.828284,"is_transit":false,"line":2,"time":2,"i_lat":-6.166716,"distance":1149,"station_name":"Juanda","transit":false},{"station_name":"Gondangdia","i_long":106.832183,"time":4,"station_id":"GDD","transit":false,"is_transit":false,"line":2,"distance":2015,"i_lat":-6.186295},{"i_lat":-6.198556,"station_id":"CKI","line":2,"time":3,"is_transit":false,"i_long":106.840169,"distance":1750,"transit":false,"station_name":"Cikini"},{"line":2,"i_lat":-6.209883,"i_long":106.84912,"is_transit":true,"station_name":"Manggarai","distance":1590,"time":4,"transit":true,"station_id":"MRI"},{"distance":1275,"i_long":106.858896,"is_transit":false,"station_name":"Matraman","time":2,"transit":false,"station_id":"MTR","i_lat":-6.212485,"line":1},{"time":8,"distance":1377,"i_lat":-6.215091,"i_long":106.86807400000001,"line":1,"transit":false,"station_id":"JNG","station_name":"Jatinegara","is_transit":false},{"distance":3395,"time":3,"is_transit":false,"i_lat":-6.2135,"station_name":"Klender","i_long":106.899548,"line":1,"station_id":"KLD","transit":false},{"station_id":"BUA","is_transit":false,"i_lat":-6.215568,"distance":3100,"station_name":"Buaran","i_long":106.922662,"line":1,"time":2,"transit":false},{"i_long":106.939679,"time":1,"transit":false,"is_transit":false,"station_name":"Klenderbaru","i_lat":-6.217455,"distance":1305,"station_id":"KLDB","line":1},{"station_name":"Cakung","distance":1385,"i_lat":-6.219053,"time":8,"line":1,"station_id":"CUK","is_transit":false,"i_long":106.951283,"transit":false},{"line":1,"station_name":"Kranji","time":3,"is_transit":false,"transit":false,"i_lat":-6.224515,"i_long":106.977657,"distance":3097,"station_id":"KRI"},{"distance":2520,"is_transit":false,"time":4,"i_lat":-6.236616,"i_long":106.997013,"line":1,"transit":false,"station_name":"Bekasi","station_id":"BKS"},{"distance":2368,"transit":false,"station_id":"BKST","station_name":"Bekasi Timur","is_transit":false,"line":1,"i_lat":-6.248029,"i_long":107.016735,"time":2},{"station_id":"TB","transit":false,"i_long":107.055722,"i_lat":-6.258864,"line":1,"is_transit":false,"station_name":"Tambun","distance":4460,"time":7},{"station_name":"Cibitung","time":3,"transit":false,"is_transit":false,"distance":3420,"i_lat":-6.261877,"i_long":107.083084,"line":1,"station_id":"CIT"}],[{"i_long":106.816351,"i_lat":-6.20132,"station_id":"KAT","time":0,"is_transit":false,"line":1,"transit":false,"station_name":"Karet","distance":0},{"station_id":"SUDB","i_lat":-6.201433,"line":1,"is_transit":false,"station_name":"Sudirman Baru","i_long":106.819881,"time":1,"distance":471,"transit":false},{"distance":280,"i_long":106.822649,"station_name":"Sudirman","is_transit":false,"transit":false,"line":1,"time":1,"i_lat":-6.202263,"station_id":"SUD"},{"station_name":"Manggarai","station_id":"MRI","distance":3186,"line":2,"i_lat":-6.209883,"time":4,"is_transit":true,"i_long":106.84912,"transit":true},{"transit":false,"station_id":"CKI","station_name":"Cikini","is_transit":false,"time":4,"i_lat":-6.198556,"distance":1590,"i_long":106.840169,"line":2},{"time":3,"distance":1750,"i_lat":-6.186295,"transit":false,"is_transit":false,"station_id":"GDD","station_name":"Gondangdia","i_long":106.832183,"line":2},{"i_lat":-6.166716,"time":4,"i_long":106.828284,"line":2,"is_transit":false,"transit":false,"station_id":"JUA","station_name":"Juanda","distance":2015},{"i_lat":-6.160725,"station_name":"Sawah Besar","i_long":106.827103,"distance":1149,"is_transit":false,"line":2,"transit":false,"time":2,"station_id":"SW"},{"time":2,"station_id":"MGB","distance":906,"transit":false,"is_transit":false,"station_name":"Manggabesar","i_long":106.82482,"line":2,"i_lat":-6.149769},{"is_transit":false,"transit":false,"station_name":"Jayakarta","i_long":106.820901,"line":2,"station_id":"JAY","i_lat":-6.141205,"distance":1080,"time":2},{"i_long":106.812439,"line":2,"distance":1264,"time":4,"station_id":"JAKK","i_lat":-6.137569,"transit":true,"station_name":"Jakarta Kota","is_transit":true},{"station_id":"KPB","i_lat":-6.132549,"is_transit":true,"distance":1364,"station_name":"Kampung Bandan","transit":true,"time":3,"line":4,"i_long":106.826365},{"line":11,"station_name":"Rajawali","i_long":106.836569,"distance":1444,"time":3,"station_id":"RJW","i_lat":-6.14505,"is_transit":false,"transit":false},{"transit":false,"station_name":"Kemayoran","is_transit":false,"distance":1901,"i_long":106.839204,"line":11,"station_id":"KMO","time":5,"i_lat":-6.161728},{"time":4,"transit":false,"station_id":"PSE","is_transit":false,"distance":1436,"i_long":106.84368,"line":11,"station_name":"Pasar Senen","i_lat":-6.174784},{"i_long":106.850107,"distance":1567,"line":11,"time":8,"station_id":"GST","is_transit":false,"transit":false,"i_lat":-6.185975,"station_name":"Gang Sentiong"},{"time":1,"station_name":"Kramat","is_transit":false,"i_lat":-6.193792,"distance":973,"station_id":"KMT","transit":false,"line":11,"i_long":106.855437},{"i_lat":-6.209188,"station_name":"Pondok Jati","distance":1829,"station_id":"POK","line":11,"i_long":106.861737,"transit":false,"is_transit":false,"time":2},{"station_id":"JNG","i_long":106.86807400000001,"distance":1236,"transit":true,"i_lat":-6.215091,"line":1,"time":9,"station_name":"Jatinegara","is_transit":true},{"transit":false,"distance":3395,"station_id":"KLD","is_transit":false,"i_long":106.899548,"i_lat":-6.2135,"time":3,"line":1,"station_name":"Klender"},{"distance":3100,"transit":false,"station_id":"BUA","station_name":"Buaran","i_lat":-6.215568,"i_long":106.922662,"is_transit":false,"time":2,"line":1},{"i_long":106.939679,"station_name":"Klenderbaru","is_transit":false,"i_lat":-6.217455,"line":1,"transit":false,"distance":1305,"time":1,"station_id":"KLDB"},{"distance":1385,"i_long":106.951283,"line":1,"is_transit":false,"time":8,"station_name":"Cakung","transit":false,"station_id":"CUK","i_lat":-6.219053},{"transit":false,"time":3,"i_lat":-6.224515,"is_transit":false,"station_id":"KRI","line":1,"distance":3097,"station_name":"Kranji","i_long":106.977657},{"i_long":106.997013,"station_name":"Bekasi","line":1,"i_lat":-6.236616,"station_id":"BKS","time":4,"is_transit":false,"transit":false,"distance":2520},{"distance":2368,"transit":false,"line":1,"station_name":"Bekasi Timur","i_long":107.016735,"is_transit":false,"time":2,"station_id":"BKST","i_lat":-6.248029},{"station_name":"Tambun","is_transit":false,"i_long":107.055722,"transit":false,"i_lat":-6.258864,"time":7,"line":1,"distance":4460,"station_id":"TB"},{"i_lat":-6.261877,"line":1,"time":3,"i_long":107.083084,"is_transit":false,"distance":3420,"station_name":"Cibitung","transit":false,"station_id":"CIT"}]]}