{"data":[[{"i_lat":-6.20132,"is_transit":false,"station_name":"Karet","station_id":"KAT","transit":false,"distance":0,"time":0,"line":1,"i_long":106.816351},{"is_transit":false,"line":1,"distance":471,"i_long":106.819881,"transit":false,"time":1,"station_id":"SUDB","i_lat":-6.201433,"station_name":"Sudirman Baru"},{"line":1,"station_id":"SUD","i_lat":-6.202263,"station_name":"Sudirman","distance":280,"transit":false,"time":1,"is_transit":false,"i_long":106.822649},{"i_lat":-6.209883,"transit":true,"distance":3186,"i_long":106.84912,"station_id":"MRI","station_name":"Manggarai","is_transit":true,"time":4,"line":2},{"i_lat":-6.226659,"i_long":106.857948,"time":4,"station_id":"TEB","distance":2610,"is_transit":false,"transit":false,"station_name":"Tebet","line":2},{"station_name":"Cawang","distance":1230,"i_long":106.856607,"i_lat":-6.242512,"transit":false,"line":2,"time":2,"station_id":"CW","is_transit":false},{"line":2,"i_long":106.85449,"distance":1546,"is_transit":false,"i_lat":-6.255332,"station_id":"DRN","station_name":"Duren Kalibata","transit":false,"time":3},{"station_name":"Pasar Minggu Baru","station_id":"PSMB","distance":824,"is_transit":false,"i_long":106.851577,"time":2,"line":2,"i_lat":-6.263214,"transit":false},{"station_name":"Pasar Minggu","transit":false,"time":2,"is_transit":false,"i_lat":-6.2842400000000005,"line":2,"i_long":106.843999,"station_id":"PSM","distance":2380},{"line":2,"i_lat":-6.3080680000000005,"i_long":106.838896,"station_id":"TNT","transit":false,"station_name":"Tanjung Barat","time":4,"distance":2820,"is_transit":false},{"is_transit":false,"line":2,"distance":2671,"i_lat":-6.330363,"station_name":"Lenteng Agung","station_id":"LNA","transit":false,"time":3,"i_long":106.832616},{"station_name":"Univ. Pancasila","transit":false,"line":2,"is_transit":false,"station_id":"UP","time":2,"i_lat":-6.339291,"distance":1029,"i_long":106.834175},{"station_id":"UI","i_long":106.831474,"line":2,"transit":false,"station_name":"Univ. Indonesia","time":3,"distance":2264,"is_transit":false,"i_lat":-6.360749},{"time":2,"station_name":"Pondok Cina","i_lat":-6.369073,"is_transit":false,"i_long":106.831114,"transit":false,"line":2,"distance":1109,"station_id":"POC"},{"line":2,"i_lat":-6.391065,"time":4,"i_long":106.819451,"station_name":"Depokbaru","station_id":"DPB","distance":2727,"transit":false,"is_transit":false},{"i_lat":-6.405256,"station_id":"DP","transit":false,"distance":1584,"station_name":"Depok","time":3,"is_transit":false,"i_long":106.816926,"line":2},{"station_id":"CTA","distance":5084,"transit":false,"time":6,"is_transit":false,"i_lat":-6.448811,"i_long":106.800298,"station_name":"Citayam","line":2},{"i_lat":-6.493243,"line":2,"i_long":106.792719,"time":5,"is_transit":false,"transit":false,"station_name":"Bojonggede","station_id":"BJD","distance":5197}],[{"station_id":"KAT","time":0,"station_name":"Karet","i_long":106.816351,"transit":false,"is_transit":false,"distance":0,"i_lat":-6.20132,"line":1},{"line":1,"is_transit":false,"transit":false,"distance":2029,"time":5,"i_long":106.811091,"station_id":"THB","station_name":"Tanah Abang","i_lat":-6.185545},{"station_id":"DU","i_long":106.800832,"transit":false,"distance":3632,"i_lat":-6.155215,"time":8,"is_transit":false,"line":1,"station_name":"Duri"},{"line":1,"time":4,"is_transit":false,"i_lat":-6.144674,"transit":false,"distance":1230,"station_name":"Angke","i_long":106.79867,"station_id":"AK"},{"station_id":"KPB","transit":true,"distance":4102,"i_lat":-6.132549,"line":4,"is_transit":true,"i_long":106.826365,"station_name":"Kampung Bandan","time":9},{"station_id":"JAKK","transit":true,"i_lat":-6.137569,"i_long":106.812439,"time":3,"is_transit":true,"station_name":"Jakarta Kota","line":2,"distance":1364},{"distance":1264,"i_long":106.820901,"line":2,"station_id":"JAY","transit":false,"is_transit":false,"time":4,"station_name":"Jayakarta","i_lat":-6.141205},{"line":2,"distance":1080,"transit":false,"time":2,"is_transit":false,"station_name":"Manggabesar","i_lat":-6.149769,"station_id":"MGB","i_long":106.82482},{"is_transit":false,"transit":false,"i_long":106.827103,"station_id":"SW","station_name":"Sawah Besar","i_lat":-6.160725,"line":2,"distance":906,"time":2},{"station_name":"Juanda","distance":1149,"is_transit":false,"i_lat":-6.166716,"line":2,"station_id":"JUA","transit":false,"i_long":106.828284,"time":2},{"station_id":"GDD","distance":2015,"station_name":"Gondangdia","i_long":106.832183,"line":2,"time":4,"is_transit":false,"i_lat":-6.186295,"transit":false},{"station_name":"Cikini","transit":false,"line":2,"time":3,"i_lat":-6.198556,"distance":1750,"is_transit":false,"i_long":106.840169,"station_id":"CKI"},{"time":4,"i_long":106.84912,"station_name":"Manggarai","station_id":"MRI","transit":false,"distance":1590,"i_lat":-6.209883,"line":2,"is_transit":false},{"station_id":"TEB","time":4,"line":2,"station_name":"Tebet","transit":false,"is_transit":false,"distance":2610,"i_lat":-6.226659,"i_long":106.857948},{"station_name":"Cawang","station_id":"CW","time":2,"transit":false,"is_transit":false,"distance":1230,"i_long":106.856607,"i_lat":-6.242512,"line":2},{"i_long":106.85449,"is_transit":false,"time":3,"station_name":"Duren Kalibata","station_id":"DRN","transit":false,"distance":1546,"i_lat":-6.255332,"line":2},{"station_id":"PSMB","distance":824,"station_name":"Pasar Minggu Baru","transit":false,"i_long":106.851577,"time":2,"i_lat":-6.263214,"is_transit":false,"line":2},{"time":2,"transit":false,"i_long":106.843999,"i_lat":-6.2842400000000005,"line":2,"distance":2380,"is_transit":false,"station_id":"PSM","station_name":"Pasar Minggu"},{"i_long":106.838896,"distance":2820,"transit":false,"line":2,"station_id":"TNT","station_name":"Tanjung Barat","is_transit":false,"i_lat":-6.3080680000000005,"time":4},{"is_transit":false,"distance":2671,"station_name":"Lenteng Agung","i_lat":-6.330363,"line":2,"i_long":106.832616,"transit":false,"station_id":"LNA","time":3},{"i_long":106.834175,"is_transit":false,"line":2,"station_name":"Univ. Pancasila","station_id":"UP","time":2,"distance":1029,"i_lat":-6.339291,"transit":false},{"distance":2264,"is_transit":false,"transit":false,"station_name":"Univ. Indonesia","station_id":"UI","i_lat":-6.360749,"time":3,"i_long":106.831474,"line":2},{"distance":1109,"time":2,"is_transit":false,"transit":false,"line":2,"i_long":106.831114,"station_name":"Pondok Cina","i_lat":-6.369073,"station_id":"POC"},{"transit":false,"station_name":"Depokbaru","i_long":106.819451,"line":2,"time":4,"distance":2727,"station_id":"DPB","is_transit":false,"i_lat":-6.391065},{"station_name":"Depok","is_transit":false,"line":2,"transit":false,"station_id":"DP","time":3,"distance":1584,"i_lat":-6.405256,"i_long":106.816926},{"i_long":106.800298,"station_name":"Citayam","station_id":"CTA","distance":5084,"is_transit":false,"transit":false,"line":2,"time":6,"i_lat":-6.448811},{"station_id":"BJD","distance":5197,"station_name":"Bojonggede","i_long":106.792719,"transit":false,"time":5,"i_lat":-6.493243,"is_transit":false,"line":2}],[{"is_transit":false,"i_lat":-6.20132,"line":1,"station_name":"Karet","station_id":"KAT","transit":false,"distance":0,"i_long":106.816351,"time":0},{"station_name":"Tanah Abang","station_id":"THB","is_transit":false,"distance":2029,"i_lat":-6.185545,"line":1,"transit":false,"time":5,"i_long":106.811091},{"is_transit":false,"distance":3632,"transit":false,"i_long":106.800832,"station_name":"Duri","time":8,"i_lat":-6.155215,"line":1,"station_id":"DU"},{"is_transit":false,"i_long":106.79867,"line":1,"station_name":"Angke","station_id":"AK","distance":1230,"time":4,"i_lat":-6.144674,"transit":false},{"i_lat":-6.132549,"time":9,"i_long":106.826365,"is_transit":true,"transit":true,"station_name":"Kampung Bandan","station_id":"KPB","line":4,"distance":4102},{"distance":1444,"station_id":"RJW","time":3,"transit":false,"i_long":106.836569,"i_lat":-6.14505,"station_name":"Rajawali","is_transit":false,"line":11},{"is_transit":false,"station_name":"Kemayoran","line":11,"i_long":106.839204,"time":5,"distance":1901,"i_lat":-6.161728,"station_id":"KMO","transit":false},{"is_transit":false,"distance":1436,"line":11,"i_lat":-6.174784,"time":4,"transit":false,"station_id":"PSE","station_name":"Pasar Senen","i_long":106.84368},{"is_transit":false,"transit":false,"i_lat":-6.185975,"i_long":106.850107,"time":8,"station_name":"Gang Sentiong","distance":1567,"line":11,"station_id":"GST"},{"transit":false,"distance":973,"is_transit":false,"line":11,"i_lat":-6.193792,"station_name":"Kramat","station_id":"KMT","time":1,"i_long":106.855437},{"time":2,"distance":1829,"i_long":106.861737,"station_name":"Pondok Jati","line":11,"transit":false,"is_transit":false,"station_id":"POK","i_lat":-6.209188},{"i_lat":-6.215091,"i_long":106.86807400000001,"transit":true,"station_name":"Jatinegara","line":1,"station_id":"JNG","time":9,"is_transit":true,"distance":1236},{"i_lat":-6.212485,"station_id":"MTR","time":2,"line":1,"station_name":"Matraman","i_long":106.858896,"transit":false,"distance":1377,"is_transit":false},{"station_id":"MRI","is_transit":true,"i_long":106.84912,"station_name":"Manggarai","distance":1275,"time":2,"i_lat":-6.209883,"line":2,"transit":true},{"i_lat":-6.226659,"i_long":106.857948,"line":2,"transit":false,"station_id":"TEB","time":4,"station_name":"Tebet","distance":2610,"is_transit":false},{"is_transit":false,"line":2,"station_id":"CW","transit":false,"i_lat":-6.242512,"distance":1230,"time":2,"i_long":106.856607,"station_name":"Cawang"},{"time":3,"i_long":106.85449,"distance":1546,"i_lat":-6.255332,"station_name":"Duren Kalibata","line":2,"is_transit":false,"transit":false,"station_id":"DRN"},{"station_name":"Pasar Minggu Baru","i_long":106.851577,"is_transit":false,"time":2,"i_lat":-6.263214,"transit":false,"station_id":"PSMB","line":2,"distance":824},{"station_id":"PSM","time":2,"is_transit":false,"i_lat":-6.2842400000000005,"line":2,"distance":2380,"station_name":"Pasar Minggu","transit":false,"i_long":106.843999},{"station_id":"TNT","is_transit":false,"time":4,"distance":2820,"i_lat":-6.3080680000000005,"i_long":106.838896,"line":2,"transit":false,"station_name":"Tanjung Barat"},{"station_name":"Lenteng Agung","transit":false,"i_lat":-6.330363,"line":2,"distance":2671,"station_id":"LNA","is_transit":false,"time":3,"i_long":106.832616},{"is_transit":false,"line":2,"distance":1029,"transit":false,"i_long":106.834175,"station_name":"Univ. Pancasila","station_id":"UP","time":2,"i_lat":-6.339291},{"station_id":"UI","i_lat":-6.360749,"i_long":106.831474,"transit":false,"station_name":"Univ. Indonesia","is_transit":false,"line":2,"time":3,"distance":2264},{"i_lat":-6.369073,"distance":1109,"line":2,"station_name":"Pondok Cina","is_transit":false,"station_id":"POC","i_long":106.831114,"time":2,"transit":false},{"line":2,"i_long":106.819451,"transit":false,"time":4,"station_id":"DPB","is_transit":false,"i_lat":-6.391065,"station_name":"Depokbaru","distance":2727},{"i_lat":-6.405256,"time":3,"station_name":"Depok","distance":1584,"is_transit":false,"line":2,"i_long":106.816926,"station_id":"DP","transit":false},{"transit":false,"i_long":106.800298,"distance":5084,"station_name":"Citayam","is_transit":false,"station_id":"CTA","time":6,"i_lat":-6.448811,"line":2},{"station_name":"Bojonggede","transit":false,"i_long":106.792719,"station_id":"BJD","time":5,"distance":5197,"i_lat":-6.493243,"is_transit":false,"line":2}]]}