{"data":[[{"is_transit":false,"station_id":"KAT","distance":0,"transit":false,"station_name":"Karet","time":0,"line":1,"i_lat":-6.20132,"i_long":106.816351},{"time":1,"line":1,"i_lat":-6.201433,"station_id":"SUDB","transit":false,"i_long":106.819881,"distance":471,"is_transit":false,"station_name":"Sudirman Baru"},{"transit":false,"time":1,"station_id":"SUD","i_long":106.822649,"is_transit":false,"line":1,"distance":280,"station_name":"Sudirman","i_lat":-6.202263},{"i_lat":-6.209883,"is_transit":true,"transit":false,"i_long":106.84912,"line":0,"station_name":"Manggarai","distance":3186,"station_id":"MRI","time":4},{"is_transit":false,"transit":false,"time":2,"i_long":106.858896,"i_lat":-6.212485,"line":1,"station_name":"Matraman","distance":1275,"station_id":"MTR"},{"transit":false,"time":8,"distance":1377,"line":0,"is_transit":true,"station_name":"Jatinegara","i_long":106.86807400000001,"i_lat":-6.215091,"station_id":"JNG"},{"is_transit":false,"distance":3395,"i_lat":-6.2135,"line":1,"i_long":106.899548,"station_name":"Klender","time":3,"station_id":"KLD","transit":false},{"time":2,"i_lat":-6.215568,"is_transit":false,"station_name":"Buaran","distance":3100,"transit":false,"station_id":"BUA","line":0,"i_long":106.922662},{"distance":1305,"transit":false,"is_transit":false,"time":1,"i_long":106.939679,"line":1,"station_id":"KLDB","i_lat":-6.217455,"station_name":"Klenderbaru"},{"line":0,"distance":1385,"station_name":"Cakung","i_long":106.951283,"time":8,"station_id":"CUK","i_lat":-6.219053,"is_transit":false,"transit":false},{"line":1,"station_name":"Kranji","transit":false,"i_lat":-6.224515,"station_id":"KRI","distance":3097,"i_long":106.977657,"is_transit":false,"time":3},{"i_lat":-6.236616,"is_transit":false,"station_id":"BKS","transit":false,"distance":2520,"time":4,"line":0,"i_long":106.997013,"station_name":"Bekasi"},{"distance":2368,"i_long":107.016735,"is_transit":false,"time":2,"line":0,"transit":false,"station_id":"BKST","station_name":"Bekasi Timur","i_lat":-6.248029},{"station_name":"Tambun","i_long":107.055722,"transit":false,"is_transit":false,"i_lat":-6.258864,"distance":4460,"station_id":"TB","time":7,"line":1},{"station_name":"Cibitung","station_id":"CIT","is_transit":false,"time":3,"i_long":107.083084,"line":0,"transit":false,"distance":3420,"i_lat":-6.261877}],[{"i_long":106.816351,"i_lat":-6.20132,"station_name":"Karet","time":0,"distance":0,"transit":false,"line":1,"station_id":"KAT","is_transit":false},{"i_lat":-6.185545,"is_transit":true,"i_long":106.811091,"station_id":"THB","station_name":"Tanah Abang","time":5,"distance":2029,"transit":false,"line":1},{"transit":true,"i_lat":-6.155215,"i_long":106.800832,"line":1,"station_id":"DU","is_transit":true,"station_name":"Duri","distance":3632,"time":8},{"station_id":"AK","i_lat":-6.144674,"is_transit":false,"line":0,"time":4,"distance":1230,"i_long":106.79867,"transit":false,"station_name":"Angke"},{"transit":true,"i_long":106.826365,"station_id":"KPB","time":9,"distance":4102,"line":0,"station_name":"Kampung Bandan","is_transit":true,"i_lat":-6.132549},{"i_lat":-6.14505,"time":3,"transit":false,"is_transit":false,"line":11,"i_long":106.836569,"station_name":"Rajawali","distance":1444,"station_id":"RJW"},{"line":11,"i_long":106.839204,"station_id":"KMO","station_name":"Kemayoran","is_transit":false,"transit":false,"time":5,"distance":1901,"i_lat":-6.161728},{"i_long":106.84368,"i_lat":-6.174784,"line":11,"station_id":"PSE","is_transit":false,"time":4,"distance":1436,"station_name":"Pasar Senen","transit":false},{"station_id":"GST","i_lat":-6.185975,"i_long":106.850107,"line":11,"transit":false,"station_name":"Gang Sentiong","time":8,"is_transit":false,"distance":1567},{"line":11,"time":1,"station_id":"KMT","station_name":"Kramat","distance":973,"transit":false,"i_lat":-6.193792,"i_long":106.855437,"is_transit":false},{"i_long":106.861737,"time":2,"i_lat":-6.209188,"station_id":"POK","line":11,"distance":1829,"transit":false,"is_transit":false,"station_name":"Pondok Jati"},{"time":9,"line":0,"station_name":"Jatinegara","i_lat":-6.215091,"i_long":106.86807400000001,"is_transit":true,"distance":1236,"transit":true,"station_id":"JNG"},{"transit":false,"line":1,"distance":3395,"station_name":"Klender","i_lat":-6.2135,"time":3,"station_id":"KLD","i_long":106.899548,"is_transit":false},{"station_id":"BUA","time":2,"line":0,"distance":3100,"station_name":"Buaran","is_transit":false,"transit":false,"i_lat":-6.215568,"i_long":106.922662},{"i_lat":-6.217455,"i_long":106.939679,"line":1,"distance":1305,"station_name":"Klenderbaru","is_transit":false,"time":1,"transit":false,"station_id":"KLDB"},{"line":0,"i_long":106.951283,"time":8,"is_transit":false,"transit":false,"station_name":"Cakung","station_id":"CUK","distance":1385,"i_lat":-6.219053},{"line":1,"is_transit":false,"distance":3097,"station_id":"KRI","time":3,"i_long":106.977657,"i_lat":-6.224515,"station_name":"Kranji","transit":false},{"is_transit":false,"station_name":"Bekasi","time":4,"i_lat":-6.236616,"i_long":106.997013,"distance":2520,"transit":false,"line":0,"station_id":"BKS"},{"i_long":107.016735,"transit":false,"line":0,"i_lat":-6.248029,"time":2,"station_id":"BKST","is_transit":false,"distance":2368,"station_name":"Bekasi Timur"},{"i_lat":-6.258864,"station_id":"TB","time":7,"is_transit":false,"line":1,"transit":false,"station_name":"Tambun","distance":4460,"i_long":107.055722},{"line":0,"station_name":"Cibitung","time":3,"i_long":107.083084,"is_transit":false,"i_lat":-6.261877,"station_id":"CIT","transit":false,"distance":3420}],[{"time":0,"line":1,"station_id":"KAT","transit":false,"i_long":106.816351,"distance":0,"station_name":"Karet","i_lat":-6.20132,"is_transit":false},{"i_long":106.811091,"is_transit":true,"line":1,"station_name":"Tanah Abang","time":5,"distance":2029,"station_id":"THB","transit":false,"i_lat":-6.185545},{"station_name":"Duri","i_long":106.800832,"time":8,"station_id":"DU","transit":true,"i_lat":-6.155215,"is_transit":true,"distance":3632,"line":1},{"line":0,"station_name":"Angke","i_long":106.79867,"time":4,"station_id":"AK","is_transit":false,"distance":1230,"transit":false,"i_lat":-6.144674},{"station_id":"KPB","i_long":106.826365,"line":0,"station_name":"Kampung Bandan","distance":4102,"time":9,"is_transit":true,"i_lat":-6.132549,"transit":false},{"line":0,"station_name":"Jakarta Kota","station_id":"JAKK","is_transit":true,"time":3,"transit":true,"i_lat":-6.137569,"distance":1364,"i_long":106.812439},{"station_id":"JAY","is_transit":false,"transit":false,"i_lat":-6.141205,"time":4,"i_long":106.820901,"line":7,"station_name":"Jayakarta","distance":1264},{"station_name":"Manggabesar","transit":false,"is_transit":false,"distance":1080,"time":2,"i_lat":-6.149769,"line":2,"i_long":106.82482,"station_id":"MGB"},{"station_id":"SW","time":2,"line":2,"distance":906,"is_transit":false,"i_lat":-6.160725,"station_name":"Sawah Besar","i_long":106.827103,"transit":false},{"is_transit":false,"station_name":"Juanda","i_long":106.828284,"transit":false,"line":2,"i_lat":-6.166716,"station_id":"JUA","distance":1149,"time":2},{"distance":2015,"is_transit":false,"i_lat":-6.186295,"i_long":106.832183,"station_id":"GDD","time":4,"station_name":"Gondangdia","transit":false,"line":2},{"distance":1750,"time":3,"station_name":"Cikini","station_id":"CKI","i_lat":-6.198556,"is_transit":false,"line":0,"transit":false,"i_long":106.840169},{"time":4,"is_transit":true,"distance":1590,"i_lat":-6.209883,"line":0,"station_id":"MRI","station_name":"Manggarai","transit":true,"i_long":106.84912},{"distance":1275,"station_id":"MTR","line":1,"station_name":"Matraman","is_transit":false,"transit":false,"i_lat":-6.212485,"i_long":106.858896,"time":2},{"line":0,"station_name":"Jatinegara","is_transit":true,"distance":1377,"station_id":"JNG","time":8,"i_lat":-6.215091,"i_long":106.86807400000001,"transit":false},{"transit":false,"i_long":106.899548,"station_id":"KLD","station_name":"Klender","time":3,"i_lat":-6.2135,"is_transit":false,"line":1,"distance":3395},{"station_id":"BUA","i_long":106.922662,"is_transit":false,"line":0,"time":2,"station_name":"Buaran","i_lat":-6.215568,"transit":false,"distance":3100},{"line":1,"distance":1305,"station_name":"Klenderbaru","is_transit":false,"i_long":106.939679,"station_id":"KLDB","time":1,"transit":false,"i_lat":-6.217455},{"i_lat":-6.219053,"distance":1385,"is_transit":false,"transit":false,"i_long":106.951283,"line":0,"station_name":"Cakung","station_id":"CUK","time":8},{"i_lat":-6.224515,"is_transit":false,"distance":3097,"i_long":106.977657,"line":1,"station_name":"Kranji","transit":false,"station_id":"KRI","time":3},{"distance":2520,"line":0,"transit":false,"i_lat":-6.236616,"station_id":"BKS","time":4,"is_transit":false,"i_long":106.997013,"station_name":"Bekasi"},{"line":0,"station_id":"BKST","i_long":107.016735,"is_transit":false,"time":2,"distance":2368,"transit":false,"station_name":"Bekasi Timur","i_lat":-6.248029},{"is_transit":false,"i_long":107.055722,"line":1,"i_lat":-6.258864,"station_name":"Tambun","transit":false,"distance":4460,"time":7,"station_id":"TB"},{"i_lat":-6.261877,"time":3,"line":0,"station_name":"Cibitung","station_id":"CIT","is_transit":false,"transit":false,"i_long":107.083084,"distance":3420}],[{"time":0,"line":1,"i_lat":-6.20132,"transit":false,"i_long":106.816351,"distance":0,"station_name":"Karet","is_transit":false,"station_id":"KAT"},{"i_long":106.819881,"station_id":"SUDB","distance":471,"station_name":"Sudirman Baru","is_transit":false,"transit":false,"i_lat":-6.201433,"time":1,"line":1},{"i_long":106.822649,"transit":false,"time":1,"station_name":"Sudirman","line":1,"is_transit":false,"distance":280,"i_lat":-6.202263,"station_id":"SUD"},{"station_name":"Manggarai","is_transit":true,"i_long":106.84912,"station_id":"MRI","time":4,"line":0,"distance":3186,"transit":true,"i_lat":-6.209883},{"i_lat":-6.198556,"line":0,"i_long":106.840169,"is_transit":false,"time":4,"transit":false,"station_name":"Cikini","station_id":"CKI","distance":1590},{"station_name":"Gondangdia","station_id":"GDD","is_transit":false,"line":2,"i_long":106.832183,"distance":1750,"i_lat":-6.186295,"time":3,"transit":false},{"i_long":106.828284,"transit":false,"line":2,"station_name":"Juanda","station_id":"JUA","time":4,"distance":2015,"is_transit":false,"i_lat":-6.166716},{"i_long":106.827103,"distance":1149,"line":2,"station_id":"SW","i_lat":-6.160725,"transit":false,"station_name":"Sawah Besar","is_transit":false,"time":2},{"is_transit":false,"i_long":106.82482,"station_id":"MGB","time":2,"line":2,"i_lat":-6.149769,"station_name":"Manggabesar","transit":false,"distance":906},{"station_name":"Jayakarta","is_transit":false,"time":2,"i_long":106.820901,"i_lat":-6.141205,"transit":false,"line":7,"distance":1080,"station_id":"JAY"},{"distance":1264,"transit":true,"station_name":"Jakarta Kota","station_id":"JAKK","time":4,"i_lat":-6.137569,"i_long":106.812439,"line":0,"is_transit":true},{"i_long":106.826365,"line":0,"station_id":"KPB","time":3,"is_transit":true,"distance":1364,"transit":true,"station_name":"Kampung Bandan","i_lat":-6.132549},{"is_transit":false,"i_long":106.836569,"transit":false,"time":3,"station_name":"Rajawali","distance":1444,"i_lat":-6.14505,"line":11,"station_id":"RJW"},{"distance":1901,"i_long":106.839204,"i_lat":-6.161728,"is_transit":false,"time":5,"transit":false,"station_name":"Kemayoran","station_id":"KMO","line":11},{"distance":1436,"i_long":106.84368,"time":4,"transit":false,"station_name":"Pasar Senen","station_id":"PSE","i_lat":-6.174784,"line":11,"is_transit":false},{"i_long":106.850107,"line":11,"station_id":"GST","time":8,"distance":1567,"station_name":"Gang Sentiong","i_lat":-6.185975,"transit":false,"is_transit":false},{"time":1,"transit":false,"i_lat":-6.193792,"i_long":106.855437,"line":11,"station_id":"KMT","distance":973,"is_transit":false,"station_name":"Kramat"},{"i_lat":-6.209188,"transit":false,"distance":1829,"time":2,"station_name":"Pondok Jati","station_id":"POK","line":11,"is_transit":false,"i_long":106.861737},{"distance":1236,"station_id":"JNG","is_transit":true,"i_lat":-6.215091,"line":0,"transit":true,"station_name":"Jatinegara","time":9,"i_long":106.86807400000001},{"is_transit":false,"station_name":"Klender","line":1,"transit":false,"i_lat":-6.2135,"distance":3395,"i_long":106.899548,"station_id":"KLD","time":3},{"i_lat":-6.215568,"is_transit":false,"station_id":"BUA","i_long":106.922662,"station_name":"Buaran","time":2,"distance":3100,"line":0,"transit":false},{"transit":false,"station_id":"KLDB","i_lat":-6.217455,"time":1,"i_long":106.939679,"line":1,"station_name":"Klenderbaru","distance":1305,"is_transit":false},{"i_long":106.951283,"time":8,"transit":false,"station_id":"CUK","line":0,"station_name":"Cakung","i_lat":-6.219053,"distance":1385,"is_transit":false},{"i_lat":-6.224515,"distance":3097,"line":1,"station_id":"KRI","time":3,"transit":false,"i_long":106.977657,"station_name":"Kranji","is_transit":false},{"station_name":"Bekasi","time":4,"i_long":106.997013,"line":0,"transit":false,"i_lat":-6.236616,"station_id":"BKS","distance":2520,"is_transit":false},{"distance":2368,"is_transit":false,"i_lat":-6.248029,"station_id":"BKST","line":0,"time":2,"i_long":107.016735,"station_name":"Bekasi Timur","transit":false},{"time":7,"i_long":107.055722,"station_id":"TB","line":1,"is_transit":false,"station_name":"Tambun","i_lat":-6.258864,"distance":4460,"transit":false},{"i_long":107.083084,"line":0,"transit":false,"distance":3420,"station_id":"CIT","station_name":"Cibitung","time":3,"i_lat":-6.261877,"is_transit":false}]]}