{"data":[[{"transit":false,"line":1,"station_id":"KAT","is_transit":false,"time":0,"i_long":106.816351,"station_name":"Karet","distance":0,"i_lat":-6.20132},{"is_transit":false,"station_name":"Sudirman Baru","line":1,"time":1,"i_long":106.819881,"transit":false,"i_lat":-6.201433,"distance":471,"station_id":"SUDB"},{"transit":false,"i_lat":-6.202263,"i_long":106.822649,"station_id":"SUD","time":1,"distance":280,"line":1,"station_name":"Sudirman","is_transit":false},{"distance":3186,"time":4,"i_long":106.84912,"station_id":"MRI","station_name":"Manggarai","transit":false,"is_transit":false,"i_lat":-6.209883,"line":2},{"i_long":106.858896,"station_id":"MTR","is_transit":false,"distance":1275,"station_name":"Matraman","transit":false,"time":2,"i_lat":-6.212485,"line":1},{"line":1,"station_id":"JNG","i_long":106.86807400000001,"transit":false,"is_transit":false,"distance":1377,"station_name":"Jatinegara","time":8,"i_lat":-6.215091},{"transit":false,"is_transit":false,"i_long":106.899548,"time":3,"station_id":"KLD","station_name":"Klender","i_lat":-6.2135,"distance":3395,"line":1},{"station_id":"BUA","time":2,"i_lat":-6.215568,"distance":3100,"is_transit":false,"transit":false,"i_long":106.922662,"line":1,"station_name":"Buaran"},{"distance":1305,"i_lat":-6.217455,"i_long":106.939679,"line":1,"station_name":"Klenderbaru","time":1,"transit":false,"is_transit":false,"station_id":"KLDB"},{"transit":false,"distance":1385,"time":8,"is_transit":false,"i_long":106.951283,"line":1,"i_lat":-6.219053,"station_name":"Cakung","station_id":"CUK"},{"station_name":"Kranji","station_id":"KRI","line":1,"i_lat":-6.224515,"time":3,"is_transit":false,"distance":3097,"i_long":106.977657,"transit":false},{"time":4,"station_id":"BKS","line":1,"transit":false,"station_name":"Bekasi","is_transit":false,"distance":2520,"i_lat":-6.236616,"i_long":106.997013}],[{"distance":0,"i_lat":-6.20132,"time":0,"transit":false,"is_transit":false,"line":1,"station_id":"KAT","station_name":"Karet","i_long":106.816351},{"distance":2029,"line":1,"station_id":"THB","i_long":106.811091,"transit":false,"time":5,"is_transit":false,"station_name":"Tanah Abang","i_lat":-6.185545},{"is_transit":false,"station_id":"DU","transit":false,"station_name":"Duri","line":1,"time":8,"i_long":106.800832,"distance":3632,"i_lat":-6.155215},{"distance":1230,"is_transit":false,"i_long":106.79867,"line":1,"i_lat":-6.144674,"station_id":"AK","transit":false,"time":4,"station_name":"Angke"},{"time":9,"distance":4102,"i_lat":-6.132549,"i_long":106.826365,"line":4,"station_name":"Kampung Bandan","station_id":"KPB","transit":true,"is_transit":true},{"line":11,"i_lat":-6.14505,"distance":1444,"i_long":106.836569,"time":3,"is_transit":false,"station_name":"Rajawali","station_id":"RJW","transit":false},{"i_long":106.839204,"distance":1901,"i_lat":-6.161728,"station_name":"Kemayoran","time":5,"station_id":"KMO","transit":false,"line":11,"is_transit":false},{"transit":false,"line":11,"station_id":"PSE","time":4,"is_transit":false,"i_long":106.84368,"station_name":"Pasar Senen","distance":1436,"i_lat":-6.174784},{"line":11,"transit":false,"distance":1567,"time":8,"station_id":"GST","station_name":"Gang Sentiong","is_transit":false,"i_lat":-6.185975,"i_long":106.850107},{"distance":973,"i_long":106.855437,"line":11,"is_transit":false,"station_name":"Kramat","station_id":"KMT","transit":false,"i_lat":-6.193792,"time":1},{"station_id":"POK","station_name":"Pondok Jati","i_lat":-6.209188,"line":11,"transit":false,"time":2,"is_transit":false,"i_long":106.861737,"distance":1829},{"station_name":"Jatinegara","transit":true,"i_long":106.86807400000001,"i_lat":-6.215091,"distance":1236,"is_transit":true,"line":1,"station_id":"JNG","time":9},{"line":1,"time":3,"station_id":"KLD","is_transit":false,"i_lat":-6.2135,"i_long":106.899548,"station_name":"Klender","distance":3395,"transit":false},{"i_lat":-6.215568,"station_id":"BUA","distance":3100,"i_long":106.922662,"station_name":"Buaran","is_transit":false,"line":1,"time":2,"transit":false},{"station_name":"Klenderbaru","line":1,"i_lat":-6.217455,"station_id":"KLDB","is_transit":false,"distance":1305,"i_long":106.939679,"time":1,"transit":false},{"is_transit":false,"i_long":106.951283,"time":8,"station_id":"CUK","transit":false,"distance":1385,"i_lat":-6.219053,"line":1,"station_name":"Cakung"},{"line":1,"is_transit":false,"i_long":106.977657,"i_lat":-6.224515,"transit":false,"time":3,"station_id":"KRI","station_name":"Kranji","distance":3097},{"i_lat":-6.236616,"i_long":106.997013,"station_name":"Bekasi","transit":false,"time":4,"distance":2520,"line":1,"is_transit":false,"station_id":"BKS"}],[{"time":0,"line":1,"is_transit":false,"i_long":106.816351,"i_lat":-6.20132,"station_id":"KAT","transit":false,"distance":0,"station_name":"Karet"},{"i_lat":-6.185545,"station_id":"THB","transit":false,"i_long":106.811091,"distance":2029,"station_name":"Tanah Abang","line":1,"time":5,"is_transit":false},{"station_name":"Duri","transit":false,"time":8,"is_transit":false,"i_lat":-6.155215,"i_long":106.800832,"station_id":"DU","line":1,"distance":3632},{"i_lat":-6.144674,"transit":false,"station_name":"Angke","station_id":"AK","i_long":106.79867,"line":1,"distance":1230,"is_transit":false,"time":4},{"time":9,"distance":4102,"i_long":106.826365,"station_id":"KPB","line":4,"station_name":"Kampung Bandan","transit":true,"is_transit":true,"i_lat":-6.132549},{"line":2,"is_transit":true,"i_lat":-6.137569,"transit":true,"time":3,"station_name":"Jakarta Kota","i_long":106.812439,"station_id":"JAKK","distance":1364},{"distance":1264,"transit":false,"time":4,"is_transit":false,"i_long":106.820901,"line":2,"i_lat":-6.141205,"station_name":"Jayakarta","station_id":"JAY"},{"time":2,"station_name":"Manggabesar","line":2,"is_transit":false,"station_id":"MGB","transit":false,"i_long":106.82482,"distance":1080,"i_lat":-6.149769},{"station_id":"SW","station_name":"Sawah Besar","is_transit":false,"i_lat":-6.160725,"distance":906,"i_long":106.827103,"transit":false,"line":2,"time":2},{"i_lat":-6.166716,"station_name":"Juanda","distance":1149,"line":2,"transit":false,"time":2,"station_id":"JUA","is_transit":false,"i_long":106.828284},{"line":2,"transit":false,"station_name":"Gondangdia","is_transit":false,"time":4,"i_lat":-6.186295,"distance":2015,"i_long":106.832183,"station_id":"GDD"},{"station_id":"CKI","time":3,"transit":false,"i_lat":-6.198556,"is_transit":false,"distance":1750,"i_long":106.840169,"line":2,"station_name":"Cikini"},{"line":2,"station_name":"Manggarai","transit":true,"station_id":"MRI","i_lat":-6.209883,"distance":1590,"is_transit":true,"time":4,"i_long":106.84912},{"station_id":"MTR","transit":false,"station_name":"Matraman","i_long":106.858896,"distance":1275,"i_lat":-6.212485,"time":2,"line":1,"is_transit":false},{"i_long":106.86807400000001,"time":8,"line":1,"transit":false,"station_name":"Jatinegara","i_lat":-6.215091,"station_id":"JNG","is_transit":false,"distance":1377},{"station_name":"Klender","is_transit":false,"i_lat":-6.2135,"station_id":"KLD","distance":3395,"i_long":106.899548,"line":1,"time":3,"transit":false},{"distance":3100,"i_lat":-6.215568,"station_name":"Buaran","transit":false,"time":2,"is_transit":false,"line":1,"i_long":106.922662,"station_id":"BUA"},{"i_lat":-6.217455,"station_id":"KLDB","distance":1305,"line":1,"station_name":"Klenderbaru","i_long":106.939679,"transit":false,"time":1,"is_transit":false},{"i_long":106.951283,"transit":false,"line":1,"distance":1385,"station_id":"CUK","time":8,"station_name":"Cakung","is_transit":false,"i_lat":-6.219053},{"station_name":"Kranji","transit":false,"distance":3097,"i_lat":-6.224515,"station_id":"KRI","line":1,"time":3,"is_transit":false,"i_long":106.977657},{"i_long":106.997013,"line":1,"transit":false,"station_name":"Bekasi","station_id":"BKS","distance":2520,"time":4,"is_transit":false,"i_lat":-6.236616}],[{"is_transit":false,"station_id":"KAT","i_long":106.816351,"time":0,"line":1,"transit":false,"station_name":"Karet","distance":0,"i_lat":-6.20132},{"station_id":"SUDB","time":1,"station_name":"Sudirman Baru","transit":false,"i_long":106.819881,"is_transit":false,"i_lat":-6.201433,"distance":471,"line":1},{"is_transit":false,"transit":false,"i_lat":-6.202263,"station_id":"SUD","distance":280,"line":1,"time":1,"i_long":106.822649,"station_name":"Sudirman"},{"is_transit":true,"distance":3186,"i_lat":-6.209883,"i_long":106.84912,"station_id":"MRI","station_name":"Manggarai","transit":true,"line":2,"time":4},{"i_lat":-6.198556,"transit":false,"i_long":106.840169,"is_transit":false,"line":2,"time":4,"station_name":"Cikini","station_id":"CKI","distance":1590},{"station_id":"GDD","is_transit":false,"i_long":106.832183,"i_lat":-6.186295,"distance":1750,"line":2,"time":3,"transit":false,"station_name":"Gondangdia"},{"station_id":"JUA","i_lat":-6.166716,"station_name":"Juanda","line":2,"time":4,"transit":false,"i_long":106.828284,"is_transit":false,"distance":2015},{"station_id":"SW","distance":1149,"is_transit":false,"i_lat":-6.160725,"station_name":"Sawah Besar","time":2,"i_long":106.827103,"line":2,"transit":false},{"i_lat":-6.149769,"transit":false,"station_id":"MGB","i_long":106.82482,"line":2,"time":2,"is_transit":false,"distance":906,"station_name":"Manggabesar"},{"line":2,"time":2,"i_lat":-6.141205,"is_transit":false,"station_name":"Jayakarta","station_id":"JAY","transit":false,"distance":1080,"i_long":106.820901},{"distance":1264,"time":4,"transit":true,"station_name":"Jakarta Kota","i_lat":-6.137569,"line":2,"is_transit":true,"station_id":"JAKK","i_long":106.812439},{"distance":1364,"is_transit":true,"time":3,"station_name":"Kampung Bandan","i_lat":-6.132549,"i_long":106.826365,"transit":true,"line":4,"station_id":"KPB"},{"is_transit":false,"distance":1444,"transit":false,"station_id":"RJW","i_lat":-6.14505,"i_long":106.836569,"line":11,"time":3,"station_name":"Rajawali"},{"distance":1901,"transit":false,"time":5,"station_name":"Kemayoran","i_lat":-6.161728,"is_transit":false,"station_id":"KMO","i_long":106.839204,"line":11},{"i_lat":-6.174784,"line":11,"station_name":"Pasar Senen","transit":false,"distance":1436,"time":4,"i_long":106.84368,"station_id":"PSE","is_transit":false},{"station_id":"GST","is_transit":false,"transit":false,"i_long":106.850107,"time":8,"station_name":"Gang Sentiong","distance":1567,"line":11,"i_lat":-6.185975},{"line":11,"transit":false,"time":1,"station_name":"Kramat","is_transit":false,"i_long":106.855437,"i_lat":-6.193792,"distance":973,"station_id":"KMT"},{"distance":1829,"station_name":"Pondok Jati","station_id":"POK","is_transit":false,"i_lat":-6.209188,"i_long":106.861737,"time":2,"transit":false,"line":11},{"transit":true,"is_transit":true,"i_long":106.86807400000001,"line":1,"station_id":"JNG","distance":1236,"i_lat":-6.215091,"time":9,"station_name":"Jatinegara"},{"is_transit":false,"station_id":"KLD","i_long":106.899548,"time":3,"line":1,"transit":false,"distance":3395,"station_name":"Klender","i_lat":-6.2135},{"i_lat":-6.215568,"time":2,"station_name":"Buaran","is_transit":false,"transit":false,"line":1,"station_id":"BUA","distance":3100,"i_long":106.922662},{"station_name":"Klenderbaru","i_lat":-6.217455,"is_transit":false,"i_long":106.939679,"transit":false,"line":1,"distance":1305,"station_id":"KLDB","time":1},{"station_id":"CUK","distance":1385,"time":8,"i_lat":-6.219053,"i_long":106.951283,"station_name":"Cakung","transit":false,"line":1,"is_transit":false},{"is_transit":false,"distance":3097,"i_long":106.977657,"i_lat":-6.224515,"station_name":"Kranji","time":3,"line":1,"station_id":"KRI","transit":false},{"line":1,"is_transit":false,"i_lat":-6.236616,"i_long":106.997013,"station_name":"Bekasi","transit":false,"station_id":"BKS","time":4,"distance":2520}]]}