{"data":[[{"i_long":106.816351,"is_transit":false,"transit":false,"distance":0,"station_id":"KAT","station_name":"Karet","line":1,"time":0,"i_lat":-6.20132},{"time":1,"station_name":"Sudirman Baru","line":1,"i_long":106.819881,"transit":false,"distance":471,"i_lat":-6.201433,"station_id":"SUDB","is_transit":false},{"time":1,"is_transit":false,"i_lat":-6.202263,"station_name":"Sudirman","i_long":106.822649,"station_id":"SUD","line":1,"transit":false,"distance":280},{"station_id":"MRI","i_long":106.84912,"line":2,"time":4,"is_transit":false,"transit":false,"i_lat":-6.209883,"distance":3186,"station_name":"Manggarai"},{"transit":false,"i_lat":-6.212485,"station_id":"MTR","time":2,"line":1,"is_transit":false,"i_long":106.858896,"distance":1275,"station_name":"Matraman"},{"station_name":"Jatinegara","transit":false,"i_long":106.86807400000001,"line":1,"time":8,"i_lat":-6.215091,"distance":1377,"is_transit":false,"station_id":"JNG"},{"distance":3395,"time":3,"station_name":"Klender","i_lat":-6.2135,"line":1,"is_transit":false,"station_id":"KLD","transit":false,"i_long":106.899548},{"transit":false,"is_transit":false,"station_id":"BUA","i_lat":-6.215568,"station_name":"Buaran","time":2,"line":1,"i_long":106.922662,"distance":3100},{"transit":false,"i_lat":-6.217455,"line":1,"i_long":106.939679,"station_id":"KLDB","time":1,"station_name":"Klenderbaru","is_transit":false,"distance":1305},{"is_transit":false,"station_name":"Cakung","station_id":"CUK","i_lat":-6.219053,"i_long":106.951283,"time":8,"distance":1385,"line":1,"transit":false},{"station_name":"Kranji","is_transit":false,"transit":false,"i_long":106.977657,"distance":3097,"time":3,"station_id":"KRI","i_lat":-6.224515,"line":1},{"time":4,"station_name":"Bekasi","transit":false,"is_transit":false,"distance":2520,"station_id":"BKS","i_lat":-6.236616,"i_long":106.997013,"line":1},{"station_name":"Bekasi Timur","is_transit":false,"distance":2368,"i_long":107.016735,"transit":false,"line":1,"station_id":"BKST","time":2,"i_lat":-6.248029},{"i_long":107.055722,"is_transit":false,"station_id":"TB","line":1,"time":7,"station_name":"Tambun","distance":4460,"transit":false,"i_lat":-6.258864},{"is_transit":false,"line":1,"station_name":"Cibitung","distance":3420,"station_id":"CIT","time":3,"transit":false,"i_lat":-6.261877,"i_long":107.083084},{"time":2,"transit":false,"is_transit":false,"station_name":"Metland Telaga Murni","distance":2800,"line":1,"station_id":"TLM","i_lat":-6.262938,"i_long":107.093313},{"station_id":"CKR","line":1,"time":4,"i_long":107.144613,"transit":false,"distance":3689,"i_lat":-6.2553149999999995,"station_name":"Cikarang","is_transit":false}],[{"i_lat":-6.20132,"line":1,"time":0,"i_long":106.816351,"distance":0,"transit":false,"station_name":"Karet","is_transit":false,"station_id":"KAT"},{"i_lat":-6.185545,"station_id":"THB","line":1,"distance":2029,"is_transit":false,"station_name":"Tanah Abang","transit":false,"time":5,"i_long":106.811091},{"transit":false,"distance":3632,"time":8,"i_lat":-6.155215,"i_long":106.800832,"station_name":"Duri","is_transit":false,"line":1,"station_id":"DU"},{"station_name":"Angke","station_id":"AK","i_lat":-6.144674,"i_long":106.79867,"distance":1230,"line":1,"time":4,"is_transit":false,"transit":false},{"time":9,"station_name":"Kampung Bandan","distance":4102,"i_long":106.826365,"station_id":"KPB","line":4,"is_transit":true,"transit":true,"i_lat":-6.132549},{"distance":1444,"i_lat":-6.14505,"time":3,"transit":false,"is_transit":false,"station_id":"RJW","line":11,"i_long":106.836569,"station_name":"Rajawali"},{"station_id":"KMO","time":5,"transit":false,"distance":1901,"is_transit":false,"station_name":"Kemayoran","i_long":106.839204,"i_lat":-6.161728,"line":11},{"time":4,"transit":false,"station_name":"Pasar Senen","is_transit":false,"station_id":"PSE","i_lat":-6.174784,"line":11,"distance":1436,"i_long":106.84368},{"station_name":"Gang Sentiong","time":8,"is_transit":false,"i_long":106.850107,"transit":false,"line":11,"i_lat":-6.185975,"distance":1567,"station_id":"GST"},{"time":1,"i_lat":-6.193792,"i_long":106.855437,"transit":false,"line":11,"is_transit":false,"station_name":"Kramat","distance":973,"station_id":"KMT"},{"transit":false,"is_transit":false,"station_id":"POK","i_long":106.861737,"station_name":"Pondok Jati","distance":1829,"time":2,"i_lat":-6.209188,"line":11},{"station_id":"JNG","i_long":106.86807400000001,"time":9,"transit":true,"is_transit":true,"line":1,"i_lat":-6.215091,"distance":1236,"station_name":"Jatinegara"},{"i_lat":-6.2135,"transit":false,"i_long":106.899548,"distance":3395,"line":1,"station_id":"KLD","time":3,"is_transit":false,"station_name":"Klender"},{"station_name":"Buaran","station_id":"BUA","line":1,"i_lat":-6.215568,"distance":3100,"time":2,"is_transit":false,"i_long":106.922662,"transit":false},{"station_id":"KLDB","is_transit":false,"time":1,"distance":1305,"station_name":"Klenderbaru","i_lat":-6.217455,"i_long":106.939679,"line":1,"transit":false},{"station_name":"Cakung","station_id":"CUK","transit":false,"is_transit":false,"time":8,"line":1,"i_lat":-6.219053,"distance":1385,"i_long":106.951283},{"i_long":106.977657,"station_name":"Kranji","transit":false,"line":1,"i_lat":-6.224515,"time":3,"station_id":"KRI","is_transit":false,"distance":3097},{"time":4,"i_lat":-6.236616,"distance":2520,"transit":false,"is_transit":false,"station_name":"Bekasi","station_id":"BKS","line":1,"i_long":106.997013},{"is_transit":false,"station_id":"BKST","i_lat":-6.248029,"line":1,"i_long":107.016735,"time":2,"transit":false,"station_name":"Bekasi Timur","distance":2368},{"station_name":"Tambun","station_id":"TB","i_lat":-6.258864,"i_long":107.055722,"line":1,"distance":4460,"is_transit":false,"time":7,"transit":false},{"station_id":"CIT","station_name":"Cibitung","distance":3420,"i_long":107.083084,"line":1,"time":3,"is_transit":false,"i_lat":-6.261877,"transit":false},{"i_lat":-6.262938,"distance":2800,"station_id":"TLM","time":2,"i_long":107.093313,"transit":false,"is_transit":false,"station_name":"Metland Telaga Murni","line":1},{"i_long":107.144613,"transit":false,"time":4,"distance":3689,"station_name":"Cikarang","is_transit":false,"station_id":"CKR","i_lat":-6.2553149999999995,"line":1}],[{"time":0,"station_name":"Karet","is_transit":false,"distance":0,"i_lat":-6.20132,"i_long":106.816351,"line":1,"transit":false,"station_id":"KAT"},{"line":1,"i_long":106.811091,"station_name":"Tanah Abang","time":5,"transit":false,"distance":2029,"station_id":"THB","i_lat":-6.185545,"is_transit":false},{"station_id":"DU","time":8,"line":1,"is_transit":false,"transit":false,"station_name":"Duri","i_lat":-6.155215,"distance":3632,"i_long":106.800832},{"line":1,"time":4,"transit":false,"is_transit":false,"i_lat":-6.144674,"distance":1230,"station_name":"Angke","station_id":"AK","i_long":106.79867},{"is_transit":true,"i_lat":-6.132549,"station_name":"Kampung Bandan","line":4,"time":9,"i_long":106.826365,"transit":true,"station_id":"KPB","distance":4102},{"line":2,"station_id":"JAKK","distance":1364,"transit":true,"i_lat":-6.137569,"time":3,"i_long":106.812439,"station_name":"Jakarta Kota","is_transit":true},{"transit":false,"i_lat":-6.141205,"i_long":106.820901,"time":4,"station_id":"JAY","line":2,"is_transit":false,"station_name":"Jayakarta","distance":1264},{"time":2,"is_transit":false,"station_id":"MGB","i_long":106.82482,"line":2,"distance":1080,"transit":false,"i_lat":-6.149769,"station_name":"Manggabesar"},{"is_transit":false,"station_id":"SW","distance":906,"station_name":"Sawah Besar","time":2,"line":2,"i_long":106.827103,"i_lat":-6.160725,"transit":false},{"line":2,"distance":1149,"i_lat":-6.166716,"is_transit":false,"transit":false,"i_long":106.828284,"station_name":"Juanda","time":2,"station_id":"JUA"},{"is_transit":false,"i_lat":-6.186295,"line":2,"station_id":"GDD","distance":2015,"transit":false,"time":4,"station_name":"Gondangdia","i_long":106.832183},{"station_name":"Cikini","transit":false,"line":2,"time":3,"i_lat":-6.198556,"station_id":"CKI","distance":1750,"is_transit":false,"i_long":106.840169},{"line":2,"transit":true,"time":4,"station_name":"Manggarai","i_long":106.84912,"distance":1590,"station_id":"MRI","is_transit":true,"i_lat":-6.209883},{"line":1,"time":2,"transit":false,"distance":1275,"i_long":106.858896,"is_transit":false,"station_name":"Matraman","station_id":"MTR","i_lat":-6.212485},{"is_transit":false,"i_lat":-6.215091,"line":1,"station_id":"JNG","transit":false,"time":8,"i_long":106.86807400000001,"station_name":"Jatinegara","distance":1377},{"station_name":"Klender","i_long":106.899548,"is_transit":false,"transit":false,"line":1,"i_lat":-6.2135,"distance":3395,"time":3,"station_id":"KLD"},{"station_name":"Buaran","i_long":106.922662,"line":1,"distance":3100,"transit":false,"is_transit":false,"time":2,"station_id":"BUA","i_lat":-6.215568},{"is_transit":false,"station_name":"Klenderbaru","transit":false,"i_long":106.939679,"time":1,"distance":1305,"line":1,"i_lat":-6.217455,"station_id":"KLDB"},{"distance":1385,"line":1,"is_transit":false,"i_lat":-6.219053,"i_long":106.951283,"transit":false,"station_name":"Cakung","time":8,"station_id":"CUK"},{"distance":3097,"i_lat":-6.224515,"station_id":"KRI","i_long":106.977657,"time":3,"transit":false,"station_name":"Kranji","is_transit":false,"line":1},{"i_lat":-6.236616,"i_long":106.997013,"distance":2520,"time":4,"transit":false,"line":1,"is_transit":false,"station_name":"Bekasi","station_id":"BKS"},{"station_id":"BKST","i_long":107.016735,"i_lat":-6.248029,"line":1,"time":2,"is_transit":false,"transit":false,"distance":2368,"station_name":"Bekasi Timur"},{"station_id":"TB","is_transit":false,"line":1,"distance":4460,"transit":false,"i_lat":-6.258864,"i_long":107.055722,"station_name":"Tambun","time":7},{"station_id":"CIT","transit":false,"i_lat":-6.261877,"time":3,"i_long":107.083084,"station_name":"Cibitung","is_transit":false,"distance":3420,"line":1},{"station_id":"TLM","i_lat":-6.262938,"time":2,"station_name":"Metland Telaga Murni","distance":2800,"transit":false,"i_long":107.093313,"line":1,"is_transit":false},{"station_name":"Cikarang","is_transit":false,"distance":3689,"transit":false,"i_lat":-6.2553149999999995,"i_long":107.144613,"time":4,"station_id":"CKR","line":1}],[{"is_transit":false,"distance":0,"station_id":"KAT","time":0,"station_name":"Karet","i_lat":-6.20132,"line":1,"i_long":106.816351,"transit":false},{"time":1,"is_transit":false,"i_long":106.819881,"station_id":"SUDB","i_lat":-6.201433,"distance":471,"transit":false,"line":1,"station_name":"Sudirman Baru"},{"time":1,"station_id":"SUD","i_long":106.822649,"station_name":"Sudirman","transit":false,"distance":280,"line":1,"is_transit":false,"i_lat":-6.202263},{"i_long":106.84912,"distance":3186,"time":4,"station_name":"Manggarai","i_lat":-6.209883,"line":2,"is_transit":true,"transit":true,"station_id":"MRI"},{"distance":1590,"i_long":106.840169,"line":2,"i_lat":-6.198556,"station_id":"CKI","transit":false,"is_transit":false,"station_name":"Cikini","time":4},{"is_transit":false,"distance":1750,"transit":false,"station_id":"GDD","i_long":106.832183,"station_name":"Gondangdia","time":3,"i_lat":-6.186295,"line":2},{"is_transit":false,"time":4,"distance":2015,"transit":false,"station_id":"JUA","i_lat":-6.166716,"line":2,"station_name":"Juanda","i_long":106.828284},{"time":2,"i_long":106.827103,"transit":false,"is_transit":false,"distance":1149,"station_id":"SW","i_lat":-6.160725,"line":2,"station_name":"Sawah Besar"},{"line":2,"i_long":106.82482,"transit":false,"station_name":"Manggabesar","i_lat":-6.149769,"distance":906,"is_transit":false,"time":2,"station_id":"MGB"},{"i_long":106.820901,"is_transit":false,"i_lat":-6.141205,"line":2,"station_name":"Jayakarta","time":2,"transit":false,"distance":1080,"station_id":"JAY"},{"station_name":"Jakarta Kota","time":4,"line":2,"i_lat":-6.137569,"station_id":"JAKK","distance":1264,"is_transit":true,"transit":true,"i_long":106.812439},{"i_long":106.826365,"station_id":"KPB","distance":1364,"transit":true,"line":4,"time":3,"is_transit":true,"station_name":"Kampung Bandan","i_lat":-6.132549},{"i_lat":-6.14505,"line":11,"is_transit":false,"transit":false,"station_name":"Rajawali","time":3,"distance":1444,"station_id":"RJW","i_long":106.836569},{"station_id":"KMO","time":5,"station_name":"Kemayoran","transit":false,"i_lat":-6.161728,"line":11,"is_transit":false,"i_long":106.839204,"distance":1901},{"station_id":"PSE","distance":1436,"i_lat":-6.174784,"station_name":"Pasar Senen","i_long":106.84368,"is_transit":false,"time":4,"line":11,"transit":false},{"i_lat":-6.185975,"time":8,"i_long":106.850107,"station_name":"Gang Sentiong","distance":1567,"transit":false,"is_transit":false,"line":11,"station_id":"GST"},{"is_transit":false,"station_name":"Kramat","line":11,"station_id":"KMT","time":1,"i_lat":-6.193792,"distance":973,"i_long":106.855437,"transit":false},{"station_name":"Pondok Jati","is_transit":false,"distance":1829,"transit":false,"time":2,"line":11,"station_id":"POK","i_long":106.861737,"i_lat":-6.209188},{"i_lat":-6.215091,"distance":1236,"transit":true,"station_id":"JNG","i_long":106.86807400000001,"line":1,"is_transit":true,"time":9,"station_name":"Jatinegara"},{"station_name":"Klender","time":3,"transit":false,"station_id":"KLD","i_lat":-6.2135,"line":1,"i_long":106.899548,"is_transit":false,"distance":3395},{"i_long":106.922662,"transit":false,"time":2,"is_transit":false,"station_id":"BUA","i_lat":-6.215568,"station_name":"Buaran","line":1,"distance":3100},{"i_lat":-6.217455,"transit":false,"time":1,"distance":1305,"station_id":"KLDB","station_name":"Klenderbaru","i_long":106.939679,"is_transit":false,"line":1},{"is_transit":false,"time":8,"station_name":"Cakung","station_id":"CUK","i_lat":-6.219053,"transit":false,"line":1,"distance":1385,"i_long":106.951283},{"time":3,"station_id":"KRI","line":1,"distance":3097,"i_lat":-6.224515,"is_transit":false,"i_long":106.977657,"station_name":"Kranji","transit":false},{"i_long":106.997013,"distance":2520,"line":1,"time":4,"station_name":"Bekasi","station_id":"BKS","is_transit":false,"i_lat":-6.236616,"transit":false},{"i_lat":-6.248029,"time":2,"transit":false,"station_name":"Bekasi Timur","is_transit":false,"i_long":107.016735,"line":1,"station_id":"BKST","distance":2368},{"station_name":"Tambun","distance":4460,"time":7,"station_id":"TB","i_lat":-6.258864,"i_long":107.055722,"line":1,"transit":false,"is_transit":false},{"is_transit":false,"station_id":"CIT","transit":false,"i_long":107.083084,"line":1,"distance":3420,"time":3,"i_lat":-6.261877,"station_name":"Cibitung"},{"i_long":107.093313,"station_name":"Metland Telaga Murni","is_transit":false,"transit":false,"distance":2800,"i_lat":-6.262938,"time":2,"station_id":"TLM","line":1},{"i_long":107.144613,"line":1,"i_lat":-6.2553149999999995,"station_id":"CKR","transit":false,"station_name":"Cikarang","is_transit":false,"distance":3689,"time":4}]]}