{"data":[[{"i_lat":-6.20132,"distance":0,"station_id":"KAT","station_name":"Karet","line":1,"time":0,"transit":false,"i_long":106.816351,"is_transit":false},{"transit":true,"i_lat":-6.185545,"is_transit":true,"distance":2029,"station_id":"THB","line":1,"i_long":106.811091,"station_name":"Tanah Abang","time":5},{"line":6,"transit":false,"is_transit":false,"time":6,"distance":3191,"i_lat":-6.207404,"station_name":"Palmerah","i_long":106.79689,"station_id":"PLM"},{"is_transit":false,"transit":false,"i_long":106.780334,"time":7,"station_id":"KBY","distance":3737,"i_lat":-6.237242,"station_name":"Kebayoran","line":6},{"distance":6218,"transit":false,"i_long":106.74273,"i_lat":-6.276362,"station_id":"PDJ","station_name":"Pondokranji","is_transit":false,"time":8,"line":6},{"line":6,"time":3,"station_id":"JMU","i_lat":-6.288927,"distance":2179,"transit":false,"i_long":106.728916,"station_name":"Jurangmangu","is_transit":false},{"station_name":"Sudimara","station_id":"SDM","is_transit":false,"transit":false,"i_long":106.712277,"time":4,"i_lat":-6.296963,"distance":1994,"line":6},{"line":6,"time":6,"transit":false,"is_transit":false,"i_lat":-6.314823,"station_id":"RU","station_name":"Rawa Buntu","i_long":106.675475,"distance":4566},{"station_id":"SRP","i_lat":-6.319871,"line":6,"i_long":106.66566,"transit":false,"station_name":"Serpong","distance":2413,"time":4,"is_transit":false},{"station_name":"Cisauk","is_transit":false,"distance":1784,"transit":false,"i_lat":-6.32484,"station_id":"CSK","time":4,"i_long":106.640411,"line":3},{"station_id":"CC","distance":2519,"line":3,"transit":false,"i_lat":-6.329547,"i_long":106.617853,"time":4,"station_name":"Cicayur","is_transit":false},{"i_lat":-6.3441410000000005,"distance":5968,"i_long":106.568863,"is_transit":false,"time":8,"transit":false,"station_name":"Parung Panjang","station_id":"PRP","line":6},{"station_id":"CJT","is_transit":false,"i_lat":-6.354349,"line":3,"distance":7025,"time":9,"transit":false,"station_name":"Cilejit","i_long":106.508482},{"station_name":"Daru","distance":2675,"is_transit":false,"i_lat":-6.338021,"i_long":106.491338,"transit":false,"line":0,"time":6,"station_id":"DAR"},{"transit":false,"time":5,"station_id":"TEJ","line":6,"is_transit":false,"i_lat":-6.327251,"i_long":106.460812,"distance":3902,"station_name":"Tenjo"},{"line":6,"time":5,"station_id":"TGS","is_transit":false,"i_lat":-6.328533,"transit":false,"station_name":"Tigaraksa","distance":2974,"i_long":106.425991},{"line":3,"station_id":"CKY","is_transit":false,"i_lat":-6.33561,"transit":false,"station_name":"Cikoya","i_long":106.411216,"time":3,"distance":2651}],[{"station_name":"Karet","i_lat":-6.20132,"is_transit":false,"distance":0,"transit":false,"line":1,"time":0,"i_long":106.816351,"station_id":"KAT"},{"station_name":"Sudirman Baru","i_lat":-6.201433,"station_id":"SUDB","distance":471,"line":1,"i_long":106.819881,"is_transit":false,"transit":false,"time":1},{"transit":false,"time":1,"station_id":"SUD","distance":280,"i_lat":-6.202263,"line":1,"i_long":106.822649,"station_name":"Sudirman","is_transit":false},{"station_name":"Manggarai","i_long":106.84912,"transit":true,"time":4,"station_id":"MRI","i_lat":-6.209883,"line":2,"is_transit":true,"distance":3186},{"station_name":"Cikini","station_id":"CKI","transit":false,"distance":1590,"i_long":106.840169,"is_transit":false,"i_lat":-6.198556,"line":2,"time":4},{"is_transit":false,"i_long":106.832183,"time":3,"station_name":"Gondangdia","distance":1750,"station_id":"GDD","transit":false,"i_lat":-6.186295,"line":2},{"distance":2015,"station_id":"JUA","transit":false,"time":4,"is_transit":false,"station_name":"Juanda","i_long":106.828284,"line":2,"i_lat":-6.166716},{"transit":false,"station_id":"SW","is_transit":false,"i_lat":-6.160725,"i_long":106.827103,"line":2,"time":2,"distance":1149,"station_name":"Sawah Besar"},{"i_long":106.82482,"time":2,"transit":false,"distance":906,"i_lat":-6.149769,"line":2,"is_transit":false,"station_name":"Manggabesar","station_id":"MGB"},{"transit":false,"station_name":"Jayakarta","line":2,"distance":1080,"station_id":"JAY","time":2,"i_lat":-6.141205,"i_long":106.820901,"is_transit":false},{"is_transit":true,"distance":1264,"station_id":"JAKK","time":4,"i_long":106.812439,"station_name":"Jakarta Kota","i_lat":-6.137569,"line":2,"transit":true},{"station_id":"KPB","time":3,"distance":1364,"transit":true,"i_lat":-6.132549,"i_long":106.826365,"station_name":"Kampung Bandan","line":4,"is_transit":true},{"is_transit":false,"i_long":106.79867,"time":9,"station_id":"AK","distance":4102,"transit":false,"line":1,"station_name":"Angke","i_lat":-6.144674},{"station_name":"Duri","transit":false,"time":4,"is_transit":false,"i_lat":-6.155215,"line":1,"station_id":"DU","i_long":106.800832,"distance":1230},{"i_lat":-6.185545,"i_long":106.811091,"time":8,"is_transit":true,"distance":3632,"transit":true,"station_name":"Tanah Abang","line":1,"station_id":"THB"},{"station_name":"Palmerah","i_lat":-6.207404,"station_id":"PLM","distance":3191,"is_transit":false,"i_long":106.79689,"time":6,"line":6,"transit":false},{"time":7,"station_name":"Kebayoran","i_lat":-6.237242,"station_id":"KBY","is_transit":false,"line":6,"i_long":106.780334,"distance":3737,"transit":false},{"line":6,"station_id":"PDJ","station_name":"Pondokranji","i_lat":-6.276362,"distance":6218,"i_long":106.74273,"time":8,"is_transit":false,"transit":false},{"is_transit":false,"i_lat":-6.288927,"line":6,"distance":2179,"transit":false,"i_long":106.728916,"time":3,"station_id":"JMU","station_name":"Jurangmangu"},{"transit":false,"i_lat":-6.296963,"station_name":"Sudimara","line":6,"station_id":"SDM","time":4,"is_transit":false,"distance":1994,"i_long":106.712277},{"transit":false,"time":6,"is_transit":false,"distance":4566,"line":6,"i_lat":-6.314823,"station_id":"RU","i_long":106.675475,"station_name":"Rawa Buntu"},{"transit":false,"time":4,"i_long":106.66566,"i_lat":-6.319871,"is_transit":false,"station_name":"Serpong","line":6,"distance":2413,"station_id":"SRP"},{"line":3,"time":4,"distance":1784,"station_id":"CSK","i_long":106.640411,"transit":false,"station_name":"Cisauk","is_transit":false,"i_lat":-6.32484},{"is_transit":false,"i_lat":-6.329547,"line":3,"station_name":"Cicayur","i_long":106.617853,"station_id":"CC","transit":false,"time":4,"distance":2519},{"station_name":"Parung Panjang","i_lat":-6.3441410000000005,"i_long":106.568863,"line":6,"is_transit":false,"station_id":"PRP","time":8,"distance":5968,"transit":false},{"i_lat":-6.354349,"i_long":106.508482,"line":3,"station_id":"CJT","transit":false,"time":9,"station_name":"Cilejit","is_transit":false,"distance":7025},{"transit":false,"i_lat":-6.338021,"station_name":"Daru","i_long":106.491338,"line":0,"time":6,"is_transit":false,"distance":2675,"station_id":"DAR"},{"i_lat":-6.327251,"i_long":106.460812,"station_id":"TEJ","transit":false,"is_transit":false,"line":6,"distance":3902,"station_name":"Tenjo","time":5},{"distance":2974,"station_id":"TGS","transit":false,"i_lat":-6.328533,"line":6,"time":5,"is_transit":false,"station_name":"Tigaraksa","i_long":106.425991},{"time":3,"is_transit":false,"i_long":106.411216,"i_lat":-6.33561,"station_id":"CKY","transit":false,"line":3,"station_name":"Cikoya","distance":2651}],[{"distance":0,"station_id":"KAT","time":0,"transit":false,"i_long":106.816351,"line":1,"is_transit":false,"station_name":"Karet","i_lat":-6.20132},{"time":1,"i_long":106.819881,"transit":false,"is_transit":false,"station_id":"SUDB","i_lat":-6.201433,"line":1,"station_name":"Sudirman Baru","distance":471},{"i_long":106.822649,"station_id":"SUD","line":1,"i_lat":-6.202263,"is_transit":false,"distance":280,"station_name":"Sudirman","transit":false,"time":1},{"station_name":"Manggarai","i_lat":-6.209883,"is_transit":false,"transit":false,"i_long":106.84912,"station_id":"MRI","line":2,"time":4,"distance":3186},{"i_lat":-6.212485,"station_name":"Matraman","time":2,"distance":1275,"transit":false,"is_transit":false,"line":1,"i_long":106.858896,"station_id":"MTR"},{"time":8,"is_transit":true,"i_lat":-6.215091,"station_id":"JNG","distance":1377,"station_name":"Jatinegara","line":1,"i_long":106.86807400000001,"transit":true},{"station_id":"POK","distance":1236,"line":11,"is_transit":false,"transit":false,"time":2,"station_name":"Pondok Jati","i_lat":-6.209188,"i_long":106.861737},{"is_transit":false,"station_id":"KMT","i_lat":-6.193792,"station_name":"Kramat","time":2,"i_long":106.855437,"transit":false,"line":11,"distance":1829},{"i_lat":-6.185975,"time":1,"station_id":"GST","line":11,"station_name":"Gang Sentiong","i_long":106.850107,"distance":973,"transit":false,"is_transit":false},{"transit":false,"station_id":"PSE","time":8,"distance":1567,"is_transit":false,"i_lat":-6.174784,"station_name":"Pasar Senen","i_long":106.84368,"line":11},{"distance":1436,"is_transit":false,"transit":false,"station_name":"Kemayoran","station_id":"KMO","i_lat":-6.161728,"i_long":106.839204,"time":4,"line":11},{"station_name":"Rajawali","line":11,"time":5,"station_id":"RJW","is_transit":false,"distance":1901,"i_lat":-6.14505,"i_long":106.836569,"transit":false},{"station_id":"KPB","i_lat":-6.132549,"line":4,"is_transit":true,"transit":true,"station_name":"Kampung Bandan","time":3,"distance":1444,"i_long":106.826365},{"transit":false,"station_id":"AK","i_lat":-6.144674,"time":9,"station_name":"Angke","is_transit":false,"line":1,"distance":4102,"i_long":106.79867},{"time":4,"transit":false,"station_name":"Duri","line":1,"distance":1230,"is_transit":false,"i_lat":-6.155215,"i_long":106.800832,"station_id":"DU"},{"transit":true,"distance":3632,"is_transit":true,"station_name":"Tanah Abang","i_lat":-6.185545,"line":1,"time":8,"station_id":"THB","i_long":106.811091},{"station_id":"PLM","i_long":106.79689,"transit":false,"i_lat":-6.207404,"line":6,"station_name":"Palmerah","time":6,"distance":3191,"is_transit":false},{"time":7,"i_long":106.780334,"distance":3737,"station_id":"KBY","is_transit":false,"transit":false,"i_lat":-6.237242,"line":6,"station_name":"Kebayoran"},{"station_name":"Pondokranji","line":6,"i_long":106.74273,"station_id":"PDJ","i_lat":-6.276362,"time":8,"transit":false,"distance":6218,"is_transit":false},{"i_lat":-6.288927,"is_transit":false,"time":3,"transit":false,"station_name":"Jurangmangu","i_long":106.728916,"station_id":"JMU","distance":2179,"line":6},{"time":4,"line":6,"is_transit":false,"transit":false,"station_name":"Sudimara","distance":1994,"i_long":106.712277,"i_lat":-6.296963,"station_id":"SDM"},{"time":6,"is_transit":false,"i_long":106.675475,"station_name":"Rawa Buntu","distance":4566,"station_id":"RU","transit":false,"line":6,"i_lat":-6.314823},{"station_name":"Serpong","i_long":106.66566,"i_lat":-6.319871,"station_id":"SRP","line":6,"transit":false,"time":4,"distance":2413,"is_transit":false},{"is_transit":false,"line":3,"station_id":"CSK","i_lat":-6.32484,"transit":false,"distance":1784,"station_name":"Cisauk","i_long":106.640411,"time":4},{"is_transit":false,"station_name":"Cicayur","station_id":"CC","line":3,"transit":false,"distance":2519,"i_lat":-6.329547,"time":4,"i_long":106.617853},{"distance":5968,"is_transit":false,"i_long":106.568863,"line":6,"time":8,"transit":false,"i_lat":-6.3441410000000005,"station_id":"PRP","station_name":"Parung Panjang"},{"distance":7025,"i_long":106.508482,"is_transit":false,"station_id":"CJT","line":3,"station_name":"Cilejit","i_lat":-6.354349,"transit":false,"time":9},{"is_transit":false,"transit":false,"time":6,"line":0,"i_lat":-6.338021,"i_long":106.491338,"distance":2675,"station_id":"DAR","station_name":"Daru"},{"i_lat":-6.327251,"distance":3902,"line":6,"time":5,"station_name":"Tenjo","is_transit":false,"station_id":"TEJ","transit":false,"i_long":106.460812},{"distance":2974,"station_id":"TGS","time":5,"transit":false,"i_long":106.425991,"is_transit":false,"line":6,"station_name":"Tigaraksa","i_lat":-6.328533},{"station_id":"CKY","station_name":"Cikoya","distance":2651,"time":3,"line":3,"i_long":106.411216,"transit":false,"is_transit":false,"i_lat":-6.33561}]]}