{"data":[[{"line":1,"transit":false,"station_name":"Karet","time":0,"distance":0,"i_long":106.816351,"station_id":"KAT","i_lat":-6.20132,"is_transit":false},{"transit":false,"time":1,"station_id":"SUDB","distance":471,"i_lat":-6.201433,"i_long":106.819881,"line":1,"station_name":"Sudirman Baru","is_transit":false},{"time":1,"transit":false,"is_transit":false,"station_name":"Sudirman","distance":280,"i_lat":-6.202263,"i_long":106.822649,"station_id":"SUD","line":1},{"transit":false,"i_lat":-6.209883,"time":4,"is_transit":false,"distance":3186,"station_id":"MRI","station_name":"Manggarai","i_long":106.84912,"line":2},{"i_lat":-6.212485,"distance":1275,"is_transit":false,"station_name":"Matraman","transit":false,"line":1,"i_long":106.858896,"station_id":"MTR","time":2}],[{"station_name":"Karet","i_lat":-6.20132,"distance":0,"station_id":"KAT","is_transit":false,"i_long":106.816351,"time":0,"line":1,"transit":false},{"transit":false,"time":5,"station_name":"Tanah Abang","distance":2029,"i_lat":-6.185545,"i_long":106.811091,"station_id":"THB","line":1,"is_transit":false},{"line":1,"is_transit":false,"time":8,"station_name":"Duri","i_lat":-6.155215,"transit":false,"i_long":106.800832,"station_id":"DU","distance":3632},{"is_transit":false,"line":1,"distance":1230,"time":4,"i_lat":-6.144674,"station_name":"Angke","transit":false,"station_id":"AK","i_long":106.79867},{"transit":true,"is_transit":true,"time":9,"station_name":"Kampung Bandan","i_lat":-6.132549,"distance":4102,"i_long":106.826365,"station_id":"KPB","line":4},{"time":3,"is_transit":false,"i_long":106.836569,"line":11,"transit":false,"i_lat":-6.14505,"distance":1444,"station_id":"RJW","station_name":"Rajawali"},{"line":11,"is_transit":false,"station_name":"Kemayoran","distance":1901,"time":5,"station_id":"KMO","transit":false,"i_lat":-6.161728,"i_long":106.839204},{"station_id":"PSE","station_name":"Pasar Senen","is_transit":false,"i_lat":-6.174784,"line":11,"i_long":106.84368,"distance":1436,"time":4,"transit":false},{"station_id":"GST","distance":1567,"station_name":"Gang Sentiong","time":8,"line":11,"transit":false,"is_transit":false,"i_lat":-6.185975,"i_long":106.850107},{"station_name":"Kramat","distance":973,"i_lat":-6.193792,"transit":false,"i_long":106.855437,"station_id":"KMT","line":11,"is_transit":false,"time":1},{"time":2,"is_transit":false,"distance":1829,"i_long":106.861737,"station_name":"Pondok Jati","station_id":"POK","i_lat":-6.209188,"transit":false,"line":11},{"station_name":"Jatinegara","i_lat":-6.215091,"transit":true,"time":9,"i_long":106.86807400000001,"station_id":"JNG","distance":1236,"is_transit":true,"line":1},{"station_name":"Matraman","distance":1377,"is_transit":false,"i_lat":-6.212485,"line":1,"i_long":106.858896,"station_id":"MTR","time":2,"transit":false}],[{"line":1,"distance":0,"is_transit":false,"station_name":"Karet","station_id":"KAT","transit":false,"i_lat":-6.20132,"i_long":106.816351,"time":0},{"station_id":"THB","transit":false,"i_long":106.811091,"station_name":"Tanah Abang","time":5,"is_transit":false,"i_lat":-6.185545,"line":1,"distance":2029},{"line":1,"station_name":"Duri","station_id":"DU","is_transit":false,"distance":3632,"transit":false,"i_lat":-6.155215,"time":8,"i_long":106.800832},{"i_lat":-6.144674,"line":1,"distance":1230,"station_id":"AK","station_name":"Angke","time":4,"is_transit":false,"i_long":106.79867,"transit":false},{"distance":4102,"i_long":106.826365,"line":4,"time":9,"station_name":"Kampung Bandan","i_lat":-6.132549,"station_id":"KPB","is_transit":true,"transit":true},{"time":3,"i_long":106.812439,"transit":true,"station_id":"JAKK","station_name":"Jakarta Kota","line":2,"distance":1364,"i_lat":-6.137569,"is_transit":true},{"line":2,"time":4,"i_long":106.820901,"transit":false,"station_id":"JAY","station_name":"Jayakarta","distance":1264,"is_transit":false,"i_lat":-6.141205},{"line":2,"time":2,"is_transit":false,"transit":false,"distance":1080,"i_lat":-6.149769,"i_long":106.82482,"station_id":"MGB","station_name":"Manggabesar"},{"distance":906,"station_id":"SW","is_transit":false,"station_name":"Sawah Besar","time":2,"i_lat":-6.160725,"i_long":106.827103,"line":2,"transit":false},{"time":2,"distance":1149,"line":2,"i_lat":-6.166716,"transit":false,"i_long":106.828284,"station_id":"JUA","is_transit":false,"station_name":"Juanda"},{"distance":2015,"time":4,"station_id":"GDD","transit":false,"is_transit":false,"i_lat":-6.186295,"i_long":106.832183,"line":2,"station_name":"Gondangdia"},{"station_id":"CKI","line":2,"time":3,"distance":1750,"is_transit":false,"transit":false,"i_long":106.840169,"station_name":"Cikini","i_lat":-6.198556},{"distance":1590,"time":4,"is_transit":true,"i_long":106.84912,"transit":true,"line":2,"station_name":"Manggarai","i_lat":-6.209883,"station_id":"MRI"},{"station_id":"MTR","distance":1275,"station_name":"Matraman","transit":false,"is_transit":false,"time":2,"i_lat":-6.212485,"line":1,"i_long":106.858896}],[{"time":0,"line":1,"station_name":"Karet","i_long":106.816351,"distance":0,"transit":false,"is_transit":false,"station_id":"KAT","i_lat":-6.20132},{"transit":false,"is_transit":false,"distance":471,"i_long":106.819881,"station_name":"Sudirman Baru","station_id":"SUDB","time":1,"i_lat":-6.201433,"line":1},{"station_name":"Sudirman","is_transit":false,"line":1,"i_lat":-6.202263,"transit":false,"distance":280,"station_id":"SUD","i_long":106.822649,"time":1},{"time":4,"i_lat":-6.209883,"transit":true,"i_long":106.84912,"line":2,"is_transit":true,"distance":3186,"station_name":"Manggarai","station_id":"MRI"},{"distance":1590,"transit":false,"time":4,"i_long":106.840169,"line":2,"station_name":"Cikini","i_lat":-6.198556,"station_id":"CKI","is_transit":false},{"line":2,"is_transit":false,"station_id":"GDD","station_name":"Gondangdia","transit":false,"time":3,"distance":1750,"i_lat":-6.186295,"i_long":106.832183},{"station_id":"JUA","station_name":"Juanda","distance":2015,"is_transit":false,"i_long":106.828284,"time":4,"i_lat":-6.166716,"line":2,"transit":false},{"i_long":106.827103,"distance":1149,"is_transit":false,"station_id":"SW","transit":false,"station_name":"Sawah Besar","time":2,"i_lat":-6.160725,"line":2},{"station_name":"Manggabesar","is_transit":false,"transit":false,"time":2,"station_id":"MGB","distance":906,"line":2,"i_lat":-6.149769,"i_long":106.82482},{"is_transit":false,"i_long":106.820901,"station_name":"Jayakarta","transit":false,"station_id":"JAY","time":2,"line":2,"i_lat":-6.141205,"distance":1080},{"i_long":106.812439,"line":2,"transit":true,"is_transit":true,"time":4,"i_lat":-6.137569,"station_id":"JAKK","station_name":"Jakarta Kota","distance":1264},{"i_lat":-6.132549,"i_long":106.826365,"distance":1364,"station_id":"KPB","transit":true,"is_transit":true,"line":4,"time":3,"station_name":"Kampung Bandan"},{"distance":1444,"station_name":"Rajawali","transit":false,"i_long":106.836569,"time":3,"is_transit":false,"station_id":"RJW","line":11,"i_lat":-6.14505},{"transit":false,"distance":1901,"is_transit":false,"time":5,"i_lat":-6.161728,"i_long":106.839204,"line":11,"station_id":"KMO","station_name":"Kemayoran"},{"station_id":"PSE","i_long":106.84368,"line":11,"transit":false,"station_name":"Pasar Senen","is_transit":false,"i_lat":-6.174784,"distance":1436,"time":4},{"transit":false,"time":8,"station_id":"GST","i_lat":-6.185975,"line":11,"station_name":"Gang Sentiong","is_transit":false,"i_long":106.850107,"distance":1567},{"i_lat":-6.193792,"line":11,"time":1,"station_id":"KMT","transit":false,"station_name":"Kramat","i_long":106.855437,"distance":973,"is_transit":false},{"transit":false,"i_lat":-6.209188,"line":11,"station_name":"Pondok Jati","station_id":"POK","i_long":106.861737,"time":2,"distance":1829,"is_transit":false},{"is_transit":true,"distance":1236,"i_long":106.86807400000001,"station_name":"Jatinegara","time":9,"transit":true,"station_id":"JNG","line":1,"i_lat":-6.215091},{"time":2,"station_id":"MTR","is_transit":false,"i_long":106.858896,"transit":false,"station_name":"Matraman","line":1,"i_lat":-6.212485,"distance":1377}]]}