{"data":[[{"i_lat":-6.20132,"is_transit":false,"i_long":106.816351,"transit":false,"station_id":"KAT","line":1,"station_name":"Karet","time":0,"distance":0},{"station_id":"SUDB","station_name":"Sudirman Baru","i_lat":-6.201433,"line":1,"distance":471,"time":1,"is_transit":false,"i_long":106.819881,"transit":false},{"station_id":"SUD","is_transit":false,"station_name":"Sudirman","i_lat":-6.202263,"transit":false,"i_long":106.822649,"distance":280,"time":1,"line":1},{"i_long":106.84912,"time":4,"i_lat":-6.209883,"distance":3186,"line":0,"transit":false,"station_id":"MRI","is_transit":true,"station_name":"Manggarai"},{"distance":1275,"station_name":"Matraman","line":1,"station_id":"MTR","i_long":106.858896,"is_transit":false,"transit":false,"i_lat":-6.212485,"time":2},{"i_lat":-6.215091,"station_id":"JNG","i_long":106.86807400000001,"station_name":"Jatinegara","time":8,"line":0,"is_transit":true,"transit":false,"distance":1377},{"i_long":106.899548,"station_name":"Klender","distance":3395,"transit":false,"line":1,"time":3,"station_id":"KLD","is_transit":false,"i_lat":-6.2135}],[{"i_lat":-6.20132,"transit":false,"i_long":106.816351,"station_id":"KAT","distance":0,"line":1,"station_name":"Karet","is_transit":false,"time":0},{"distance":2029,"transit":false,"i_long":106.811091,"i_lat":-6.185545,"station_name":"Tanah Abang","line":1,"time":5,"station_id":"THB","is_transit":true},{"line":1,"station_name":"Duri","station_id":"DU","transit":true,"distance":3632,"i_long":106.800832,"i_lat":-6.155215,"is_transit":true,"time":8},{"time":4,"line":0,"i_long":106.79867,"is_transit":false,"distance":1230,"station_id":"AK","station_name":"Angke","i_lat":-6.144674,"transit":false},{"transit":true,"i_lat":-6.132549,"time":9,"station_name":"Kampung Bandan","distance":4102,"is_transit":true,"i_long":106.826365,"line":0,"station_id":"KPB"},{"distance":1444,"transit":false,"i_lat":-6.14505,"i_long":106.836569,"line":11,"station_name":"Rajawali","is_transit":false,"station_id":"RJW","time":3},{"time":5,"i_lat":-6.161728,"station_id":"KMO","station_name":"Kemayoran","is_transit":false,"distance":1901,"transit":false,"i_long":106.839204,"line":11},{"distance":1436,"transit":false,"station_name":"Pasar Senen","i_lat":-6.174784,"time":4,"is_transit":false,"i_long":106.84368,"line":11,"station_id":"PSE"},{"is_transit":false,"station_id":"GST","time":8,"i_lat":-6.185975,"line":11,"station_name":"Gang Sentiong","transit":false,"i_long":106.850107,"distance":1567},{"distance":973,"time":1,"station_name":"Kramat","is_transit":false,"transit":false,"line":11,"station_id":"KMT","i_lat":-6.193792,"i_long":106.855437},{"time":2,"i_long":106.861737,"transit":false,"is_transit":false,"station_id":"POK","distance":1829,"i_lat":-6.209188,"line":11,"station_name":"Pondok Jati"},{"transit":true,"time":9,"distance":1236,"i_lat":-6.215091,"i_long":106.86807400000001,"station_name":"Jatinegara","is_transit":true,"line":0,"station_id":"JNG"},{"is_transit":false,"i_long":106.899548,"station_id":"KLD","i_lat":-6.2135,"distance":3395,"time":3,"station_name":"Klender","transit":false,"line":1}],[{"transit":false,"i_lat":-6.20132,"i_long":106.816351,"is_transit":false,"distance":0,"line":1,"station_id":"KAT","station_name":"Karet","time":0},{"transit":false,"i_long":106.811091,"station_id":"THB","station_name":"Tanah Abang","is_transit":true,"i_lat":-6.185545,"time":5,"line":1,"distance":2029},{"transit":true,"station_id":"DU","i_long":106.800832,"distance":3632,"is_transit":true,"time":8,"line":1,"i_lat":-6.155215,"station_name":"Duri"},{"line":0,"transit":false,"i_long":106.79867,"station_name":"Angke","station_id":"AK","distance":1230,"time":4,"i_lat":-6.144674,"is_transit":false},{"station_name":"Kampung Bandan","is_transit":true,"transit":false,"time":9,"i_lat":-6.132549,"distance":4102,"i_long":106.826365,"line":0,"station_id":"KPB"},{"station_id":"JAKK","transit":true,"station_name":"Jakarta Kota","time":3,"i_lat":-6.137569,"is_transit":true,"distance":1364,"i_long":106.812439,"line":0},{"transit":false,"line":7,"i_long":106.820901,"time":4,"i_lat":-6.141205,"station_name":"Jayakarta","station_id":"JAY","is_transit":false,"distance":1264},{"station_id":"MGB","is_transit":false,"i_lat":-6.149769,"line":2,"i_long":106.82482,"time":2,"distance":1080,"transit":false,"station_name":"Manggabesar"},{"transit":false,"line":2,"i_long":106.827103,"station_id":"SW","is_transit":false,"time":2,"station_name":"Sawah Besar","distance":906,"i_lat":-6.160725},{"i_lat":-6.166716,"time":2,"station_id":"JUA","is_transit":false,"distance":1149,"transit":false,"station_name":"Juanda","i_long":106.828284,"line":2},{"station_name":"Gondangdia","is_transit":false,"station_id":"GDD","time":4,"transit":false,"i_long":106.832183,"line":2,"i_lat":-6.186295,"distance":2015},{"line":0,"distance":1750,"transit":false,"station_id":"CKI","is_transit":false,"time":3,"i_long":106.840169,"station_name":"Cikini","i_lat":-6.198556},{"time":4,"i_lat":-6.209883,"distance":1590,"line":0,"transit":true,"station_name":"Manggarai","i_long":106.84912,"station_id":"MRI","is_transit":true},{"station_name":"Matraman","station_id":"MTR","time":2,"transit":false,"i_lat":-6.212485,"i_long":106.858896,"is_transit":false,"distance":1275,"line":1},{"time":8,"distance":1377,"i_long":106.86807400000001,"station_name":"Jatinegara","line":0,"i_lat":-6.215091,"station_id":"JNG","transit":false,"is_transit":true},{"time":3,"station_name":"Klender","station_id":"KLD","i_lat":-6.2135,"is_transit":false,"line":1,"transit":false,"i_long":106.899548,"distance":3395}],[{"i_long":106.816351,"line":1,"transit":false,"is_transit":false,"distance":0,"i_lat":-6.20132,"station_name":"Karet","station_id":"KAT","time":0},{"i_lat":-6.201433,"i_long":106.819881,"line":1,"distance":471,"time":1,"station_name":"Sudirman Baru","transit":false,"station_id":"SUDB","is_transit":false},{"transit":false,"station_id":"SUD","i_lat":-6.202263,"i_long":106.822649,"line":1,"station_name":"Sudirman","is_transit":false,"distance":280,"time":1},{"station_id":"MRI","line":0,"distance":3186,"time":4,"is_transit":true,"i_long":106.84912,"station_name":"Manggarai","transit":true,"i_lat":-6.209883},{"distance":1590,"station_id":"CKI","is_transit":false,"time":4,"station_name":"Cikini","transit":false,"i_lat":-6.198556,"line":0,"i_long":106.840169},{"is_transit":false,"distance":1750,"time":3,"line":2,"transit":false,"station_name":"Gondangdia","i_lat":-6.186295,"i_long":106.832183,"station_id":"GDD"},{"transit":false,"i_lat":-6.166716,"is_transit":false,"station_id":"JUA","line":2,"station_name":"Juanda","time":4,"distance":2015,"i_long":106.828284},{"i_lat":-6.160725,"station_name":"Sawah Besar","time":2,"line":2,"is_transit":false,"transit":false,"i_long":106.827103,"station_id":"SW","distance":1149},{"distance":906,"time":2,"transit":false,"is_transit":false,"i_long":106.82482,"line":2,"i_lat":-6.149769,"station_id":"MGB","station_name":"Manggabesar"},{"i_lat":-6.141205,"time":2,"distance":1080,"station_id":"JAY","is_transit":false,"transit":false,"line":7,"station_name":"Jayakarta","i_long":106.820901},{"i_long":106.812439,"time":4,"is_transit":true,"transit":true,"station_name":"Jakarta Kota","i_lat":-6.137569,"station_id":"JAKK","distance":1264,"line":0},{"station_name":"Kampung Bandan","time":3,"i_long":106.826365,"station_id":"KPB","i_lat":-6.132549,"is_transit":true,"distance":1364,"line":0,"transit":true},{"i_long":106.836569,"is_transit":false,"time":3,"line":11,"transit":false,"i_lat":-6.14505,"distance":1444,"station_id":"RJW","station_name":"Rajawali"},{"i_long":106.839204,"station_id":"KMO","distance":1901,"line":11,"station_name":"Kemayoran","is_transit":false,"time":5,"transit":false,"i_lat":-6.161728},{"transit":false,"time":4,"is_transit":false,"distance":1436,"i_lat":-6.174784,"station_id":"PSE","station_name":"Pasar Senen","i_long":106.84368,"line":11},{"station_id":"GST","transit":false,"i_lat":-6.185975,"station_name":"Gang Sentiong","time":8,"is_transit":false,"distance":1567,"line":11,"i_long":106.850107},{"station_name":"Kramat","distance":973,"transit":false,"is_transit":false,"time":1,"i_lat":-6.193792,"station_id":"KMT","i_long":106.855437,"line":11},{"station_id":"POK","time":2,"station_name":"Pondok Jati","transit":false,"distance":1829,"i_lat":-6.209188,"i_long":106.861737,"is_transit":false,"line":11},{"i_lat":-6.215091,"station_name":"Jatinegara","station_id":"JNG","i_long":106.86807400000001,"distance":1236,"time":9,"is_transit":true,"transit":true,"line":0},{"station_name":"Klender","distance":3395,"line":1,"station_id":"KLD","i_long":106.899548,"is_transit":false,"transit":false,"i_lat":-6.2135,"time":3}]]}