{"data":[[{"is_transit":false,"i_lat":-6.20132,"station_name":"Karet","transit":false,"i_long":106.816351,"line":1,"time":0,"distance":0,"station_id":"KAT"},{"line":1,"transit":false,"time":1,"i_long":106.819881,"station_name":"Sudirman Baru","distance":471,"station_id":"SUDB","is_transit":false,"i_lat":-6.201433},{"station_name":"Sudirman","line":1,"distance":280,"station_id":"SUD","is_transit":false,"i_lat":-6.202263,"transit":false,"time":1,"i_long":106.822649},{"distance":3186,"line":2,"i_long":106.84912,"time":4,"transit":false,"station_id":"MRI","i_lat":-6.209883,"station_name":"Manggarai","is_transit":false},{"time":2,"distance":1275,"is_transit":false,"transit":false,"station_name":"Matraman","i_lat":-6.212485,"line":1,"station_id":"MTR","i_long":106.858896},{"i_lat":-6.215091,"i_long":106.86807400000001,"line":1,"station_name":"Jatinegara","time":8,"station_id":"JNG","is_transit":false,"distance":1377,"transit":false},{"distance":3395,"transit":false,"i_lat":-6.2135,"i_long":106.899548,"line":1,"station_id":"KLD","time":3,"station_name":"Klender","is_transit":false},{"distance":3100,"transit":false,"is_transit":false,"line":1,"time":2,"station_name":"Buaran","i_lat":-6.215568,"i_long":106.922662,"station_id":"BUA"},{"station_name":"Klenderbaru","transit":false,"line":1,"station_id":"KLDB","is_transit":false,"distance":1305,"i_long":106.939679,"i_lat":-6.217455,"time":1},{"station_id":"CUK","i_lat":-6.219053,"time":8,"distance":1385,"station_name":"Cakung","transit":false,"i_long":106.951283,"line":1,"is_transit":false},{"station_name":"Kranji","time":3,"station_id":"KRI","is_transit":false,"i_lat":-6.224515,"i_long":106.977657,"line":1,"transit":false,"distance":3097},{"station_id":"BKS","i_lat":-6.236616,"line":1,"distance":2520,"transit":false,"i_long":106.997013,"station_name":"Bekasi","is_transit":false,"time":4}],[{"i_lat":-6.20132,"is_transit":false,"distance":0,"station_id":"KAT","transit":false,"i_long":106.816351,"time":0,"station_name":"Karet","line":1},{"i_lat":-6.185545,"is_transit":false,"station_id":"THB","station_name":"Tanah Abang","transit":false,"i_long":106.811091,"time":5,"distance":2029,"line":1},{"is_transit":false,"station_name":"Duri","line":1,"i_lat":-6.155215,"station_id":"DU","time":8,"i_long":106.800832,"distance":3632,"transit":false},{"distance":1230,"i_long":106.79867,"station_id":"AK","time":4,"station_name":"Angke","is_transit":false,"i_lat":-6.144674,"line":1,"transit":false},{"station_id":"KPB","transit":true,"i_long":106.826365,"line":4,"is_transit":true,"station_name":"Kampung Bandan","i_lat":-6.132549,"time":9,"distance":4102},{"i_lat":-6.14505,"is_transit":false,"i_long":106.836569,"time":3,"line":11,"station_name":"Rajawali","distance":1444,"transit":false,"station_id":"RJW"},{"time":5,"distance":1901,"is_transit":false,"station_id":"KMO","i_long":106.839204,"transit":false,"i_lat":-6.161728,"line":11,"station_name":"Kemayoran"},{"i_long":106.84368,"time":4,"station_name":"Pasar Senen","is_transit":false,"line":11,"transit":false,"distance":1436,"station_id":"PSE","i_lat":-6.174784},{"station_id":"GST","line":11,"i_lat":-6.185975,"time":8,"transit":false,"i_long":106.850107,"distance":1567,"station_name":"Gang Sentiong","is_transit":false},{"is_transit":false,"time":1,"transit":false,"i_long":106.855437,"line":11,"distance":973,"station_id":"KMT","i_lat":-6.193792,"station_name":"Kramat"},{"distance":1829,"station_id":"POK","station_name":"Pondok Jati","line":11,"i_long":106.861737,"transit":false,"i_lat":-6.209188,"time":2,"is_transit":false},{"station_id":"JNG","i_lat":-6.215091,"distance":1236,"transit":true,"i_long":106.86807400000001,"is_transit":true,"line":1,"time":9,"station_name":"Jatinegara"},{"station_id":"KLD","i_lat":-6.2135,"is_transit":false,"distance":3395,"line":1,"transit":false,"station_name":"Klender","i_long":106.899548,"time":3},{"line":1,"is_transit":false,"transit":false,"station_name":"Buaran","i_lat":-6.215568,"station_id":"BUA","time":2,"i_long":106.922662,"distance":3100},{"station_name":"Klenderbaru","is_transit":false,"distance":1305,"time":1,"transit":false,"i_long":106.939679,"station_id":"KLDB","i_lat":-6.217455,"line":1},{"distance":1385,"i_lat":-6.219053,"line":1,"station_id":"CUK","time":8,"is_transit":false,"station_name":"Cakung","transit":false,"i_long":106.951283},{"i_lat":-6.224515,"station_id":"KRI","is_transit":false,"line":1,"time":3,"station_name":"Kranji","transit":false,"distance":3097,"i_long":106.977657},{"i_long":106.997013,"transit":false,"station_name":"Bekasi","distance":2520,"line":1,"time":4,"is_transit":false,"i_lat":-6.236616,"station_id":"BKS"}],[{"transit":false,"i_lat":-6.20132,"is_transit":false,"i_long":106.816351,"line":1,"station_name":"Karet","distance":0,"station_id":"KAT","time":0},{"time":5,"distance":2029,"station_id":"THB","i_long":106.811091,"transit":false,"i_lat":-6.185545,"line":1,"station_name":"Tanah Abang","is_transit":false},{"station_name":"Duri","station_id":"DU","line":1,"transit":false,"distance":3632,"i_lat":-6.155215,"i_long":106.800832,"is_transit":false,"time":8},{"transit":false,"i_lat":-6.144674,"i_long":106.79867,"is_transit":false,"line":1,"station_name":"Angke","station_id":"AK","distance":1230,"time":4},{"i_long":106.826365,"station_name":"Kampung Bandan","line":4,"is_transit":true,"station_id":"KPB","distance":4102,"transit":true,"time":9,"i_lat":-6.132549},{"i_long":106.812439,"is_transit":true,"i_lat":-6.137569,"time":3,"station_name":"Jakarta Kota","transit":true,"line":2,"station_id":"JAKK","distance":1364},{"transit":false,"is_transit":false,"distance":1264,"i_lat":-6.141205,"station_id":"JAY","station_name":"Jayakarta","line":2,"i_long":106.820901,"time":4},{"distance":1080,"i_lat":-6.149769,"is_transit":false,"time":2,"line":2,"station_id":"MGB","i_long":106.82482,"transit":false,"station_name":"Manggabesar"},{"station_id":"SW","transit":false,"station_name":"Sawah Besar","distance":906,"i_lat":-6.160725,"time":2,"is_transit":false,"i_long":106.827103,"line":2},{"i_lat":-6.166716,"station_name":"Juanda","station_id":"JUA","transit":false,"time":2,"distance":1149,"i_long":106.828284,"is_transit":false,"line":2},{"distance":2015,"i_long":106.832183,"time":4,"line":2,"transit":false,"station_name":"Gondangdia","station_id":"GDD","is_transit":false,"i_lat":-6.186295},{"i_lat":-6.198556,"distance":1750,"station_id":"CKI","i_long":106.840169,"station_name":"Cikini","is_transit":false,"time":3,"transit":false,"line":2},{"i_long":106.84912,"time":4,"line":2,"i_lat":-6.209883,"distance":1590,"transit":true,"station_id":"MRI","station_name":"Manggarai","is_transit":true},{"transit":false,"station_id":"MTR","station_name":"Matraman","is_transit":false,"time":2,"distance":1275,"i_long":106.858896,"i_lat":-6.212485,"line":1},{"is_transit":false,"line":1,"station_id":"JNG","time":8,"transit":false,"i_long":106.86807400000001,"distance":1377,"i_lat":-6.215091,"station_name":"Jatinegara"},{"distance":3395,"station_id":"KLD","transit":false,"i_long":106.899548,"station_name":"Klender","i_lat":-6.2135,"time":3,"line":1,"is_transit":false},{"distance":3100,"i_lat":-6.215568,"line":1,"i_long":106.922662,"station_name":"Buaran","time":2,"transit":false,"station_id":"BUA","is_transit":false},{"i_long":106.939679,"distance":1305,"station_id":"KLDB","transit":false,"station_name":"Klenderbaru","is_transit":false,"time":1,"i_lat":-6.217455,"line":1},{"time":8,"transit":false,"is_transit":false,"station_id":"CUK","distance":1385,"station_name":"Cakung","i_long":106.951283,"line":1,"i_lat":-6.219053},{"transit":false,"i_lat":-6.224515,"station_id":"KRI","i_long":106.977657,"station_name":"Kranji","time":3,"distance":3097,"is_transit":false,"line":1},{"station_id":"BKS","transit":false,"station_name":"Bekasi","is_transit":false,"i_long":106.997013,"i_lat":-6.236616,"distance":2520,"line":1,"time":4}],[{"line":1,"is_transit":false,"station_name":"Karet","transit":false,"station_id":"KAT","time":0,"distance":0,"i_long":106.816351,"i_lat":-6.20132},{"time":1,"station_name":"Sudirman Baru","station_id":"SUDB","i_long":106.819881,"is_transit":false,"transit":false,"distance":471,"i_lat":-6.201433,"line":1},{"transit":false,"station_id":"SUD","distance":280,"line":1,"is_transit":false,"i_lat":-6.202263,"station_name":"Sudirman","i_long":106.822649,"time":1},{"is_transit":true,"time":4,"distance":3186,"line":2,"transit":true,"station_name":"Manggarai","station_id":"MRI","i_long":106.84912,"i_lat":-6.209883},{"is_transit":false,"line":2,"i_long":106.840169,"transit":false,"time":4,"distance":1590,"i_lat":-6.198556,"station_id":"CKI","station_name":"Cikini"},{"line":2,"time":3,"distance":1750,"transit":false,"i_lat":-6.186295,"station_id":"GDD","is_transit":false,"i_long":106.832183,"station_name":"Gondangdia"},{"station_name":"Juanda","distance":2015,"transit":false,"i_lat":-6.166716,"is_transit":false,"i_long":106.828284,"time":4,"station_id":"JUA","line":2},{"i_long":106.827103,"time":2,"station_name":"Sawah Besar","station_id":"SW","is_transit":false,"i_lat":-6.160725,"line":2,"transit":false,"distance":1149},{"time":2,"transit":false,"i_long":106.82482,"station_name":"Manggabesar","line":2,"distance":906,"station_id":"MGB","is_transit":false,"i_lat":-6.149769},{"line":2,"i_long":106.820901,"transit":false,"i_lat":-6.141205,"station_id":"JAY","time":2,"station_name":"Jayakarta","distance":1080,"is_transit":false},{"line":2,"time":4,"distance":1264,"station_name":"Jakarta Kota","i_lat":-6.137569,"station_id":"JAKK","transit":true,"is_transit":true,"i_long":106.812439},{"transit":true,"time":3,"distance":1364,"i_lat":-6.132549,"station_id":"KPB","is_transit":true,"line":4,"station_name":"Kampung Bandan","i_long":106.826365},{"line":11,"station_id":"RJW","distance":1444,"is_transit":false,"i_lat":-6.14505,"transit":false,"time":3,"i_long":106.836569,"station_name":"Rajawali"},{"transit":false,"distance":1901,"station_id":"KMO","i_long":106.839204,"i_lat":-6.161728,"line":11,"station_name":"Kemayoran","time":5,"is_transit":false},{"station_name":"Pasar Senen","station_id":"PSE","i_lat":-6.174784,"time":4,"transit":false,"distance":1436,"is_transit":false,"i_long":106.84368,"line":11},{"transit":false,"is_transit":false,"line":11,"station_id":"GST","station_name":"Gang Sentiong","i_lat":-6.185975,"time":8,"distance":1567,"i_long":106.850107},{"i_long":106.855437,"time":1,"station_id":"KMT","is_transit":false,"transit":false,"line":11,"distance":973,"station_name":"Kramat","i_lat":-6.193792},{"is_transit":false,"line":11,"i_long":106.861737,"station_id":"POK","i_lat":-6.209188,"time":2,"distance":1829,"transit":false,"station_name":"Pondok Jati"},{"station_id":"JNG","is_transit":true,"transit":true,"time":9,"i_long":106.86807400000001,"station_name":"Jatinegara","i_lat":-6.215091,"distance":1236,"line":1},{"time":3,"is_transit":false,"distance":3395,"station_name":"Klender","line":1,"station_id":"KLD","transit":false,"i_lat":-6.2135,"i_long":106.899548},{"distance":3100,"time":2,"transit":false,"is_transit":false,"i_lat":-6.215568,"station_name":"Buaran","station_id":"BUA","i_long":106.922662,"line":1},{"line":1,"station_name":"Klenderbaru","station_id":"KLDB","i_lat":-6.217455,"is_transit":false,"distance":1305,"transit":false,"i_long":106.939679,"time":1},{"i_lat":-6.219053,"time":8,"transit":false,"station_name":"Cakung","i_long":106.951283,"is_transit":false,"distance":1385,"line":1,"station_id":"CUK"},{"i_long":106.977657,"station_name":"Kranji","is_transit":false,"i_lat":-6.224515,"station_id":"KRI","transit":false,"time":3,"distance":3097,"line":1},{"i_long":106.997013,"is_transit":false,"i_lat":-6.236616,"station_name":"Bekasi","line":1,"distance":2520,"station_id":"BKS","transit":false,"time":4}]]}