{"data":[[{"line":1,"station_id":"KAT","is_transit":false,"transit":false,"station_name":"Karet","distance":0,"i_lat":-6.20132,"i_long":106.816351,"time":0},{"station_id":"SUDB","is_transit":false,"time":1,"i_lat":-6.201433,"line":1,"i_long":106.819881,"distance":471,"station_name":"Sudirman Baru","transit":false},{"i_long":106.822649,"time":1,"i_lat":-6.202263,"distance":280,"line":1,"transit":false,"station_name":"Sudirman","station_id":"SUD","is_transit":false},{"station_id":"MRI","is_transit":true,"transit":true,"i_long":106.84912,"distance":3186,"station_name":"Manggarai","time":4,"i_lat":-6.209883,"line":2},{"is_transit":false,"line":2,"i_long":106.857948,"distance":2610,"time":4,"station_id":"TEB","transit":false,"i_lat":-6.226659,"station_name":"Tebet"},{"transit":false,"i_long":106.856607,"station_id":"CW","distance":1230,"station_name":"Cawang","i_lat":-6.242512,"is_transit":false,"line":2,"time":2},{"distance":1546,"line":2,"station_id":"DRN","is_transit":false,"transit":false,"station_name":"Duren Kalibata","time":3,"i_long":106.85449,"i_lat":-6.255332},{"transit":false,"i_lat":-6.263214,"distance":824,"is_transit":false,"line":2,"i_long":106.851577,"time":2,"station_id":"PSMB","station_name":"Pasar Minggu Baru"},{"transit":false,"station_name":"Pasar Minggu","station_id":"PSM","is_transit":false,"distance":2380,"i_lat":-6.2842400000000005,"i_long":106.843999,"line":2,"time":2},{"distance":2820,"station_name":"Tanjung Barat","i_long":106.838896,"time":4,"i_lat":-6.3080680000000005,"is_transit":false,"transit":false,"station_id":"TNT","line":2},{"is_transit":false,"time":3,"i_lat":-6.330363,"distance":2671,"i_long":106.832616,"line":2,"station_name":"Lenteng Agung","station_id":"LNA","transit":false},{"time":2,"i_lat":-6.339291,"i_long":106.834175,"line":2,"station_name":"Univ. Pancasila","station_id":"UP","distance":1029,"transit":false,"is_transit":false},{"is_transit":false,"distance":2264,"station_id":"UI","transit":false,"i_long":106.831474,"line":2,"time":3,"station_name":"Univ. Indonesia","i_lat":-6.360749},{"is_transit":false,"station_name":"Pondok Cina","line":2,"distance":1109,"station_id":"POC","i_lat":-6.369073,"i_long":106.831114,"transit":false,"time":2},{"is_transit":false,"station_id":"DPB","i_lat":-6.391065,"distance":2727,"i_long":106.819451,"transit":false,"station_name":"Depokbaru","time":4,"line":2}],[{"i_lat":-6.20132,"line":1,"distance":0,"transit":false,"is_transit":false,"station_name":"Karet","time":0,"i_long":106.816351,"station_id":"KAT"},{"station_id":"THB","station_name":"Tanah Abang","i_lat":-6.185545,"line":1,"i_long":106.811091,"distance":2029,"transit":false,"time":5,"is_transit":false},{"i_long":106.800832,"station_id":"DU","transit":false,"station_name":"Duri","line":1,"i_lat":-6.155215,"is_transit":false,"distance":3632,"time":8},{"time":4,"station_id":"AK","station_name":"Angke","i_lat":-6.144674,"i_long":106.79867,"distance":1230,"line":1,"transit":false,"is_transit":false},{"is_transit":true,"station_name":"Kampung Bandan","station_id":"KPB","i_long":106.826365,"line":4,"distance":4102,"i_lat":-6.132549,"time":9,"transit":true},{"station_id":"JAKK","transit":true,"time":3,"distance":1364,"line":2,"station_name":"Jakarta Kota","i_long":106.812439,"is_transit":true,"i_lat":-6.137569},{"station_id":"JAY","i_lat":-6.141205,"station_name":"Jayakarta","transit":false,"is_transit":false,"time":4,"distance":1264,"line":2,"i_long":106.820901},{"station_id":"MGB","is_transit":false,"i_lat":-6.149769,"time":2,"i_long":106.82482,"distance":1080,"line":2,"transit":false,"station_name":"Manggabesar"},{"station_name":"Sawah Besar","transit":false,"station_id":"SW","is_transit":false,"time":2,"line":2,"distance":906,"i_lat":-6.160725,"i_long":106.827103},{"station_id":"JUA","time":2,"i_lat":-6.166716,"line":2,"is_transit":false,"i_long":106.828284,"station_name":"Juanda","distance":1149,"transit":false},{"station_id":"GDD","line":2,"is_transit":false,"time":4,"station_name":"Gondangdia","transit":false,"i_long":106.832183,"i_lat":-6.186295,"distance":2015},{"station_id":"CKI","distance":1750,"i_long":106.840169,"station_name":"Cikini","is_transit":false,"time":3,"i_lat":-6.198556,"line":2,"transit":false},{"is_transit":false,"line":2,"i_lat":-6.209883,"station_id":"MRI","distance":1590,"i_long":106.84912,"transit":false,"station_name":"Manggarai","time":4},{"station_id":"TEB","time":4,"distance":2610,"i_lat":-6.226659,"line":2,"i_long":106.857948,"is_transit":false,"transit":false,"station_name":"Tebet"},{"transit":false,"i_lat":-6.242512,"station_id":"CW","time":2,"station_name":"Cawang","line":2,"is_transit":false,"distance":1230,"i_long":106.856607},{"i_long":106.85449,"station_name":"Duren Kalibata","is_transit":false,"time":3,"i_lat":-6.255332,"line":2,"distance":1546,"station_id":"DRN","transit":false},{"i_long":106.851577,"station_id":"PSMB","time":2,"distance":824,"transit":false,"line":2,"station_name":"Pasar Minggu Baru","is_transit":false,"i_lat":-6.263214},{"time":2,"distance":2380,"i_long":106.843999,"line":2,"i_lat":-6.2842400000000005,"station_id":"PSM","transit":false,"is_transit":false,"station_name":"Pasar Minggu"},{"station_name":"Tanjung Barat","line":2,"transit":false,"is_transit":false,"distance":2820,"time":4,"station_id":"TNT","i_lat":-6.3080680000000005,"i_long":106.838896},{"is_transit":false,"time":3,"transit":false,"station_name":"Lenteng Agung","station_id":"LNA","distance":2671,"i_lat":-6.330363,"line":2,"i_long":106.832616},{"i_long":106.834175,"time":2,"transit":false,"station_name":"Univ. Pancasila","line":2,"i_lat":-6.339291,"distance":1029,"station_id":"UP","is_transit":false},{"station_name":"Univ. Indonesia","i_lat":-6.360749,"distance":2264,"i_long":106.831474,"time":3,"line":2,"transit":false,"station_id":"UI","is_transit":false},{"i_long":106.831114,"station_id":"POC","is_transit":false,"line":2,"i_lat":-6.369073,"time":2,"station_name":"Pondok Cina","transit":false,"distance":1109},{"transit":false,"station_name":"Depokbaru","station_id":"DPB","is_transit":false,"i_lat":-6.391065,"time":4,"line":2,"i_long":106.819451,"distance":2727}],[{"i_long":106.816351,"is_transit":false,"time":0,"station_name":"Karet","distance":0,"station_id":"KAT","i_lat":-6.20132,"transit":false,"line":1},{"i_long":106.811091,"time":5,"transit":false,"distance":2029,"station_name":"Tanah Abang","line":1,"i_lat":-6.185545,"station_id":"THB","is_transit":false},{"i_lat":-6.155215,"line":1,"station_id":"DU","station_name":"Duri","is_transit":false,"i_long":106.800832,"transit":false,"time":8,"distance":3632},{"station_id":"AK","distance":1230,"i_lat":-6.144674,"time":4,"line":1,"transit":false,"i_long":106.79867,"is_transit":false,"station_name":"Angke"},{"time":9,"i_lat":-6.132549,"i_long":106.826365,"station_id":"KPB","is_transit":true,"distance":4102,"line":4,"station_name":"Kampung Bandan","transit":true},{"is_transit":false,"station_name":"Rajawali","line":11,"distance":1444,"time":3,"transit":false,"i_long":106.836569,"station_id":"RJW","i_lat":-6.14505},{"transit":false,"is_transit":false,"station_id":"KMO","station_name":"Kemayoran","time":5,"distance":1901,"line":11,"i_lat":-6.161728,"i_long":106.839204},{"time":4,"line":11,"i_long":106.84368,"transit":false,"station_id":"PSE","distance":1436,"station_name":"Pasar Senen","i_lat":-6.174784,"is_transit":false},{"distance":1567,"i_lat":-6.185975,"transit":false,"time":8,"is_transit":false,"station_id":"GST","line":11,"i_long":106.850107,"station_name":"Gang Sentiong"},{"i_lat":-6.193792,"is_transit":false,"i_long":106.855437,"station_name":"Kramat","time":1,"line":11,"transit":false,"station_id":"KMT","distance":973},{"time":2,"station_id":"POK","station_name":"Pondok Jati","line":11,"i_lat":-6.209188,"distance":1829,"transit":false,"is_transit":false,"i_long":106.861737},{"time":9,"station_name":"Jatinegara","line":1,"transit":true,"station_id":"JNG","distance":1236,"i_long":106.86807400000001,"i_lat":-6.215091,"is_transit":true},{"time":2,"is_transit":false,"line":1,"distance":1377,"transit":false,"station_id":"MTR","i_long":106.858896,"station_name":"Matraman","i_lat":-6.212485},{"time":2,"is_transit":true,"transit":true,"station_name":"Manggarai","distance":1275,"station_id":"MRI","line":2,"i_long":106.84912,"i_lat":-6.209883},{"time":4,"i_lat":-6.226659,"distance":2610,"station_name":"Tebet","is_transit":false,"line":2,"transit":false,"i_long":106.857948,"station_id":"TEB"},{"station_id":"CW","station_name":"Cawang","time":2,"distance":1230,"i_lat":-6.242512,"is_transit":false,"line":2,"transit":false,"i_long":106.856607},{"i_long":106.85449,"i_lat":-6.255332,"transit":false,"is_transit":false,"station_id":"DRN","time":3,"line":2,"station_name":"Duren Kalibata","distance":1546},{"i_lat":-6.263214,"line":2,"transit":false,"distance":824,"station_name":"Pasar Minggu Baru","time":2,"station_id":"PSMB","i_long":106.851577,"is_transit":false},{"is_transit":false,"station_name":"Pasar Minggu","distance":2380,"line":2,"i_long":106.843999,"transit":false,"station_id":"PSM","time":2,"i_lat":-6.2842400000000005},{"transit":false,"is_transit":false,"time":4,"station_id":"TNT","distance":2820,"i_lat":-6.3080680000000005,"line":2,"i_long":106.838896,"station_name":"Tanjung Barat"},{"line":2,"time":3,"station_name":"Lenteng Agung","distance":2671,"transit":false,"i_lat":-6.330363,"i_long":106.832616,"station_id":"LNA","is_transit":false},{"station_id":"UP","time":2,"i_long":106.834175,"station_name":"Univ. Pancasila","distance":1029,"is_transit":false,"i_lat":-6.339291,"line":2,"transit":false},{"is_transit":false,"distance":2264,"i_long":106.831474,"time":3,"transit":false,"line":2,"station_id":"UI","station_name":"Univ. Indonesia","i_lat":-6.360749},{"i_long":106.831114,"i_lat":-6.369073,"transit":false,"distance":1109,"time":2,"station_id":"POC","station_name":"Pondok Cina","is_transit":false,"line":2},{"is_transit":false,"transit":false,"station_name":"Depokbaru","line":2,"i_long":106.819451,"distance":2727,"time":4,"i_lat":-6.391065,"station_id":"DPB"}]]}