{"data":[[{"station_id":"KAT","is_transit":false,"time":0,"transit":false,"station_name":"Karet","distance":0,"i_lat":-6.20132,"i_long":106.816351,"line":1},{"distance":2029,"station_id":"THB","station_name":"Tanah Abang","i_lat":-6.185545,"transit":false,"is_transit":false,"i_long":106.811091,"line":1,"time":5},{"transit":false,"distance":3632,"i_lat":-6.155215,"line":1,"time":8,"is_transit":false,"station_name":"Duri","station_id":"DU","i_long":106.800832},{"station_name":"Angke","transit":false,"line":1,"i_long":106.79867,"distance":1230,"station_id":"AK","i_lat":-6.144674,"is_transit":false,"time":4},{"i_lat":-6.132549,"time":9,"transit":true,"station_name":"Kampung Bandan","station_id":"KPB","line":4,"is_transit":true,"distance":4102,"i_long":106.826365},{"station_id":"JAKK","station_name":"Jakarta Kota","i_long":106.812439,"distance":1364,"i_lat":-6.137569,"is_transit":true,"time":3,"transit":true,"line":2},{"is_transit":false,"distance":1264,"i_lat":-6.141205,"time":4,"i_long":106.820901,"station_id":"JAY","line":2,"station_name":"Jayakarta","transit":false},{"line":2,"is_transit":false,"i_long":106.82482,"transit":false,"i_lat":-6.149769,"station_name":"Manggabesar","distance":1080,"station_id":"MGB","time":2}],[{"i_long":106.816351,"i_lat":-6.20132,"station_name":"Karet","time":0,"station_id":"KAT","is_transit":false,"distance":0,"line":1,"transit":false},{"line":1,"station_id":"SUDB","station_name":"Sudirman Baru","i_lat":-6.201433,"distance":471,"i_long":106.819881,"time":1,"transit":false,"is_transit":false},{"is_transit":false,"i_lat":-6.202263,"line":1,"distance":280,"transit":false,"i_long":106.822649,"station_name":"Sudirman","station_id":"SUD","time":1},{"transit":true,"i_lat":-6.209883,"station_name":"Manggarai","line":2,"station_id":"MRI","is_transit":true,"time":4,"distance":3186,"i_long":106.84912},{"transit":false,"is_transit":false,"time":4,"distance":1590,"line":2,"i_lat":-6.198556,"station_id":"CKI","i_long":106.840169,"station_name":"Cikini"},{"transit":false,"time":3,"i_long":106.832183,"i_lat":-6.186295,"is_transit":false,"station_name":"Gondangdia","line":2,"distance":1750,"station_id":"GDD"},{"line":2,"station_id":"JUA","time":4,"distance":2015,"i_long":106.828284,"transit":false,"station_name":"Juanda","is_transit":false,"i_lat":-6.166716},{"is_transit":false,"i_lat":-6.160725,"line":2,"station_name":"Sawah Besar","i_long":106.827103,"station_id":"SW","transit":false,"time":2,"distance":1149},{"station_name":"Manggabesar","i_lat":-6.149769,"i_long":106.82482,"line":2,"is_transit":false,"station_id":"MGB","time":2,"distance":906,"transit":false}],[{"i_lat":-6.20132,"i_long":106.816351,"line":1,"station_id":"KAT","transit":false,"station_name":"Karet","time":0,"is_transit":false,"distance":0},{"transit":false,"i_lat":-6.201433,"station_name":"Sudirman Baru","i_long":106.819881,"line":1,"time":1,"is_transit":false,"station_id":"SUDB","distance":471},{"i_lat":-6.202263,"i_long":106.822649,"station_id":"SUD","transit":false,"is_transit":false,"line":1,"distance":280,"station_name":"Sudirman","time":1},{"station_id":"MRI","distance":3186,"transit":false,"i_lat":-6.209883,"line":2,"time":4,"station_name":"Manggarai","is_transit":false,"i_long":106.84912},{"time":2,"is_transit":false,"i_long":106.858896,"i_lat":-6.212485,"station_id":"MTR","transit":false,"line":1,"station_name":"Matraman","distance":1275},{"distance":1377,"station_id":"JNG","time":8,"transit":true,"i_long":106.86807400000001,"line":1,"is_transit":true,"station_name":"Jatinegara","i_lat":-6.215091},{"time":2,"i_long":106.861737,"transit":false,"is_transit":false,"station_id":"POK","i_lat":-6.209188,"line":11,"station_name":"Pondok Jati","distance":1236},{"i_long":106.855437,"station_id":"KMT","line":11,"i_lat":-6.193792,"is_transit":false,"distance":1829,"station_name":"Kramat","transit":false,"time":2},{"station_name":"Gang Sentiong","i_lat":-6.185975,"transit":false,"is_transit":false,"i_long":106.850107,"station_id":"GST","line":11,"time":1,"distance":973},{"i_lat":-6.174784,"station_name":"Pasar Senen","time":8,"transit":false,"distance":1567,"is_transit":false,"line":11,"i_long":106.84368,"station_id":"PSE"},{"time":4,"is_transit":false,"i_lat":-6.161728,"station_id":"KMO","distance":1436,"station_name":"Kemayoran","line":11,"i_long":106.839204,"transit":false},{"station_id":"RJW","distance":1901,"line":11,"is_transit":false,"transit":false,"station_name":"Rajawali","time":5,"i_lat":-6.14505,"i_long":106.836569},{"is_transit":true,"station_id":"KPB","i_lat":-6.132549,"station_name":"Kampung Bandan","time":3,"i_long":106.826365,"transit":true,"line":4,"distance":1444},{"i_lat":-6.137569,"station_id":"JAKK","time":3,"line":2,"station_name":"Jakarta Kota","i_long":106.812439,"distance":1364,"transit":true,"is_transit":true},{"transit":false,"station_id":"JAY","time":4,"is_transit":false,"distance":1264,"i_lat":-6.141205,"station_name":"Jayakarta","i_long":106.820901,"line":2},{"station_name":"Manggabesar","transit":false,"is_transit":false,"distance":1080,"station_id":"MGB","i_lat":-6.149769,"i_long":106.82482,"time":2,"line":2}],[{"station_name":"Karet","line":1,"station_id":"KAT","time":0,"is_transit":false,"distance":0,"i_lat":-6.20132,"i_long":106.816351,"transit":false},{"station_id":"THB","i_lat":-6.185545,"line":1,"is_transit":false,"transit":false,"station_name":"Tanah Abang","time":5,"distance":2029,"i_long":106.811091},{"transit":false,"station_id":"DU","i_lat":-6.155215,"time":8,"station_name":"Duri","is_transit":false,"line":1,"distance":3632,"i_long":106.800832},{"time":4,"transit":false,"station_name":"Angke","line":1,"is_transit":false,"distance":1230,"i_lat":-6.144674,"i_long":106.79867,"station_id":"AK"},{"transit":true,"distance":4102,"is_transit":true,"station_name":"Kampung Bandan","i_lat":-6.132549,"line":4,"time":9,"station_id":"KPB","i_long":106.826365},{"station_id":"RJW","i_long":106.836569,"transit":false,"i_lat":-6.14505,"line":11,"station_name":"Rajawali","time":3,"is_transit":false,"distance":1444},{"distance":1901,"station_id":"KMO","transit":false,"station_name":"Kemayoran","i_lat":-6.161728,"i_long":106.839204,"is_transit":false,"line":11,"time":5},{"i_long":106.84368,"time":4,"i_lat":-6.174784,"station_id":"PSE","is_transit":false,"transit":false,"line":11,"station_name":"Pasar Senen","distance":1436},{"transit":false,"i_long":106.850107,"station_id":"GST","line":11,"station_name":"Gang Sentiong","time":8,"is_transit":false,"i_lat":-6.185975,"distance":1567},{"is_transit":false,"station_id":"KMT","i_long":106.855437,"i_lat":-6.193792,"line":11,"station_name":"Kramat","time":1,"transit":false,"distance":973},{"station_id":"POK","transit":false,"i_lat":-6.209188,"line":11,"time":2,"distance":1829,"i_long":106.861737,"station_name":"Pondok Jati","is_transit":false},{"station_id":"JNG","time":9,"distance":1236,"i_long":106.86807400000001,"station_name":"Jatinegara","line":1,"is_transit":true,"transit":true,"i_lat":-6.215091},{"transit":false,"is_transit":false,"i_long":106.858896,"station_id":"MTR","i_lat":-6.212485,"line":1,"station_name":"Matraman","time":2,"distance":1377},{"is_transit":true,"i_long":106.84912,"station_name":"Manggarai","line":2,"distance":1275,"time":2,"transit":true,"station_id":"MRI","i_lat":-6.209883},{"i_long":106.840169,"line":2,"distance":1590,"transit":false,"is_transit":false,"station_name":"Cikini","time":4,"station_id":"CKI","i_lat":-6.198556},{"transit":false,"i_lat":-6.186295,"time":3,"distance":1750,"station_name":"Gondangdia","is_transit":false,"station_id":"GDD","i_long":106.832183,"line":2},{"line":2,"station_id":"JUA","i_lat":-6.166716,"is_transit":false,"time":4,"distance":2015,"i_long":106.828284,"station_name":"Juanda","transit":false},{"i_lat":-6.160725,"distance":1149,"line":2,"time":2,"station_name":"Sawah Besar","is_transit":false,"station_id":"SW","transit":false,"i_long":106.827103},{"station_id":"MGB","distance":906,"transit":false,"time":2,"i_long":106.82482,"is_transit":false,"line":2,"station_name":"Manggabesar","i_lat":-6.149769}]]}