{"data":[[{"transit":false,"station_id":"KAT","is_transit":false,"station_name":"Karet","i_long":106.816351,"line":1,"time":0,"i_lat":-6.20132,"distance":0},{"is_transit":true,"time":5,"station_name":"Tanah Abang","distance":2029,"line":1,"i_long":106.811091,"i_lat":-6.185545,"transit":true,"station_id":"THB"},{"distance":3191,"station_name":"Palmerah","time":6,"transit":false,"i_long":106.79689,"is_transit":false,"station_id":"PLM","line":6,"i_lat":-6.207404},{"i_lat":-6.237242,"line":6,"is_transit":false,"time":7,"i_long":106.780334,"station_name":"Kebayoran","transit":false,"station_id":"KBY","distance":3737},{"station_name":"Pondokranji","time":8,"distance":6218,"i_long":106.74273,"is_transit":false,"station_id":"PDJ","transit":false,"i_lat":-6.276362,"line":6},{"is_transit":false,"i_long":106.728916,"line":6,"time":3,"station_id":"JMU","distance":2179,"transit":false,"i_lat":-6.288927,"station_name":"Jurangmangu"},{"i_long":106.712277,"is_transit":false,"station_id":"SDM","time":4,"transit":false,"i_lat":-6.296963,"line":6,"station_name":"Sudimara","distance":1994},{"time":6,"transit":false,"station_name":"Rawa Buntu","station_id":"RU","is_transit":false,"distance":4566,"i_lat":-6.314823,"i_long":106.675475,"line":6},{"transit":false,"i_lat":-6.319871,"line":6,"is_transit":false,"i_long":106.66566,"station_name":"Serpong","time":4,"station_id":"SRP","distance":2413},{"is_transit":false,"station_name":"Cisauk","line":0,"transit":false,"distance":1784,"i_lat":-6.32484,"i_long":106.640411,"station_id":"CSK","time":4},{"i_long":106.617853,"is_transit":false,"distance":2519,"transit":false,"station_id":"CC","time":4,"line":0,"i_lat":-6.329547,"station_name":"Cicayur"},{"station_name":"Parung Panjang","distance":5968,"transit":false,"i_long":106.568863,"line":6,"is_transit":false,"i_lat":-6.3441410000000005,"time":8,"station_id":"PRP"},{"i_long":106.508482,"station_name":"Cilejit","is_transit":false,"i_lat":-6.354349,"line":0,"time":9,"distance":7025,"station_id":"CJT","transit":false},{"i_lat":-6.338021,"distance":2675,"station_id":"DAR","time":6,"line":0,"is_transit":false,"i_long":106.491338,"transit":false,"station_name":"Daru"},{"station_name":"Tenjo","i_lat":-6.327251,"time":5,"line":6,"transit":false,"is_transit":false,"distance":3902,"station_id":"TEJ","i_long":106.460812},{"is_transit":false,"station_id":"TGS","distance":2974,"time":5,"transit":false,"line":6,"station_name":"Tigaraksa","i_lat":-6.328533,"i_long":106.425991}],[{"station_id":"KAT","station_name":"Karet","time":0,"is_transit":false,"distance":0,"transit":false,"i_lat":-6.20132,"line":1,"i_long":106.816351},{"i_long":106.819881,"is_transit":false,"line":1,"station_id":"SUDB","time":1,"transit":false,"station_name":"Sudirman Baru","i_lat":-6.201433,"distance":471},{"station_id":"SUD","line":1,"is_transit":false,"distance":280,"time":1,"station_name":"Sudirman","i_long":106.822649,"transit":false,"i_lat":-6.202263},{"i_long":106.84912,"transit":true,"i_lat":-6.209883,"station_name":"Manggarai","line":0,"station_id":"MRI","time":4,"distance":3186,"is_transit":true},{"distance":1590,"station_name":"Cikini","i_lat":-6.198556,"i_long":106.840169,"line":0,"transit":false,"is_transit":false,"time":4,"station_id":"CKI"},{"station_name":"Gondangdia","station_id":"GDD","line":2,"transit":false,"i_long":106.832183,"distance":1750,"is_transit":false,"time":3,"i_lat":-6.186295},{"i_long":106.828284,"distance":2015,"i_lat":-6.166716,"station_id":"JUA","line":2,"station_name":"Juanda","is_transit":false,"transit":false,"time":4},{"i_long":106.827103,"time":2,"i_lat":-6.160725,"is_transit":false,"distance":1149,"station_name":"Sawah Besar","line":2,"station_id":"SW","transit":false},{"i_lat":-6.149769,"station_id":"MGB","is_transit":false,"distance":906,"line":2,"station_name":"Manggabesar","time":2,"transit":false,"i_long":106.82482},{"station_id":"JAY","station_name":"Jayakarta","is_transit":false,"distance":1080,"transit":false,"i_lat":-6.141205,"i_long":106.820901,"line":7,"time":2},{"station_id":"JAKK","i_lat":-6.137569,"is_transit":true,"time":4,"distance":1264,"transit":true,"line":0,"station_name":"Jakarta Kota","i_long":106.812439},{"i_lat":-6.132549,"station_name":"Kampung Bandan","distance":1364,"i_long":106.826365,"line":0,"is_transit":true,"station_id":"KPB","time":3,"transit":false},{"transit":false,"station_name":"Angke","is_transit":false,"i_long":106.79867,"line":0,"time":9,"station_id":"AK","distance":4102,"i_lat":-6.144674},{"is_transit":true,"distance":1230,"station_id":"DU","station_name":"Duri","i_lat":-6.155215,"time":4,"transit":true,"i_long":106.800832,"line":1},{"transit":true,"i_lat":-6.185545,"station_name":"Tanah Abang","distance":3632,"line":1,"is_transit":true,"station_id":"THB","i_long":106.811091,"time":8},{"station_name":"Palmerah","is_transit":false,"transit":false,"i_lat":-6.207404,"distance":3191,"line":6,"station_id":"PLM","time":6,"i_long":106.79689},{"station_id":"KBY","transit":false,"i_lat":-6.237242,"is_transit":false,"station_name":"Kebayoran","time":7,"distance":3737,"line":6,"i_long":106.780334},{"station_id":"PDJ","station_name":"Pondokranji","i_lat":-6.276362,"i_long":106.74273,"time":8,"line":6,"distance":6218,"is_transit":false,"transit":false},{"is_transit":false,"line":6,"i_long":106.728916,"transit":false,"station_name":"Jurangmangu","distance":2179,"time":3,"i_lat":-6.288927,"station_id":"JMU"},{"transit":false,"time":4,"i_long":106.712277,"distance":1994,"i_lat":-6.296963,"is_transit":false,"station_name":"Sudimara","station_id":"SDM","line":6},{"station_id":"RU","i_long":106.675475,"transit":false,"station_name":"Rawa Buntu","time":6,"is_transit":false,"distance":4566,"line":6,"i_lat":-6.314823},{"station_name":"Serpong","transit":false,"distance":2413,"is_transit":false,"i_lat":-6.319871,"i_long":106.66566,"time":4,"line":6,"station_id":"SRP"},{"transit":false,"time":4,"station_id":"CSK","i_lat":-6.32484,"station_name":"Cisauk","is_transit":false,"line":0,"distance":1784,"i_long":106.640411},{"station_id":"CC","time":4,"i_long":106.617853,"distance":2519,"station_name":"Cicayur","is_transit":false,"i_lat":-6.329547,"line":0,"transit":false},{"is_transit":false,"i_long":106.568863,"station_name":"Parung Panjang","transit":false,"line":6,"time":8,"distance":5968,"i_lat":-6.3441410000000005,"station_id":"PRP"},{"distance":7025,"is_transit":false,"line":0,"time":9,"station_name":"Cilejit","transit":false,"i_lat":-6.354349,"i_long":106.508482,"station_id":"CJT"},{"line":0,"transit":false,"time":6,"station_id":"DAR","station_name":"Daru","is_transit":false,"i_lat":-6.338021,"i_long":106.491338,"distance":2675},{"time":5,"transit":false,"distance":3902,"i_long":106.460812,"line":6,"i_lat":-6.327251,"station_id":"TEJ","station_name":"Tenjo","is_transit":false},{"line":6,"station_name":"Tigaraksa","i_lat":-6.328533,"time":5,"distance":2974,"station_id":"TGS","transit":false,"i_long":106.425991,"is_transit":false}],[{"i_lat":-6.20132,"station_name":"Karet","line":1,"station_id":"KAT","is_transit":false,"time":0,"i_long":106.816351,"distance":0,"transit":false},{"is_transit":false,"time":1,"station_name":"Sudirman Baru","transit":false,"i_lat":-6.201433,"i_long":106.819881,"distance":471,"line":1,"station_id":"SUDB"},{"i_long":106.822649,"line":1,"station_name":"Sudirman","time":1,"transit":false,"distance":280,"i_lat":-6.202263,"station_id":"SUD","is_transit":false},{"time":4,"station_id":"MRI","i_long":106.84912,"i_lat":-6.209883,"line":0,"is_transit":true,"transit":false,"distance":3186,"station_name":"Manggarai"},{"station_id":"MTR","station_name":"Matraman","transit":false,"distance":1275,"line":1,"i_long":106.858896,"is_transit":false,"i_lat":-6.212485,"time":2},{"station_name":"Jatinegara","distance":1377,"station_id":"JNG","line":0,"i_long":106.86807400000001,"is_transit":true,"i_lat":-6.215091,"time":8,"transit":true},{"line":11,"distance":1236,"transit":false,"i_long":106.861737,"station_id":"POK","station_name":"Pondok Jati","time":2,"is_transit":false,"i_lat":-6.209188},{"transit":false,"i_lat":-6.193792,"is_transit":false,"line":11,"station_id":"KMT","i_long":106.855437,"station_name":"Kramat","time":2,"distance":1829},{"transit":false,"line":11,"i_lat":-6.185975,"is_transit":false,"station_name":"Gang Sentiong","station_id":"GST","time":1,"distance":973,"i_long":106.850107},{"station_name":"Pasar Senen","i_lat":-6.174784,"is_transit":false,"distance":1567,"line":11,"transit":false,"i_long":106.84368,"station_id":"PSE","time":8},{"time":4,"line":11,"is_transit":false,"transit":false,"station_name":"Kemayoran","i_lat":-6.161728,"station_id":"KMO","i_long":106.839204,"distance":1436},{"is_transit":false,"station_name":"Rajawali","i_lat":-6.14505,"line":11,"distance":1901,"transit":false,"i_long":106.836569,"station_id":"RJW","time":5},{"station_name":"Kampung Bandan","time":3,"i_lat":-6.132549,"station_id":"KPB","is_transit":true,"distance":1444,"transit":true,"i_long":106.826365,"line":0},{"i_lat":-6.144674,"station_id":"AK","i_long":106.79867,"station_name":"Angke","line":0,"distance":4102,"time":9,"transit":false,"is_transit":false},{"station_id":"DU","time":4,"i_lat":-6.155215,"i_long":106.800832,"line":1,"station_name":"Duri","is_transit":true,"distance":1230,"transit":true},{"station_id":"THB","i_long":106.811091,"time":8,"distance":3632,"is_transit":true,"transit":true,"station_name":"Tanah Abang","line":1,"i_lat":-6.185545},{"station_name":"Palmerah","transit":false,"i_long":106.79689,"distance":3191,"station_id":"PLM","i_lat":-6.207404,"time":6,"is_transit":false,"line":6},{"line":6,"transit":false,"i_lat":-6.237242,"i_long":106.780334,"time":7,"is_transit":false,"station_name":"Kebayoran","distance":3737,"station_id":"KBY"},{"station_id":"PDJ","i_long":106.74273,"station_name":"Pondokranji","distance":6218,"transit":false,"i_lat":-6.276362,"is_transit":false,"time":8,"line":6},{"station_id":"JMU","station_name":"Jurangmangu","is_transit":false,"distance":2179,"transit":false,"i_lat":-6.288927,"time":3,"i_long":106.728916,"line":6},{"line":6,"i_long":106.712277,"transit":false,"i_lat":-6.296963,"station_id":"SDM","is_transit":false,"time":4,"distance":1994,"station_name":"Sudimara"},{"transit":false,"i_lat":-6.314823,"line":6,"i_long":106.675475,"is_transit":false,"distance":4566,"station_id":"RU","time":6,"station_name":"Rawa Buntu"},{"distance":2413,"station_id":"SRP","station_name":"Serpong","time":4,"transit":false,"i_lat":-6.319871,"is_transit":false,"i_long":106.66566,"line":6},{"transit":false,"station_id":"CSK","station_name":"Cisauk","is_transit":false,"time":4,"i_long":106.640411,"i_lat":-6.32484,"line":0,"distance":1784},{"distance":2519,"i_lat":-6.329547,"i_long":106.617853,"transit":false,"line":0,"station_id":"CC","is_transit":false,"time":4,"station_name":"Cicayur"},{"station_id":"PRP","is_transit":false,"i_long":106.568863,"line":6,"transit":false,"time":8,"station_name":"Parung Panjang","i_lat":-6.3441410000000005,"distance":5968},{"station_name":"Cilejit","line":0,"i_long":106.508482,"station_id":"CJT","distance":7025,"i_lat":-6.354349,"transit":false,"time":9,"is_transit":false},{"i_lat":-6.338021,"distance":2675,"is_transit":false,"station_name":"Daru","transit":false,"station_id":"DAR","i_long":106.491338,"line":0,"time":6},{"line":6,"time":5,"station_id":"TEJ","distance":3902,"i_lat":-6.327251,"station_name":"Tenjo","is_transit":false,"transit":false,"i_long":106.460812},{"station_id":"TGS","i_long":106.425991,"station_name":"Tigaraksa","is_transit":false,"transit":false,"line":6,"distance":2974,"i_lat":-6.328533,"time":5}]]}