{"data":[[{"station_name":"Karet","line":1,"i_lat":-6.20132,"time":0,"i_long":106.816351,"distance":0,"is_transit":false,"station_id":"KAT","transit":false},{"distance":471,"i_long":106.819881,"i_lat":-6.201433,"station_id":"SUDB","transit":false,"time":1,"station_name":"Sudirman Baru","is_transit":false,"line":1},{"time":1,"i_long":106.822649,"station_id":"SUD","is_transit":false,"station_name":"Sudirman","line":1,"transit":false,"distance":280,"i_lat":-6.202263},{"i_long":106.84912,"transit":false,"i_lat":-6.209883,"station_id":"MRI","time":4,"is_transit":false,"line":2,"distance":3186,"station_name":"Manggarai"},{"time":2,"i_lat":-6.212485,"is_transit":false,"line":1,"i_long":106.858896,"transit":false,"distance":1275,"station_id":"MTR","station_name":"Matraman"},{"is_transit":false,"station_name":"Jatinegara","transit":false,"station_id":"JNG","distance":1377,"i_long":106.86807400000001,"i_lat":-6.215091,"time":8,"line":1},{"distance":3395,"i_long":106.899548,"i_lat":-6.2135,"is_transit":false,"time":3,"station_id":"KLD","line":1,"station_name":"Klender","transit":false},{"i_lat":-6.215568,"station_name":"Buaran","transit":false,"i_long":106.922662,"distance":3100,"is_transit":false,"time":2,"line":1,"station_id":"BUA"},{"i_long":106.939679,"line":1,"distance":1305,"station_name":"Klenderbaru","is_transit":false,"station_id":"KLDB","i_lat":-6.217455,"transit":false,"time":1}],[{"station_id":"KAT","station_name":"Karet","i_long":106.816351,"distance":0,"line":1,"i_lat":-6.20132,"time":0,"is_transit":false,"transit":false},{"station_id":"THB","i_lat":-6.185545,"line":1,"i_long":106.811091,"transit":false,"station_name":"Tanah Abang","distance":2029,"is_transit":false,"time":5},{"station_name":"Duri","transit":false,"time":8,"i_long":106.800832,"line":1,"is_transit":false,"distance":3632,"i_lat":-6.155215,"station_id":"DU"},{"i_long":106.79867,"line":1,"station_name":"Angke","is_transit":false,"time":4,"i_lat":-6.144674,"transit":false,"distance":1230,"station_id":"AK"},{"line":4,"is_transit":true,"time":9,"station_name":"Kampung Bandan","i_long":106.826365,"station_id":"KPB","distance":4102,"i_lat":-6.132549,"transit":true},{"distance":1444,"transit":false,"is_transit":false,"station_name":"Rajawali","time":3,"line":11,"i_lat":-6.14505,"station_id":"RJW","i_long":106.836569},{"station_id":"KMO","i_long":106.839204,"is_transit":false,"station_name":"Kemayoran","i_lat":-6.161728,"line":11,"time":5,"transit":false,"distance":1901},{"is_transit":false,"time":4,"station_id":"PSE","station_name":"Pasar Senen","line":11,"i_long":106.84368,"distance":1436,"i_lat":-6.174784,"transit":false},{"is_transit":false,"station_name":"Gang Sentiong","time":8,"i_lat":-6.185975,"i_long":106.850107,"station_id":"GST","distance":1567,"transit":false,"line":11},{"line":11,"is_transit":false,"station_name":"Kramat","transit":false,"time":1,"distance":973,"i_lat":-6.193792,"i_long":106.855437,"station_id":"KMT"},{"station_name":"Pondok Jati","distance":1829,"station_id":"POK","is_transit":false,"i_lat":-6.209188,"transit":false,"line":11,"i_long":106.861737,"time":2},{"station_name":"Jatinegara","i_long":106.86807400000001,"i_lat":-6.215091,"transit":true,"time":9,"line":1,"distance":1236,"is_transit":true,"station_id":"JNG"},{"transit":false,"distance":3395,"time":3,"line":1,"i_lat":-6.2135,"station_id":"KLD","is_transit":false,"station_name":"Klender","i_long":106.899548},{"i_long":106.922662,"i_lat":-6.215568,"time":2,"is_transit":false,"station_id":"BUA","transit":false,"distance":3100,"station_name":"Buaran","line":1},{"transit":false,"line":1,"i_long":106.939679,"distance":1305,"station_id":"KLDB","station_name":"Klenderbaru","is_transit":false,"time":1,"i_lat":-6.217455}],[{"station_name":"Karet","line":1,"time":0,"station_id":"KAT","i_long":106.816351,"distance":0,"transit":false,"is_transit":false,"i_lat":-6.20132},{"time":5,"transit":false,"distance":2029,"i_long":106.811091,"station_id":"THB","i_lat":-6.185545,"line":1,"station_name":"Tanah Abang","is_transit":false},{"transit":false,"time":8,"i_long":106.800832,"distance":3632,"is_transit":false,"station_name":"Duri","station_id":"DU","i_lat":-6.155215,"line":1},{"distance":1230,"time":4,"transit":false,"station_name":"Angke","line":1,"i_lat":-6.144674,"station_id":"AK","is_transit":false,"i_long":106.79867},{"line":4,"is_transit":true,"i_lat":-6.132549,"transit":true,"time":9,"i_long":106.826365,"distance":4102,"station_id":"KPB","station_name":"Kampung Bandan"},{"transit":true,"i_lat":-6.137569,"i_long":106.812439,"station_name":"Jakarta Kota","station_id":"JAKK","is_transit":true,"line":2,"time":3,"distance":1364},{"transit":false,"station_id":"JAY","i_lat":-6.141205,"i_long":106.820901,"station_name":"Jayakarta","line":2,"distance":1264,"time":4,"is_transit":false},{"distance":1080,"is_transit":false,"time":2,"transit":false,"station_name":"Manggabesar","i_lat":-6.149769,"line":2,"station_id":"MGB","i_long":106.82482},{"station_id":"SW","is_transit":false,"station_name":"Sawah Besar","i_long":106.827103,"i_lat":-6.160725,"line":2,"transit":false,"distance":906,"time":2},{"transit":false,"distance":1149,"i_long":106.828284,"station_name":"Juanda","i_lat":-6.166716,"time":2,"is_transit":false,"station_id":"JUA","line":2},{"i_lat":-6.186295,"line":2,"station_id":"GDD","distance":2015,"transit":false,"station_name":"Gondangdia","i_long":106.832183,"is_transit":false,"time":4},{"station_id":"CKI","time":3,"transit":false,"distance":1750,"line":2,"is_transit":false,"station_name":"Cikini","i_lat":-6.198556,"i_long":106.840169},{"i_lat":-6.209883,"is_transit":true,"transit":true,"time":4,"i_long":106.84912,"station_id":"MRI","station_name":"Manggarai","line":2,"distance":1590},{"station_name":"Matraman","station_id":"MTR","i_long":106.858896,"line":1,"transit":false,"is_transit":false,"distance":1275,"time":2,"i_lat":-6.212485},{"line":1,"station_name":"Jatinegara","i_long":106.86807400000001,"is_transit":false,"station_id":"JNG","i_lat":-6.215091,"transit":false,"distance":1377,"time":8},{"line":1,"is_transit":false,"i_long":106.899548,"station_name":"Klender","distance":3395,"station_id":"KLD","time":3,"i_lat":-6.2135,"transit":false},{"i_long":106.922662,"line":1,"station_id":"BUA","is_transit":false,"distance":3100,"station_name":"Buaran","i_lat":-6.215568,"transit":false,"time":2},{"time":1,"distance":1305,"station_name":"Klenderbaru","i_long":106.939679,"transit":false,"is_transit":false,"line":1,"station_id":"KLDB","i_lat":-6.217455}],[{"is_transit":false,"station_id":"KAT","distance":0,"line":1,"time":0,"station_name":"Karet","i_long":106.816351,"i_lat":-6.20132,"transit":false},{"line":1,"time":1,"distance":471,"transit":false,"station_id":"SUDB","i_lat":-6.201433,"i_long":106.819881,"is_transit":false,"station_name":"Sudirman Baru"},{"distance":280,"i_lat":-6.202263,"i_long":106.822649,"time":1,"station_name":"Sudirman","line":1,"station_id":"SUD","is_transit":false,"transit":false},{"distance":3186,"transit":true,"i_lat":-6.209883,"i_long":106.84912,"station_id":"MRI","is_transit":true,"station_name":"Manggarai","time":4,"line":2},{"is_transit":false,"station_id":"CKI","station_name":"Cikini","i_lat":-6.198556,"i_long":106.840169,"time":4,"distance":1590,"line":2,"transit":false},{"i_lat":-6.186295,"is_transit":false,"time":3,"station_name":"Gondangdia","line":2,"i_long":106.832183,"station_id":"GDD","transit":false,"distance":1750},{"i_long":106.828284,"line":2,"station_name":"Juanda","distance":2015,"time":4,"transit":false,"is_transit":false,"station_id":"JUA","i_lat":-6.166716},{"distance":1149,"is_transit":false,"station_id":"SW","i_lat":-6.160725,"i_long":106.827103,"time":2,"station_name":"Sawah Besar","transit":false,"line":2},{"transit":false,"i_long":106.82482,"is_transit":false,"station_id":"MGB","distance":906,"time":2,"station_name":"Manggabesar","i_lat":-6.149769,"line":2},{"is_transit":false,"line":2,"station_name":"Jayakarta","distance":1080,"station_id":"JAY","i_lat":-6.141205,"transit":false,"i_long":106.820901,"time":2},{"is_transit":true,"transit":true,"i_lat":-6.137569,"line":2,"time":4,"distance":1264,"station_id":"JAKK","station_name":"Jakarta Kota","i_long":106.812439},{"i_long":106.826365,"station_name":"Kampung Bandan","transit":true,"is_transit":true,"distance":1364,"station_id":"KPB","time":3,"line":4,"i_lat":-6.132549},{"i_lat":-6.14505,"transit":false,"station_name":"Rajawali","time":3,"distance":1444,"station_id":"RJW","i_long":106.836569,"line":11,"is_transit":false},{"transit":false,"is_transit":false,"station_id":"KMO","i_long":106.839204,"station_name":"Kemayoran","time":5,"distance":1901,"i_lat":-6.161728,"line":11},{"distance":1436,"station_name":"Pasar Senen","station_id":"PSE","is_transit":false,"i_lat":-6.174784,"line":11,"time":4,"transit":false,"i_long":106.84368},{"i_lat":-6.185975,"i_long":106.850107,"distance":1567,"time":8,"line":11,"is_transit":false,"transit":false,"station_id":"GST","station_name":"Gang Sentiong"},{"transit":false,"time":1,"distance":973,"station_id":"KMT","station_name":"Kramat","i_long":106.855437,"i_lat":-6.193792,"line":11,"is_transit":false},{"is_transit":false,"station_name":"Pondok Jati","i_lat":-6.209188,"distance":1829,"i_long":106.861737,"station_id":"POK","time":2,"line":11,"transit":false},{"time":9,"is_transit":true,"station_name":"Jatinegara","i_lat":-6.215091,"i_long":106.86807400000001,"line":1,"station_id":"JNG","transit":true,"distance":1236},{"transit":false,"is_transit":false,"i_long":106.899548,"line":1,"station_name":"Klender","i_lat":-6.2135,"time":3,"station_id":"KLD","distance":3395},{"line":1,"is_transit":false,"station_id":"BUA","distance":3100,"station_name":"Buaran","transit":false,"i_lat":-6.215568,"i_long":106.922662,"time":2},{"station_name":"Klenderbaru","time":1,"station_id":"KLDB","i_lat":-6.217455,"line":1,"i_long":106.939679,"transit":false,"distance":1305,"is_transit":false}]]}