{"data":[[{"i_long":106.816351,"is_transit":false,"transit":false,"distance":0,"i_lat":-6.20132,"line":1,"time":0,"station_name":"Karet","station_id":"KAT"},{"station_name":"Sudirman Baru","station_id":"SUDB","i_long":106.819881,"time":1,"line":1,"distance":471,"i_lat":-6.201433,"is_transit":false,"transit":false},{"line":1,"transit":false,"distance":280,"station_id":"SUD","is_transit":false,"time":1,"i_long":106.822649,"station_name":"Sudirman","i_lat":-6.202263},{"time":4,"is_transit":false,"station_id":"MRI","line":2,"i_lat":-6.209883,"station_name":"Manggarai","distance":3186,"i_long":106.84912,"transit":false},{"i_long":106.858896,"line":1,"station_id":"MTR","i_lat":-6.212485,"distance":1275,"time":2,"is_transit":false,"transit":false,"station_name":"Matraman"},{"i_lat":-6.215091,"time":8,"line":1,"distance":1377,"is_transit":false,"station_id":"JNG","i_long":106.86807400000001,"transit":false,"station_name":"Jatinegara"},{"i_long":106.899548,"line":1,"time":3,"i_lat":-6.2135,"is_transit":false,"station_name":"Klender","transit":false,"distance":3395,"station_id":"KLD"}],[{"station_name":"Karet","i_lat":-6.20132,"is_transit":false,"line":1,"transit":false,"station_id":"KAT","i_long":106.816351,"distance":0,"time":0},{"station_id":"THB","time":5,"transit":false,"station_name":"Tanah Abang","distance":2029,"is_transit":false,"i_long":106.811091,"i_lat":-6.185545,"line":1},{"i_long":106.800832,"transit":false,"station_name":"Duri","is_transit":false,"i_lat":-6.155215,"station_id":"DU","line":1,"distance":3632,"time":8},{"i_long":106.79867,"station_id":"AK","distance":1230,"transit":false,"time":4,"i_lat":-6.144674,"station_name":"Angke","is_transit":false,"line":1},{"station_id":"KPB","is_transit":true,"i_lat":-6.132549,"i_long":106.826365,"line":4,"transit":true,"time":9,"station_name":"Kampung Bandan","distance":4102},{"station_id":"RJW","distance":1444,"is_transit":false,"i_lat":-6.14505,"i_long":106.836569,"time":3,"station_name":"Rajawali","transit":false,"line":11},{"time":5,"i_long":106.839204,"station_name":"Kemayoran","line":11,"is_transit":false,"distance":1901,"transit":false,"station_id":"KMO","i_lat":-6.161728},{"i_lat":-6.174784,"line":11,"transit":false,"i_long":106.84368,"time":4,"is_transit":false,"station_name":"Pasar Senen","distance":1436,"station_id":"PSE"},{"line":11,"transit":false,"is_transit":false,"distance":1567,"i_lat":-6.185975,"time":8,"i_long":106.850107,"station_id":"GST","station_name":"Gang Sentiong"},{"distance":973,"i_long":106.855437,"time":1,"station_name":"Kramat","line":11,"i_lat":-6.193792,"transit":false,"is_transit":false,"station_id":"KMT"},{"distance":1829,"station_name":"Pondok Jati","station_id":"POK","time":2,"line":11,"is_transit":false,"transit":false,"i_long":106.861737,"i_lat":-6.209188},{"is_transit":true,"time":9,"station_name":"Jatinegara","distance":1236,"i_lat":-6.215091,"transit":true,"i_long":106.86807400000001,"line":1,"station_id":"JNG"},{"station_id":"KLD","line":1,"distance":3395,"time":3,"transit":false,"i_lat":-6.2135,"i_long":106.899548,"is_transit":false,"station_name":"Klender"}],[{"distance":0,"i_long":106.816351,"transit":false,"station_name":"Karet","line":1,"station_id":"KAT","i_lat":-6.20132,"time":0,"is_transit":false},{"station_id":"THB","i_lat":-6.185545,"line":1,"i_long":106.811091,"distance":2029,"station_name":"Tanah Abang","time":5,"is_transit":false,"transit":false},{"station_name":"Duri","distance":3632,"station_id":"DU","i_lat":-6.155215,"i_long":106.800832,"time":8,"line":1,"is_transit":false,"transit":false},{"line":1,"is_transit":false,"station_name":"Angke","i_long":106.79867,"station_id":"AK","transit":false,"distance":1230,"time":4,"i_lat":-6.144674},{"transit":true,"station_id":"KPB","line":4,"time":9,"distance":4102,"i_long":106.826365,"i_lat":-6.132549,"is_transit":true,"station_name":"Kampung Bandan"},{"is_transit":true,"station_name":"Jakarta Kota","station_id":"JAKK","line":2,"i_long":106.812439,"distance":1364,"time":3,"transit":true,"i_lat":-6.137569},{"station_id":"JAY","distance":1264,"line":2,"is_transit":false,"time":4,"station_name":"Jayakarta","transit":false,"i_lat":-6.141205,"i_long":106.820901},{"is_transit":false,"line":2,"station_id":"MGB","station_name":"Manggabesar","time":2,"distance":1080,"i_long":106.82482,"transit":false,"i_lat":-6.149769},{"line":2,"station_name":"Sawah Besar","distance":906,"transit":false,"time":2,"is_transit":false,"station_id":"SW","i_long":106.827103,"i_lat":-6.160725},{"is_transit":false,"transit":false,"time":2,"i_long":106.828284,"station_name":"Juanda","distance":1149,"station_id":"JUA","i_lat":-6.166716,"line":2},{"station_id":"GDD","transit":false,"time":4,"line":2,"is_transit":false,"station_name":"Gondangdia","distance":2015,"i_long":106.832183,"i_lat":-6.186295},{"station_name":"Cikini","distance":1750,"is_transit":false,"station_id":"CKI","i_lat":-6.198556,"transit":false,"i_long":106.840169,"time":3,"line":2},{"i_lat":-6.209883,"line":2,"station_name":"Manggarai","time":4,"distance":1590,"i_long":106.84912,"transit":true,"is_transit":true,"station_id":"MRI"},{"station_name":"Matraman","line":1,"transit":false,"i_long":106.858896,"distance":1275,"station_id":"MTR","is_transit":false,"i_lat":-6.212485,"time":2},{"transit":false,"station_name":"Jatinegara","station_id":"JNG","time":8,"i_lat":-6.215091,"line":1,"is_transit":false,"distance":1377,"i_long":106.86807400000001},{"i_long":106.899548,"station_id":"KLD","is_transit":false,"distance":3395,"transit":false,"i_lat":-6.2135,"time":3,"station_name":"Klender","line":1}],[{"line":1,"is_transit":false,"time":0,"station_name":"Karet","transit":false,"distance":0,"station_id":"KAT","i_long":106.816351,"i_lat":-6.20132},{"time":1,"line":1,"is_transit":false,"i_long":106.819881,"transit":false,"station_id":"SUDB","i_lat":-6.201433,"station_name":"Sudirman Baru","distance":471},{"station_id":"SUD","i_lat":-6.202263,"transit":false,"i_long":106.822649,"is_transit":false,"line":1,"station_name":"Sudirman","time":1,"distance":280},{"i_long":106.84912,"i_lat":-6.209883,"is_transit":true,"line":2,"transit":true,"distance":3186,"time":4,"station_name":"Manggarai","station_id":"MRI"},{"is_transit":false,"station_id":"CKI","transit":false,"time":4,"i_lat":-6.198556,"distance":1590,"i_long":106.840169,"station_name":"Cikini","line":2},{"distance":1750,"is_transit":false,"i_long":106.832183,"station_name":"Gondangdia","station_id":"GDD","transit":false,"line":2,"i_lat":-6.186295,"time":3},{"distance":2015,"is_transit":false,"i_long":106.828284,"line":2,"i_lat":-6.166716,"time":4,"station_id":"JUA","transit":false,"station_name":"Juanda"},{"time":2,"station_name":"Sawah Besar","distance":1149,"is_transit":false,"transit":false,"station_id":"SW","line":2,"i_long":106.827103,"i_lat":-6.160725},{"distance":906,"i_lat":-6.149769,"station_name":"Manggabesar","station_id":"MGB","i_long":106.82482,"time":2,"transit":false,"line":2,"is_transit":false},{"distance":1080,"is_transit":false,"time":2,"transit":false,"station_name":"Jayakarta","i_lat":-6.141205,"station_id":"JAY","i_long":106.820901,"line":2},{"is_transit":true,"station_name":"Jakarta Kota","time":4,"station_id":"JAKK","i_long":106.812439,"line":2,"distance":1264,"i_lat":-6.137569,"transit":true},{"i_lat":-6.132549,"transit":true,"station_id":"KPB","distance":1364,"is_transit":true,"station_name":"Kampung Bandan","time":3,"line":4,"i_long":106.826365},{"i_lat":-6.14505,"line":11,"time":3,"station_name":"Rajawali","is_transit":false,"station_id":"RJW","i_long":106.836569,"transit":false,"distance":1444},{"station_name":"Kemayoran","line":11,"is_transit":false,"i_lat":-6.161728,"distance":1901,"transit":false,"i_long":106.839204,"time":5,"station_id":"KMO"},{"station_id":"PSE","time":4,"line":11,"transit":false,"station_name":"Pasar Senen","distance":1436,"i_lat":-6.174784,"i_long":106.84368,"is_transit":false},{"i_long":106.850107,"station_id":"GST","i_lat":-6.185975,"station_name":"Gang Sentiong","distance":1567,"is_transit":false,"transit":false,"time":8,"line":11},{"is_transit":false,"station_id":"KMT","i_lat":-6.193792,"distance":973,"transit":false,"time":1,"line":11,"station_name":"Kramat","i_long":106.855437},{"transit":false,"station_id":"POK","time":2,"i_lat":-6.209188,"is_transit":false,"station_name":"Pondok Jati","i_long":106.861737,"distance":1829,"line":11},{"station_id":"JNG","transit":true,"is_transit":true,"i_lat":-6.215091,"time":9,"i_long":106.86807400000001,"line":1,"distance":1236,"station_name":"Jatinegara"},{"i_long":106.899548,"time":3,"transit":false,"station_name":"Klender","is_transit":false,"distance":3395,"station_id":"KLD","i_lat":-6.2135,"line":1}]]}