{"data":[[{"time":0,"station_id":"KAT","is_transit":false,"distance":0,"transit":false,"i_lat":-6.20132,"i_long":106.816351,"station_name":"Karet","line":1},{"time":5,"is_transit":false,"station_name":"Tanah Abang","station_id":"THB","transit":false,"i_lat":-6.185545,"i_long":106.811091,"line":1,"distance":2029},{"i_lat":-6.155215,"station_name":"Duri","time":8,"i_long":106.800832,"distance":3632,"is_transit":false,"station_id":"DU","transit":false,"line":1},{"i_long":106.79867,"line":1,"transit":false,"i_lat":-6.144674,"distance":1230,"station_name":"Angke","time":4,"is_transit":false,"station_id":"AK"},{"i_lat":-6.132549,"i_long":106.826365,"line":4,"distance":4102,"station_name":"Kampung Bandan","is_transit":true,"station_id":"KPB","time":9,"transit":true},{"is_transit":true,"time":3,"station_id":"JAKK","transit":true,"i_lat":-6.137569,"distance":1364,"i_long":106.812439,"line":2,"station_name":"Jakarta Kota"},{"i_long":106.820901,"transit":false,"distance":1264,"line":2,"station_name":"Jayakarta","i_lat":-6.141205,"time":4,"station_id":"JAY","is_transit":false},{"transit":false,"station_id":"MGB","station_name":"Manggabesar","i_long":106.82482,"time":2,"is_transit":false,"i_lat":-6.149769,"line":2,"distance":1080}],[{"is_transit":false,"transit":false,"time":0,"distance":0,"i_lat":-6.20132,"line":1,"station_name":"Karet","i_long":106.816351,"station_id":"KAT"},{"transit":false,"station_id":"SUDB","time":1,"i_long":106.819881,"is_transit":false,"line":1,"distance":471,"i_lat":-6.201433,"station_name":"Sudirman Baru"},{"station_id":"SUD","is_transit":false,"time":1,"line":1,"transit":false,"i_long":106.822649,"station_name":"Sudirman","i_lat":-6.202263,"distance":280},{"station_id":"MRI","distance":3186,"is_transit":true,"station_name":"Manggarai","i_lat":-6.209883,"time":4,"i_long":106.84912,"transit":true,"line":2},{"time":4,"i_lat":-6.198556,"station_name":"Cikini","station_id":"CKI","line":2,"is_transit":false,"i_long":106.840169,"transit":false,"distance":1590},{"time":3,"line":2,"is_transit":false,"i_long":106.832183,"station_id":"GDD","distance":1750,"station_name":"Gondangdia","i_lat":-6.186295,"transit":false},{"station_name":"Juanda","station_id":"JUA","line":2,"i_lat":-6.166716,"i_long":106.828284,"time":4,"is_transit":false,"transit":false,"distance":2015},{"station_name":"Sawah Besar","time":2,"station_id":"SW","transit":false,"i_lat":-6.160725,"distance":1149,"is_transit":false,"i_long":106.827103,"line":2},{"distance":906,"line":2,"i_lat":-6.149769,"time":2,"transit":false,"station_name":"Manggabesar","station_id":"MGB","is_transit":false,"i_long":106.82482}],[{"is_transit":false,"station_id":"KAT","distance":0,"station_name":"Karet","time":0,"i_lat":-6.20132,"i_long":106.816351,"line":1,"transit":false},{"line":1,"i_lat":-6.201433,"is_transit":false,"i_long":106.819881,"time":1,"transit":false,"distance":471,"station_id":"SUDB","station_name":"Sudirman Baru"},{"distance":280,"is_transit":false,"transit":false,"i_lat":-6.202263,"line":1,"i_long":106.822649,"time":1,"station_id":"SUD","station_name":"Sudirman"},{"time":4,"transit":false,"station_name":"Manggarai","line":2,"station_id":"MRI","is_transit":false,"i_lat":-6.209883,"distance":3186,"i_long":106.84912},{"i_long":106.858896,"station_name":"Matraman","distance":1275,"i_lat":-6.212485,"time":2,"is_transit":false,"station_id":"MTR","transit":false,"line":1},{"line":1,"station_name":"Jatinegara","i_long":106.86807400000001,"distance":1377,"station_id":"JNG","is_transit":true,"transit":true,"time":8,"i_lat":-6.215091},{"station_id":"POK","is_transit":false,"distance":1236,"station_name":"Pondok Jati","transit":false,"i_lat":-6.209188,"line":11,"time":2,"i_long":106.861737},{"station_name":"Kramat","time":2,"i_long":106.855437,"station_id":"KMT","i_lat":-6.193792,"line":11,"distance":1829,"is_transit":false,"transit":false},{"i_long":106.850107,"station_name":"Gang Sentiong","distance":973,"time":1,"is_transit":false,"station_id":"GST","line":11,"i_lat":-6.185975,"transit":false},{"transit":false,"time":8,"station_id":"PSE","i_lat":-6.174784,"station_name":"Pasar Senen","line":11,"i_long":106.84368,"distance":1567,"is_transit":false},{"i_long":106.839204,"i_lat":-6.161728,"time":4,"line":11,"distance":1436,"station_name":"Kemayoran","is_transit":false,"transit":false,"station_id":"KMO"},{"station_name":"Rajawali","line":11,"time":5,"i_long":106.836569,"distance":1901,"is_transit":false,"station_id":"RJW","i_lat":-6.14505,"transit":false},{"i_lat":-6.132549,"line":4,"is_transit":true,"distance":1444,"station_name":"Kampung Bandan","i_long":106.826365,"time":3,"transit":true,"station_id":"KPB"},{"station_name":"Jakarta Kota","transit":true,"i_lat":-6.137569,"i_long":106.812439,"time":3,"is_transit":true,"line":2,"distance":1364,"station_id":"JAKK"},{"distance":1264,"line":2,"i_long":106.820901,"is_transit":false,"station_name":"Jayakarta","i_lat":-6.141205,"time":4,"station_id":"JAY","transit":false},{"distance":1080,"line":2,"i_long":106.82482,"station_name":"Manggabesar","time":2,"station_id":"MGB","is_transit":false,"i_lat":-6.149769,"transit":false}],[{"i_lat":-6.20132,"time":0,"transit":false,"i_long":106.816351,"is_transit":false,"station_id":"KAT","distance":0,"station_name":"Karet","line":1},{"station_name":"Tanah Abang","transit":false,"station_id":"THB","i_lat":-6.185545,"line":1,"time":5,"distance":2029,"is_transit":false,"i_long":106.811091},{"i_lat":-6.155215,"time":8,"transit":false,"is_transit":false,"distance":3632,"station_id":"DU","line":1,"station_name":"Duri","i_long":106.800832},{"line":1,"transit":false,"distance":1230,"is_transit":false,"time":4,"station_id":"AK","station_name":"Angke","i_lat":-6.144674,"i_long":106.79867},{"transit":true,"time":9,"station_id":"KPB","is_transit":true,"distance":4102,"i_long":106.826365,"line":4,"station_name":"Kampung Bandan","i_lat":-6.132549},{"station_id":"RJW","distance":1444,"i_long":106.836569,"station_name":"Rajawali","is_transit":false,"i_lat":-6.14505,"time":3,"transit":false,"line":11},{"distance":1901,"time":5,"i_lat":-6.161728,"line":11,"is_transit":false,"station_name":"Kemayoran","transit":false,"station_id":"KMO","i_long":106.839204},{"station_id":"PSE","distance":1436,"time":4,"station_name":"Pasar Senen","i_lat":-6.174784,"is_transit":false,"i_long":106.84368,"line":11,"transit":false},{"i_long":106.850107,"is_transit":false,"transit":false,"station_id":"GST","line":11,"distance":1567,"time":8,"station_name":"Gang Sentiong","i_lat":-6.185975},{"transit":false,"distance":973,"station_name":"Kramat","is_transit":false,"line":11,"i_long":106.855437,"time":1,"i_lat":-6.193792,"station_id":"KMT"},{"i_lat":-6.209188,"line":11,"transit":false,"time":2,"distance":1829,"is_transit":false,"station_id":"POK","station_name":"Pondok Jati","i_long":106.861737},{"time":9,"station_name":"Jatinegara","station_id":"JNG","transit":true,"distance":1236,"is_transit":true,"i_lat":-6.215091,"i_long":106.86807400000001,"line":1},{"station_id":"MTR","i_lat":-6.212485,"is_transit":false,"time":2,"station_name":"Matraman","i_long":106.858896,"distance":1377,"transit":false,"line":1},{"station_name":"Manggarai","transit":true,"i_lat":-6.209883,"i_long":106.84912,"line":2,"time":2,"distance":1275,"is_transit":true,"station_id":"MRI"},{"time":4,"transit":false,"i_lat":-6.198556,"is_transit":false,"station_id":"CKI","i_long":106.840169,"line":2,"station_name":"Cikini","distance":1590},{"station_id":"GDD","station_name":"Gondangdia","transit":false,"i_long":106.832183,"line":2,"is_transit":false,"i_lat":-6.186295,"time":3,"distance":1750},{"distance":2015,"i_long":106.828284,"i_lat":-6.166716,"station_id":"JUA","station_name":"Juanda","line":2,"time":4,"is_transit":false,"transit":false},{"station_id":"SW","transit":false,"time":2,"station_name":"Sawah Besar","distance":1149,"i_long":106.827103,"is_transit":false,"i_lat":-6.160725,"line":2},{"station_id":"MGB","time":2,"distance":906,"station_name":"Manggabesar","is_transit":false,"i_lat":-6.149769,"i_long":106.82482,"line":2,"transit":false}]]}