{"data":[[{"transit":false,"line":1,"i_long":106.816351,"time":0,"is_transit":false,"distance":0,"station_name":"Karet","station_id":"KAT","i_lat":-6.20132},{"station_name":"Sudirman Baru","station_id":"SUDB","i_lat":-6.201433,"transit":false,"distance":471,"i_long":106.819881,"is_transit":false,"line":1,"time":1},{"i_lat":-6.202263,"transit":false,"i_long":106.822649,"distance":280,"station_name":"Sudirman","is_transit":false,"time":1,"line":1,"station_id":"SUD"},{"distance":3186,"is_transit":true,"line":0,"i_long":106.84912,"time":4,"transit":true,"i_lat":-6.209883,"station_name":"Manggarai","station_id":"MRI"},{"distance":2610,"line":2,"transit":false,"is_transit":false,"station_id":"TEB","station_name":"Tebet","i_lat":-6.226659,"i_long":106.857948,"time":4},{"is_transit":false,"time":2,"i_long":106.856607,"station_name":"Cawang","station_id":"CW","distance":1230,"line":0,"transit":false,"i_lat":-6.242512},{"time":3,"station_name":"Duren Kalibata","line":0,"i_long":106.85449,"transit":false,"i_lat":-6.255332,"is_transit":false,"station_id":"DRN","distance":1546},{"is_transit":false,"time":2,"i_lat":-6.263214,"distance":824,"line":2,"transit":false,"station_name":"Pasar Minggu Baru","i_long":106.851577,"station_id":"PSMB"},{"time":2,"station_id":"PSM","station_name":"Pasar Minggu","i_lat":-6.2842400000000005,"i_long":106.843999,"distance":2380,"is_transit":false,"line":2,"transit":false},{"station_id":"TNT","line":2,"time":4,"station_name":"Tanjung Barat","is_transit":false,"transit":false,"distance":2820,"i_lat":-6.3080680000000005,"i_long":106.838896},{"distance":2671,"is_transit":false,"station_id":"LNA","i_lat":-6.330363,"station_name":"Lenteng Agung","i_long":106.832616,"line":2,"time":3,"transit":false},{"station_name":"Univ. Pancasila","transit":false,"time":2,"is_transit":false,"i_long":106.834175,"line":2,"distance":1029,"station_id":"UP","i_lat":-6.339291},{"is_transit":false,"i_lat":-6.360749,"i_long":106.831474,"transit":false,"time":3,"line":2,"station_id":"UI","distance":2264,"station_name":"Univ. Indonesia"},{"station_id":"POC","i_long":106.831114,"distance":1109,"is_transit":false,"time":2,"i_lat":-6.369073,"line":2,"transit":false,"station_name":"Pondok Cina"},{"line":0,"transit":false,"station_id":"DPB","distance":2727,"is_transit":false,"station_name":"Depokbaru","time":4,"i_lat":-6.391065,"i_long":106.819451},{"transit":false,"distance":1584,"i_lat":-6.405256,"station_id":"DP","i_long":106.816926,"line":0,"station_name":"Depok","time":3,"is_transit":false},{"time":6,"i_long":106.800298,"is_transit":true,"i_lat":-6.448811,"station_id":"CTA","line":1,"distance":5084,"station_name":"Citayam","transit":false},{"time":5,"line":0,"transit":false,"distance":5197,"i_lat":-6.493243,"i_long":106.792719,"is_transit":false,"station_name":"Bojonggede","station_id":"BJD"},{"station_name":"Cilebut","is_transit":false,"time":5,"line":0,"distance":4331,"transit":false,"i_long":106.800016,"station_id":"CLT","i_lat":-6.530544},{"is_transit":true,"station_id":"BOO","transit":false,"station_name":"Bogor","i_lat":-6.594596,"i_long":106.790574,"line":1,"time":9,"distance":7514}],[{"station_name":"Karet","distance":0,"i_lat":-6.20132,"is_transit":false,"time":0,"i_long":106.816351,"station_id":"KAT","line":1,"transit":false},{"station_id":"THB","transit":false,"i_long":106.811091,"distance":2029,"time":5,"station_name":"Tanah Abang","is_transit":true,"i_lat":-6.185545,"line":1},{"line":1,"i_long":106.800832,"is_transit":true,"station_name":"Duri","transit":true,"station_id":"DU","distance":3632,"time":8,"i_lat":-6.155215},{"time":4,"i_lat":-6.144674,"station_name":"Angke","transit":false,"i_long":106.79867,"station_id":"AK","line":0,"distance":1230,"is_transit":false},{"line":0,"time":9,"is_transit":true,"transit":false,"distance":4102,"station_id":"KPB","i_lat":-6.132549,"station_name":"Kampung Bandan","i_long":106.826365},{"i_lat":-6.137569,"time":3,"is_transit":true,"transit":true,"station_id":"JAKK","i_long":106.812439,"station_name":"Jakarta Kota","distance":1364,"line":0},{"distance":1264,"i_long":106.820901,"transit":false,"line":7,"is_transit":false,"i_lat":-6.141205,"station_name":"Jayakarta","time":4,"station_id":"JAY"},{"station_id":"MGB","is_transit":false,"station_name":"Manggabesar","time":2,"transit":false,"i_lat":-6.149769,"line":2,"distance":1080,"i_long":106.82482},{"i_lat":-6.160725,"station_id":"SW","transit":false,"distance":906,"i_long":106.827103,"time":2,"station_name":"Sawah Besar","line":2,"is_transit":false},{"time":2,"transit":false,"line":2,"i_lat":-6.166716,"is_transit":false,"i_long":106.828284,"station_id":"JUA","station_name":"Juanda","distance":1149},{"line":2,"i_lat":-6.186295,"i_long":106.832183,"is_transit":false,"distance":2015,"time":4,"transit":false,"station_name":"Gondangdia","station_id":"GDD"},{"distance":1750,"transit":false,"i_lat":-6.198556,"i_long":106.840169,"time":3,"station_name":"Cikini","station_id":"CKI","line":0,"is_transit":false},{"station_name":"Manggarai","i_lat":-6.209883,"station_id":"MRI","distance":1590,"time":4,"transit":true,"line":0,"i_long":106.84912,"is_transit":true},{"i_long":106.857948,"is_transit":false,"transit":false,"line":2,"i_lat":-6.226659,"station_name":"Tebet","time":4,"station_id":"TEB","distance":2610},{"station_name":"Cawang","transit":false,"time":2,"is_transit":false,"i_lat":-6.242512,"i_long":106.856607,"line":0,"distance":1230,"station_id":"CW"},{"transit":false,"is_transit":false,"distance":1546,"station_name":"Duren Kalibata","i_long":106.85449,"time":3,"line":0,"station_id":"DRN","i_lat":-6.255332},{"line":2,"station_id":"PSMB","time":2,"i_long":106.851577,"is_transit":false,"transit":false,"distance":824,"i_lat":-6.263214,"station_name":"Pasar Minggu Baru"},{"is_transit":false,"station_id":"PSM","time":2,"i_long":106.843999,"station_name":"Pasar Minggu","line":2,"i_lat":-6.2842400000000005,"transit":false,"distance":2380},{"line":2,"transit":false,"station_name":"Tanjung Barat","station_id":"TNT","distance":2820,"time":4,"i_lat":-6.3080680000000005,"is_transit":false,"i_long":106.838896},{"station_name":"Lenteng Agung","station_id":"LNA","time":3,"transit":false,"line":2,"i_lat":-6.330363,"distance":2671,"i_long":106.832616,"is_transit":false},{"is_transit":false,"station_id":"UP","time":2,"distance":1029,"i_lat":-6.339291,"i_long":106.834175,"station_name":"Univ. Pancasila","line":2,"transit":false},{"is_transit":false,"station_name":"Univ. Indonesia","i_lat":-6.360749,"time":3,"i_long":106.831474,"line":2,"transit":false,"station_id":"UI","distance":2264},{"station_id":"POC","i_lat":-6.369073,"line":2,"time":2,"i_long":106.831114,"is_transit":false,"station_name":"Pondok Cina","transit":false,"distance":1109},{"distance":2727,"station_name":"Depokbaru","time":4,"is_transit":false,"i_long":106.819451,"station_id":"DPB","transit":false,"i_lat":-6.391065,"line":0},{"distance":1584,"time":3,"i_lat":-6.405256,"i_long":106.816926,"line":0,"transit":false,"station_name":"Depok","is_transit":false,"station_id":"DP"},{"transit":false,"station_name":"Citayam","station_id":"CTA","distance":5084,"time":6,"is_transit":true,"i_lat":-6.448811,"i_long":106.800298,"line":1},{"i_lat":-6.493243,"transit":false,"station_name":"Bojonggede","station_id":"BJD","i_long":106.792719,"line":0,"is_transit":false,"distance":5197,"time":5},{"i_lat":-6.530544,"distance":4331,"station_name":"Cilebut","i_long":106.800016,"line":0,"is_transit":false,"transit":false,"station_id":"CLT","time":5},{"i_lat":-6.594596,"station_name":"Bogor","time":9,"station_id":"BOO","is_transit":true,"transit":false,"i_long":106.790574,"distance":7514,"line":1}],[{"station_name":"Karet","i_long":106.816351,"distance":0,"is_transit":false,"transit":false,"time":0,"i_lat":-6.20132,"station_id":"KAT","line":1},{"station_name":"Tanah Abang","i_long":106.811091,"line":1,"distance":2029,"station_id":"THB","time":5,"i_lat":-6.185545,"transit":false,"is_transit":true},{"station_id":"DU","transit":true,"station_name":"Duri","i_lat":-6.155215,"distance":3632,"time":8,"line":1,"is_transit":true,"i_long":106.800832},{"station_name":"Angke","i_long":106.79867,"station_id":"AK","is_transit":false,"line":0,"distance":1230,"time":4,"i_lat":-6.144674,"transit":false},{"time":9,"i_long":106.826365,"station_id":"KPB","transit":true,"i_lat":-6.132549,"station_name":"Kampung Bandan","distance":4102,"is_transit":true,"line":0},{"i_long":106.836569,"distance":1444,"station_name":"Rajawali","transit":false,"is_transit":false,"line":11,"time":3,"i_lat":-6.14505,"station_id":"RJW"},{"station_id":"KMO","time":5,"is_transit":false,"line":11,"station_name":"Kemayoran","i_lat":-6.161728,"i_long":106.839204,"distance":1901,"transit":false},{"time":4,"transit":false,"i_lat":-6.174784,"is_transit":false,"line":11,"station_id":"PSE","station_name":"Pasar Senen","distance":1436,"i_long":106.84368},{"station_name":"Gang Sentiong","time":8,"line":11,"station_id":"GST","is_transit":false,"i_lat":-6.185975,"i_long":106.850107,"transit":false,"distance":1567},{"i_long":106.855437,"station_name":"Kramat","is_transit":false,"time":1,"line":11,"i_lat":-6.193792,"station_id":"KMT","distance":973,"transit":false},{"transit":false,"distance":1829,"station_name":"Pondok Jati","i_long":106.861737,"station_id":"POK","time":2,"is_transit":false,"i_lat":-6.209188,"line":11},{"transit":true,"time":9,"i_lat":-6.215091,"is_transit":true,"station_id":"JNG","line":0,"distance":1236,"i_long":106.86807400000001,"station_name":"Jatinegara"},{"line":1,"is_transit":false,"i_lat":-6.212485,"station_id":"MTR","station_name":"Matraman","distance":1377,"i_long":106.858896,"time":2,"transit":false},{"i_long":106.84912,"distance":1275,"station_id":"MRI","is_transit":true,"line":0,"station_name":"Manggarai","time":2,"transit":true,"i_lat":-6.209883},{"distance":2610,"i_lat":-6.226659,"station_id":"TEB","transit":false,"time":4,"line":2,"station_name":"Tebet","is_transit":false,"i_long":106.857948},{"time":2,"i_long":106.856607,"station_name":"Cawang","distance":1230,"i_lat":-6.242512,"line":0,"station_id":"CW","transit":false,"is_transit":false},{"transit":false,"is_transit":false,"distance":1546,"i_long":106.85449,"line":0,"i_lat":-6.255332,"station_name":"Duren Kalibata","time":3,"station_id":"DRN"},{"transit":false,"station_name":"Pasar Minggu Baru","line":2,"distance":824,"i_lat":-6.263214,"i_long":106.851577,"is_transit":false,"time":2,"station_id":"PSMB"},{"i_long":106.843999,"transit":false,"is_transit":false,"station_name":"Pasar Minggu","time":2,"distance":2380,"i_lat":-6.2842400000000005,"station_id":"PSM","line":2},{"station_id":"TNT","distance":2820,"station_name":"Tanjung Barat","line":2,"transit":false,"i_lat":-6.3080680000000005,"is_transit":false,"time":4,"i_long":106.838896},{"i_long":106.832616,"is_transit":false,"line":2,"time":3,"distance":2671,"station_id":"LNA","station_name":"Lenteng Agung","transit":false,"i_lat":-6.330363},{"station_name":"Univ. Pancasila","station_id":"UP","time":2,"i_long":106.834175,"transit":false,"i_lat":-6.339291,"line":2,"is_transit":false,"distance":1029},{"i_lat":-6.360749,"time":3,"i_long":106.831474,"transit":false,"station_id":"UI","distance":2264,"is_transit":false,"line":2,"station_name":"Univ. Indonesia"},{"station_name":"Pondok Cina","i_long":106.831114,"distance":1109,"line":2,"is_transit":false,"time":2,"station_id":"POC","i_lat":-6.369073,"transit":false},{"line":0,"station_id":"DPB","is_transit":false,"i_lat":-6.391065,"distance":2727,"time":4,"transit":false,"station_name":"Depokbaru","i_long":106.819451},{"is_transit":false,"station_id":"DP","distance":1584,"i_lat":-6.405256,"i_long":106.816926,"line":0,"transit":false,"station_name":"Depok","time":3},{"i_lat":-6.448811,"line":1,"station_name":"Citayam","transit":false,"time":6,"i_long":106.800298,"distance":5084,"is_transit":true,"station_id":"CTA"},{"time":5,"line":0,"station_id":"BJD","is_transit":false,"i_lat":-6.493243,"station_name":"Bojonggede","distance":5197,"i_long":106.792719,"transit":false},{"station_name":"Cilebut","i_long":106.800016,"transit":false,"line":0,"distance":4331,"station_id":"CLT","time":5,"i_lat":-6.530544,"is_transit":false},{"station_id":"BOO","transit":false,"is_transit":true,"time":9,"i_lat":-6.594596,"i_long":106.790574,"distance":7514,"station_name":"Bogor","line":1}]]}