{"data":[[{"is_transit":false,"i_lat":-6.20132,"distance":0,"station_id":"KAT","transit":false,"line":1,"i_long":106.816351,"station_name":"Karet","time":0},{"time":5,"distance":2029,"is_transit":true,"transit":true,"i_lat":-6.185545,"line":1,"station_name":"Tanah Abang","i_long":106.811091,"station_id":"THB"},{"is_transit":false,"station_id":"PLM","station_name":"Palmerah","distance":3191,"transit":false,"i_long":106.79689,"i_lat":-6.207404,"time":6,"line":6},{"time":7,"station_name":"Kebayoran","is_transit":false,"transit":false,"distance":3737,"station_id":"KBY","i_long":106.780334,"line":6,"i_lat":-6.237242},{"time":8,"station_name":"Pondokranji","station_id":"PDJ","transit":false,"i_long":106.74273,"is_transit":false,"line":6,"i_lat":-6.276362,"distance":6218},{"station_id":"JMU","distance":2179,"is_transit":false,"station_name":"Jurangmangu","transit":false,"line":6,"i_lat":-6.288927,"time":3,"i_long":106.728916},{"line":6,"time":4,"i_lat":-6.296963,"station_name":"Sudimara","station_id":"SDM","distance":1994,"is_transit":false,"transit":false,"i_long":106.712277},{"transit":false,"line":6,"distance":4566,"station_name":"Rawa Buntu","time":6,"i_long":106.675475,"station_id":"RU","i_lat":-6.314823,"is_transit":false},{"station_name":"Serpong","i_long":106.66566,"line":6,"is_transit":false,"station_id":"SRP","i_lat":-6.319871,"time":4,"distance":2413,"transit":false},{"i_lat":-6.32484,"i_long":106.640411,"station_name":"Cisauk","line":3,"time":4,"station_id":"CSK","is_transit":false,"transit":false,"distance":1784},{"is_transit":false,"line":3,"transit":false,"station_id":"CC","station_name":"Cicayur","i_lat":-6.329547,"time":4,"distance":2519,"i_long":106.617853},{"line":6,"time":8,"distance":5968,"transit":false,"i_lat":-6.3441410000000005,"station_name":"Parung Panjang","is_transit":false,"i_long":106.568863,"station_id":"PRP"},{"i_long":106.508482,"transit":false,"distance":7025,"station_id":"CJT","time":9,"station_name":"Cilejit","is_transit":false,"i_lat":-6.354349,"line":3},{"transit":false,"station_id":"DAR","line":0,"i_long":106.491338,"is_transit":false,"station_name":"Daru","i_lat":-6.338021,"distance":2675,"time":6},{"time":5,"distance":3902,"is_transit":false,"line":6,"station_name":"Tenjo","station_id":"TEJ","transit":false,"i_lat":-6.327251,"i_long":106.460812},{"station_name":"Tigaraksa","transit":false,"time":5,"station_id":"TGS","i_lat":-6.328533,"is_transit":false,"line":6,"i_long":106.425991,"distance":2974},{"line":3,"i_long":106.411216,"is_transit":false,"i_lat":-6.33561,"station_id":"CKY","time":3,"transit":false,"distance":2651,"station_name":"Cikoya"}],[{"time":0,"is_transit":false,"i_long":106.816351,"station_id":"KAT","line":1,"station_name":"Karet","distance":0,"transit":false,"i_lat":-6.20132},{"i_lat":-6.201433,"i_long":106.819881,"is_transit":false,"transit":false,"distance":471,"line":1,"time":1,"station_name":"Sudirman Baru","station_id":"SUDB"},{"i_long":106.822649,"line":1,"station_name":"Sudirman","is_transit":false,"distance":280,"transit":false,"i_lat":-6.202263,"station_id":"SUD","time":1},{"time":4,"i_long":106.84912,"station_id":"MRI","transit":true,"i_lat":-6.209883,"line":2,"station_name":"Manggarai","distance":3186,"is_transit":true},{"line":2,"i_long":106.840169,"station_id":"CKI","is_transit":false,"transit":false,"time":4,"station_name":"Cikini","distance":1590,"i_lat":-6.198556},{"time":3,"distance":1750,"line":2,"is_transit":false,"station_name":"Gondangdia","i_lat":-6.186295,"i_long":106.832183,"station_id":"GDD","transit":false},{"i_long":106.828284,"line":2,"transit":false,"is_transit":false,"i_lat":-6.166716,"station_id":"JUA","time":4,"distance":2015,"station_name":"Juanda"},{"transit":false,"distance":1149,"station_id":"SW","station_name":"Sawah Besar","time":2,"is_transit":false,"i_lat":-6.160725,"line":2,"i_long":106.827103},{"distance":906,"i_lat":-6.149769,"i_long":106.82482,"line":2,"time":2,"station_name":"Manggabesar","station_id":"MGB","transit":false,"is_transit":false},{"distance":1080,"line":2,"is_transit":false,"station_id":"JAY","i_lat":-6.141205,"time":2,"i_long":106.820901,"transit":false,"station_name":"Jayakarta"},{"distance":1264,"is_transit":true,"station_id":"JAKK","station_name":"Jakarta Kota","i_long":106.812439,"line":2,"transit":true,"time":4,"i_lat":-6.137569},{"time":3,"i_long":106.826365,"station_name":"Kampung Bandan","distance":1364,"line":4,"station_id":"KPB","i_lat":-6.132549,"transit":true,"is_transit":true},{"i_long":106.79867,"distance":4102,"station_id":"AK","transit":false,"is_transit":false,"station_name":"Angke","time":9,"i_lat":-6.144674,"line":1},{"time":4,"transit":false,"is_transit":false,"station_id":"DU","distance":1230,"station_name":"Duri","i_long":106.800832,"line":1,"i_lat":-6.155215},{"transit":true,"i_lat":-6.185545,"station_id":"THB","i_long":106.811091,"time":8,"station_name":"Tanah Abang","distance":3632,"is_transit":true,"line":1},{"station_id":"PLM","transit":false,"is_transit":false,"station_name":"Palmerah","i_long":106.79689,"i_lat":-6.207404,"distance":3191,"line":6,"time":6},{"line":6,"is_transit":false,"station_name":"Kebayoran","transit":false,"station_id":"KBY","time":7,"distance":3737,"i_long":106.780334,"i_lat":-6.237242},{"time":8,"transit":false,"station_id":"PDJ","i_lat":-6.276362,"distance":6218,"i_long":106.74273,"station_name":"Pondokranji","line":6,"is_transit":false},{"time":3,"distance":2179,"station_name":"Jurangmangu","is_transit":false,"station_id":"JMU","line":6,"i_lat":-6.288927,"i_long":106.728916,"transit":false},{"distance":1994,"line":6,"station_name":"Sudimara","i_lat":-6.296963,"station_id":"SDM","i_long":106.712277,"is_transit":false,"transit":false,"time":4},{"line":6,"i_long":106.675475,"transit":false,"time":6,"station_name":"Rawa Buntu","is_transit":false,"station_id":"RU","distance":4566,"i_lat":-6.314823},{"station_name":"Serpong","line":6,"transit":false,"station_id":"SRP","i_lat":-6.319871,"i_long":106.66566,"distance":2413,"is_transit":false,"time":4},{"i_lat":-6.32484,"line":3,"is_transit":false,"i_long":106.640411,"time":4,"station_name":"Cisauk","transit":false,"distance":1784,"station_id":"CSK"},{"transit":false,"time":4,"i_long":106.617853,"i_lat":-6.329547,"station_id":"CC","distance":2519,"line":3,"is_transit":false,"station_name":"Cicayur"},{"transit":false,"distance":5968,"i_lat":-6.3441410000000005,"i_long":106.568863,"time":8,"station_id":"PRP","is_transit":false,"line":6,"station_name":"Parung Panjang"},{"transit":false,"time":9,"is_transit":false,"i_long":106.508482,"line":3,"distance":7025,"i_lat":-6.354349,"station_id":"CJT","station_name":"Cilejit"},{"i_long":106.491338,"line":0,"is_transit":false,"transit":false,"time":6,"station_name":"Daru","station_id":"DAR","distance":2675,"i_lat":-6.338021},{"line":6,"transit":false,"distance":3902,"i_lat":-6.327251,"i_long":106.460812,"is_transit":false,"station_name":"Tenjo","station_id":"TEJ","time":5},{"distance":2974,"transit":false,"station_id":"TGS","i_long":106.425991,"i_lat":-6.328533,"time":5,"line":6,"station_name":"Tigaraksa","is_transit":false},{"station_id":"CKY","is_transit":false,"time":3,"i_long":106.411216,"transit":false,"distance":2651,"i_lat":-6.33561,"station_name":"Cikoya","line":3}],[{"station_name":"Karet","station_id":"KAT","time":0,"transit":false,"line":1,"i_lat":-6.20132,"is_transit":false,"i_long":106.816351,"distance":0},{"station_id":"SUDB","time":1,"station_name":"Sudirman Baru","distance":471,"i_lat":-6.201433,"line":1,"transit":false,"i_long":106.819881,"is_transit":false},{"is_transit":false,"i_lat":-6.202263,"i_long":106.822649,"line":1,"time":1,"transit":false,"distance":280,"station_name":"Sudirman","station_id":"SUD"},{"station_name":"Manggarai","line":2,"i_long":106.84912,"station_id":"MRI","i_lat":-6.209883,"time":4,"distance":3186,"transit":false,"is_transit":false},{"station_id":"MTR","is_transit":false,"transit":false,"time":2,"i_long":106.858896,"station_name":"Matraman","i_lat":-6.212485,"distance":1275,"line":1},{"time":8,"is_transit":true,"distance":1377,"station_name":"Jatinegara","line":1,"station_id":"JNG","transit":true,"i_lat":-6.215091,"i_long":106.86807400000001},{"distance":1236,"time":2,"transit":false,"is_transit":false,"i_lat":-6.209188,"station_name":"Pondok Jati","station_id":"POK","i_long":106.861737,"line":11},{"line":11,"station_name":"Kramat","station_id":"KMT","i_lat":-6.193792,"is_transit":false,"distance":1829,"transit":false,"i_long":106.855437,"time":2},{"i_lat":-6.185975,"time":1,"transit":false,"station_name":"Gang Sentiong","i_long":106.850107,"is_transit":false,"distance":973,"line":11,"station_id":"GST"},{"i_long":106.84368,"station_name":"Pasar Senen","is_transit":false,"i_lat":-6.174784,"station_id":"PSE","transit":false,"time":8,"distance":1567,"line":11},{"i_long":106.839204,"is_transit":false,"i_lat":-6.161728,"station_name":"Kemayoran","line":11,"distance":1436,"station_id":"KMO","transit":false,"time":4},{"i_lat":-6.14505,"is_transit":false,"transit":false,"line":11,"time":5,"station_name":"Rajawali","distance":1901,"i_long":106.836569,"station_id":"RJW"},{"line":4,"i_long":106.826365,"distance":1444,"station_name":"Kampung Bandan","station_id":"KPB","is_transit":true,"transit":true,"time":3,"i_lat":-6.132549},{"transit":false,"station_id":"AK","time":9,"distance":4102,"i_lat":-6.144674,"i_long":106.79867,"line":1,"is_transit":false,"station_name":"Angke"},{"is_transit":false,"i_long":106.800832,"transit":false,"station_id":"DU","station_name":"Duri","line":1,"distance":1230,"i_lat":-6.155215,"time":4},{"i_lat":-6.185545,"station_id":"THB","transit":true,"time":8,"distance":3632,"i_long":106.811091,"line":1,"is_transit":true,"station_name":"Tanah Abang"},{"is_transit":false,"i_lat":-6.207404,"i_long":106.79689,"line":6,"time":6,"station_name":"Palmerah","distance":3191,"station_id":"PLM","transit":false},{"i_lat":-6.237242,"distance":3737,"i_long":106.780334,"transit":false,"station_name":"Kebayoran","is_transit":false,"line":6,"time":7,"station_id":"KBY"},{"i_long":106.74273,"line":6,"transit":false,"time":8,"station_id":"PDJ","i_lat":-6.276362,"station_name":"Pondokranji","distance":6218,"is_transit":false},{"time":3,"line":6,"i_long":106.728916,"is_transit":false,"station_id":"JMU","station_name":"Jurangmangu","i_lat":-6.288927,"transit":false,"distance":2179},{"time":4,"i_long":106.712277,"station_name":"Sudimara","i_lat":-6.296963,"station_id":"SDM","transit":false,"is_transit":false,"distance":1994,"line":6},{"i_lat":-6.314823,"station_name":"Rawa Buntu","station_id":"RU","time":6,"i_long":106.675475,"line":6,"is_transit":false,"distance":4566,"transit":false},{"line":6,"transit":false,"is_transit":false,"i_long":106.66566,"station_id":"SRP","distance":2413,"station_name":"Serpong","time":4,"i_lat":-6.319871},{"station_name":"Cisauk","station_id":"CSK","is_transit":false,"i_lat":-6.32484,"line":3,"transit":false,"distance":1784,"i_long":106.640411,"time":4},{"i_lat":-6.329547,"is_transit":false,"i_long":106.617853,"distance":2519,"station_name":"Cicayur","time":4,"line":3,"transit":false,"station_id":"CC"},{"station_name":"Parung Panjang","time":8,"i_long":106.568863,"line":6,"i_lat":-6.3441410000000005,"distance":5968,"is_transit":false,"transit":false,"station_id":"PRP"},{"station_id":"CJT","transit":false,"distance":7025,"line":3,"time":9,"is_transit":false,"i_long":106.508482,"station_name":"Cilejit","i_lat":-6.354349},{"distance":2675,"station_id":"DAR","station_name":"Daru","time":6,"i_lat":-6.338021,"i_long":106.491338,"transit":false,"is_transit":false,"line":0},{"i_lat":-6.327251,"time":5,"transit":false,"station_id":"TEJ","station_name":"Tenjo","i_long":106.460812,"line":6,"distance":3902,"is_transit":false},{"i_lat":-6.328533,"transit":false,"time":5,"station_id":"TGS","station_name":"Tigaraksa","is_transit":false,"line":6,"distance":2974,"i_long":106.425991},{"distance":2651,"station_name":"Cikoya","line":3,"is_transit":false,"transit":false,"time":3,"i_lat":-6.33561,"i_long":106.411216,"station_id":"CKY"}]]}