{"data":[[{"station_id":"KAT","time":0,"i_long":106.816351,"station_name":"Karet","is_transit":false,"distance":0,"i_lat":-6.20132,"transit":false,"line":1},{"line":1,"time":1,"transit":false,"station_name":"Sudirman Baru","station_id":"SUDB","is_transit":false,"i_lat":-6.201433,"i_long":106.819881,"distance":471},{"is_transit":false,"station_id":"SUD","time":1,"transit":false,"i_lat":-6.202263,"i_long":106.822649,"line":1,"station_name":"Sudirman","distance":280},{"transit":false,"i_lat":-6.209883,"time":4,"station_id":"MRI","i_long":106.84912,"is_transit":true,"station_name":"Manggarai","line":0,"distance":3186},{"station_name":"Matraman","transit":false,"time":2,"i_lat":-6.212485,"i_long":106.858896,"station_id":"MTR","is_transit":false,"distance":1275,"line":1},{"station_id":"JNG","is_transit":true,"i_long":106.86807400000001,"i_lat":-6.215091,"transit":false,"distance":1377,"station_name":"Jatinegara","time":8,"line":0},{"line":1,"i_lat":-6.2135,"station_id":"KLD","station_name":"Klender","is_transit":false,"time":3,"transit":false,"i_long":106.899548,"distance":3395},{"is_transit":false,"time":2,"station_name":"Buaran","line":0,"station_id":"BUA","i_long":106.922662,"transit":false,"distance":3100,"i_lat":-6.215568},{"station_name":"Klenderbaru","time":1,"station_id":"KLDB","i_lat":-6.217455,"distance":1305,"is_transit":false,"i_long":106.939679,"line":1,"transit":false},{"is_transit":false,"line":0,"station_id":"CUK","distance":1385,"i_long":106.951283,"transit":false,"station_name":"Cakung","time":8,"i_lat":-6.219053},{"time":3,"station_id":"KRI","distance":3097,"i_lat":-6.224515,"i_long":106.977657,"line":1,"is_transit":false,"station_name":"Kranji","transit":false},{"station_id":"BKS","time":4,"distance":2520,"transit":false,"i_long":106.997013,"is_transit":false,"i_lat":-6.236616,"station_name":"Bekasi","line":0}],[{"i_long":106.816351,"station_id":"KAT","transit":false,"station_name":"Karet","line":1,"is_transit":false,"time":0,"distance":0,"i_lat":-6.20132},{"time":5,"station_name":"Tanah Abang","i_lat":-6.185545,"i_long":106.811091,"line":1,"station_id":"THB","is_transit":true,"distance":2029,"transit":false},{"line":1,"i_long":106.800832,"time":8,"station_id":"DU","is_transit":true,"station_name":"Duri","distance":3632,"transit":true,"i_lat":-6.155215},{"time":4,"i_lat":-6.144674,"i_long":106.79867,"station_name":"Angke","is_transit":false,"line":0,"distance":1230,"station_id":"AK","transit":false},{"distance":4102,"is_transit":true,"station_id":"KPB","station_name":"Kampung Bandan","transit":true,"i_long":106.826365,"line":0,"time":9,"i_lat":-6.132549},{"transit":false,"station_id":"RJW","time":3,"i_long":106.836569,"distance":1444,"line":11,"station_name":"Rajawali","i_lat":-6.14505,"is_transit":false},{"station_id":"KMO","is_transit":false,"transit":false,"i_long":106.839204,"i_lat":-6.161728,"distance":1901,"station_name":"Kemayoran","time":5,"line":11},{"i_lat":-6.174784,"line":11,"i_long":106.84368,"transit":false,"time":4,"is_transit":false,"distance":1436,"station_name":"Pasar Senen","station_id":"PSE"},{"i_lat":-6.185975,"time":8,"line":11,"i_long":106.850107,"transit":false,"station_id":"GST","is_transit":false,"station_name":"Gang Sentiong","distance":1567},{"line":11,"is_transit":false,"transit":false,"i_lat":-6.193792,"i_long":106.855437,"station_name":"Kramat","station_id":"KMT","distance":973,"time":1},{"i_lat":-6.209188,"is_transit":false,"transit":false,"i_long":106.861737,"station_name":"Pondok Jati","line":11,"time":2,"station_id":"POK","distance":1829},{"station_id":"JNG","is_transit":true,"i_lat":-6.215091,"i_long":106.86807400000001,"time":9,"transit":true,"distance":1236,"line":0,"station_name":"Jatinegara"},{"distance":3395,"i_long":106.899548,"time":3,"line":1,"i_lat":-6.2135,"station_name":"Klender","is_transit":false,"transit":false,"station_id":"KLD"},{"station_id":"BUA","distance":3100,"i_lat":-6.215568,"i_long":106.922662,"is_transit":false,"transit":false,"line":0,"station_name":"Buaran","time":2},{"station_id":"KLDB","distance":1305,"is_transit":false,"i_long":106.939679,"time":1,"transit":false,"station_name":"Klenderbaru","line":1,"i_lat":-6.217455},{"line":0,"station_id":"CUK","distance":1385,"i_lat":-6.219053,"transit":false,"station_name":"Cakung","i_long":106.951283,"is_transit":false,"time":8},{"i_lat":-6.224515,"i_long":106.977657,"time":3,"distance":3097,"is_transit":false,"line":1,"transit":false,"station_id":"KRI","station_name":"Kranji"},{"i_lat":-6.236616,"station_name":"Bekasi","station_id":"BKS","distance":2520,"is_transit":false,"transit":false,"line":0,"time":4,"i_long":106.997013}],[{"time":0,"station_id":"KAT","transit":false,"station_name":"Karet","is_transit":false,"line":1,"distance":0,"i_long":106.816351,"i_lat":-6.20132},{"i_lat":-6.185545,"time":5,"transit":false,"line":1,"is_transit":true,"station_id":"THB","station_name":"Tanah Abang","distance":2029,"i_long":106.811091},{"station_id":"DU","is_transit":true,"station_name":"Duri","transit":true,"i_lat":-6.155215,"i_long":106.800832,"line":1,"distance":3632,"time":8},{"i_long":106.79867,"line":0,"is_transit":false,"distance":1230,"station_name":"Angke","transit":false,"station_id":"AK","i_lat":-6.144674,"time":4},{"line":0,"i_lat":-6.132549,"is_transit":true,"transit":false,"i_long":106.826365,"station_id":"KPB","distance":4102,"station_name":"Kampung Bandan","time":9},{"i_lat":-6.137569,"line":0,"distance":1364,"i_long":106.812439,"time":3,"station_id":"JAKK","transit":true,"is_transit":true,"station_name":"Jakarta Kota"},{"time":4,"is_transit":false,"distance":1264,"i_long":106.820901,"station_id":"JAY","station_name":"Jayakarta","transit":false,"line":7,"i_lat":-6.141205},{"time":2,"transit":false,"is_transit":false,"i_long":106.82482,"distance":1080,"i_lat":-6.149769,"station_id":"MGB","station_name":"Manggabesar","line":2},{"transit":false,"station_name":"Sawah Besar","time":2,"i_long":106.827103,"i_lat":-6.160725,"line":2,"station_id":"SW","is_transit":false,"distance":906},{"station_name":"Juanda","i_long":106.828284,"station_id":"JUA","i_lat":-6.166716,"is_transit":false,"time":2,"line":2,"distance":1149,"transit":false},{"station_id":"GDD","i_lat":-6.186295,"i_long":106.832183,"transit":false,"line":2,"station_name":"Gondangdia","is_transit":false,"time":4,"distance":2015},{"distance":1750,"is_transit":false,"station_name":"Cikini","station_id":"CKI","transit":false,"line":0,"i_lat":-6.198556,"time":3,"i_long":106.840169},{"line":0,"station_id":"MRI","time":4,"transit":true,"i_long":106.84912,"is_transit":true,"i_lat":-6.209883,"station_name":"Manggarai","distance":1590},{"distance":1275,"station_id":"MTR","i_long":106.858896,"transit":false,"station_name":"Matraman","time":2,"i_lat":-6.212485,"is_transit":false,"line":1},{"station_name":"Jatinegara","distance":1377,"station_id":"JNG","i_lat":-6.215091,"i_long":106.86807400000001,"line":0,"time":8,"transit":false,"is_transit":true},{"i_lat":-6.2135,"station_id":"KLD","line":1,"time":3,"transit":false,"station_name":"Klender","distance":3395,"i_long":106.899548,"is_transit":false},{"i_lat":-6.215568,"line":0,"distance":3100,"time":2,"station_name":"Buaran","station_id":"BUA","i_long":106.922662,"is_transit":false,"transit":false},{"station_id":"KLDB","i_lat":-6.217455,"line":1,"station_name":"Klenderbaru","is_transit":false,"transit":false,"distance":1305,"i_long":106.939679,"time":1},{"i_lat":-6.219053,"distance":1385,"time":8,"station_name":"Cakung","i_long":106.951283,"transit":false,"is_transit":false,"station_id":"CUK","line":0},{"i_long":106.977657,"distance":3097,"i_lat":-6.224515,"station_name":"Kranji","line":1,"time":3,"station_id":"KRI","is_transit":false,"transit":false},{"i_lat":-6.236616,"line":0,"station_id":"BKS","station_name":"Bekasi","is_transit":false,"distance":2520,"time":4,"transit":false,"i_long":106.997013}],[{"i_long":106.816351,"time":0,"transit":false,"distance":0,"station_id":"KAT","i_lat":-6.20132,"station_name":"Karet","line":1,"is_transit":false},{"is_transit":false,"transit":false,"i_lat":-6.201433,"i_long":106.819881,"time":1,"distance":471,"station_id":"SUDB","station_name":"Sudirman Baru","line":1},{"i_long":106.822649,"station_name":"Sudirman","station_id":"SUD","line":1,"transit":false,"distance":280,"time":1,"i_lat":-6.202263,"is_transit":false},{"station_name":"Manggarai","distance":3186,"line":0,"is_transit":true,"i_lat":-6.209883,"time":4,"station_id":"MRI","transit":true,"i_long":106.84912},{"is_transit":false,"distance":1590,"station_id":"CKI","i_lat":-6.198556,"station_name":"Cikini","line":0,"time":4,"transit":false,"i_long":106.840169},{"time":3,"transit":false,"i_lat":-6.186295,"station_id":"GDD","line":2,"station_name":"Gondangdia","is_transit":false,"i_long":106.832183,"distance":1750},{"time":4,"station_id":"JUA","transit":false,"line":2,"station_name":"Juanda","i_lat":-6.166716,"is_transit":false,"distance":2015,"i_long":106.828284},{"station_id":"SW","station_name":"Sawah Besar","i_lat":-6.160725,"i_long":106.827103,"time":2,"transit":false,"line":2,"is_transit":false,"distance":1149},{"is_transit":false,"time":2,"distance":906,"station_id":"MGB","station_name":"Manggabesar","i_lat":-6.149769,"i_long":106.82482,"line":2,"transit":false},{"station_id":"JAY","i_lat":-6.141205,"distance":1080,"i_long":106.820901,"station_name":"Jayakarta","is_transit":false,"time":2,"transit":false,"line":7},{"is_transit":true,"distance":1264,"transit":true,"i_lat":-6.137569,"station_id":"JAKK","i_long":106.812439,"line":0,"station_name":"Jakarta Kota","time":4},{"is_transit":true,"station_id":"KPB","distance":1364,"line":0,"station_name":"Kampung Bandan","time":3,"transit":true,"i_lat":-6.132549,"i_long":106.826365},{"i_lat":-6.14505,"line":11,"time":3,"distance":1444,"station_id":"RJW","station_name":"Rajawali","i_long":106.836569,"is_transit":false,"transit":false},{"transit":false,"line":11,"time":5,"is_transit":false,"station_id":"KMO","i_long":106.839204,"station_name":"Kemayoran","distance":1901,"i_lat":-6.161728},{"i_long":106.84368,"time":4,"distance":1436,"line":11,"is_transit":false,"station_name":"Pasar Senen","transit":false,"i_lat":-6.174784,"station_id":"PSE"},{"i_lat":-6.185975,"is_transit":false,"station_id":"GST","station_name":"Gang Sentiong","i_long":106.850107,"distance":1567,"line":11,"time":8,"transit":false},{"line":11,"is_transit":false,"i_long":106.855437,"station_name":"Kramat","transit":false,"i_lat":-6.193792,"time":1,"distance":973,"station_id":"KMT"},{"line":11,"is_transit":false,"i_long":106.861737,"transit":false,"station_id":"POK","station_name":"Pondok Jati","time":2,"distance":1829,"i_lat":-6.209188},{"i_lat":-6.215091,"i_long":106.86807400000001,"line":0,"transit":true,"distance":1236,"station_id":"JNG","station_name":"Jatinegara","is_transit":true,"time":9},{"transit":false,"line":1,"time":3,"i_long":106.899548,"i_lat":-6.2135,"is_transit":false,"station_id":"KLD","station_name":"Klender","distance":3395},{"line":0,"i_lat":-6.215568,"distance":3100,"transit":false,"i_long":106.922662,"station_name":"Buaran","time":2,"is_transit":false,"station_id":"BUA"},{"distance":1305,"station_name":"Klenderbaru","is_transit":false,"time":1,"line":1,"i_lat":-6.217455,"i_long":106.939679,"station_id":"KLDB","transit":false},{"is_transit":false,"station_id":"CUK","station_name":"Cakung","i_lat":-6.219053,"transit":false,"time":8,"i_long":106.951283,"line":0,"distance":1385},{"station_name":"Kranji","is_transit":false,"time":3,"transit":false,"distance":3097,"i_lat":-6.224515,"line":1,"i_long":106.977657,"station_id":"KRI"},{"distance":2520,"station_name":"Bekasi","i_long":106.997013,"time":4,"transit":false,"i_lat":-6.236616,"line":0,"station_id":"BKS","is_transit":false}]]}