{"data":[[{"transit":false,"station_id":"KAT","is_transit":false,"time":0,"distance":0,"line":1,"i_long":106.816351,"station_name":"Karet","i_lat":-6.20132},{"line":1,"station_name":"Sudirman Baru","is_transit":false,"transit":false,"i_lat":-6.201433,"i_long":106.819881,"distance":471,"time":1,"station_id":"SUDB"},{"line":1,"station_name":"Sudirman","distance":280,"i_long":106.822649,"i_lat":-6.202263,"station_id":"SUD","is_transit":false,"time":1,"transit":false},{"i_lat":-6.209883,"i_long":106.84912,"station_id":"MRI","is_transit":false,"time":4,"line":2,"distance":3186,"station_name":"Manggarai","transit":false},{"time":2,"is_transit":false,"station_id":"MTR","line":1,"distance":1275,"i_lat":-6.212485,"i_long":106.858896,"transit":false,"station_name":"Matraman"},{"time":8,"transit":false,"station_id":"JNG","i_lat":-6.215091,"line":1,"is_transit":false,"i_long":106.86807400000001,"distance":1377,"station_name":"Jatinegara"},{"time":3,"station_name":"Klender","station_id":"KLD","distance":3395,"i_lat":-6.2135,"line":1,"transit":false,"i_long":106.899548,"is_transit":false},{"is_transit":false,"transit":false,"station_name":"Buaran","station_id":"BUA","time":2,"i_long":106.922662,"i_lat":-6.215568,"distance":3100,"line":1},{"i_lat":-6.217455,"distance":1305,"line":1,"is_transit":false,"station_id":"KLDB","station_name":"Klenderbaru","transit":false,"i_long":106.939679,"time":1},{"i_long":106.951283,"transit":false,"line":1,"distance":1385,"is_transit":false,"station_name":"Cakung","time":8,"i_lat":-6.219053,"station_id":"CUK"},{"distance":3097,"transit":false,"station_name":"Kranji","station_id":"KRI","is_transit":false,"line":1,"i_lat":-6.224515,"time":3,"i_long":106.977657},{"transit":false,"time":4,"station_id":"BKS","distance":2520,"line":1,"is_transit":false,"i_lat":-6.236616,"i_long":106.997013,"station_name":"Bekasi"},{"station_name":"Bekasi Timur","line":1,"station_id":"BKST","i_lat":-6.248029,"distance":2368,"is_transit":false,"time":2,"i_long":107.016735,"transit":false},{"station_id":"TB","i_lat":-6.258864,"i_long":107.055722,"time":7,"distance":4460,"line":1,"station_name":"Tambun","is_transit":false,"transit":false},{"line":1,"time":3,"station_name":"Cibitung","station_id":"CIT","i_lat":-6.261877,"transit":false,"is_transit":false,"i_long":107.083084,"distance":3420}],[{"station_name":"Karet","i_long":106.816351,"is_transit":false,"station_id":"KAT","i_lat":-6.20132,"line":1,"time":0,"transit":false,"distance":0},{"station_id":"THB","transit":false,"station_name":"Tanah Abang","time":5,"line":1,"distance":2029,"i_lat":-6.185545,"is_transit":false,"i_long":106.811091},{"is_transit":false,"line":1,"station_name":"Duri","time":8,"station_id":"DU","transit":false,"distance":3632,"i_long":106.800832,"i_lat":-6.155215},{"i_long":106.79867,"line":1,"station_name":"Angke","i_lat":-6.144674,"distance":1230,"station_id":"AK","is_transit":false,"transit":false,"time":4},{"station_name":"Kampung Bandan","station_id":"KPB","line":4,"is_transit":true,"time":9,"transit":true,"distance":4102,"i_lat":-6.132549,"i_long":106.826365},{"i_long":106.836569,"time":3,"i_lat":-6.14505,"line":11,"station_name":"Rajawali","is_transit":false,"transit":false,"station_id":"RJW","distance":1444},{"line":11,"station_name":"Kemayoran","i_lat":-6.161728,"is_transit":false,"time":5,"distance":1901,"i_long":106.839204,"transit":false,"station_id":"KMO"},{"transit":false,"station_id":"PSE","i_long":106.84368,"i_lat":-6.174784,"line":11,"time":4,"is_transit":false,"distance":1436,"station_name":"Pasar Senen"},{"i_long":106.850107,"line":11,"i_lat":-6.185975,"station_id":"GST","time":8,"is_transit":false,"distance":1567,"transit":false,"station_name":"Gang Sentiong"},{"distance":973,"time":1,"i_lat":-6.193792,"i_long":106.855437,"station_name":"Kramat","transit":false,"line":11,"is_transit":false,"station_id":"KMT"},{"line":11,"station_id":"POK","i_long":106.861737,"station_name":"Pondok Jati","is_transit":false,"i_lat":-6.209188,"transit":false,"distance":1829,"time":2},{"is_transit":true,"station_name":"Jatinegara","station_id":"JNG","i_long":106.86807400000001,"line":1,"i_lat":-6.215091,"time":9,"distance":1236,"transit":true},{"distance":3395,"transit":false,"i_lat":-6.2135,"line":1,"is_transit":false,"station_name":"Klender","time":3,"station_id":"KLD","i_long":106.899548},{"time":2,"distance":3100,"transit":false,"i_long":106.922662,"line":1,"i_lat":-6.215568,"station_name":"Buaran","is_transit":false,"station_id":"BUA"},{"time":1,"distance":1305,"line":1,"is_transit":false,"station_id":"KLDB","station_name":"Klenderbaru","transit":false,"i_lat":-6.217455,"i_long":106.939679},{"i_lat":-6.219053,"transit":false,"is_transit":false,"station_id":"CUK","i_long":106.951283,"line":1,"time":8,"distance":1385,"station_name":"Cakung"},{"is_transit":false,"transit":false,"i_lat":-6.224515,"line":1,"station_name":"Kranji","distance":3097,"time":3,"station_id":"KRI","i_long":106.977657},{"station_name":"Bekasi","station_id":"BKS","i_long":106.997013,"i_lat":-6.236616,"transit":false,"line":1,"distance":2520,"is_transit":false,"time":4},{"is_transit":false,"i_lat":-6.248029,"distance":2368,"station_name":"Bekasi Timur","transit":false,"i_long":107.016735,"time":2,"station_id":"BKST","line":1},{"station_name":"Tambun","i_lat":-6.258864,"distance":4460,"i_long":107.055722,"time":7,"transit":false,"line":1,"is_transit":false,"station_id":"TB"},{"i_long":107.083084,"line":1,"i_lat":-6.261877,"is_transit":false,"station_name":"Cibitung","transit":false,"time":3,"distance":3420,"station_id":"CIT"}],[{"line":1,"distance":0,"transit":false,"station_name":"Karet","station_id":"KAT","is_transit":false,"time":0,"i_lat":-6.20132,"i_long":106.816351},{"is_transit":false,"station_name":"Tanah Abang","time":5,"distance":2029,"transit":false,"station_id":"THB","i_long":106.811091,"i_lat":-6.185545,"line":1},{"time":8,"distance":3632,"i_lat":-6.155215,"station_id":"DU","line":1,"i_long":106.800832,"is_transit":false,"transit":false,"station_name":"Duri"},{"i_lat":-6.144674,"i_long":106.79867,"station_name":"Angke","transit":false,"time":4,"distance":1230,"line":1,"station_id":"AK","is_transit":false},{"is_transit":true,"station_name":"Kampung Bandan","i_long":106.826365,"distance":4102,"time":9,"i_lat":-6.132549,"station_id":"KPB","transit":true,"line":4},{"line":2,"station_name":"Jakarta Kota","transit":true,"distance":1364,"i_long":106.812439,"i_lat":-6.137569,"time":3,"station_id":"JAKK","is_transit":true},{"transit":false,"i_lat":-6.141205,"time":4,"distance":1264,"i_long":106.820901,"is_transit":false,"station_name":"Jayakarta","station_id":"JAY","line":2},{"i_long":106.82482,"station_name":"Manggabesar","distance":1080,"time":2,"station_id":"MGB","transit":false,"is_transit":false,"i_lat":-6.149769,"line":2},{"i_long":106.827103,"line":2,"station_name":"Sawah Besar","distance":906,"is_transit":false,"transit":false,"i_lat":-6.160725,"station_id":"SW","time":2},{"i_lat":-6.166716,"station_id":"JUA","distance":1149,"transit":false,"station_name":"Juanda","i_long":106.828284,"time":2,"line":2,"is_transit":false},{"station_id":"GDD","i_lat":-6.186295,"station_name":"Gondangdia","i_long":106.832183,"distance":2015,"time":4,"is_transit":false,"line":2,"transit":false},{"station_id":"CKI","i_long":106.840169,"time":3,"line":2,"is_transit":false,"i_lat":-6.198556,"distance":1750,"transit":false,"station_name":"Cikini"},{"station_id":"MRI","time":4,"transit":true,"i_lat":-6.209883,"is_transit":true,"distance":1590,"line":2,"i_long":106.84912,"station_name":"Manggarai"},{"distance":1275,"transit":false,"station_id":"MTR","time":2,"is_transit":false,"i_lat":-6.212485,"i_long":106.858896,"line":1,"station_name":"Matraman"},{"time":8,"distance":1377,"is_transit":false,"transit":false,"station_name":"Jatinegara","i_long":106.86807400000001,"station_id":"JNG","i_lat":-6.215091,"line":1},{"is_transit":false,"station_id":"KLD","distance":3395,"station_name":"Klender","i_long":106.899548,"transit":false,"time":3,"line":1,"i_lat":-6.2135},{"transit":false,"time":2,"distance":3100,"is_transit":false,"station_id":"BUA","i_long":106.922662,"line":1,"i_lat":-6.215568,"station_name":"Buaran"},{"time":1,"i_long":106.939679,"line":1,"transit":false,"station_name":"Klenderbaru","distance":1305,"i_lat":-6.217455,"station_id":"KLDB","is_transit":false},{"distance":1385,"station_name":"Cakung","station_id":"CUK","is_transit":false,"time":8,"i_lat":-6.219053,"i_long":106.951283,"line":1,"transit":false},{"is_transit":false,"time":3,"i_long":106.977657,"line":1,"station_name":"Kranji","i_lat":-6.224515,"transit":false,"distance":3097,"station_id":"KRI"},{"time":4,"i_long":106.997013,"is_transit":false,"i_lat":-6.236616,"line":1,"station_id":"BKS","station_name":"Bekasi","transit":false,"distance":2520},{"time":2,"i_lat":-6.248029,"transit":false,"station_id":"BKST","distance":2368,"i_long":107.016735,"line":1,"is_transit":false,"station_name":"Bekasi Timur"},{"station_id":"TB","line":1,"transit":false,"time":7,"i_long":107.055722,"i_lat":-6.258864,"distance":4460,"station_name":"Tambun","is_transit":false},{"distance":3420,"is_transit":false,"line":1,"transit":false,"station_id":"CIT","i_lat":-6.261877,"time":3,"i_long":107.083084,"station_name":"Cibitung"}],[{"time":0,"i_long":106.816351,"station_name":"Karet","i_lat":-6.20132,"is_transit":false,"transit":false,"station_id":"KAT","distance":0,"line":1},{"i_long":106.819881,"i_lat":-6.201433,"is_transit":false,"line":1,"station_name":"Sudirman Baru","transit":false,"time":1,"station_id":"SUDB","distance":471},{"station_id":"SUD","i_lat":-6.202263,"line":1,"is_transit":false,"time":1,"i_long":106.822649,"transit":false,"station_name":"Sudirman","distance":280},{"time":4,"line":2,"distance":3186,"transit":true,"i_long":106.84912,"is_transit":true,"station_id":"MRI","station_name":"Manggarai","i_lat":-6.209883},{"i_lat":-6.198556,"is_transit":false,"time":4,"line":2,"station_id":"CKI","station_name":"Cikini","distance":1590,"i_long":106.840169,"transit":false},{"time":3,"i_lat":-6.186295,"station_name":"Gondangdia","transit":false,"station_id":"GDD","line":2,"is_transit":false,"distance":1750,"i_long":106.832183},{"station_name":"Juanda","distance":2015,"i_lat":-6.166716,"line":2,"transit":false,"is_transit":false,"station_id":"JUA","time":4,"i_long":106.828284},{"i_lat":-6.160725,"distance":1149,"station_name":"Sawah Besar","i_long":106.827103,"line":2,"time":2,"station_id":"SW","is_transit":false,"transit":false},{"station_name":"Manggabesar","line":2,"time":2,"station_id":"MGB","is_transit":false,"distance":906,"i_lat":-6.149769,"transit":false,"i_long":106.82482},{"line":2,"distance":1080,"station_name":"Jayakarta","is_transit":false,"i_long":106.820901,"time":2,"station_id":"JAY","transit":false,"i_lat":-6.141205},{"line":2,"station_name":"Jakarta Kota","distance":1264,"transit":true,"i_lat":-6.137569,"i_long":106.812439,"time":4,"is_transit":true,"station_id":"JAKK"},{"time":3,"i_long":106.826365,"is_transit":true,"station_name":"Kampung Bandan","transit":true,"i_lat":-6.132549,"line":4,"station_id":"KPB","distance":1364},{"transit":false,"distance":1444,"line":11,"station_id":"RJW","station_name":"Rajawali","time":3,"i_lat":-6.14505,"i_long":106.836569,"is_transit":false},{"is_transit":false,"station_name":"Kemayoran","station_id":"KMO","time":5,"transit":false,"i_lat":-6.161728,"i_long":106.839204,"distance":1901,"line":11},{"i_long":106.84368,"station_name":"Pasar Senen","distance":1436,"i_lat":-6.174784,"line":11,"transit":false,"is_transit":false,"time":4,"station_id":"PSE"},{"transit":false,"line":11,"is_transit":false,"distance":1567,"time":8,"station_id":"GST","i_lat":-6.185975,"i_long":106.850107,"station_name":"Gang Sentiong"},{"station_name":"Kramat","transit":false,"is_transit":false,"station_id":"KMT","line":11,"i_lat":-6.193792,"i_long":106.855437,"time":1,"distance":973},{"time":2,"station_name":"Pondok Jati","distance":1829,"i_long":106.861737,"i_lat":-6.209188,"is_transit":false,"line":11,"station_id":"POK","transit":false},{"line":1,"transit":true,"is_transit":true,"distance":1236,"station_id":"JNG","station_name":"Jatinegara","i_long":106.86807400000001,"time":9,"i_lat":-6.215091},{"station_id":"KLD","distance":3395,"line":1,"time":3,"is_transit":false,"station_name":"Klender","i_lat":-6.2135,"i_long":106.899548,"transit":false},{"is_transit":false,"i_long":106.922662,"time":2,"line":1,"i_lat":-6.215568,"distance":3100,"station_name":"Buaran","transit":false,"station_id":"BUA"},{"is_transit":false,"time":1,"i_long":106.939679,"station_name":"Klenderbaru","transit":false,"station_id":"KLDB","distance":1305,"i_lat":-6.217455,"line":1},{"i_lat":-6.219053,"is_transit":false,"distance":1385,"time":8,"i_long":106.951283,"line":1,"transit":false,"station_id":"CUK","station_name":"Cakung"},{"station_name":"Kranji","time":3,"station_id":"KRI","line":1,"i_long":106.977657,"is_transit":false,"transit":false,"distance":3097,"i_lat":-6.224515},{"i_lat":-6.236616,"station_name":"Bekasi","is_transit":false,"transit":false,"time":4,"distance":2520,"i_long":106.997013,"station_id":"BKS","line":1},{"line":1,"distance":2368,"time":2,"transit":false,"is_transit":false,"station_name":"Bekasi Timur","i_long":107.016735,"station_id":"BKST","i_lat":-6.248029},{"distance":4460,"i_lat":-6.258864,"transit":false,"station_id":"TB","i_long":107.055722,"line":1,"time":7,"station_name":"Tambun","is_transit":false},{"i_long":107.083084,"distance":3420,"transit":false,"time":3,"is_transit":false,"station_id":"CIT","i_lat":-6.261877,"line":1,"station_name":"Cibitung"}]]}