{"data":[[{"i_long":106.816351,"time":0,"distance":0,"transit":false,"i_lat":-6.20132,"station_id":"KAT","is_transit":false,"station_name":"Karet","line":1},{"is_transit":false,"transit":false,"i_lat":-6.185545,"station_id":"THB","station_name":"Tanah Abang","time":5,"i_long":106.811091,"distance":2029,"line":1},{"distance":3632,"is_transit":true,"transit":true,"i_long":106.800832,"time":8,"station_name":"Duri","station_id":"DU","line":1,"i_lat":-6.155215},{"is_transit":false,"time":3,"transit":false,"line":5,"distance":1700,"i_long":106.788277,"station_id":"GRG","i_lat":-6.162021,"station_name":"Grogol"}],[{"is_transit":false,"time":0,"line":1,"station_id":"KAT","transit":false,"distance":0,"station_name":"Karet","i_lat":-6.20132,"i_long":106.816351},{"distance":471,"is_transit":false,"line":1,"i_long":106.819881,"station_id":"SUDB","i_lat":-6.201433,"station_name":"Sudirman Baru","time":1,"transit":false},{"station_name":"Sudirman","is_transit":false,"transit":false,"distance":280,"i_lat":-6.202263,"time":1,"station_id":"SUD","i_long":106.822649,"line":1},{"line":2,"i_long":106.84912,"time":4,"distance":3186,"transit":true,"station_name":"Manggarai","i_lat":-6.209883,"station_id":"MRI","is_transit":true},{"distance":1590,"station_id":"CKI","time":4,"is_transit":false,"i_long":106.840169,"line":2,"transit":false,"i_lat":-6.198556,"station_name":"Cikini"},{"distance":1750,"station_id":"GDD","is_transit":false,"i_lat":-6.186295,"i_long":106.832183,"station_name":"Gondangdia","transit":false,"time":3,"line":2},{"i_lat":-6.166716,"is_transit":false,"station_name":"Juanda","transit":false,"time":4,"distance":2015,"i_long":106.828284,"station_id":"JUA","line":2},{"station_name":"Sawah Besar","is_transit":false,"time":2,"distance":1149,"station_id":"SW","i_lat":-6.160725,"line":2,"i_long":106.827103,"transit":false},{"time":2,"i_lat":-6.149769,"i_long":106.82482,"distance":906,"station_id":"MGB","station_name":"Manggabesar","line":2,"is_transit":false,"transit":false},{"station_name":"Jayakarta","is_transit":false,"i_lat":-6.141205,"i_long":106.820901,"distance":1080,"line":2,"transit":false,"station_id":"JAY","time":2},{"time":4,"station_name":"Jakarta Kota","station_id":"JAKK","line":2,"is_transit":true,"i_long":106.812439,"transit":true,"distance":1264,"i_lat":-6.137569},{"is_transit":true,"time":3,"transit":true,"i_lat":-6.132549,"distance":1364,"station_id":"KPB","i_long":106.826365,"station_name":"Kampung Bandan","line":4},{"station_name":"Angke","distance":4102,"transit":false,"is_transit":false,"i_long":106.79867,"station_id":"AK","line":1,"time":9,"i_lat":-6.144674},{"time":4,"i_long":106.800832,"is_transit":true,"line":1,"i_lat":-6.155215,"station_name":"Duri","station_id":"DU","transit":true,"distance":1230},{"i_lat":-6.162021,"i_long":106.788277,"transit":false,"is_transit":false,"line":5,"station_id":"GRG","distance":1700,"station_name":"Grogol","time":3}],[{"time":0,"is_transit":false,"i_long":106.816351,"station_name":"Karet","distance":0,"i_lat":-6.20132,"station_id":"KAT","transit":false,"line":1},{"transit":false,"i_long":106.819881,"distance":471,"is_transit":false,"station_id":"SUDB","i_lat":-6.201433,"line":1,"time":1,"station_name":"Sudirman Baru"},{"i_long":106.822649,"i_lat":-6.202263,"time":1,"distance":280,"station_name":"Sudirman","transit":false,"station_id":"SUD","is_transit":false,"line":1},{"line":2,"transit":false,"station_id":"MRI","i_long":106.84912,"i_lat":-6.209883,"is_transit":false,"distance":3186,"time":4,"station_name":"Manggarai"},{"station_name":"Matraman","line":1,"time":2,"transit":false,"station_id":"MTR","distance":1275,"i_long":106.858896,"i_lat":-6.212485,"is_transit":false},{"station_id":"JNG","i_long":106.86807400000001,"i_lat":-6.215091,"station_name":"Jatinegara","transit":true,"line":1,"distance":1377,"time":8,"is_transit":true},{"station_id":"POK","line":11,"station_name":"Pondok Jati","transit":false,"is_transit":false,"i_lat":-6.209188,"time":2,"i_long":106.861737,"distance":1236},{"i_long":106.855437,"line":11,"station_name":"Kramat","is_transit":false,"station_id":"KMT","transit":false,"i_lat":-6.193792,"time":2,"distance":1829},{"distance":973,"station_name":"Gang Sentiong","is_transit":false,"transit":false,"i_long":106.850107,"station_id":"GST","time":1,"i_lat":-6.185975,"line":11},{"station_name":"Pasar Senen","distance":1567,"station_id":"PSE","time":8,"i_lat":-6.174784,"is_transit":false,"transit":false,"i_long":106.84368,"line":11},{"station_name":"Kemayoran","transit":false,"time":4,"i_long":106.839204,"line":11,"distance":1436,"i_lat":-6.161728,"station_id":"KMO","is_transit":false},{"i_long":106.836569,"is_transit":false,"time":5,"station_name":"Rajawali","transit":false,"line":11,"distance":1901,"i_lat":-6.14505,"station_id":"RJW"},{"station_name":"Kampung Bandan","i_long":106.826365,"line":4,"transit":true,"i_lat":-6.132549,"is_transit":true,"distance":1444,"time":3,"station_id":"KPB"},{"line":1,"station_name":"Angke","i_long":106.79867,"time":9,"is_transit":false,"transit":false,"station_id":"AK","i_lat":-6.144674,"distance":4102},{"time":4,"line":1,"distance":1230,"station_id":"DU","i_lat":-6.155215,"is_transit":true,"station_name":"Duri","transit":true,"i_long":106.800832},{"station_name":"Grogol","i_long":106.788277,"is_transit":false,"distance":1700,"station_id":"GRG","transit":false,"i_lat":-6.162021,"line":5,"time":3}]]}