{"data":[[{"time":0,"station_id":"KAT","is_transit":false,"i_long":106.816351,"station_name":"Karet","distance":0,"line":1,"transit":false,"i_lat":-6.20132},{"time":5,"is_transit":false,"transit":false,"i_lat":-6.185545,"distance":2029,"station_id":"THB","station_name":"Tanah Abang","i_long":106.811091,"line":1},{"is_transit":false,"station_name":"Duri","distance":3632,"transit":false,"station_id":"DU","line":1,"i_lat":-6.155215,"i_long":106.800832,"time":8}],[{"time":0,"i_lat":-6.20132,"i_long":106.816351,"line":1,"distance":0,"transit":false,"station_id":"KAT","station_name":"Karet","is_transit":false},{"time":1,"transit":false,"i_long":106.819881,"line":1,"is_transit":false,"distance":471,"station_id":"SUDB","i_lat":-6.201433,"station_name":"Sudirman Baru"},{"time":1,"station_name":"Sudirman","is_transit":false,"i_long":106.822649,"distance":280,"i_lat":-6.202263,"transit":false,"station_id":"SUD","line":1},{"station_id":"MRI","transit":true,"line":2,"station_name":"Manggarai","i_long":106.84912,"is_transit":true,"distance":3186,"time":4,"i_lat":-6.209883},{"transit":false,"distance":1590,"i_lat":-6.198556,"time":4,"i_long":106.840169,"line":2,"station_name":"Cikini","is_transit":false,"station_id":"CKI"},{"station_name":"Gondangdia","is_transit":false,"i_lat":-6.186295,"line":2,"i_long":106.832183,"time":3,"distance":1750,"transit":false,"station_id":"GDD"},{"station_id":"JUA","is_transit":false,"station_name":"Juanda","transit":false,"distance":2015,"i_long":106.828284,"i_lat":-6.166716,"line":2,"time":4},{"time":2,"distance":1149,"is_transit":false,"transit":false,"i_lat":-6.160725,"i_long":106.827103,"line":2,"station_id":"SW","station_name":"Sawah Besar"},{"station_name":"Manggabesar","station_id":"MGB","distance":906,"i_lat":-6.149769,"transit":false,"is_transit":false,"i_long":106.82482,"line":2,"time":2},{"time":2,"is_transit":false,"i_lat":-6.141205,"station_id":"JAY","station_name":"Jayakarta","distance":1080,"line":2,"i_long":106.820901,"transit":false},{"station_id":"JAKK","distance":1264,"station_name":"Jakarta Kota","i_long":106.812439,"i_lat":-6.137569,"is_transit":true,"transit":true,"line":2,"time":4},{"line":4,"i_lat":-6.132549,"is_transit":true,"distance":1364,"time":3,"station_name":"Kampung Bandan","transit":true,"i_long":106.826365,"station_id":"KPB"},{"i_lat":-6.144674,"line":1,"i_long":106.79867,"station_name":"Angke","transit":false,"time":9,"station_id":"AK","is_transit":false,"distance":4102},{"time":4,"i_long":106.800832,"station_id":"DU","distance":1230,"i_lat":-6.155215,"station_name":"Duri","is_transit":false,"line":1,"transit":false}],[{"line":1,"i_long":106.816351,"station_id":"KAT","transit":false,"is_transit":false,"i_lat":-6.20132,"time":0,"station_name":"Karet","distance":0},{"station_name":"Sudirman Baru","time":1,"station_id":"SUDB","line":1,"distance":471,"is_transit":false,"transit":false,"i_long":106.819881,"i_lat":-6.201433},{"i_long":106.822649,"distance":280,"station_name":"Sudirman","i_lat":-6.202263,"transit":false,"line":1,"time":1,"is_transit":false,"station_id":"SUD"},{"i_lat":-6.209883,"line":2,"transit":false,"is_transit":false,"station_id":"MRI","time":4,"station_name":"Manggarai","i_long":106.84912,"distance":3186},{"distance":1275,"i_long":106.858896,"time":2,"station_id":"MTR","i_lat":-6.212485,"transit":false,"line":1,"is_transit":false,"station_name":"Matraman"},{"i_lat":-6.215091,"station_name":"Jatinegara","transit":true,"i_long":106.86807400000001,"station_id":"JNG","time":8,"distance":1377,"line":1,"is_transit":true},{"distance":1236,"time":2,"i_long":106.861737,"is_transit":false,"i_lat":-6.209188,"station_name":"Pondok Jati","transit":false,"line":11,"station_id":"POK"},{"station_name":"Kramat","line":11,"is_transit":false,"station_id":"KMT","time":2,"i_lat":-6.193792,"transit":false,"distance":1829,"i_long":106.855437},{"station_id":"GST","distance":973,"time":1,"is_transit":false,"i_lat":-6.185975,"i_long":106.850107,"line":11,"station_name":"Gang Sentiong","transit":false},{"station_name":"Pasar Senen","station_id":"PSE","time":8,"distance":1567,"transit":false,"line":11,"is_transit":false,"i_lat":-6.174784,"i_long":106.84368},{"i_lat":-6.161728,"station_name":"Kemayoran","station_id":"KMO","line":11,"distance":1436,"is_transit":false,"i_long":106.839204,"transit":false,"time":4},{"station_name":"Rajawali","i_lat":-6.14505,"i_long":106.836569,"is_transit":false,"line":11,"distance":1901,"station_id":"RJW","time":5,"transit":false},{"time":3,"i_long":106.826365,"station_id":"KPB","is_transit":true,"i_lat":-6.132549,"line":4,"transit":true,"station_name":"Kampung Bandan","distance":1444},{"line":1,"i_lat":-6.144674,"station_name":"Angke","transit":false,"is_transit":false,"i_long":106.79867,"station_id":"AK","time":9,"distance":4102},{"distance":1230,"transit":false,"i_lat":-6.155215,"station_name":"Duri","station_id":"DU","i_long":106.800832,"line":1,"time":4,"is_transit":false}]]}