{"data":[[{"is_transit":false,"line":1,"station_id":"KAT","transit":false,"i_lat":-6.20132,"station_name":"Karet","time":0,"i_long":106.816351,"distance":0},{"i_long":106.819881,"distance":471,"station_id":"SUDB","is_transit":false,"time":1,"station_name":"Sudirman Baru","transit":false,"i_lat":-6.201433,"line":1},{"station_name":"Sudirman","line":1,"transit":false,"station_id":"SUD","i_lat":-6.202263,"i_long":106.822649,"distance":280,"is_transit":false,"time":1},{"time":4,"i_long":106.84912,"station_name":"Manggarai","transit":true,"station_id":"MRI","line":2,"distance":3186,"is_transit":true,"i_lat":-6.209883},{"i_lat":-6.226659,"i_long":106.857948,"time":4,"is_transit":false,"station_id":"TEB","distance":2610,"transit":false,"line":2,"station_name":"Tebet"},{"station_name":"Cawang","i_lat":-6.242512,"station_id":"CW","time":2,"distance":1230,"transit":false,"is_transit":false,"line":2,"i_long":106.856607},{"i_long":106.85449,"station_id":"DRN","time":3,"is_transit":false,"distance":1546,"station_name":"Duren Kalibata","transit":false,"i_lat":-6.255332,"line":2},{"station_id":"PSMB","distance":824,"time":2,"station_name":"Pasar Minggu Baru","is_transit":false,"i_lat":-6.263214,"line":2,"transit":false,"i_long":106.851577},{"time":2,"distance":2380,"station_name":"Pasar Minggu","transit":false,"station_id":"PSM","i_lat":-6.2842400000000005,"line":2,"is_transit":false,"i_long":106.843999},{"i_lat":-6.3080680000000005,"time":4,"station_id":"TNT","transit":false,"station_name":"Tanjung Barat","distance":2820,"line":2,"is_transit":false,"i_long":106.838896},{"i_lat":-6.330363,"line":2,"transit":false,"i_long":106.832616,"time":3,"distance":2671,"station_id":"LNA","station_name":"Lenteng Agung","is_transit":false},{"is_transit":false,"time":2,"i_lat":-6.339291,"distance":1029,"station_id":"UP","station_name":"Univ. Pancasila","line":2,"i_long":106.834175,"transit":false},{"time":3,"transit":false,"line":2,"station_id":"UI","station_name":"Univ. Indonesia","is_transit":false,"i_lat":-6.360749,"i_long":106.831474,"distance":2264},{"station_name":"Pondok Cina","time":2,"distance":1109,"line":2,"station_id":"POC","is_transit":false,"i_long":106.831114,"transit":false,"i_lat":-6.369073},{"is_transit":false,"station_name":"Depokbaru","distance":2727,"time":4,"station_id":"DPB","i_lat":-6.391065,"line":2,"i_long":106.819451,"transit":false},{"i_long":106.816926,"line":2,"time":3,"distance":1584,"is_transit":false,"i_lat":-6.405256,"transit":false,"station_id":"DP","station_name":"Depok"},{"station_name":"Citayam","i_lat":-6.448811,"is_transit":false,"distance":5084,"transit":false,"station_id":"CTA","i_long":106.800298,"line":2,"time":6},{"distance":5197,"i_lat":-6.493243,"i_long":106.792719,"is_transit":false,"station_id":"BJD","time":5,"station_name":"Bojonggede","transit":false,"line":2},{"is_transit":false,"station_id":"CLT","time":5,"i_long":106.800016,"line":2,"distance":4331,"i_lat":-6.530544,"station_name":"Cilebut","transit":false},{"station_id":"BOO","i_lat":-6.594596,"line":2,"transit":false,"i_long":106.790574,"is_transit":false,"station_name":"Bogor","time":9,"distance":7514}],[{"i_long":106.816351,"line":1,"distance":0,"station_id":"KAT","station_name":"Karet","i_lat":-6.20132,"is_transit":false,"time":0,"transit":false},{"distance":2029,"station_id":"THB","i_lat":-6.185545,"station_name":"Tanah Abang","line":1,"transit":false,"i_long":106.811091,"is_transit":false,"time":5},{"station_name":"Duri","line":1,"transit":false,"time":8,"i_long":106.800832,"distance":3632,"i_lat":-6.155215,"is_transit":false,"station_id":"DU"},{"distance":1230,"transit":false,"is_transit":false,"station_id":"AK","station_name":"Angke","line":1,"time":4,"i_long":106.79867,"i_lat":-6.144674},{"i_lat":-6.132549,"station_name":"Kampung Bandan","distance":4102,"station_id":"KPB","line":4,"is_transit":true,"time":9,"transit":true,"i_long":106.826365},{"transit":true,"i_long":106.812439,"station_name":"Jakarta Kota","distance":1364,"time":3,"i_lat":-6.137569,"line":2,"station_id":"JAKK","is_transit":true},{"is_transit":false,"time":4,"distance":1264,"station_name":"Jayakarta","i_long":106.820901,"station_id":"JAY","i_lat":-6.141205,"transit":false,"line":2},{"transit":false,"distance":1080,"is_transit":false,"i_lat":-6.149769,"station_id":"MGB","line":2,"time":2,"station_name":"Manggabesar","i_long":106.82482},{"station_id":"SW","is_transit":false,"distance":906,"i_long":106.827103,"line":2,"transit":false,"time":2,"i_lat":-6.160725,"station_name":"Sawah Besar"},{"is_transit":false,"i_long":106.828284,"station_name":"Juanda","line":2,"distance":1149,"station_id":"JUA","time":2,"i_lat":-6.166716,"transit":false},{"i_long":106.832183,"line":2,"station_id":"GDD","station_name":"Gondangdia","is_transit":false,"distance":2015,"time":4,"transit":false,"i_lat":-6.186295},{"line":2,"time":3,"distance":1750,"i_long":106.840169,"is_transit":false,"transit":false,"station_name":"Cikini","i_lat":-6.198556,"station_id":"CKI"},{"distance":1590,"time":4,"station_id":"MRI","i_long":106.84912,"line":2,"transit":false,"i_lat":-6.209883,"station_name":"Manggarai","is_transit":false},{"is_transit":false,"time":4,"distance":2610,"station_id":"TEB","i_long":106.857948,"line":2,"transit":false,"i_lat":-6.226659,"station_name":"Tebet"},{"distance":1230,"station_name":"Cawang","time":2,"line":2,"is_transit":false,"station_id":"CW","i_long":106.856607,"i_lat":-6.242512,"transit":false},{"is_transit":false,"i_long":106.85449,"line":2,"time":3,"station_name":"Duren Kalibata","distance":1546,"transit":false,"i_lat":-6.255332,"station_id":"DRN"},{"distance":824,"i_lat":-6.263214,"i_long":106.851577,"is_transit":false,"time":2,"station_name":"Pasar Minggu Baru","station_id":"PSMB","line":2,"transit":false},{"i_long":106.843999,"transit":false,"line":2,"station_name":"Pasar Minggu","time":2,"distance":2380,"is_transit":false,"station_id":"PSM","i_lat":-6.2842400000000005},{"i_lat":-6.3080680000000005,"is_transit":false,"i_long":106.838896,"station_id":"TNT","distance":2820,"transit":false,"station_name":"Tanjung Barat","line":2,"time":4},{"time":3,"distance":2671,"i_lat":-6.330363,"station_id":"LNA","transit":false,"line":2,"is_transit":false,"i_long":106.832616,"station_name":"Lenteng Agung"},{"i_long":106.834175,"transit":false,"time":2,"line":2,"distance":1029,"is_transit":false,"i_lat":-6.339291,"station_name":"Univ. Pancasila","station_id":"UP"},{"is_transit":false,"i_lat":-6.360749,"station_id":"UI","station_name":"Univ. Indonesia","i_long":106.831474,"line":2,"distance":2264,"transit":false,"time":3},{"is_transit":false,"time":2,"station_id":"POC","transit":false,"i_lat":-6.369073,"i_long":106.831114,"distance":1109,"line":2,"station_name":"Pondok Cina"},{"is_transit":false,"distance":2727,"i_long":106.819451,"station_name":"Depokbaru","line":2,"transit":false,"time":4,"i_lat":-6.391065,"station_id":"DPB"},{"line":2,"is_transit":false,"transit":false,"i_long":106.816926,"station_name":"Depok","station_id":"DP","i_lat":-6.405256,"distance":1584,"time":3},{"is_transit":false,"transit":false,"i_lat":-6.448811,"time":6,"line":2,"distance":5084,"station_id":"CTA","i_long":106.800298,"station_name":"Citayam"},{"station_name":"Bojonggede","transit":false,"distance":5197,"i_lat":-6.493243,"station_id":"BJD","is_transit":false,"line":2,"i_long":106.792719,"time":5},{"distance":4331,"station_name":"Cilebut","is_transit":false,"time":5,"transit":false,"i_long":106.800016,"i_lat":-6.530544,"station_id":"CLT","line":2},{"line":2,"distance":7514,"station_name":"Bogor","time":9,"is_transit":false,"transit":false,"station_id":"BOO","i_lat":-6.594596,"i_long":106.790574}],[{"is_transit":false,"station_id":"KAT","transit":false,"time":0,"i_long":106.816351,"line":1,"station_name":"Karet","distance":0,"i_lat":-6.20132},{"distance":2029,"station_id":"THB","is_transit":false,"i_lat":-6.185545,"i_long":106.811091,"line":1,"transit":false,"time":5,"station_name":"Tanah Abang"},{"station_id":"DU","time":8,"station_name":"Duri","distance":3632,"transit":false,"is_transit":false,"i_long":106.800832,"i_lat":-6.155215,"line":1},{"time":4,"transit":false,"i_lat":-6.144674,"line":1,"station_name":"Angke","is_transit":false,"distance":1230,"station_id":"AK","i_long":106.79867},{"station_id":"KPB","distance":4102,"i_lat":-6.132549,"is_transit":true,"station_name":"Kampung Bandan","transit":true,"line":4,"time":9,"i_long":106.826365},{"station_id":"RJW","distance":1444,"i_lat":-6.14505,"line":11,"transit":false,"time":3,"station_name":"Rajawali","i_long":106.836569,"is_transit":false},{"station_name":"Kemayoran","transit":false,"distance":1901,"line":11,"i_lat":-6.161728,"time":5,"is_transit":false,"station_id":"KMO","i_long":106.839204},{"distance":1436,"i_long":106.84368,"is_transit":false,"i_lat":-6.174784,"station_name":"Pasar Senen","transit":false,"station_id":"PSE","line":11,"time":4},{"is_transit":false,"transit":false,"station_id":"GST","line":11,"i_lat":-6.185975,"station_name":"Gang Sentiong","time":8,"distance":1567,"i_long":106.850107},{"distance":973,"station_name":"Kramat","time":1,"transit":false,"station_id":"KMT","i_long":106.855437,"is_transit":false,"i_lat":-6.193792,"line":11},{"i_lat":-6.209188,"is_transit":false,"i_long":106.861737,"line":11,"time":2,"station_id":"POK","distance":1829,"transit":false,"station_name":"Pondok Jati"},{"distance":1236,"i_long":106.86807400000001,"station_name":"Jatinegara","transit":true,"station_id":"JNG","i_lat":-6.215091,"is_transit":true,"time":9,"line":1},{"is_transit":false,"transit":false,"station_id":"MTR","line":1,"i_lat":-6.212485,"i_long":106.858896,"station_name":"Matraman","time":2,"distance":1377},{"time":2,"distance":1275,"line":2,"i_long":106.84912,"station_id":"MRI","transit":true,"i_lat":-6.209883,"is_transit":true,"station_name":"Manggarai"},{"line":2,"is_transit":false,"i_long":106.857948,"time":4,"distance":2610,"station_name":"Tebet","transit":false,"i_lat":-6.226659,"station_id":"TEB"},{"time":2,"is_transit":false,"i_lat":-6.242512,"station_name":"Cawang","i_long":106.856607,"station_id":"CW","line":2,"distance":1230,"transit":false},{"station_name":"Duren Kalibata","transit":false,"time":3,"i_lat":-6.255332,"distance":1546,"line":2,"station_id":"DRN","is_transit":false,"i_long":106.85449},{"i_long":106.851577,"line":2,"time":2,"distance":824,"station_id":"PSMB","transit":false,"is_transit":false,"station_name":"Pasar Minggu Baru","i_lat":-6.263214},{"time":2,"distance":2380,"station_id":"PSM","i_long":106.843999,"is_transit":false,"transit":false,"station_name":"Pasar Minggu","line":2,"i_lat":-6.2842400000000005},{"transit":false,"distance":2820,"station_id":"TNT","time":4,"station_name":"Tanjung Barat","i_lat":-6.3080680000000005,"is_transit":false,"i_long":106.838896,"line":2},{"i_lat":-6.330363,"transit":false,"station_name":"Lenteng Agung","distance":2671,"i_long":106.832616,"is_transit":false,"station_id":"LNA","line":2,"time":3},{"i_lat":-6.339291,"station_name":"Univ. Pancasila","distance":1029,"line":2,"transit":false,"station_id":"UP","i_long":106.834175,"time":2,"is_transit":false},{"distance":2264,"i_lat":-6.360749,"time":3,"i_long":106.831474,"is_transit":false,"station_name":"Univ. Indonesia","transit":false,"station_id":"UI","line":2},{"time":2,"station_name":"Pondok Cina","is_transit":false,"transit":false,"i_lat":-6.369073,"distance":1109,"station_id":"POC","i_long":106.831114,"line":2},{"transit":false,"distance":2727,"time":4,"station_id":"DPB","i_lat":-6.391065,"station_name":"Depokbaru","line":2,"is_transit":false,"i_long":106.819451},{"station_name":"Depok","is_transit":false,"transit":false,"time":3,"i_lat":-6.405256,"i_long":106.816926,"distance":1584,"station_id":"DP","line":2},{"line":2,"is_transit":false,"transit":false,"station_name":"Citayam","time":6,"distance":5084,"i_lat":-6.448811,"i_long":106.800298,"station_id":"CTA"},{"station_name":"Bojonggede","time":5,"transit":false,"i_lat":-6.493243,"i_long":106.792719,"line":2,"station_id":"BJD","distance":5197,"is_transit":false},{"station_id":"CLT","transit":false,"is_transit":false,"i_lat":-6.530544,"distance":4331,"time":5,"i_long":106.800016,"station_name":"Cilebut","line":2},{"station_name":"Bogor","station_id":"BOO","transit":false,"line":2,"is_transit":false,"distance":7514,"i_long":106.790574,"time":9,"i_lat":-6.594596}]]}