{"data":[[{"time":0,"transit":false,"i_long":106.816351,"distance":0,"station_id":"KAT","is_transit":false,"i_lat":-6.20132,"line":1,"station_name":"Karet"},{"distance":471,"time":1,"station_name":"Sudirman Baru","i_long":106.819881,"station_id":"SUDB","i_lat":-6.201433,"is_transit":false,"transit":false,"line":1},{"transit":false,"station_name":"Sudirman","i_lat":-6.202263,"station_id":"SUD","i_long":106.822649,"time":1,"distance":280,"is_transit":false,"line":1},{"station_name":"Manggarai","time":4,"distance":3186,"transit":true,"i_lat":-6.209883,"line":0,"is_transit":true,"i_long":106.84912,"station_id":"MRI"},{"time":4,"distance":2610,"i_long":106.857948,"transit":false,"line":2,"i_lat":-6.226659,"station_id":"TEB","station_name":"Tebet","is_transit":false},{"station_name":"Cawang","line":0,"i_long":106.856607,"time":2,"distance":1230,"station_id":"CW","transit":false,"is_transit":false,"i_lat":-6.242512},{"station_id":"DRN","station_name":"Duren Kalibata","is_transit":false,"i_lat":-6.255332,"i_long":106.85449,"transit":false,"distance":1546,"line":0,"time":3},{"time":2,"station_id":"PSMB","i_lat":-6.263214,"i_long":106.851577,"line":2,"station_name":"Pasar Minggu Baru","transit":false,"distance":824,"is_transit":false},{"line":2,"is_transit":false,"station_name":"Pasar Minggu","i_long":106.843999,"i_lat":-6.2842400000000005,"time":2,"transit":false,"station_id":"PSM","distance":2380},{"line":2,"station_name":"Tanjung Barat","distance":2820,"is_transit":false,"transit":false,"i_lat":-6.3080680000000005,"station_id":"TNT","time":4,"i_long":106.838896},{"is_transit":false,"transit":false,"time":3,"station_id":"LNA","distance":2671,"i_long":106.832616,"line":2,"i_lat":-6.330363,"station_name":"Lenteng Agung"},{"transit":false,"station_name":"Univ. Pancasila","time":2,"line":2,"i_lat":-6.339291,"i_long":106.834175,"distance":1029,"station_id":"UP","is_transit":false},{"i_long":106.831474,"station_name":"Univ. Indonesia","line":2,"transit":false,"is_transit":false,"station_id":"UI","distance":2264,"time":3,"i_lat":-6.360749},{"station_name":"Pondok Cina","is_transit":false,"line":2,"station_id":"POC","i_lat":-6.369073,"i_long":106.831114,"time":2,"transit":false,"distance":1109},{"i_lat":-6.391065,"i_long":106.819451,"distance":2727,"station_name":"Depokbaru","is_transit":false,"line":0,"transit":false,"time":4,"station_id":"DPB"}],[{"is_transit":false,"i_lat":-6.20132,"station_id":"KAT","transit":false,"station_name":"Karet","time":0,"distance":0,"i_long":106.816351,"line":1},{"is_transit":true,"time":5,"line":1,"distance":2029,"i_lat":-6.185545,"station_name":"Tanah Abang","transit":false,"i_long":106.811091,"station_id":"THB"},{"is_transit":true,"distance":3632,"i_long":106.800832,"time":8,"i_lat":-6.155215,"station_id":"DU","station_name":"Duri","line":1,"transit":true},{"transit":false,"i_long":106.79867,"is_transit":false,"station_id":"AK","time":4,"distance":1230,"station_name":"Angke","i_lat":-6.144674,"line":0},{"i_lat":-6.132549,"time":9,"transit":false,"i_long":106.826365,"line":0,"distance":4102,"station_id":"KPB","is_transit":true,"station_name":"Kampung Bandan"},{"station_name":"Jakarta Kota","time":3,"i_long":106.812439,"is_transit":true,"station_id":"JAKK","transit":true,"distance":1364,"i_lat":-6.137569,"line":0},{"is_transit":false,"i_lat":-6.141205,"time":4,"distance":1264,"station_name":"Jayakarta","transit":false,"station_id":"JAY","line":7,"i_long":106.820901},{"is_transit":false,"i_long":106.82482,"distance":1080,"transit":false,"time":2,"i_lat":-6.149769,"line":2,"station_id":"MGB","station_name":"Manggabesar"},{"i_long":106.827103,"time":2,"station_name":"Sawah Besar","is_transit":false,"i_lat":-6.160725,"distance":906,"line":2,"station_id":"SW","transit":false},{"station_id":"JUA","station_name":"Juanda","is_transit":false,"time":2,"line":2,"i_long":106.828284,"i_lat":-6.166716,"distance":1149,"transit":false},{"time":4,"distance":2015,"station_name":"Gondangdia","transit":false,"station_id":"GDD","i_lat":-6.186295,"i_long":106.832183,"is_transit":false,"line":2},{"transit":false,"i_lat":-6.198556,"distance":1750,"station_id":"CKI","station_name":"Cikini","line":0,"is_transit":false,"time":3,"i_long":106.840169},{"distance":1590,"is_transit":true,"time":4,"i_lat":-6.209883,"line":0,"station_name":"Manggarai","station_id":"MRI","transit":true,"i_long":106.84912},{"i_long":106.857948,"time":4,"distance":2610,"is_transit":false,"station_name":"Tebet","station_id":"TEB","line":2,"i_lat":-6.226659,"transit":false},{"time":2,"station_id":"CW","transit":false,"distance":1230,"i_lat":-6.242512,"line":0,"is_transit":false,"i_long":106.856607,"station_name":"Cawang"},{"station_name":"Duren Kalibata","i_lat":-6.255332,"is_transit":false,"i_long":106.85449,"distance":1546,"station_id":"DRN","transit":false,"time":3,"line":0},{"time":2,"distance":824,"i_lat":-6.263214,"line":2,"i_long":106.851577,"is_transit":false,"station_id":"PSMB","transit":false,"station_name":"Pasar Minggu Baru"},{"transit":false,"station_id":"PSM","station_name":"Pasar Minggu","i_long":106.843999,"distance":2380,"line":2,"i_lat":-6.2842400000000005,"is_transit":false,"time":2},{"line":2,"station_id":"TNT","is_transit":false,"distance":2820,"i_lat":-6.3080680000000005,"transit":false,"time":4,"i_long":106.838896,"station_name":"Tanjung Barat"},{"time":3,"i_long":106.832616,"is_transit":false,"distance":2671,"transit":false,"i_lat":-6.330363,"station_id":"LNA","line":2,"station_name":"Lenteng Agung"},{"i_lat":-6.339291,"distance":1029,"is_transit":false,"time":2,"transit":false,"line":2,"station_id":"UP","i_long":106.834175,"station_name":"Univ. Pancasila"},{"distance":2264,"station_id":"UI","line":2,"i_long":106.831474,"time":3,"transit":false,"is_transit":false,"station_name":"Univ. Indonesia","i_lat":-6.360749},{"station_id":"POC","is_transit":false,"transit":false,"distance":1109,"i_lat":-6.369073,"station_name":"Pondok Cina","time":2,"i_long":106.831114,"line":2},{"i_long":106.819451,"line":0,"is_transit":false,"time":4,"station_name":"Depokbaru","distance":2727,"transit":false,"i_lat":-6.391065,"station_id":"DPB"}],[{"is_transit":false,"distance":0,"i_lat":-6.20132,"line":1,"i_long":106.816351,"station_name":"Karet","station_id":"KAT","time":0,"transit":false},{"transit":false,"is_transit":true,"station_id":"THB","i_lat":-6.185545,"line":1,"distance":2029,"i_long":106.811091,"station_name":"Tanah Abang","time":5},{"station_id":"DU","station_name":"Duri","distance":3632,"transit":true,"i_lat":-6.155215,"line":1,"is_transit":true,"time":8,"i_long":106.800832},{"station_id":"AK","i_long":106.79867,"time":4,"line":0,"is_transit":false,"distance":1230,"station_name":"Angke","i_lat":-6.144674,"transit":false},{"i_long":106.826365,"line":0,"distance":4102,"i_lat":-6.132549,"station_id":"KPB","time":9,"station_name":"Kampung Bandan","is_transit":true,"transit":true},{"station_name":"Rajawali","time":3,"transit":false,"is_transit":false,"distance":1444,"station_id":"RJW","i_lat":-6.14505,"line":11,"i_long":106.836569},{"station_name":"Kemayoran","time":5,"is_transit":false,"i_lat":-6.161728,"distance":1901,"transit":false,"line":11,"station_id":"KMO","i_long":106.839204},{"time":4,"line":11,"station_id":"PSE","station_name":"Pasar Senen","i_lat":-6.174784,"transit":false,"i_long":106.84368,"distance":1436,"is_transit":false},{"station_name":"Gang Sentiong","time":8,"line":11,"i_long":106.850107,"transit":false,"i_lat":-6.185975,"is_transit":false,"distance":1567,"station_id":"GST"},{"distance":973,"i_long":106.855437,"station_id":"KMT","is_transit":false,"transit":false,"i_lat":-6.193792,"line":11,"station_name":"Kramat","time":1},{"distance":1829,"station_id":"POK","i_lat":-6.209188,"is_transit":false,"transit":false,"line":11,"station_name":"Pondok Jati","i_long":106.861737,"time":2},{"distance":1236,"time":9,"transit":true,"line":0,"station_name":"Jatinegara","is_transit":true,"i_lat":-6.215091,"i_long":106.86807400000001,"station_id":"JNG"},{"i_lat":-6.212485,"station_name":"Matraman","distance":1377,"station_id":"MTR","time":2,"transit":false,"line":1,"is_transit":false,"i_long":106.858896},{"distance":1275,"i_long":106.84912,"is_transit":true,"i_lat":-6.209883,"station_id":"MRI","station_name":"Manggarai","transit":true,"time":2,"line":0},{"station_name":"Tebet","i_long":106.857948,"station_id":"TEB","is_transit":false,"line":2,"distance":2610,"transit":false,"time":4,"i_lat":-6.226659},{"line":0,"time":2,"i_long":106.856607,"station_id":"CW","i_lat":-6.242512,"is_transit":false,"station_name":"Cawang","distance":1230,"transit":false},{"i_long":106.85449,"time":3,"station_name":"Duren Kalibata","line":0,"station_id":"DRN","transit":false,"is_transit":false,"i_lat":-6.255332,"distance":1546},{"transit":false,"is_transit":false,"time":2,"distance":824,"station_id":"PSMB","line":2,"station_name":"Pasar Minggu Baru","i_lat":-6.263214,"i_long":106.851577},{"is_transit":false,"i_lat":-6.2842400000000005,"i_long":106.843999,"station_name":"Pasar Minggu","distance":2380,"time":2,"line":2,"station_id":"PSM","transit":false},{"station_name":"Tanjung Barat","is_transit":false,"time":4,"transit":false,"line":2,"station_id":"TNT","i_lat":-6.3080680000000005,"distance":2820,"i_long":106.838896},{"transit":false,"time":3,"i_lat":-6.330363,"line":2,"station_name":"Lenteng Agung","is_transit":false,"distance":2671,"station_id":"LNA","i_long":106.832616},{"time":2,"transit":false,"line":2,"is_transit":false,"i_lat":-6.339291,"distance":1029,"i_long":106.834175,"station_id":"UP","station_name":"Univ. Pancasila"},{"distance":2264,"i_lat":-6.360749,"i_long":106.831474,"station_name":"Univ. Indonesia","is_transit":false,"line":2,"transit":false,"time":3,"station_id":"UI"},{"time":2,"station_name":"Pondok Cina","station_id":"POC","i_lat":-6.369073,"i_long":106.831114,"line":2,"distance":1109,"is_transit":false,"transit":false},{"is_transit":false,"time":4,"transit":false,"station_name":"Depokbaru","station_id":"DPB","distance":2727,"i_lat":-6.391065,"i_long":106.819451,"line":0}]]}