{"data":[[{"station_name":"Karet","station_id":"KAT","i_lat":-6.20132,"time":0,"i_long":106.816351,"distance":0,"transit":false,"is_transit":false,"line":1},{"i_long":106.819881,"line":1,"station_id":"SUDB","transit":false,"station_name":"Sudirman Baru","i_lat":-6.201433,"distance":471,"time":1,"is_transit":false},{"time":1,"transit":false,"station_id":"SUD","line":1,"i_lat":-6.202263,"is_transit":false,"distance":280,"i_long":106.822649,"station_name":"Sudirman"},{"time":4,"i_lat":-6.209883,"distance":3186,"i_long":106.84912,"line":2,"station_name":"Manggarai","transit":false,"is_transit":false,"station_id":"MRI"},{"i_lat":-6.212485,"transit":false,"i_long":106.858896,"distance":1275,"station_name":"Matraman","station_id":"MTR","time":2,"line":1,"is_transit":false}],[{"line":1,"is_transit":false,"station_name":"Karet","station_id":"KAT","distance":0,"i_lat":-6.20132,"time":0,"transit":false,"i_long":106.816351},{"station_id":"THB","distance":2029,"i_long":106.811091,"station_name":"Tanah Abang","transit":false,"line":1,"time":5,"is_transit":false,"i_lat":-6.185545},{"i_lat":-6.155215,"line":1,"distance":3632,"is_transit":false,"station_id":"DU","station_name":"Duri","transit":false,"time":8,"i_long":106.800832},{"i_lat":-6.144674,"time":4,"line":1,"transit":false,"distance":1230,"station_id":"AK","station_name":"Angke","is_transit":false,"i_long":106.79867},{"line":4,"is_transit":true,"transit":true,"i_lat":-6.132549,"distance":4102,"station_id":"KPB","station_name":"Kampung Bandan","time":9,"i_long":106.826365},{"line":11,"station_id":"RJW","i_lat":-6.14505,"i_long":106.836569,"time":3,"station_name":"Rajawali","transit":false,"distance":1444,"is_transit":false},{"station_id":"KMO","time":5,"distance":1901,"i_long":106.839204,"line":11,"station_name":"Kemayoran","transit":false,"is_transit":false,"i_lat":-6.161728},{"station_name":"Pasar Senen","time":4,"i_lat":-6.174784,"i_long":106.84368,"line":11,"distance":1436,"is_transit":false,"station_id":"PSE","transit":false},{"distance":1567,"line":11,"i_lat":-6.185975,"station_name":"Gang Sentiong","transit":false,"station_id":"GST","time":8,"is_transit":false,"i_long":106.850107},{"distance":973,"is_transit":false,"transit":false,"station_name":"Kramat","time":1,"i_lat":-6.193792,"i_long":106.855437,"station_id":"KMT","line":11},{"is_transit":false,"station_name":"Pondok Jati","station_id":"POK","transit":false,"distance":1829,"i_lat":-6.209188,"i_long":106.861737,"line":11,"time":2},{"distance":1236,"station_id":"JNG","station_name":"Jatinegara","transit":true,"time":9,"is_transit":true,"i_lat":-6.215091,"i_long":106.86807400000001,"line":1},{"i_long":106.858896,"distance":1377,"i_lat":-6.212485,"station_name":"Matraman","is_transit":false,"transit":false,"time":2,"station_id":"MTR","line":1}],[{"transit":false,"time":0,"i_long":106.816351,"distance":0,"station_name":"Karet","line":1,"i_lat":-6.20132,"is_transit":false,"station_id":"KAT"},{"i_long":106.811091,"i_lat":-6.185545,"station_name":"Tanah Abang","station_id":"THB","transit":false,"line":1,"time":5,"distance":2029,"is_transit":false},{"station_id":"DU","transit":false,"line":1,"station_name":"Duri","i_long":106.800832,"time":8,"distance":3632,"i_lat":-6.155215,"is_transit":false},{"i_long":106.79867,"transit":false,"line":1,"station_name":"Angke","i_lat":-6.144674,"station_id":"AK","time":4,"distance":1230,"is_transit":false},{"i_lat":-6.132549,"distance":4102,"is_transit":true,"time":9,"i_long":106.826365,"station_id":"KPB","line":4,"transit":true,"station_name":"Kampung Bandan"},{"time":3,"i_long":106.812439,"station_name":"Jakarta Kota","transit":true,"is_transit":true,"station_id":"JAKK","i_lat":-6.137569,"line":2,"distance":1364},{"line":2,"i_lat":-6.141205,"i_long":106.820901,"is_transit":false,"station_id":"JAY","distance":1264,"transit":false,"time":4,"station_name":"Jayakarta"},{"station_name":"Manggabesar","is_transit":false,"line":2,"i_long":106.82482,"transit":false,"distance":1080,"i_lat":-6.149769,"time":2,"station_id":"MGB"},{"time":2,"distance":906,"i_long":106.827103,"is_transit":false,"transit":false,"station_id":"SW","line":2,"station_name":"Sawah Besar","i_lat":-6.160725},{"distance":1149,"transit":false,"station_name":"Juanda","station_id":"JUA","i_long":106.828284,"time":2,"i_lat":-6.166716,"line":2,"is_transit":false},{"transit":false,"station_id":"GDD","i_lat":-6.186295,"is_transit":false,"station_name":"Gondangdia","time":4,"distance":2015,"i_long":106.832183,"line":2},{"station_name":"Cikini","time":3,"i_lat":-6.198556,"i_long":106.840169,"station_id":"CKI","distance":1750,"line":2,"transit":false,"is_transit":false},{"i_long":106.84912,"line":2,"i_lat":-6.209883,"time":4,"station_name":"Manggarai","transit":true,"station_id":"MRI","is_transit":true,"distance":1590},{"i_long":106.858896,"station_id":"MTR","time":2,"distance":1275,"line":1,"is_transit":false,"station_name":"Matraman","i_lat":-6.212485,"transit":false}],[{"transit":false,"distance":0,"i_long":106.816351,"is_transit":false,"station_id":"KAT","station_name":"Karet","time":0,"i_lat":-6.20132,"line":1},{"is_transit":false,"transit":false,"station_name":"Sudirman Baru","i_long":106.819881,"line":1,"time":1,"distance":471,"i_lat":-6.201433,"station_id":"SUDB"},{"is_transit":false,"distance":280,"i_lat":-6.202263,"i_long":106.822649,"line":1,"station_name":"Sudirman","time":1,"transit":false,"station_id":"SUD"},{"is_transit":true,"i_lat":-6.209883,"station_name":"Manggarai","station_id":"MRI","transit":true,"i_long":106.84912,"distance":3186,"line":2,"time":4},{"i_long":106.840169,"distance":1590,"transit":false,"line":2,"time":4,"station_id":"CKI","station_name":"Cikini","is_transit":false,"i_lat":-6.198556},{"station_name":"Gondangdia","i_long":106.832183,"time":3,"transit":false,"station_id":"GDD","is_transit":false,"i_lat":-6.186295,"distance":1750,"line":2},{"time":4,"line":2,"i_lat":-6.166716,"distance":2015,"station_name":"Juanda","i_long":106.828284,"station_id":"JUA","is_transit":false,"transit":false},{"line":2,"station_id":"SW","i_lat":-6.160725,"i_long":106.827103,"transit":false,"time":2,"is_transit":false,"distance":1149,"station_name":"Sawah Besar"},{"transit":false,"is_transit":false,"station_name":"Manggabesar","station_id":"MGB","distance":906,"i_lat":-6.149769,"line":2,"i_long":106.82482,"time":2},{"station_id":"JAY","distance":1080,"i_long":106.820901,"i_lat":-6.141205,"time":2,"line":2,"is_transit":false,"station_name":"Jayakarta","transit":false},{"time":4,"distance":1264,"i_lat":-6.137569,"is_transit":true,"i_long":106.812439,"line":2,"transit":true,"station_id":"JAKK","station_name":"Jakarta Kota"},{"transit":true,"time":3,"is_transit":true,"i_lat":-6.132549,"i_long":106.826365,"station_id":"KPB","line":4,"station_name":"Kampung Bandan","distance":1364},{"station_id":"RJW","transit":false,"time":3,"distance":1444,"station_name":"Rajawali","i_long":106.836569,"i_lat":-6.14505,"line":11,"is_transit":false},{"distance":1901,"line":11,"station_name":"Kemayoran","is_transit":false,"station_id":"KMO","i_lat":-6.161728,"i_long":106.839204,"transit":false,"time":5},{"i_lat":-6.174784,"i_long":106.84368,"station_id":"PSE","is_transit":false,"station_name":"Pasar Senen","transit":false,"distance":1436,"time":4,"line":11},{"i_lat":-6.185975,"i_long":106.850107,"transit":false,"time":8,"is_transit":false,"distance":1567,"line":11,"station_name":"Gang Sentiong","station_id":"GST"},{"station_id":"KMT","distance":973,"is_transit":false,"transit":false,"i_long":106.855437,"i_lat":-6.193792,"line":11,"station_name":"Kramat","time":1},{"transit":false,"station_id":"POK","is_transit":false,"station_name":"Pondok Jati","i_lat":-6.209188,"line":11,"distance":1829,"i_long":106.861737,"time":2},{"distance":1236,"line":1,"is_transit":true,"transit":true,"i_lat":-6.215091,"station_name":"Jatinegara","station_id":"JNG","time":9,"i_long":106.86807400000001},{"station_name":"Matraman","i_long":106.858896,"station_id":"MTR","time":2,"line":1,"i_lat":-6.212485,"distance":1377,"is_transit":false,"transit":false}]]}