{"data":[[{"i_long":106.816351,"line":1,"time":0,"station_id":"KAT","distance":0,"station_name":"Karet","transit":false,"is_transit":false,"i_lat":-6.20132},{"i_lat":-6.201433,"station_name":"Sudirman Baru","i_long":106.819881,"station_id":"SUDB","is_transit":false,"line":1,"distance":471,"transit":false,"time":1},{"time":1,"line":1,"i_lat":-6.202263,"station_name":"Sudirman","distance":280,"station_id":"SUD","transit":false,"is_transit":false,"i_long":106.822649},{"station_id":"MRI","is_transit":true,"time":4,"distance":3186,"line":2,"i_lat":-6.209883,"i_long":106.84912,"transit":true,"station_name":"Manggarai"},{"distance":2610,"is_transit":false,"time":4,"transit":false,"station_name":"Tebet","i_lat":-6.226659,"line":2,"i_long":106.857948,"station_id":"TEB"},{"i_lat":-6.242512,"station_id":"CW","time":2,"distance":1230,"station_name":"Cawang","transit":false,"i_long":106.856607,"line":2,"is_transit":false},{"line":2,"distance":1546,"transit":false,"station_name":"Duren Kalibata","time":3,"is_transit":false,"station_id":"DRN","i_lat":-6.255332,"i_long":106.85449},{"station_id":"PSMB","distance":824,"transit":false,"station_name":"Pasar Minggu Baru","i_lat":-6.263214,"line":2,"is_transit":false,"i_long":106.851577,"time":2},{"line":2,"time":2,"distance":2380,"station_id":"PSM","transit":false,"is_transit":false,"i_lat":-6.2842400000000005,"i_long":106.843999,"station_name":"Pasar Minggu"},{"station_name":"Tanjung Barat","i_lat":-6.3080680000000005,"is_transit":false,"time":4,"transit":false,"i_long":106.838896,"station_id":"TNT","distance":2820,"line":2},{"i_lat":-6.330363,"i_long":106.832616,"station_name":"Lenteng Agung","transit":false,"time":3,"distance":2671,"line":2,"station_id":"LNA","is_transit":false},{"is_transit":false,"i_long":106.834175,"i_lat":-6.339291,"station_id":"UP","station_name":"Univ. Pancasila","transit":false,"line":2,"distance":1029,"time":2},{"time":3,"i_long":106.831474,"station_id":"UI","transit":false,"station_name":"Univ. Indonesia","i_lat":-6.360749,"is_transit":false,"line":2,"distance":2264},{"i_lat":-6.369073,"is_transit":false,"distance":1109,"station_id":"POC","line":2,"station_name":"Pondok Cina","transit":false,"i_long":106.831114,"time":2},{"station_id":"DPB","i_lat":-6.391065,"is_transit":false,"time":4,"station_name":"Depokbaru","i_long":106.819451,"line":2,"distance":2727,"transit":false},{"time":3,"station_id":"DP","distance":1584,"i_lat":-6.405256,"station_name":"Depok","i_long":106.816926,"line":2,"is_transit":false,"transit":false},{"time":6,"i_lat":-6.448811,"line":2,"distance":5084,"station_name":"Citayam","transit":false,"i_long":106.800298,"station_id":"CTA","is_transit":false},{"line":2,"time":5,"station_name":"Bojonggede","station_id":"BJD","is_transit":false,"transit":false,"i_long":106.792719,"distance":5197,"i_lat":-6.493243},{"i_lat":-6.530544,"is_transit":false,"distance":4331,"station_name":"Cilebut","station_id":"CLT","transit":false,"time":5,"i_long":106.800016,"line":2},{"time":9,"station_name":"Bogor","distance":7514,"line":2,"station_id":"BOO","i_lat":-6.594596,"is_transit":false,"transit":false,"i_long":106.790574}],[{"station_id":"KAT","is_transit":false,"i_lat":-6.20132,"i_long":106.816351,"distance":0,"station_name":"Karet","line":1,"transit":false,"time":0},{"is_transit":false,"station_id":"THB","transit":false,"station_name":"Tanah Abang","time":5,"distance":2029,"i_lat":-6.185545,"i_long":106.811091,"line":1},{"is_transit":false,"i_long":106.800832,"time":8,"i_lat":-6.155215,"station_id":"DU","distance":3632,"station_name":"Duri","transit":false,"line":1},{"i_long":106.79867,"station_id":"AK","station_name":"Angke","line":1,"is_transit":false,"distance":1230,"time":4,"i_lat":-6.144674,"transit":false},{"station_id":"KPB","time":9,"i_long":106.826365,"distance":4102,"station_name":"Kampung Bandan","is_transit":true,"transit":true,"i_lat":-6.132549,"line":4},{"station_name":"Jakarta Kota","transit":true,"station_id":"JAKK","distance":1364,"line":2,"is_transit":true,"time":3,"i_lat":-6.137569,"i_long":106.812439},{"line":2,"time":4,"distance":1264,"station_name":"Jayakarta","transit":false,"i_long":106.820901,"is_transit":false,"i_lat":-6.141205,"station_id":"JAY"},{"i_lat":-6.149769,"i_long":106.82482,"station_name":"Manggabesar","distance":1080,"line":2,"transit":false,"station_id":"MGB","is_transit":false,"time":2},{"i_long":106.827103,"line":2,"is_transit":false,"transit":false,"time":2,"station_id":"SW","station_name":"Sawah Besar","distance":906,"i_lat":-6.160725},{"i_lat":-6.166716,"line":2,"station_id":"JUA","transit":false,"time":2,"is_transit":false,"distance":1149,"station_name":"Juanda","i_long":106.828284},{"station_name":"Gondangdia","line":2,"i_long":106.832183,"transit":false,"distance":2015,"is_transit":false,"station_id":"GDD","time":4,"i_lat":-6.186295},{"station_id":"CKI","station_name":"Cikini","line":2,"i_long":106.840169,"is_transit":false,"distance":1750,"i_lat":-6.198556,"time":3,"transit":false},{"distance":1590,"transit":false,"is_transit":false,"station_id":"MRI","time":4,"station_name":"Manggarai","i_lat":-6.209883,"i_long":106.84912,"line":2},{"is_transit":false,"station_id":"TEB","transit":false,"distance":2610,"i_lat":-6.226659,"station_name":"Tebet","i_long":106.857948,"line":2,"time":4},{"is_transit":false,"station_name":"Cawang","transit":false,"distance":1230,"i_lat":-6.242512,"time":2,"station_id":"CW","i_long":106.856607,"line":2},{"line":2,"time":3,"station_id":"DRN","i_lat":-6.255332,"i_long":106.85449,"station_name":"Duren Kalibata","transit":false,"is_transit":false,"distance":1546},{"station_id":"PSMB","time":2,"transit":false,"i_long":106.851577,"line":2,"is_transit":false,"distance":824,"station_name":"Pasar Minggu Baru","i_lat":-6.263214},{"is_transit":false,"time":2,"distance":2380,"i_lat":-6.2842400000000005,"i_long":106.843999,"station_id":"PSM","transit":false,"station_name":"Pasar Minggu","line":2},{"transit":false,"station_name":"Tanjung Barat","station_id":"TNT","i_lat":-6.3080680000000005,"i_long":106.838896,"line":2,"distance":2820,"is_transit":false,"time":4},{"time":3,"station_name":"Lenteng Agung","station_id":"LNA","is_transit":false,"distance":2671,"transit":false,"i_lat":-6.330363,"line":2,"i_long":106.832616},{"transit":false,"station_name":"Univ. Pancasila","time":2,"is_transit":false,"i_lat":-6.339291,"i_long":106.834175,"station_id":"UP","distance":1029,"line":2},{"station_name":"Univ. Indonesia","station_id":"UI","time":3,"distance":2264,"is_transit":false,"transit":false,"i_lat":-6.360749,"line":2,"i_long":106.831474},{"station_id":"POC","i_lat":-6.369073,"station_name":"Pondok Cina","is_transit":false,"i_long":106.831114,"distance":1109,"transit":false,"time":2,"line":2},{"i_long":106.819451,"station_id":"DPB","station_name":"Depokbaru","time":4,"line":2,"i_lat":-6.391065,"is_transit":false,"distance":2727,"transit":false},{"time":3,"station_name":"Depok","is_transit":false,"line":2,"i_lat":-6.405256,"i_long":106.816926,"distance":1584,"station_id":"DP","transit":false},{"distance":5084,"i_long":106.800298,"time":6,"i_lat":-6.448811,"transit":false,"station_id":"CTA","line":2,"is_transit":false,"station_name":"Citayam"},{"transit":false,"i_long":106.792719,"i_lat":-6.493243,"line":2,"station_id":"BJD","time":5,"distance":5197,"station_name":"Bojonggede","is_transit":false},{"is_transit":false,"time":5,"transit":false,"station_id":"CLT","line":2,"station_name":"Cilebut","i_long":106.800016,"i_lat":-6.530544,"distance":4331},{"transit":false,"station_name":"Bogor","i_long":106.790574,"i_lat":-6.594596,"time":9,"distance":7514,"is_transit":false,"station_id":"BOO","line":2}],[{"station_name":"Karet","i_long":106.816351,"station_id":"KAT","distance":0,"time":0,"is_transit":false,"transit":false,"line":1,"i_lat":-6.20132},{"station_name":"Tanah Abang","i_lat":-6.185545,"time":5,"station_id":"THB","is_transit":false,"distance":2029,"transit":false,"i_long":106.811091,"line":1},{"distance":3632,"transit":false,"time":8,"i_long":106.800832,"station_id":"DU","is_transit":false,"station_name":"Duri","i_lat":-6.155215,"line":1},{"is_transit":false,"distance":1230,"station_name":"Angke","station_id":"AK","time":4,"transit":false,"i_long":106.79867,"line":1,"i_lat":-6.144674},{"distance":4102,"is_transit":true,"transit":true,"time":9,"station_name":"Kampung Bandan","station_id":"KPB","i_long":106.826365,"line":4,"i_lat":-6.132549},{"is_transit":false,"line":11,"i_long":106.836569,"station_name":"Rajawali","time":3,"transit":false,"i_lat":-6.14505,"distance":1444,"station_id":"RJW"},{"distance":1901,"transit":false,"i_long":106.839204,"station_name":"Kemayoran","line":11,"is_transit":false,"time":5,"i_lat":-6.161728,"station_id":"KMO"},{"line":11,"i_lat":-6.174784,"i_long":106.84368,"station_id":"PSE","station_name":"Pasar Senen","time":4,"transit":false,"is_transit":false,"distance":1436},{"is_transit":false,"station_name":"Gang Sentiong","transit":false,"line":11,"distance":1567,"i_lat":-6.185975,"time":8,"i_long":106.850107,"station_id":"GST"},{"time":1,"line":11,"is_transit":false,"station_id":"KMT","station_name":"Kramat","i_lat":-6.193792,"i_long":106.855437,"distance":973,"transit":false},{"is_transit":false,"i_lat":-6.209188,"station_name":"Pondok Jati","transit":false,"time":2,"distance":1829,"line":11,"station_id":"POK","i_long":106.861737},{"time":9,"station_name":"Jatinegara","is_transit":true,"distance":1236,"station_id":"JNG","transit":true,"i_long":106.86807400000001,"i_lat":-6.215091,"line":1},{"distance":1377,"station_id":"MTR","time":2,"is_transit":false,"transit":false,"line":1,"i_lat":-6.212485,"station_name":"Matraman","i_long":106.858896},{"is_transit":true,"station_name":"Manggarai","station_id":"MRI","i_lat":-6.209883,"distance":1275,"transit":true,"i_long":106.84912,"line":2,"time":2},{"station_id":"TEB","time":4,"i_lat":-6.226659,"line":2,"station_name":"Tebet","is_transit":false,"i_long":106.857948,"transit":false,"distance":2610},{"line":2,"distance":1230,"i_lat":-6.242512,"i_long":106.856607,"station_name":"Cawang","transit":false,"station_id":"CW","is_transit":false,"time":2},{"transit":false,"time":3,"station_name":"Duren Kalibata","station_id":"DRN","is_transit":false,"i_long":106.85449,"i_lat":-6.255332,"line":2,"distance":1546},{"i_long":106.851577,"station_name":"Pasar Minggu Baru","station_id":"PSMB","distance":824,"is_transit":false,"line":2,"transit":false,"time":2,"i_lat":-6.263214},{"transit":false,"distance":2380,"i_lat":-6.2842400000000005,"time":2,"line":2,"is_transit":false,"station_id":"PSM","station_name":"Pasar Minggu","i_long":106.843999},{"station_id":"TNT","is_transit":false,"transit":false,"line":2,"station_name":"Tanjung Barat","time":4,"distance":2820,"i_lat":-6.3080680000000005,"i_long":106.838896},{"line":2,"i_long":106.832616,"distance":2671,"station_id":"LNA","time":3,"transit":false,"i_lat":-6.330363,"station_name":"Lenteng Agung","is_transit":false},{"distance":1029,"line":2,"station_name":"Univ. Pancasila","station_id":"UP","transit":false,"i_lat":-6.339291,"is_transit":false,"time":2,"i_long":106.834175},{"is_transit":false,"station_id":"UI","transit":false,"time":3,"i_lat":-6.360749,"distance":2264,"station_name":"Univ. Indonesia","line":2,"i_long":106.831474},{"distance":1109,"i_long":106.831114,"is_transit":false,"time":2,"transit":false,"i_lat":-6.369073,"line":2,"station_name":"Pondok Cina","station_id":"POC"},{"transit":false,"line":2,"is_transit":false,"time":4,"station_id":"DPB","distance":2727,"station_name":"Depokbaru","i_lat":-6.391065,"i_long":106.819451},{"is_transit":false,"station_name":"Depok","line":2,"time":3,"distance":1584,"i_lat":-6.405256,"transit":false,"i_long":106.816926,"station_id":"DP"},{"distance":5084,"i_lat":-6.448811,"time":6,"station_name":"Citayam","i_long":106.800298,"transit":false,"line":2,"is_transit":false,"station_id":"CTA"},{"station_name":"Bojonggede","i_long":106.792719,"line":2,"station_id":"BJD","time":5,"i_lat":-6.493243,"is_transit":false,"distance":5197,"transit":false},{"is_transit":false,"station_name":"Cilebut","station_id":"CLT","distance":4331,"i_long":106.800016,"transit":false,"i_lat":-6.530544,"line":2,"time":5},{"station_name":"Bogor","distance":7514,"transit":false,"station_id":"BOO","is_transit":false,"line":2,"i_lat":-6.594596,"time":9,"i_long":106.790574}]]}