{"data":[[{"distance":0,"station_id":"KBY","transit":false,"line":6,"station_name":"Kebayoran","time":0,"i_lat":-6.237242,"i_long":106.780334,"is_transit":false},{"is_transit":false,"station_name":"Pondokranji","time":8,"transit":false,"station_id":"PDJ","distance":6218,"i_long":106.74273,"line":6,"i_lat":-6.276362},{"distance":2179,"time":3,"station_id":"JMU","is_transit":false,"i_long":106.728916,"line":6,"transit":false,"i_lat":-6.288927,"station_name":"Jurangmangu"},{"transit":false,"is_transit":false,"station_id":"SDM","station_name":"Sudimara","distance":1994,"i_lat":-6.296963,"line":6,"i_long":106.712277,"time":4},{"is_transit":false,"station_id":"RU","time":6,"distance":4566,"i_long":106.675475,"line":6,"transit":false,"i_lat":-6.314823,"station_name":"Rawa Buntu"},{"station_id":"SRP","station_name":"Serpong","time":4,"transit":false,"i_long":106.66566,"line":6,"distance":2413,"i_lat":-6.319871,"is_transit":false},{"i_lat":-6.32484,"i_long":106.640411,"line":3,"station_name":"Cisauk","is_transit":false,"distance":1784,"station_id":"CSK","transit":false,"time":4},{"i_long":106.617853,"time":4,"is_transit":false,"distance":2519,"line":3,"station_name":"Cicayur","station_id":"CC","i_lat":-6.329547,"transit":false},{"line":6,"is_transit":false,"transit":false,"i_lat":-6.3441410000000005,"station_name":"Parung Panjang","time":8,"distance":5968,"i_long":106.568863,"station_id":"PRP"},{"i_lat":-6.354349,"time":9,"transit":false,"is_transit":false,"station_name":"Cilejit","distance":7025,"station_id":"CJT","i_long":106.508482,"line":3},{"time":6,"station_name":"Daru","station_id":"DAR","distance":2675,"i_lat":-6.338021,"i_long":106.491338,"line":0,"transit":false,"is_transit":false},{"distance":3902,"is_transit":false,"station_id":"TEJ","i_long":106.460812,"i_lat":-6.327251,"station_name":"Tenjo","line":6,"transit":false,"time":5},{"time":5,"station_id":"TGS","distance":2974,"line":6,"transit":false,"i_lat":-6.328533,"i_long":106.425991,"is_transit":false,"station_name":"Tigaraksa"}]]}