{"data":[[{"time":0,"transit":false,"i_long":106.780334,"i_lat":-6.237242,"station_name":"Kebayoran","line":6,"distance":0,"is_transit":false,"station_id":"KBY"},{"i_long":106.79689,"station_id":"PLM","station_name":"Palmerah","transit":false,"is_transit":false,"line":6,"i_lat":-6.207404,"distance":3737,"time":7},{"is_transit":true,"i_lat":-6.185545,"station_id":"THB","line":1,"i_long":106.811091,"distance":3191,"transit":true,"time":6,"station_name":"Tanah Abang"},{"transit":false,"i_lat":-6.155215,"i_long":106.800832,"station_id":"DU","station_name":"Duri","time":8,"line":1,"is_transit":false,"distance":3632},{"is_transit":false,"i_long":106.79867,"distance":1230,"line":1,"i_lat":-6.144674,"station_name":"Angke","transit":false,"time":4,"station_id":"AK"}],[{"i_lat":-6.237242,"line":6,"transit":false,"station_name":"Kebayoran","is_transit":false,"i_long":106.780334,"time":0,"distance":0,"station_id":"KBY"},{"time":7,"distance":3737,"station_id":"PLM","station_name":"Palmerah","i_lat":-6.207404,"line":6,"transit":false,"i_long":106.79689,"is_transit":false},{"line":1,"station_id":"THB","is_transit":true,"distance":3191,"i_lat":-6.185545,"time":6,"transit":true,"station_name":"Tanah Abang","i_long":106.811091},{"station_id":"KAT","line":1,"i_lat":-6.20132,"time":5,"distance":2029,"station_name":"Karet","is_transit":false,"i_long":106.816351,"transit":false},{"station_id":"SUDB","time":1,"i_lat":-6.201433,"line":1,"i_long":106.819881,"station_name":"Sudirman Baru","transit":false,"is_transit":false,"distance":471},{"transit":false,"line":1,"i_long":106.822649,"distance":280,"i_lat":-6.202263,"time":1,"is_transit":false,"station_name":"Sudirman","station_id":"SUD"},{"distance":3186,"transit":true,"i_long":106.84912,"line":2,"i_lat":-6.209883,"station_id":"MRI","time":4,"is_transit":true,"station_name":"Manggarai"},{"distance":1590,"is_transit":false,"station_name":"Cikini","i_long":106.840169,"time":4,"i_lat":-6.198556,"transit":false,"line":2,"station_id":"CKI"},{"transit":false,"i_lat":-6.186295,"distance":1750,"station_name":"Gondangdia","line":2,"i_long":106.832183,"is_transit":false,"time":3,"station_id":"GDD"},{"is_transit":false,"i_long":106.828284,"time":4,"station_name":"Juanda","line":2,"transit":false,"i_lat":-6.166716,"station_id":"JUA","distance":2015},{"station_name":"Sawah Besar","transit":false,"i_lat":-6.160725,"i_long":106.827103,"time":2,"station_id":"SW","line":2,"is_transit":false,"distance":1149},{"i_lat":-6.149769,"line":2,"is_transit":false,"transit":false,"time":2,"station_id":"MGB","distance":906,"station_name":"Manggabesar","i_long":106.82482},{"i_long":106.820901,"distance":1080,"time":2,"is_transit":false,"line":2,"station_id":"JAY","transit":false,"station_name":"Jayakarta","i_lat":-6.141205},{"time":4,"distance":1264,"station_id":"JAKK","station_name":"Jakarta Kota","transit":true,"i_lat":-6.137569,"is_transit":true,"i_long":106.812439,"line":2},{"i_long":106.826365,"distance":1364,"is_transit":true,"time":3,"station_id":"KPB","station_name":"Kampung Bandan","line":4,"transit":true,"i_lat":-6.132549},{"station_name":"Angke","i_lat":-6.144674,"time":9,"line":1,"i_long":106.79867,"is_transit":false,"station_id":"AK","distance":4102,"transit":false}],[{"distance":0,"transit":false,"line":6,"i_long":106.780334,"is_transit":false,"time":0,"station_name":"Kebayoran","i_lat":-6.237242,"station_id":"KBY"},{"is_transit":false,"i_lat":-6.207404,"time":7,"station_name":"Palmerah","transit":false,"distance":3737,"i_long":106.79689,"line":6,"station_id":"PLM"},{"time":6,"i_long":106.811091,"distance":3191,"station_name":"Tanah Abang","station_id":"THB","is_transit":true,"transit":true,"i_lat":-6.185545,"line":1},{"line":1,"station_name":"Karet","station_id":"KAT","is_transit":false,"transit":false,"i_long":106.816351,"i_lat":-6.20132,"distance":2029,"time":5},{"i_long":106.819881,"station_name":"Sudirman Baru","i_lat":-6.201433,"distance":471,"line":1,"transit":false,"station_id":"SUDB","is_transit":false,"time":1},{"i_long":106.822649,"line":1,"time":1,"station_id":"SUD","i_lat":-6.202263,"distance":280,"is_transit":false,"transit":false,"station_name":"Sudirman"},{"time":4,"station_id":"MRI","station_name":"Manggarai","transit":false,"i_lat":-6.209883,"i_long":106.84912,"line":2,"is_transit":false,"distance":3186},{"time":2,"distance":1275,"station_id":"MTR","station_name":"Matraman","line":1,"i_lat":-6.212485,"transit":false,"is_transit":false,"i_long":106.858896},{"line":1,"transit":true,"i_long":106.86807400000001,"is_transit":true,"i_lat":-6.215091,"distance":1377,"time":8,"station_name":"Jatinegara","station_id":"JNG"},{"station_id":"POK","distance":1236,"transit":false,"i_lat":-6.209188,"line":11,"station_name":"Pondok Jati","i_long":106.861737,"time":2,"is_transit":false},{"is_transit":false,"distance":1829,"station_name":"Kramat","line":11,"time":2,"station_id":"KMT","i_long":106.855437,"i_lat":-6.193792,"transit":false},{"is_transit":false,"station_name":"Gang Sentiong","transit":false,"distance":973,"station_id":"GST","i_lat":-6.185975,"time":1,"line":11,"i_long":106.850107},{"time":8,"station_id":"PSE","distance":1567,"station_name":"Pasar Senen","is_transit":false,"i_lat":-6.174784,"i_long":106.84368,"transit":false,"line":11},{"i_long":106.839204,"station_name":"Kemayoran","line":11,"station_id":"KMO","distance":1436,"is_transit":false,"time":4,"transit":false,"i_lat":-6.161728},{"distance":1901,"station_name":"Rajawali","i_lat":-6.14505,"station_id":"RJW","time":5,"line":11,"i_long":106.836569,"transit":false,"is_transit":false},{"station_name":"Kampung Bandan","line":4,"distance":1444,"is_transit":true,"station_id":"KPB","i_lat":-6.132549,"transit":true,"i_long":106.826365,"time":3},{"i_long":106.79867,"line":1,"is_transit":false,"i_lat":-6.144674,"distance":4102,"station_name":"Angke","transit":false,"time":9,"station_id":"AK"}]]}