{"data":[[{"distance":0,"time":0,"station_name":"Kebayoran","line":6,"is_transit":false,"i_lat":-6.237242,"i_long":106.780334,"station_id":"KBY","transit":false},{"transit":false,"station_id":"PDJ","station_name":"Pondokranji","i_long":106.74273,"distance":6218,"is_transit":false,"i_lat":-6.276362,"line":6,"time":8},{"is_transit":false,"time":3,"distance":2179,"station_name":"Jurangmangu","i_long":106.728916,"transit":false,"line":6,"station_id":"JMU","i_lat":-6.288927},{"i_long":106.712277,"time":4,"distance":1994,"transit":false,"station_id":"SDM","is_transit":false,"station_name":"Sudimara","i_lat":-6.296963,"line":6},{"station_id":"RU","is_transit":false,"i_lat":-6.314823,"i_long":106.675475,"line":6,"time":6,"distance":4566,"station_name":"Rawa Buntu","transit":false}]]}