{"data":[[{"is_transit":false,"distance":0,"time":0,"i_long":106.780334,"station_id":"KBY","station_name":"Kebayoran","line":6,"transit":false,"i_lat":-6.237242},{"time":8,"i_long":106.74273,"line":6,"distance":6218,"station_id":"PDJ","transit":false,"station_name":"Pondokranji","is_transit":false,"i_lat":-6.276362},{"station_id":"JMU","line":6,"i_long":106.728916,"i_lat":-6.288927,"is_transit":false,"time":3,"station_name":"Jurangmangu","distance":2179,"transit":false},{"line":6,"i_lat":-6.296963,"transit":false,"is_transit":false,"station_id":"SDM","distance":1994,"i_long":106.712277,"station_name":"Sudimara","time":4},{"transit":false,"i_lat":-6.314823,"is_transit":false,"i_long":106.675475,"distance":4566,"station_id":"RU","station_name":"Rawa Buntu","line":6,"time":6}]]}