{"data":[[{"station_name":"Kebayoran","time":0,"station_id":"KBY","distance":0,"i_long":106.780334,"transit":false,"is_transit":false,"i_lat":-6.237242,"line":6},{"i_long":106.74273,"station_name":"Pondokranji","i_lat":-6.276362,"time":8,"line":6,"station_id":"PDJ","is_transit":false,"transit":false,"distance":6218},{"i_long":106.728916,"station_id":"JMU","distance":2179,"time":3,"station_name":"Jurangmangu","is_transit":false,"i_lat":-6.288927,"line":6,"transit":false},{"distance":1994,"i_long":106.712277,"i_lat":-6.296963,"is_transit":false,"transit":false,"station_name":"Sudimara","line":6,"time":4,"station_id":"SDM"},{"line":6,"station_name":"Rawa Buntu","time":6,"distance":4566,"station_id":"RU","is_transit":false,"transit":false,"i_lat":-6.314823,"i_long":106.675475},{"line":6,"transit":false,"station_name":"Serpong","i_long":106.66566,"is_transit":false,"distance":2413,"time":4,"station_id":"SRP","i_lat":-6.319871},{"i_long":106.640411,"distance":1784,"station_name":"Cisauk","station_id":"CSK","transit":false,"line":3,"time":4,"is_transit":false,"i_lat":-6.32484},{"is_transit":false,"i_long":106.617853,"station_name":"Cicayur","line":3,"distance":2519,"time":4,"transit":false,"i_lat":-6.329547,"station_id":"CC"},{"station_id":"PRP","distance":5968,"station_name":"Parung Panjang","is_transit":false,"i_lat":-6.3441410000000005,"time":8,"i_long":106.568863,"transit":false,"line":6},{"station_id":"CJT","station_name":"Cilejit","transit":false,"time":9,"i_long":106.508482,"line":3,"is_transit":false,"distance":7025,"i_lat":-6.354349},{"i_lat":-6.338021,"station_id":"DAR","is_transit":false,"time":6,"station_name":"Daru","distance":2675,"transit":false,"i_long":106.491338,"line":0}]]}