{"data":[[{"time":0,"transit":false,"station_name":"Kebayoran","is_transit":false,"i_lat":-6.237242,"station_id":"KBY","line":6,"i_long":106.780334,"distance":0},{"i_lat":-6.276362,"station_name":"Pondokranji","transit":false,"time":8,"distance":6218,"station_id":"PDJ","line":6,"is_transit":false,"i_long":106.74273},{"line":6,"is_transit":false,"transit":false,"station_id":"JMU","time":3,"i_long":106.728916,"i_lat":-6.288927,"distance":2179,"station_name":"Jurangmangu"},{"station_name":"Sudimara","transit":false,"time":4,"station_id":"SDM","i_lat":-6.296963,"line":6,"is_transit":false,"distance":1994,"i_long":106.712277},{"time":6,"station_name":"Rawa Buntu","i_lat":-6.314823,"line":6,"transit":false,"is_transit":false,"i_long":106.675475,"station_id":"RU","distance":4566}]]}