{"data":[[{"is_transit":false,"i_lat":-6.237242,"station_id":"KBY","i_long":106.780334,"distance":0,"time":0,"line":6,"transit":false,"station_name":"Kebayoran"},{"station_id":"PLM","time":7,"transit":false,"distance":3737,"station_name":"Palmerah","is_transit":false,"i_lat":-6.207404,"i_long":106.79689,"line":6},{"line":1,"station_id":"THB","time":6,"i_long":106.811091,"i_lat":-6.185545,"transit":true,"distance":3191,"station_name":"Tanah Abang","is_transit":true},{"is_transit":true,"i_long":106.800832,"station_name":"Duri","time":8,"i_lat":-6.155215,"distance":3632,"transit":true,"station_id":"DU","line":1},{"station_id":"AK","i_lat":-6.144674,"time":4,"distance":1230,"station_name":"Angke","transit":false,"i_long":106.79867,"line":0,"is_transit":false}],[{"i_long":106.780334,"line":6,"station_name":"Kebayoran","transit":false,"distance":0,"time":0,"is_transit":false,"i_lat":-6.237242,"station_id":"KBY"},{"station_id":"PLM","i_long":106.79689,"distance":3737,"station_name":"Palmerah","is_transit":false,"transit":false,"line":6,"time":7,"i_lat":-6.207404},{"i_lat":-6.185545,"line":1,"station_id":"THB","distance":3191,"is_transit":true,"i_long":106.811091,"time":6,"station_name":"Tanah Abang","transit":true},{"i_long":106.816351,"distance":2029,"transit":false,"time":5,"station_id":"KAT","station_name":"Karet","i_lat":-6.20132,"line":1,"is_transit":false},{"transit":false,"time":1,"distance":471,"line":1,"station_id":"SUDB","i_lat":-6.201433,"i_long":106.819881,"station_name":"Sudirman Baru","is_transit":false},{"time":1,"transit":false,"i_long":106.822649,"line":1,"station_id":"SUD","distance":280,"is_transit":false,"station_name":"Sudirman","i_lat":-6.202263},{"time":4,"station_id":"MRI","i_long":106.84912,"is_transit":true,"line":0,"transit":true,"i_lat":-6.209883,"distance":3186,"station_name":"Manggarai"},{"line":0,"transit":false,"distance":1590,"station_id":"CKI","is_transit":false,"i_long":106.840169,"station_name":"Cikini","time":4,"i_lat":-6.198556},{"station_id":"GDD","time":3,"station_name":"Gondangdia","i_long":106.832183,"distance":1750,"i_lat":-6.186295,"line":2,"transit":false,"is_transit":false},{"i_lat":-6.166716,"time":4,"line":2,"station_id":"JUA","transit":false,"distance":2015,"is_transit":false,"station_name":"Juanda","i_long":106.828284},{"line":2,"is_transit":false,"station_id":"SW","station_name":"Sawah Besar","distance":1149,"time":2,"i_lat":-6.160725,"transit":false,"i_long":106.827103},{"is_transit":false,"station_name":"Manggabesar","station_id":"MGB","i_lat":-6.149769,"distance":906,"line":2,"time":2,"transit":false,"i_long":106.82482},{"station_id":"JAY","transit":false,"i_lat":-6.141205,"line":7,"is_transit":false,"station_name":"Jayakarta","i_long":106.820901,"time":2,"distance":1080},{"distance":1264,"transit":true,"time":4,"i_long":106.812439,"is_transit":true,"station_name":"Jakarta Kota","i_lat":-6.137569,"line":0,"station_id":"JAKK"},{"transit":false,"i_lat":-6.132549,"line":0,"station_id":"KPB","distance":1364,"is_transit":true,"station_name":"Kampung Bandan","i_long":106.826365,"time":3},{"is_transit":false,"i_lat":-6.144674,"time":9,"i_long":106.79867,"distance":4102,"line":0,"transit":false,"station_name":"Angke","station_id":"AK"}],[{"transit":false,"station_name":"Kebayoran","is_transit":false,"i_lat":-6.237242,"line":6,"distance":0,"i_long":106.780334,"station_id":"KBY","time":0},{"transit":false,"i_long":106.79689,"station_name":"Palmerah","distance":3737,"is_transit":false,"station_id":"PLM","line":6,"time":7,"i_lat":-6.207404},{"is_transit":true,"time":6,"transit":true,"distance":3191,"station_id":"THB","station_name":"Tanah Abang","i_long":106.811091,"i_lat":-6.185545,"line":1},{"is_transit":false,"i_long":106.816351,"transit":false,"station_name":"Karet","station_id":"KAT","time":5,"i_lat":-6.20132,"line":1,"distance":2029},{"line":1,"is_transit":false,"time":1,"station_name":"Sudirman Baru","transit":false,"i_long":106.819881,"i_lat":-6.201433,"station_id":"SUDB","distance":471},{"station_id":"SUD","line":1,"i_lat":-6.202263,"is_transit":false,"station_name":"Sudirman","distance":280,"i_long":106.822649,"time":1,"transit":false},{"distance":3186,"transit":false,"station_name":"Manggarai","i_lat":-6.209883,"time":4,"station_id":"MRI","is_transit":true,"i_long":106.84912,"line":0},{"time":2,"station_id":"MTR","distance":1275,"station_name":"Matraman","is_transit":false,"i_long":106.858896,"i_lat":-6.212485,"line":1,"transit":false},{"i_lat":-6.215091,"station_id":"JNG","i_long":106.86807400000001,"transit":true,"line":0,"time":8,"is_transit":true,"distance":1377,"station_name":"Jatinegara"},{"is_transit":false,"i_long":106.861737,"station_name":"Pondok Jati","distance":1236,"i_lat":-6.209188,"station_id":"POK","transit":false,"line":11,"time":2},{"transit":false,"station_id":"KMT","station_name":"Kramat","distance":1829,"line":11,"i_lat":-6.193792,"is_transit":false,"time":2,"i_long":106.855437},{"station_id":"GST","transit":false,"time":1,"is_transit":false,"i_lat":-6.185975,"i_long":106.850107,"line":11,"station_name":"Gang Sentiong","distance":973},{"time":8,"i_long":106.84368,"is_transit":false,"transit":false,"i_lat":-6.174784,"distance":1567,"station_id":"PSE","line":11,"station_name":"Pasar Senen"},{"i_long":106.839204,"line":11,"i_lat":-6.161728,"station_name":"Kemayoran","time":4,"transit":false,"station_id":"KMO","distance":1436,"is_transit":false},{"transit":false,"is_transit":false,"i_lat":-6.14505,"distance":1901,"station_name":"Rajawali","station_id":"RJW","time":5,"i_long":106.836569,"line":11},{"time":3,"i_long":106.826365,"i_lat":-6.132549,"station_id":"KPB","transit":true,"distance":1444,"station_name":"Kampung Bandan","is_transit":true,"line":0},{"i_lat":-6.144674,"i_long":106.79867,"transit":false,"is_transit":false,"time":9,"station_id":"AK","distance":4102,"line":0,"station_name":"Angke"}]]}