{"data":[[{"station_id":"KBY","is_transit":false,"line":6,"distance":0,"time":0,"transit":false,"station_name":"Kebayoran","i_lat":-6.237242,"i_long":106.780334},{"station_name":"Palmerah","is_transit":false,"line":6,"station_id":"PLM","i_long":106.79689,"distance":3737,"i_lat":-6.207404,"time":7,"transit":false},{"distance":3191,"time":6,"line":1,"i_long":106.811091,"is_transit":true,"transit":true,"station_name":"Tanah Abang","i_lat":-6.185545,"station_id":"THB"},{"time":5,"transit":false,"distance":2029,"station_id":"KAT","is_transit":false,"line":1,"i_lat":-6.20132,"i_long":106.816351,"station_name":"Karet"},{"i_long":106.819881,"transit":false,"i_lat":-6.201433,"line":1,"time":1,"distance":471,"station_name":"Sudirman Baru","station_id":"SUDB","is_transit":false},{"i_lat":-6.202263,"transit":false,"i_long":106.822649,"distance":280,"station_id":"SUD","station_name":"Sudirman","line":1,"time":1,"is_transit":false},{"transit":false,"station_id":"MRI","i_lat":-6.209883,"line":2,"distance":3186,"station_name":"Manggarai","i_long":106.84912,"time":4,"is_transit":false},{"transit":false,"i_long":106.858896,"line":1,"distance":1275,"station_name":"Matraman","i_lat":-6.212485,"station_id":"MTR","time":2,"is_transit":false},{"line":1,"is_transit":false,"time":8,"station_id":"JNG","i_lat":-6.215091,"station_name":"Jatinegara","distance":1377,"transit":false,"i_long":106.86807400000001},{"i_lat":-6.2135,"line":1,"time":3,"distance":3395,"station_id":"KLD","station_name":"Klender","transit":false,"i_long":106.899548,"is_transit":false}],[{"i_long":106.780334,"time":0,"station_id":"KBY","station_name":"Kebayoran","is_transit":false,"i_lat":-6.237242,"line":6,"transit":false,"distance":0},{"station_name":"Palmerah","distance":3737,"station_id":"PLM","i_lat":-6.207404,"line":6,"is_transit":false,"transit":false,"time":7,"i_long":106.79689},{"station_id":"THB","i_long":106.811091,"is_transit":true,"time":6,"i_lat":-6.185545,"line":1,"station_name":"Tanah Abang","distance":3191,"transit":true},{"transit":false,"distance":3632,"i_lat":-6.155215,"station_id":"DU","i_long":106.800832,"time":8,"line":1,"station_name":"Duri","is_transit":false},{"time":4,"station_name":"Angke","is_transit":false,"transit":false,"i_lat":-6.144674,"i_long":106.79867,"station_id":"AK","line":1,"distance":1230},{"transit":true,"distance":4102,"is_transit":true,"i_long":106.826365,"station_id":"KPB","line":4,"i_lat":-6.132549,"station_name":"Kampung Bandan","time":9},{"is_transit":false,"station_id":"RJW","transit":false,"distance":1444,"time":3,"station_name":"Rajawali","i_lat":-6.14505,"i_long":106.836569,"line":11},{"transit":false,"i_lat":-6.161728,"is_transit":false,"time":5,"distance":1901,"station_name":"Kemayoran","i_long":106.839204,"station_id":"KMO","line":11},{"time":4,"i_lat":-6.174784,"station_name":"Pasar Senen","is_transit":false,"distance":1436,"station_id":"PSE","transit":false,"i_long":106.84368,"line":11},{"i_long":106.850107,"line":11,"time":8,"station_name":"Gang Sentiong","i_lat":-6.185975,"station_id":"GST","is_transit":false,"transit":false,"distance":1567},{"station_id":"KMT","i_lat":-6.193792,"is_transit":false,"station_name":"Kramat","distance":973,"i_long":106.855437,"line":11,"time":1,"transit":false},{"line":11,"station_name":"Pondok Jati","station_id":"POK","is_transit":false,"i_lat":-6.209188,"i_long":106.861737,"time":2,"distance":1829,"transit":false},{"is_transit":true,"station_id":"JNG","i_lat":-6.215091,"station_name":"Jatinegara","transit":true,"distance":1236,"i_long":106.86807400000001,"time":9,"line":1},{"i_lat":-6.2135,"is_transit":false,"i_long":106.899548,"transit":false,"line":1,"time":3,"station_id":"KLD","station_name":"Klender","distance":3395}],[{"is_transit":false,"i_long":106.780334,"distance":0,"i_lat":-6.237242,"line":6,"transit":false,"time":0,"station_id":"KBY","station_name":"Kebayoran"},{"time":7,"transit":false,"station_id":"PLM","is_transit":false,"line":6,"i_lat":-6.207404,"station_name":"Palmerah","distance":3737,"i_long":106.79689},{"i_long":106.811091,"station_id":"THB","time":6,"distance":3191,"line":1,"transit":true,"station_name":"Tanah Abang","i_lat":-6.185545,"is_transit":true},{"station_name":"Duri","is_transit":false,"i_lat":-6.155215,"time":8,"distance":3632,"transit":false,"line":1,"i_long":106.800832,"station_id":"DU"},{"time":4,"transit":false,"i_lat":-6.144674,"station_id":"AK","line":1,"i_long":106.79867,"station_name":"Angke","is_transit":false,"distance":1230},{"distance":4102,"time":9,"is_transit":true,"i_lat":-6.132549,"station_id":"KPB","transit":true,"line":4,"station_name":"Kampung Bandan","i_long":106.826365},{"distance":1364,"i_long":106.812439,"transit":true,"i_lat":-6.137569,"line":2,"is_transit":true,"time":3,"station_id":"JAKK","station_name":"Jakarta Kota"},{"transit":false,"line":2,"time":4,"station_name":"Jayakarta","i_lat":-6.141205,"station_id":"JAY","is_transit":false,"distance":1264,"i_long":106.820901},{"line":2,"time":2,"is_transit":false,"transit":false,"i_long":106.82482,"distance":1080,"station_name":"Manggabesar","i_lat":-6.149769,"station_id":"MGB"},{"station_name":"Sawah Besar","time":2,"station_id":"SW","is_transit":false,"transit":false,"i_long":106.827103,"line":2,"i_lat":-6.160725,"distance":906},{"distance":1149,"i_lat":-6.166716,"time":2,"transit":false,"line":2,"station_id":"JUA","i_long":106.828284,"is_transit":false,"station_name":"Juanda"},{"is_transit":false,"i_long":106.832183,"station_id":"GDD","distance":2015,"transit":false,"i_lat":-6.186295,"line":2,"time":4,"station_name":"Gondangdia"},{"distance":1750,"i_lat":-6.198556,"time":3,"station_id":"CKI","i_long":106.840169,"line":2,"station_name":"Cikini","is_transit":false,"transit":false},{"i_long":106.84912,"time":4,"line":2,"transit":true,"distance":1590,"station_name":"Manggarai","station_id":"MRI","i_lat":-6.209883,"is_transit":true},{"station_name":"Matraman","is_transit":false,"station_id":"MTR","i_lat":-6.212485,"line":1,"time":2,"i_long":106.858896,"distance":1275,"transit":false},{"i_lat":-6.215091,"i_long":106.86807400000001,"distance":1377,"station_name":"Jatinegara","line":1,"is_transit":false,"time":8,"station_id":"JNG","transit":false},{"is_transit":false,"i_long":106.899548,"station_name":"Klender","distance":3395,"line":1,"time":3,"i_lat":-6.2135,"station_id":"KLD","transit":false}],[{"time":0,"station_id":"KBY","distance":0,"i_long":106.780334,"line":6,"is_transit":false,"transit":false,"station_name":"Kebayoran","i_lat":-6.237242},{"time":7,"i_lat":-6.207404,"i_long":106.79689,"is_transit":false,"station_id":"PLM","line":6,"distance":3737,"station_name":"Palmerah","transit":false},{"time":6,"station_id":"THB","is_transit":true,"distance":3191,"transit":true,"i_lat":-6.185545,"line":1,"station_name":"Tanah Abang","i_long":106.811091},{"i_long":106.816351,"is_transit":false,"station_name":"Karet","time":5,"transit":false,"station_id":"KAT","line":1,"distance":2029,"i_lat":-6.20132},{"station_name":"Sudirman Baru","i_lat":-6.201433,"station_id":"SUDB","is_transit":false,"i_long":106.819881,"distance":471,"transit":false,"line":1,"time":1},{"distance":280,"station_id":"SUD","station_name":"Sudirman","line":1,"i_lat":-6.202263,"time":1,"is_transit":false,"i_long":106.822649,"transit":false},{"is_transit":true,"i_lat":-6.209883,"i_long":106.84912,"time":4,"station_id":"MRI","distance":3186,"station_name":"Manggarai","transit":true,"line":2},{"distance":1590,"line":2,"station_id":"CKI","transit":false,"is_transit":false,"time":4,"station_name":"Cikini","i_long":106.840169,"i_lat":-6.198556},{"i_long":106.832183,"line":2,"is_transit":false,"transit":false,"distance":1750,"station_id":"GDD","station_name":"Gondangdia","i_lat":-6.186295,"time":3},{"i_long":106.828284,"i_lat":-6.166716,"station_id":"JUA","station_name":"Juanda","is_transit":false,"line":2,"time":4,"distance":2015,"transit":false},{"distance":1149,"station_name":"Sawah Besar","transit":false,"time":2,"is_transit":false,"i_lat":-6.160725,"i_long":106.827103,"line":2,"station_id":"SW"},{"time":2,"i_lat":-6.149769,"distance":906,"is_transit":false,"station_id":"MGB","station_name":"Manggabesar","line":2,"transit":false,"i_long":106.82482},{"is_transit":false,"transit":false,"line":2,"distance":1080,"i_long":106.820901,"i_lat":-6.141205,"station_id":"JAY","time":2,"station_name":"Jayakarta"},{"distance":1264,"transit":true,"i_lat":-6.137569,"i_long":106.812439,"time":4,"station_id":"JAKK","line":2,"is_transit":true,"station_name":"Jakarta Kota"},{"distance":1364,"station_name":"Kampung Bandan","is_transit":true,"i_long":106.826365,"station_id":"KPB","transit":true,"i_lat":-6.132549,"line":4,"time":3},{"distance":1444,"is_transit":false,"i_lat":-6.14505,"line":11,"time":3,"station_id":"RJW","i_long":106.836569,"station_name":"Rajawali","transit":false},{"distance":1901,"i_long":106.839204,"station_name":"Kemayoran","transit":false,"i_lat":-6.161728,"line":11,"time":5,"is_transit":false,"station_id":"KMO"},{"time":4,"i_lat":-6.174784,"is_transit":false,"station_name":"Pasar Senen","distance":1436,"line":11,"station_id":"PSE","transit":false,"i_long":106.84368},{"is_transit":false,"i_long":106.850107,"transit":false,"i_lat":-6.185975,"line":11,"distance":1567,"station_id":"GST","station_name":"Gang Sentiong","time":8},{"is_transit":false,"time":1,"distance":973,"i_long":106.855437,"station_id":"KMT","line":11,"station_name":"Kramat","i_lat":-6.193792,"transit":false},{"i_lat":-6.209188,"transit":false,"station_id":"POK","distance":1829,"station_name":"Pondok Jati","time":2,"i_long":106.861737,"is_transit":false,"line":11},{"time":9,"station_id":"JNG","distance":1236,"line":1,"i_lat":-6.215091,"station_name":"Jatinegara","is_transit":true,"transit":true,"i_long":106.86807400000001},{"line":1,"station_id":"KLD","distance":3395,"is_transit":false,"time":3,"i_long":106.899548,"i_lat":-6.2135,"station_name":"Klender","transit":false}]]}