{"data":[[{"is_transit":false,"time":0,"i_long":106.780334,"i_lat":-6.237242,"station_name":"Kebayoran","station_id":"KBY","line":6,"transit":false,"distance":0},{"time":8,"distance":6218,"i_lat":-6.276362,"i_long":106.74273,"transit":false,"station_id":"PDJ","is_transit":false,"station_name":"Pondokranji","line":6},{"is_transit":false,"i_long":106.728916,"i_lat":-6.288927,"line":6,"transit":false,"distance":2179,"time":3,"station_name":"Jurangmangu","station_id":"JMU"},{"i_lat":-6.296963,"time":4,"station_id":"SDM","station_name":"Sudimara","i_long":106.712277,"transit":false,"distance":1994,"is_transit":false,"line":6},{"time":6,"is_transit":false,"station_name":"Rawa Buntu","i_long":106.675475,"i_lat":-6.314823,"line":6,"distance":4566,"transit":false,"station_id":"RU"},{"distance":2413,"line":6,"time":4,"station_name":"Serpong","transit":false,"i_long":106.66566,"is_transit":false,"i_lat":-6.319871,"station_id":"SRP"},{"distance":1784,"time":4,"transit":false,"i_long":106.640411,"i_lat":-6.32484,"station_id":"CSK","line":0,"station_name":"Cisauk","is_transit":false},{"station_name":"Cicayur","is_transit":false,"station_id":"CC","line":0,"i_long":106.617853,"i_lat":-6.329547,"distance":2519,"time":4,"transit":false},{"distance":5968,"line":6,"i_lat":-6.3441410000000005,"is_transit":false,"i_long":106.568863,"time":8,"station_name":"Parung Panjang","station_id":"PRP","transit":false},{"time":9,"i_lat":-6.354349,"transit":false,"i_long":106.508482,"station_name":"Cilejit","line":0,"station_id":"CJT","distance":7025,"is_transit":false},{"station_name":"Daru","time":6,"transit":false,"is_transit":false,"station_id":"DAR","line":0,"i_long":106.491338,"i_lat":-6.338021,"distance":2675}]]}