{"data":[[{"station_name":"Kebayoran","is_transit":false,"station_id":"KBY","line":6,"i_lat":-6.237242,"i_long":106.780334,"transit":false,"time":0,"distance":0},{"i_lat":-6.276362,"line":6,"station_id":"PDJ","is_transit":false,"distance":6218,"time":8,"station_name":"Pondokranji","i_long":106.74273,"transit":false},{"line":6,"time":3,"distance":2179,"is_transit":false,"i_lat":-6.288927,"transit":false,"station_name":"Jurangmangu","i_long":106.728916,"station_id":"JMU"},{"station_id":"SDM","is_transit":false,"time":4,"distance":1994,"station_name":"Sudimara","i_lat":-6.296963,"i_long":106.712277,"line":6,"transit":false},{"i_lat":-6.314823,"time":6,"i_long":106.675475,"is_transit":false,"distance":4566,"line":6,"transit":false,"station_id":"RU","station_name":"Rawa Buntu"},{"is_transit":false,"station_name":"Serpong","station_id":"SRP","time":4,"i_lat":-6.319871,"i_long":106.66566,"line":6,"distance":2413,"transit":false},{"i_long":106.640411,"transit":false,"station_name":"Cisauk","station_id":"CSK","time":4,"line":0,"i_lat":-6.32484,"distance":1784,"is_transit":false},{"time":4,"distance":2519,"station_name":"Cicayur","transit":false,"i_long":106.617853,"is_transit":false,"station_id":"CC","line":0,"i_lat":-6.329547},{"distance":5968,"i_lat":-6.3441410000000005,"line":6,"transit":false,"station_name":"Parung Panjang","is_transit":false,"station_id":"PRP","i_long":106.568863,"time":8},{"distance":7025,"station_id":"CJT","time":9,"transit":false,"station_name":"Cilejit","i_lat":-6.354349,"i_long":106.508482,"is_transit":false,"line":0},{"is_transit":false,"station_name":"Daru","transit":false,"time":6,"i_lat":-6.338021,"station_id":"DAR","distance":2675,"line":0,"i_long":106.491338},{"time":5,"distance":3902,"i_lat":-6.327251,"transit":false,"station_name":"Tenjo","is_transit":false,"line":6,"station_id":"TEJ","i_long":106.460812},{"time":5,"distance":2974,"is_transit":false,"i_lat":-6.328533,"i_long":106.425991,"station_id":"TGS","station_name":"Tigaraksa","line":6,"transit":false}]]}