{"data":[[{"is_transit":false,"time":0,"station_id":"KBY","transit":false,"i_lat":-6.237242,"distance":0,"i_long":106.780334,"line":6,"station_name":"Kebayoran"},{"i_lat":-6.207404,"is_transit":false,"distance":3737,"station_id":"PLM","station_name":"Palmerah","time":7,"line":6,"i_long":106.79689,"transit":false},{"station_name":"Tanah Abang","transit":true,"is_transit":true,"station_id":"THB","i_lat":-6.185545,"distance":3191,"line":1,"time":6,"i_long":106.811091},{"is_transit":false,"distance":2029,"i_lat":-6.20132,"line":1,"time":5,"station_id":"KAT","transit":false,"station_name":"Karet","i_long":106.816351},{"distance":471,"i_lat":-6.201433,"line":1,"transit":false,"is_transit":false,"i_long":106.819881,"station_id":"SUDB","station_name":"Sudirman Baru","time":1},{"i_lat":-6.202263,"station_name":"Sudirman","i_long":106.822649,"is_transit":false,"distance":280,"time":1,"transit":false,"station_id":"SUD","line":1},{"time":4,"station_name":"Manggarai","line":0,"is_transit":true,"transit":false,"i_long":106.84912,"i_lat":-6.209883,"distance":3186,"station_id":"MRI"},{"i_long":106.858896,"is_transit":false,"line":1,"i_lat":-6.212485,"transit":false,"station_id":"MTR","time":2,"distance":1275,"station_name":"Matraman"},{"station_name":"Jatinegara","transit":false,"distance":1377,"station_id":"JNG","time":8,"is_transit":true,"i_long":106.86807400000001,"i_lat":-6.215091,"line":0},{"i_lat":-6.2135,"time":3,"station_id":"KLD","i_long":106.899548,"line":1,"is_transit":false,"distance":3395,"transit":false,"station_name":"Klender"},{"i_lat":-6.215568,"station_name":"Buaran","transit":false,"line":0,"station_id":"BUA","is_transit":false,"time":2,"i_long":106.922662,"distance":3100},{"i_long":106.939679,"station_name":"Klenderbaru","is_transit":false,"distance":1305,"time":1,"transit":false,"i_lat":-6.217455,"station_id":"KLDB","line":1},{"is_transit":false,"i_long":106.951283,"station_name":"Cakung","i_lat":-6.219053,"line":0,"distance":1385,"time":8,"station_id":"CUK","transit":false},{"is_transit":false,"transit":false,"station_name":"Kranji","station_id":"KRI","i_lat":-6.224515,"i_long":106.977657,"line":1,"distance":3097,"time":3},{"i_lat":-6.236616,"time":4,"i_long":106.997013,"station_name":"Bekasi","line":0,"distance":2520,"transit":false,"is_transit":false,"station_id":"BKS"},{"station_name":"Bekasi Timur","i_lat":-6.248029,"line":0,"transit":false,"station_id":"BKST","distance":2368,"is_transit":false,"i_long":107.016735,"time":2},{"i_lat":-6.258864,"distance":4460,"station_name":"Tambun","transit":false,"time":7,"i_long":107.055722,"is_transit":false,"line":1,"station_id":"TB"}],[{"i_lat":-6.237242,"is_transit":false,"station_name":"Kebayoran","time":0,"line":6,"transit":false,"distance":0,"i_long":106.780334,"station_id":"KBY"},{"i_long":106.79689,"is_transit":false,"distance":3737,"time":7,"line":6,"station_id":"PLM","transit":false,"station_name":"Palmerah","i_lat":-6.207404},{"i_long":106.811091,"line":1,"transit":true,"distance":3191,"station_id":"THB","i_lat":-6.185545,"station_name":"Tanah Abang","is_transit":true,"time":6},{"i_long":106.800832,"line":1,"time":8,"transit":true,"station_id":"DU","distance":3632,"station_name":"Duri","is_transit":true,"i_lat":-6.155215},{"i_lat":-6.144674,"station_name":"Angke","is_transit":false,"time":4,"i_long":106.79867,"transit":false,"distance":1230,"line":0,"station_id":"AK"},{"station_id":"KPB","i_long":106.826365,"i_lat":-6.132549,"line":0,"time":9,"is_transit":true,"transit":true,"distance":4102,"station_name":"Kampung Bandan"},{"i_long":106.836569,"station_id":"RJW","transit":false,"station_name":"Rajawali","time":3,"distance":1444,"i_lat":-6.14505,"is_transit":false,"line":11},{"transit":false,"is_transit":false,"distance":1901,"station_name":"Kemayoran","time":5,"i_lat":-6.161728,"station_id":"KMO","line":11,"i_long":106.839204},{"time":4,"station_name":"Pasar Senen","is_transit":false,"distance":1436,"station_id":"PSE","i_lat":-6.174784,"i_long":106.84368,"line":11,"transit":false},{"station_id":"GST","time":8,"i_lat":-6.185975,"line":11,"i_long":106.850107,"station_name":"Gang Sentiong","is_transit":false,"transit":false,"distance":1567},{"i_lat":-6.193792,"time":1,"transit":false,"is_transit":false,"i_long":106.855437,"distance":973,"line":11,"station_id":"KMT","station_name":"Kramat"},{"station_name":"Pondok Jati","transit":false,"i_lat":-6.209188,"time":2,"is_transit":false,"line":11,"i_long":106.861737,"distance":1829,"station_id":"POK"},{"time":9,"station_name":"Jatinegara","distance":1236,"is_transit":true,"i_lat":-6.215091,"i_long":106.86807400000001,"line":0,"station_id":"JNG","transit":true},{"time":3,"distance":3395,"station_id":"KLD","station_name":"Klender","i_lat":-6.2135,"i_long":106.899548,"line":1,"is_transit":false,"transit":false},{"line":0,"transit":false,"station_name":"Buaran","is_transit":false,"time":2,"station_id":"BUA","i_long":106.922662,"i_lat":-6.215568,"distance":3100},{"distance":1305,"station_id":"KLDB","transit":false,"is_transit":false,"time":1,"i_lat":-6.217455,"i_long":106.939679,"line":1,"station_name":"Klenderbaru"},{"transit":false,"i_long":106.951283,"distance":1385,"line":0,"station_id":"CUK","station_name":"Cakung","time":8,"is_transit":false,"i_lat":-6.219053},{"transit":false,"line":1,"time":3,"i_lat":-6.224515,"station_name":"Kranji","is_transit":false,"i_long":106.977657,"station_id":"KRI","distance":3097},{"distance":2520,"transit":false,"time":4,"station_name":"Bekasi","i_lat":-6.236616,"station_id":"BKS","is_transit":false,"i_long":106.997013,"line":0},{"transit":false,"line":0,"station_name":"Bekasi Timur","is_transit":false,"station_id":"BKST","i_long":107.016735,"distance":2368,"i_lat":-6.248029,"time":2},{"line":1,"i_lat":-6.258864,"time":7,"station_name":"Tambun","distance":4460,"i_long":107.055722,"is_transit":false,"transit":false,"station_id":"TB"}],[{"station_name":"Kebayoran","i_lat":-6.237242,"line":6,"is_transit":false,"transit":false,"time":0,"i_long":106.780334,"distance":0,"station_id":"KBY"},{"station_id":"PLM","transit":false,"line":6,"time":7,"station_name":"Palmerah","distance":3737,"is_transit":false,"i_long":106.79689,"i_lat":-6.207404},{"station_name":"Tanah Abang","time":6,"distance":3191,"i_lat":-6.185545,"i_long":106.811091,"line":1,"transit":true,"is_transit":true,"station_id":"THB"},{"station_id":"DU","line":1,"is_transit":true,"i_lat":-6.155215,"station_name":"Duri","time":8,"transit":true,"distance":3632,"i_long":106.800832},{"distance":1230,"station_name":"Angke","station_id":"AK","time":4,"is_transit":false,"transit":false,"line":0,"i_lat":-6.144674,"i_long":106.79867},{"transit":false,"station_name":"Kampung Bandan","i_lat":-6.132549,"i_long":106.826365,"is_transit":true,"distance":4102,"time":9,"station_id":"KPB","line":0},{"time":3,"station_id":"JAKK","i_long":106.812439,"distance":1364,"transit":true,"i_lat":-6.137569,"station_name":"Jakarta Kota","line":0,"is_transit":true},{"distance":1264,"transit":false,"station_name":"Jayakarta","station_id":"JAY","i_long":106.820901,"line":7,"i_lat":-6.141205,"is_transit":false,"time":4},{"station_id":"MGB","i_lat":-6.149769,"time":2,"is_transit":false,"transit":false,"station_name":"Manggabesar","i_long":106.82482,"line":2,"distance":1080},{"line":2,"station_name":"Sawah Besar","station_id":"SW","time":2,"i_lat":-6.160725,"distance":906,"i_long":106.827103,"is_transit":false,"transit":false},{"distance":1149,"is_transit":false,"station_id":"JUA","i_lat":-6.166716,"time":2,"i_long":106.828284,"line":2,"transit":false,"station_name":"Juanda"},{"distance":2015,"is_transit":false,"station_id":"GDD","station_name":"Gondangdia","line":2,"time":4,"transit":false,"i_long":106.832183,"i_lat":-6.186295},{"distance":1750,"time":3,"transit":false,"line":0,"i_lat":-6.198556,"station_id":"CKI","station_name":"Cikini","i_long":106.840169,"is_transit":false},{"transit":true,"i_lat":-6.209883,"is_transit":true,"time":4,"distance":1590,"station_id":"MRI","station_name":"Manggarai","i_long":106.84912,"line":0},{"i_lat":-6.212485,"distance":1275,"station_id":"MTR","line":1,"is_transit":false,"station_name":"Matraman","time":2,"i_long":106.858896,"transit":false},{"is_transit":true,"time":8,"station_id":"JNG","i_long":106.86807400000001,"transit":false,"station_name":"Jatinegara","line":0,"distance":1377,"i_lat":-6.215091},{"station_name":"Klender","i_long":106.899548,"line":1,"time":3,"distance":3395,"is_transit":false,"station_id":"KLD","transit":false,"i_lat":-6.2135},{"station_id":"BUA","line":0,"distance":3100,"i_long":106.922662,"transit":false,"station_name":"Buaran","i_lat":-6.215568,"is_transit":false,"time":2},{"i_long":106.939679,"distance":1305,"station_id":"KLDB","station_name":"Klenderbaru","line":1,"time":1,"is_transit":false,"i_lat":-6.217455,"transit":false},{"time":8,"is_transit":false,"i_long":106.951283,"station_name":"Cakung","distance":1385,"station_id":"CUK","transit":false,"i_lat":-6.219053,"line":0},{"distance":3097,"station_name":"Kranji","i_long":106.977657,"time":3,"line":1,"transit":false,"i_lat":-6.224515,"is_transit":false,"station_id":"KRI"},{"transit":false,"i_lat":-6.236616,"station_name":"Bekasi","distance":2520,"i_long":106.997013,"station_id":"BKS","is_transit":false,"line":0,"time":4},{"is_transit":false,"distance":2368,"station_name":"Bekasi Timur","i_long":107.016735,"i_lat":-6.248029,"transit":false,"line":0,"time":2,"station_id":"BKST"},{"time":7,"station_name":"Tambun","i_lat":-6.258864,"i_long":107.055722,"transit":false,"station_id":"TB","is_transit":false,"line":1,"distance":4460}],[{"station_name":"Kebayoran","station_id":"KBY","line":6,"transit":false,"is_transit":false,"time":0,"i_long":106.780334,"distance":0,"i_lat":-6.237242},{"distance":3737,"line":6,"i_lat":-6.207404,"transit":false,"is_transit":false,"i_long":106.79689,"station_id":"PLM","station_name":"Palmerah","time":7},{"time":6,"is_transit":true,"distance":3191,"station_id":"THB","transit":true,"i_lat":-6.185545,"i_long":106.811091,"station_name":"Tanah Abang","line":1},{"station_name":"Karet","is_transit":false,"transit":false,"time":5,"line":1,"distance":2029,"station_id":"KAT","i_lat":-6.20132,"i_long":106.816351},{"station_name":"Sudirman Baru","i_lat":-6.201433,"distance":471,"is_transit":false,"time":1,"station_id":"SUDB","transit":false,"i_long":106.819881,"line":1},{"transit":false,"is_transit":false,"time":1,"line":1,"distance":280,"station_id":"SUD","station_name":"Sudirman","i_long":106.822649,"i_lat":-6.202263},{"station_name":"Manggarai","distance":3186,"i_long":106.84912,"i_lat":-6.209883,"is_transit":true,"transit":true,"time":4,"station_id":"MRI","line":0},{"distance":1590,"line":0,"transit":false,"i_lat":-6.198556,"i_long":106.840169,"time":4,"station_name":"Cikini","station_id":"CKI","is_transit":false},{"is_transit":false,"station_id":"GDD","i_long":106.832183,"transit":false,"line":2,"i_lat":-6.186295,"time":3,"distance":1750,"station_name":"Gondangdia"},{"distance":2015,"time":4,"station_id":"JUA","station_name":"Juanda","i_long":106.828284,"line":2,"transit":false,"i_lat":-6.166716,"is_transit":false},{"line":2,"time":2,"is_transit":false,"station_id":"SW","transit":false,"i_lat":-6.160725,"station_name":"Sawah Besar","i_long":106.827103,"distance":1149},{"distance":906,"transit":false,"station_name":"Manggabesar","is_transit":false,"i_lat":-6.149769,"i_long":106.82482,"line":2,"station_id":"MGB","time":2},{"distance":1080,"station_name":"Jayakarta","is_transit":false,"time":2,"i_long":106.820901,"transit":false,"i_lat":-6.141205,"line":7,"station_id":"JAY"},{"station_name":"Jakarta Kota","line":0,"transit":true,"station_id":"JAKK","i_long":106.812439,"time":4,"is_transit":true,"distance":1264,"i_lat":-6.137569},{"station_name":"Kampung Bandan","transit":true,"is_transit":true,"distance":1364,"station_id":"KPB","line":0,"i_lat":-6.132549,"time":3,"i_long":106.826365},{"i_long":106.836569,"time":3,"is_transit":false,"station_name":"Rajawali","i_lat":-6.14505,"station_id":"RJW","distance":1444,"transit":false,"line":11},{"is_transit":false,"distance":1901,"transit":false,"i_lat":-6.161728,"station_name":"Kemayoran","time":5,"station_id":"KMO","i_long":106.839204,"line":11},{"line":11,"transit":false,"distance":1436,"i_lat":-6.174784,"time":4,"station_id":"PSE","i_long":106.84368,"is_transit":false,"station_name":"Pasar Senen"},{"time":8,"transit":false,"station_name":"Gang Sentiong","station_id":"GST","distance":1567,"is_transit":false,"i_lat":-6.185975,"line":11,"i_long":106.850107},{"i_long":106.855437,"station_id":"KMT","line":11,"is_transit":false,"i_lat":-6.193792,"distance":973,"time":1,"transit":false,"station_name":"Kramat"},{"i_long":106.861737,"station_id":"POK","line":11,"i_lat":-6.209188,"time":2,"station_name":"Pondok Jati","is_transit":false,"distance":1829,"transit":false},{"station_name":"Jatinegara","station_id":"JNG","i_long":106.86807400000001,"i_lat":-6.215091,"is_transit":true,"distance":1236,"time":9,"line":0,"transit":true},{"is_transit":false,"station_id":"KLD","distance":3395,"time":3,"transit":false,"i_lat":-6.2135,"line":1,"station_name":"Klender","i_long":106.899548},{"distance":3100,"transit":false,"time":2,"i_long":106.922662,"line":0,"is_transit":false,"i_lat":-6.215568,"station_name":"Buaran","station_id":"BUA"},{"is_transit":false,"station_id":"KLDB","i_long":106.939679,"transit":false,"time":1,"line":1,"i_lat":-6.217455,"distance":1305,"station_name":"Klenderbaru"},{"i_long":106.951283,"station_name":"Cakung","i_lat":-6.219053,"is_transit":false,"time":8,"distance":1385,"line":0,"transit":false,"station_id":"CUK"},{"is_transit":false,"time":3,"i_lat":-6.224515,"station_name":"Kranji","line":1,"station_id":"KRI","transit":false,"i_long":106.977657,"distance":3097},{"time":4,"station_id":"BKS","transit":false,"station_name":"Bekasi","distance":2520,"line":0,"i_lat":-6.236616,"is_transit":false,"i_long":106.997013},{"i_lat":-6.248029,"i_long":107.016735,"line":0,"time":2,"station_id":"BKST","transit":false,"is_transit":false,"distance":2368,"station_name":"Bekasi Timur"},{"station_id":"TB","station_name":"Tambun","i_long":107.055722,"transit":false,"i_lat":-6.258864,"is_transit":false,"time":7,"line":1,"distance":4460}]]}