{"data":[[{"line":6,"time":0,"distance":0,"i_lat":-6.237242,"station_id":"KBY","transit":false,"station_name":"Kebayoran","is_transit":false,"i_long":106.780334},{"line":6,"transit":false,"i_lat":-6.207404,"time":7,"distance":3737,"i_long":106.79689,"station_id":"PLM","station_name":"Palmerah","is_transit":false},{"is_transit":true,"transit":true,"distance":3191,"i_lat":-6.185545,"time":6,"line":1,"i_long":106.811091,"station_id":"THB","station_name":"Tanah Abang"},{"station_id":"KAT","station_name":"Karet","is_transit":false,"i_long":106.816351,"line":1,"transit":false,"time":5,"i_lat":-6.20132,"distance":2029},{"distance":471,"i_long":106.819881,"line":1,"station_name":"Sudirman Baru","time":1,"transit":false,"station_id":"SUDB","i_lat":-6.201433,"is_transit":false},{"distance":280,"station_name":"Sudirman","time":1,"line":1,"i_long":106.822649,"i_lat":-6.202263,"transit":false,"station_id":"SUD","is_transit":false},{"station_name":"Manggarai","station_id":"MRI","i_lat":-6.209883,"line":0,"transit":false,"distance":3186,"i_long":106.84912,"time":4,"is_transit":true},{"line":1,"station_name":"Matraman","transit":false,"is_transit":false,"distance":1275,"i_long":106.858896,"station_id":"MTR","time":2,"i_lat":-6.212485},{"distance":1377,"is_transit":true,"i_long":106.86807400000001,"i_lat":-6.215091,"line":0,"transit":false,"time":8,"station_id":"JNG","station_name":"Jatinegara"},{"line":1,"i_lat":-6.2135,"i_long":106.899548,"station_name":"Klender","time":3,"distance":3395,"station_id":"KLD","transit":false,"is_transit":false},{"time":2,"station_id":"BUA","i_lat":-6.215568,"i_long":106.922662,"transit":false,"is_transit":false,"distance":3100,"line":0,"station_name":"Buaran"},{"transit":false,"time":1,"line":1,"station_id":"KLDB","i_long":106.939679,"i_lat":-6.217455,"is_transit":false,"station_name":"Klenderbaru","distance":1305},{"distance":1385,"is_transit":false,"transit":false,"i_long":106.951283,"time":8,"station_id":"CUK","station_name":"Cakung","line":0,"i_lat":-6.219053},{"station_name":"Kranji","i_lat":-6.224515,"station_id":"KRI","transit":false,"time":3,"is_transit":false,"i_long":106.977657,"distance":3097,"line":1},{"is_transit":false,"line":0,"i_lat":-6.236616,"i_long":106.997013,"distance":2520,"station_id":"BKS","transit":false,"station_name":"Bekasi","time":4},{"transit":false,"i_long":107.016735,"station_name":"Bekasi Timur","i_lat":-6.248029,"line":0,"is_transit":false,"time":2,"distance":2368,"station_id":"BKST"}],[{"i_long":106.780334,"distance":0,"line":6,"i_lat":-6.237242,"station_id":"KBY","station_name":"Kebayoran","transit":false,"is_transit":false,"time":0},{"line":6,"i_lat":-6.207404,"distance":3737,"transit":false,"time":7,"station_name":"Palmerah","is_transit":false,"i_long":106.79689,"station_id":"PLM"},{"station_id":"THB","i_long":106.811091,"i_lat":-6.185545,"distance":3191,"is_transit":true,"station_name":"Tanah Abang","line":1,"time":6,"transit":true},{"line":1,"transit":true,"station_id":"DU","is_transit":true,"i_lat":-6.155215,"time":8,"i_long":106.800832,"distance":3632,"station_name":"Duri"},{"line":0,"time":4,"i_long":106.79867,"is_transit":false,"transit":false,"i_lat":-6.144674,"station_name":"Angke","distance":1230,"station_id":"AK"},{"station_name":"Kampung Bandan","time":9,"line":0,"distance":4102,"i_lat":-6.132549,"i_long":106.826365,"transit":true,"station_id":"KPB","is_transit":true},{"station_name":"Rajawali","line":11,"time":3,"distance":1444,"transit":false,"station_id":"RJW","i_lat":-6.14505,"is_transit":false,"i_long":106.836569},{"transit":false,"i_lat":-6.161728,"station_id":"KMO","line":11,"i_long":106.839204,"is_transit":false,"distance":1901,"station_name":"Kemayoran","time":5},{"transit":false,"distance":1436,"station_name":"Pasar Senen","i_lat":-6.174784,"is_transit":false,"time":4,"station_id":"PSE","line":11,"i_long":106.84368},{"line":11,"station_id":"GST","i_lat":-6.185975,"time":8,"distance":1567,"transit":false,"i_long":106.850107,"station_name":"Gang Sentiong","is_transit":false},{"station_name":"Kramat","is_transit":false,"line":11,"i_long":106.855437,"i_lat":-6.193792,"station_id":"KMT","distance":973,"transit":false,"time":1},{"i_long":106.861737,"time":2,"is_transit":false,"line":11,"i_lat":-6.209188,"transit":false,"station_name":"Pondok Jati","distance":1829,"station_id":"POK"},{"is_transit":true,"i_lat":-6.215091,"station_name":"Jatinegara","transit":true,"station_id":"JNG","i_long":106.86807400000001,"line":0,"distance":1236,"time":9},{"station_name":"Klender","time":3,"is_transit":false,"distance":3395,"i_lat":-6.2135,"i_long":106.899548,"transit":false,"line":1,"station_id":"KLD"},{"transit":false,"time":2,"line":0,"station_id":"BUA","station_name":"Buaran","i_long":106.922662,"is_transit":false,"i_lat":-6.215568,"distance":3100},{"time":1,"i_long":106.939679,"line":1,"i_lat":-6.217455,"transit":false,"station_name":"Klenderbaru","distance":1305,"station_id":"KLDB","is_transit":false},{"is_transit":false,"station_name":"Cakung","time":8,"transit":false,"line":0,"station_id":"CUK","i_lat":-6.219053,"distance":1385,"i_long":106.951283},{"distance":3097,"station_id":"KRI","i_lat":-6.224515,"i_long":106.977657,"station_name":"Kranji","time":3,"is_transit":false,"line":1,"transit":false},{"i_lat":-6.236616,"station_id":"BKS","station_name":"Bekasi","line":0,"distance":2520,"transit":false,"time":4,"is_transit":false,"i_long":106.997013},{"station_name":"Bekasi Timur","transit":false,"time":2,"station_id":"BKST","is_transit":false,"line":0,"distance":2368,"i_lat":-6.248029,"i_long":107.016735}],[{"i_long":106.780334,"distance":0,"station_name":"Kebayoran","is_transit":false,"line":6,"station_id":"KBY","i_lat":-6.237242,"time":0,"transit":false},{"station_name":"Palmerah","i_lat":-6.207404,"distance":3737,"transit":false,"time":7,"i_long":106.79689,"line":6,"station_id":"PLM","is_transit":false},{"station_name":"Tanah Abang","station_id":"THB","i_long":106.811091,"distance":3191,"i_lat":-6.185545,"time":6,"line":1,"transit":true,"is_transit":true},{"is_transit":true,"distance":3632,"i_lat":-6.155215,"i_long":106.800832,"station_id":"DU","line":1,"transit":true,"time":8,"station_name":"Duri"},{"station_name":"Angke","time":4,"transit":false,"is_transit":false,"i_lat":-6.144674,"distance":1230,"station_id":"AK","i_long":106.79867,"line":0},{"station_id":"KPB","line":0,"distance":4102,"transit":false,"is_transit":true,"i_long":106.826365,"station_name":"Kampung Bandan","time":9,"i_lat":-6.132549},{"station_name":"Jakarta Kota","distance":1364,"station_id":"JAKK","transit":true,"time":3,"is_transit":true,"i_long":106.812439,"i_lat":-6.137569,"line":0},{"transit":false,"time":4,"i_lat":-6.141205,"station_id":"JAY","distance":1264,"i_long":106.820901,"is_transit":false,"line":7,"station_name":"Jayakarta"},{"i_long":106.82482,"station_id":"MGB","line":2,"transit":false,"distance":1080,"time":2,"station_name":"Manggabesar","is_transit":false,"i_lat":-6.149769},{"i_long":106.827103,"is_transit":false,"line":2,"station_name":"Sawah Besar","time":2,"distance":906,"i_lat":-6.160725,"transit":false,"station_id":"SW"},{"station_name":"Juanda","is_transit":false,"i_long":106.828284,"i_lat":-6.166716,"time":2,"transit":false,"line":2,"distance":1149,"station_id":"JUA"},{"time":4,"station_name":"Gondangdia","is_transit":false,"distance":2015,"line":2,"i_long":106.832183,"i_lat":-6.186295,"station_id":"GDD","transit":false},{"time":3,"transit":false,"i_lat":-6.198556,"i_long":106.840169,"station_id":"CKI","station_name":"Cikini","line":0,"is_transit":false,"distance":1750},{"transit":true,"time":4,"i_long":106.84912,"i_lat":-6.209883,"distance":1590,"is_transit":true,"line":0,"station_name":"Manggarai","station_id":"MRI"},{"i_long":106.858896,"time":2,"line":1,"transit":false,"distance":1275,"station_id":"MTR","station_name":"Matraman","is_transit":false,"i_lat":-6.212485},{"station_name":"Jatinegara","is_transit":true,"line":0,"transit":false,"i_lat":-6.215091,"i_long":106.86807400000001,"station_id":"JNG","time":8,"distance":1377},{"distance":3395,"i_lat":-6.2135,"station_name":"Klender","is_transit":false,"i_long":106.899548,"transit":false,"station_id":"KLD","time":3,"line":1},{"time":2,"i_long":106.922662,"station_id":"BUA","station_name":"Buaran","distance":3100,"is_transit":false,"line":0,"transit":false,"i_lat":-6.215568},{"station_id":"KLDB","time":1,"transit":false,"is_transit":false,"i_lat":-6.217455,"line":1,"station_name":"Klenderbaru","i_long":106.939679,"distance":1305},{"transit":false,"is_transit":false,"line":0,"time":8,"i_lat":-6.219053,"i_long":106.951283,"distance":1385,"station_id":"CUK","station_name":"Cakung"},{"distance":3097,"station_id":"KRI","transit":false,"is_transit":false,"line":1,"i_long":106.977657,"i_lat":-6.224515,"station_name":"Kranji","time":3},{"is_transit":false,"i_long":106.997013,"transit":false,"time":4,"i_lat":-6.236616,"distance":2520,"station_name":"Bekasi","line":0,"station_id":"BKS"},{"distance":2368,"time":2,"transit":false,"station_id":"BKST","i_long":107.016735,"line":0,"i_lat":-6.248029,"is_transit":false,"station_name":"Bekasi Timur"}],[{"station_id":"KBY","i_lat":-6.237242,"i_long":106.780334,"time":0,"distance":0,"line":6,"transit":false,"station_name":"Kebayoran","is_transit":false},{"station_name":"Palmerah","station_id":"PLM","time":7,"transit":false,"distance":3737,"is_transit":false,"i_long":106.79689,"line":6,"i_lat":-6.207404},{"transit":true,"time":6,"distance":3191,"i_lat":-6.185545,"i_long":106.811091,"is_transit":true,"line":1,"station_id":"THB","station_name":"Tanah Abang"},{"i_long":106.816351,"station_name":"Karet","distance":2029,"station_id":"KAT","transit":false,"time":5,"is_transit":false,"i_lat":-6.20132,"line":1},{"transit":false,"is_transit":false,"i_lat":-6.201433,"distance":471,"time":1,"i_long":106.819881,"station_id":"SUDB","station_name":"Sudirman Baru","line":1},{"i_long":106.822649,"is_transit":false,"station_name":"Sudirman","i_lat":-6.202263,"station_id":"SUD","distance":280,"transit":false,"time":1,"line":1},{"station_name":"Manggarai","is_transit":true,"i_lat":-6.209883,"station_id":"MRI","transit":true,"line":0,"i_long":106.84912,"time":4,"distance":3186},{"station_name":"Cikini","is_transit":false,"i_lat":-6.198556,"distance":1590,"time":4,"transit":false,"line":0,"i_long":106.840169,"station_id":"CKI"},{"is_transit":false,"transit":false,"i_long":106.832183,"distance":1750,"line":2,"station_name":"Gondangdia","time":3,"station_id":"GDD","i_lat":-6.186295},{"is_transit":false,"transit":false,"station_id":"JUA","station_name":"Juanda","i_long":106.828284,"distance":2015,"i_lat":-6.166716,"time":4,"line":2},{"line":2,"i_long":106.827103,"time":2,"distance":1149,"station_id":"SW","transit":false,"i_lat":-6.160725,"is_transit":false,"station_name":"Sawah Besar"},{"station_id":"MGB","i_long":106.82482,"distance":906,"line":2,"is_transit":false,"station_name":"Manggabesar","i_lat":-6.149769,"transit":false,"time":2},{"i_lat":-6.141205,"line":7,"station_name":"Jayakarta","is_transit":false,"transit":false,"time":2,"distance":1080,"station_id":"JAY","i_long":106.820901},{"i_lat":-6.137569,"transit":true,"i_long":106.812439,"distance":1264,"time":4,"line":0,"station_id":"JAKK","station_name":"Jakarta Kota","is_transit":true},{"line":0,"time":3,"station_name":"Kampung Bandan","i_long":106.826365,"station_id":"KPB","transit":true,"is_transit":true,"i_lat":-6.132549,"distance":1364},{"line":11,"station_name":"Rajawali","time":3,"station_id":"RJW","transit":false,"i_long":106.836569,"i_lat":-6.14505,"distance":1444,"is_transit":false},{"station_id":"KMO","transit":false,"distance":1901,"time":5,"i_lat":-6.161728,"line":11,"i_long":106.839204,"station_name":"Kemayoran","is_transit":false},{"is_transit":false,"time":4,"station_id":"PSE","i_lat":-6.174784,"distance":1436,"station_name":"Pasar Senen","i_long":106.84368,"transit":false,"line":11},{"transit":false,"station_name":"Gang Sentiong","i_lat":-6.185975,"time":8,"line":11,"is_transit":false,"distance":1567,"i_long":106.850107,"station_id":"GST"},{"is_transit":false,"station_name":"Kramat","distance":973,"transit":false,"i_long":106.855437,"i_lat":-6.193792,"line":11,"time":1,"station_id":"KMT"},{"distance":1829,"line":11,"station_name":"Pondok Jati","i_lat":-6.209188,"time":2,"is_transit":false,"transit":false,"i_long":106.861737,"station_id":"POK"},{"time":9,"distance":1236,"is_transit":true,"i_lat":-6.215091,"line":0,"transit":true,"station_name":"Jatinegara","i_long":106.86807400000001,"station_id":"JNG"},{"station_name":"Klender","time":3,"line":1,"distance":3395,"station_id":"KLD","is_transit":false,"i_lat":-6.2135,"i_long":106.899548,"transit":false},{"i_lat":-6.215568,"station_id":"BUA","line":0,"transit":false,"station_name":"Buaran","i_long":106.922662,"is_transit":false,"time":2,"distance":3100},{"line":1,"i_lat":-6.217455,"time":1,"distance":1305,"transit":false,"station_id":"KLDB","station_name":"Klenderbaru","is_transit":false,"i_long":106.939679},{"station_name":"Cakung","distance":1385,"transit":false,"i_lat":-6.219053,"is_transit":false,"i_long":106.951283,"time":8,"line":0,"station_id":"CUK"},{"distance":3097,"station_name":"Kranji","station_id":"KRI","line":1,"transit":false,"time":3,"i_lat":-6.224515,"is_transit":false,"i_long":106.977657},{"transit":false,"time":4,"is_transit":false,"station_name":"Bekasi","i_long":106.997013,"line":0,"station_id":"BKS","distance":2520,"i_lat":-6.236616},{"station_id":"BKST","is_transit":false,"transit":false,"time":2,"distance":2368,"station_name":"Bekasi Timur","i_lat":-6.248029,"i_long":107.016735,"line":0}]]}