{"data":[[{"i_lat":-6.237242,"distance":0,"i_long":106.780334,"is_transit":false,"time":0,"transit":false,"station_name":"Kebayoran","line":6,"station_id":"KBY"},{"station_id":"PLM","station_name":"Palmerah","i_long":106.79689,"i_lat":-6.207404,"distance":3737,"transit":false,"line":6,"time":7,"is_transit":false},{"distance":3191,"i_lat":-6.185545,"station_name":"Tanah Abang","transit":true,"time":6,"line":1,"is_transit":true,"i_long":106.811091,"station_id":"THB"},{"transit":false,"station_name":"Karet","line":1,"is_transit":false,"station_id":"KAT","i_lat":-6.20132,"time":5,"i_long":106.816351,"distance":2029},{"station_name":"Sudirman Baru","transit":false,"station_id":"SUDB","i_lat":-6.201433,"is_transit":false,"distance":471,"line":1,"i_long":106.819881,"time":1},{"distance":280,"station_id":"SUD","station_name":"Sudirman","transit":false,"line":1,"is_transit":false,"i_lat":-6.202263,"time":1,"i_long":106.822649},{"station_id":"MRI","i_lat":-6.209883,"i_long":106.84912,"line":2,"time":4,"station_name":"Manggarai","transit":false,"distance":3186,"is_transit":false},{"station_name":"Matraman","line":1,"station_id":"MTR","i_long":106.858896,"transit":false,"time":2,"i_lat":-6.212485,"distance":1275,"is_transit":false},{"station_id":"JNG","time":8,"transit":false,"distance":1377,"i_long":106.86807400000001,"i_lat":-6.215091,"line":1,"is_transit":false,"station_name":"Jatinegara"},{"transit":false,"distance":3395,"i_lat":-6.2135,"time":3,"i_long":106.899548,"line":1,"station_id":"KLD","station_name":"Klender","is_transit":false}],[{"is_transit":false,"time":0,"station_id":"KBY","station_name":"Kebayoran","i_lat":-6.237242,"i_long":106.780334,"line":6,"transit":false,"distance":0},{"i_long":106.79689,"is_transit":false,"station_id":"PLM","distance":3737,"i_lat":-6.207404,"station_name":"Palmerah","line":6,"transit":false,"time":7},{"i_long":106.811091,"transit":true,"i_lat":-6.185545,"station_name":"Tanah Abang","distance":3191,"station_id":"THB","is_transit":true,"line":1,"time":6},{"station_name":"Duri","distance":3632,"line":1,"is_transit":false,"time":8,"transit":false,"station_id":"DU","i_lat":-6.155215,"i_long":106.800832},{"i_long":106.79867,"i_lat":-6.144674,"station_name":"Angke","time":4,"line":1,"transit":false,"is_transit":false,"station_id":"AK","distance":1230},{"i_lat":-6.132549,"time":9,"station_name":"Kampung Bandan","transit":true,"i_long":106.826365,"station_id":"KPB","is_transit":true,"distance":4102,"line":4},{"i_long":106.836569,"station_name":"Rajawali","is_transit":false,"station_id":"RJW","distance":1444,"line":11,"i_lat":-6.14505,"time":3,"transit":false},{"i_lat":-6.161728,"transit":false,"time":5,"station_name":"Kemayoran","is_transit":false,"distance":1901,"station_id":"KMO","i_long":106.839204,"line":11},{"distance":1436,"is_transit":false,"time":4,"i_lat":-6.174784,"station_name":"Pasar Senen","transit":false,"i_long":106.84368,"station_id":"PSE","line":11},{"i_lat":-6.185975,"station_name":"Gang Sentiong","station_id":"GST","distance":1567,"line":11,"i_long":106.850107,"transit":false,"is_transit":false,"time":8},{"i_lat":-6.193792,"transit":false,"station_name":"Kramat","time":1,"is_transit":false,"distance":973,"i_long":106.855437,"line":11,"station_id":"KMT"},{"i_lat":-6.209188,"is_transit":false,"station_id":"POK","station_name":"Pondok Jati","time":2,"i_long":106.861737,"distance":1829,"transit":false,"line":11},{"i_lat":-6.215091,"distance":1236,"line":1,"time":9,"station_id":"JNG","station_name":"Jatinegara","transit":true,"is_transit":true,"i_long":106.86807400000001},{"line":1,"is_transit":false,"i_long":106.899548,"distance":3395,"time":3,"station_id":"KLD","transit":false,"station_name":"Klender","i_lat":-6.2135}],[{"distance":0,"station_name":"Kebayoran","transit":false,"is_transit":false,"station_id":"KBY","i_lat":-6.237242,"i_long":106.780334,"time":0,"line":6},{"line":6,"is_transit":false,"transit":false,"station_name":"Palmerah","i_long":106.79689,"i_lat":-6.207404,"distance":3737,"time":7,"station_id":"PLM"},{"i_long":106.811091,"transit":true,"is_transit":true,"line":1,"distance":3191,"time":6,"station_name":"Tanah Abang","station_id":"THB","i_lat":-6.185545},{"line":1,"i_lat":-6.155215,"station_id":"DU","is_transit":false,"time":8,"station_name":"Duri","i_long":106.800832,"distance":3632,"transit":false},{"transit":false,"station_id":"AK","time":4,"distance":1230,"line":1,"i_long":106.79867,"is_transit":false,"i_lat":-6.144674,"station_name":"Angke"},{"i_lat":-6.132549,"line":4,"station_id":"KPB","distance":4102,"i_long":106.826365,"time":9,"station_name":"Kampung Bandan","transit":true,"is_transit":true},{"transit":true,"i_lat":-6.137569,"distance":1364,"line":2,"station_name":"Jakarta Kota","time":3,"i_long":106.812439,"is_transit":true,"station_id":"JAKK"},{"transit":false,"station_id":"JAY","is_transit":false,"station_name":"Jayakarta","i_lat":-6.141205,"line":2,"distance":1264,"i_long":106.820901,"time":4},{"distance":1080,"line":2,"is_transit":false,"transit":false,"i_lat":-6.149769,"station_id":"MGB","time":2,"station_name":"Manggabesar","i_long":106.82482},{"station_name":"Sawah Besar","i_long":106.827103,"station_id":"SW","time":2,"line":2,"i_lat":-6.160725,"distance":906,"is_transit":false,"transit":false},{"transit":false,"is_transit":false,"station_name":"Juanda","distance":1149,"line":2,"i_lat":-6.166716,"station_id":"JUA","i_long":106.828284,"time":2},{"i_long":106.832183,"time":4,"line":2,"i_lat":-6.186295,"station_id":"GDD","is_transit":false,"station_name":"Gondangdia","transit":false,"distance":2015},{"i_lat":-6.198556,"i_long":106.840169,"distance":1750,"transit":false,"station_name":"Cikini","line":2,"is_transit":false,"station_id":"CKI","time":3},{"i_long":106.84912,"distance":1590,"station_id":"MRI","station_name":"Manggarai","is_transit":true,"transit":true,"i_lat":-6.209883,"line":2,"time":4},{"station_name":"Matraman","i_lat":-6.212485,"station_id":"MTR","distance":1275,"is_transit":false,"line":1,"time":2,"transit":false,"i_long":106.858896},{"is_transit":false,"time":8,"transit":false,"i_lat":-6.215091,"station_id":"JNG","line":1,"station_name":"Jatinegara","distance":1377,"i_long":106.86807400000001},{"transit":false,"distance":3395,"line":1,"i_lat":-6.2135,"station_name":"Klender","i_long":106.899548,"time":3,"station_id":"KLD","is_transit":false}],[{"transit":false,"i_long":106.780334,"station_id":"KBY","line":6,"i_lat":-6.237242,"is_transit":false,"distance":0,"time":0,"station_name":"Kebayoran"},{"is_transit":false,"i_lat":-6.207404,"distance":3737,"station_id":"PLM","i_long":106.79689,"transit":false,"time":7,"station_name":"Palmerah","line":6},{"time":6,"i_long":106.811091,"station_name":"Tanah Abang","distance":3191,"line":1,"i_lat":-6.185545,"station_id":"THB","is_transit":true,"transit":true},{"time":5,"is_transit":false,"station_id":"KAT","transit":false,"station_name":"Karet","distance":2029,"i_long":106.816351,"i_lat":-6.20132,"line":1},{"distance":471,"time":1,"station_id":"SUDB","station_name":"Sudirman Baru","i_long":106.819881,"i_lat":-6.201433,"is_transit":false,"line":1,"transit":false},{"is_transit":false,"line":1,"i_long":106.822649,"station_id":"SUD","transit":false,"distance":280,"station_name":"Sudirman","i_lat":-6.202263,"time":1},{"station_id":"MRI","distance":3186,"i_long":106.84912,"i_lat":-6.209883,"line":2,"time":4,"station_name":"Manggarai","transit":true,"is_transit":true},{"i_lat":-6.198556,"line":2,"i_long":106.840169,"distance":1590,"station_name":"Cikini","time":4,"station_id":"CKI","is_transit":false,"transit":false},{"i_long":106.832183,"transit":false,"station_id":"GDD","station_name":"Gondangdia","time":3,"distance":1750,"i_lat":-6.186295,"line":2,"is_transit":false},{"i_long":106.828284,"is_transit":false,"station_id":"JUA","station_name":"Juanda","transit":false,"time":4,"distance":2015,"i_lat":-6.166716,"line":2},{"station_id":"SW","time":2,"i_long":106.827103,"is_transit":false,"i_lat":-6.160725,"line":2,"distance":1149,"station_name":"Sawah Besar","transit":false},{"i_long":106.82482,"time":2,"transit":false,"station_name":"Manggabesar","i_lat":-6.149769,"line":2,"is_transit":false,"station_id":"MGB","distance":906},{"time":2,"line":2,"i_long":106.820901,"is_transit":false,"distance":1080,"i_lat":-6.141205,"transit":false,"station_name":"Jayakarta","station_id":"JAY"},{"i_long":106.812439,"distance":1264,"transit":true,"line":2,"station_id":"JAKK","station_name":"Jakarta Kota","time":4,"is_transit":true,"i_lat":-6.137569},{"transit":true,"i_lat":-6.132549,"is_transit":true,"line":4,"time":3,"distance":1364,"station_id":"KPB","station_name":"Kampung Bandan","i_long":106.826365},{"is_transit":false,"station_id":"RJW","distance":1444,"transit":false,"i_lat":-6.14505,"i_long":106.836569,"time":3,"station_name":"Rajawali","line":11},{"is_transit":false,"distance":1901,"station_id":"KMO","transit":false,"i_lat":-6.161728,"station_name":"Kemayoran","time":5,"i_long":106.839204,"line":11},{"is_transit":false,"i_lat":-6.174784,"line":11,"station_id":"PSE","distance":1436,"station_name":"Pasar Senen","time":4,"i_long":106.84368,"transit":false},{"i_lat":-6.185975,"distance":1567,"is_transit":false,"station_name":"Gang Sentiong","time":8,"station_id":"GST","transit":false,"line":11,"i_long":106.850107},{"station_name":"Kramat","distance":973,"station_id":"KMT","is_transit":false,"i_lat":-6.193792,"i_long":106.855437,"line":11,"transit":false,"time":1},{"distance":1829,"time":2,"transit":false,"i_long":106.861737,"is_transit":false,"station_name":"Pondok Jati","line":11,"i_lat":-6.209188,"station_id":"POK"},{"station_name":"Jatinegara","time":9,"transit":true,"i_lat":-6.215091,"i_long":106.86807400000001,"station_id":"JNG","line":1,"distance":1236,"is_transit":true},{"is_transit":false,"time":3,"station_id":"KLD","transit":false,"distance":3395,"i_lat":-6.2135,"i_long":106.899548,"line":1,"station_name":"Klender"}]]}