{"data":[[{"is_transit":false,"station_id":"KBY","transit":false,"time":0,"distance":0,"i_lat":-6.237242,"i_long":106.780334,"station_name":"Kebayoran","line":6},{"time":7,"distance":3737,"transit":false,"i_lat":-6.207404,"station_id":"PLM","line":6,"is_transit":false,"i_long":106.79689,"station_name":"Palmerah"},{"line":1,"distance":3191,"time":6,"station_name":"Tanah Abang","i_long":106.811091,"i_lat":-6.185545,"station_id":"THB","is_transit":true,"transit":true},{"i_lat":-6.155215,"i_long":106.800832,"line":1,"station_id":"DU","station_name":"Duri","is_transit":true,"distance":3632,"time":8,"transit":true},{"is_transit":false,"time":4,"station_id":"AK","transit":false,"i_lat":-6.144674,"distance":1230,"station_name":"Angke","line":0,"i_long":106.79867},{"i_lat":-6.132549,"distance":4102,"line":0,"station_name":"Kampung Bandan","is_transit":true,"transit":false,"time":9,"i_long":106.826365,"station_id":"KPB"},{"transit":true,"station_id":"JAKK","time":3,"station_name":"Jakarta Kota","i_lat":-6.137569,"is_transit":true,"line":0,"i_long":106.812439,"distance":1364},{"station_id":"JAY","i_long":106.820901,"i_lat":-6.141205,"is_transit":false,"time":4,"distance":1264,"station_name":"Jayakarta","transit":false,"line":7},{"station_name":"Manggabesar","time":2,"i_lat":-6.149769,"distance":1080,"line":2,"i_long":106.82482,"is_transit":false,"station_id":"MGB","transit":false}],[{"station_name":"Kebayoran","transit":false,"time":0,"line":6,"is_transit":false,"station_id":"KBY","i_lat":-6.237242,"i_long":106.780334,"distance":0},{"is_transit":false,"i_lat":-6.207404,"time":7,"line":6,"station_id":"PLM","station_name":"Palmerah","i_long":106.79689,"distance":3737,"transit":false},{"i_lat":-6.185545,"time":6,"station_id":"THB","is_transit":true,"line":1,"distance":3191,"transit":true,"station_name":"Tanah Abang","i_long":106.811091},{"is_transit":false,"line":1,"station_name":"Karet","transit":false,"i_long":106.816351,"distance":2029,"station_id":"KAT","time":5,"i_lat":-6.20132},{"distance":471,"i_long":106.819881,"station_id":"SUDB","is_transit":false,"transit":false,"line":1,"i_lat":-6.201433,"station_name":"Sudirman Baru","time":1},{"station_name":"Sudirman","is_transit":false,"transit":false,"time":1,"distance":280,"station_id":"SUD","i_long":106.822649,"i_lat":-6.202263,"line":1},{"transit":true,"i_lat":-6.209883,"station_name":"Manggarai","i_long":106.84912,"is_transit":true,"distance":3186,"time":4,"station_id":"MRI","line":0},{"time":4,"station_id":"CKI","distance":1590,"station_name":"Cikini","transit":false,"i_lat":-6.198556,"line":0,"is_transit":false,"i_long":106.840169},{"station_name":"Gondangdia","is_transit":false,"line":2,"i_long":106.832183,"station_id":"GDD","time":3,"distance":1750,"transit":false,"i_lat":-6.186295},{"is_transit":false,"line":2,"distance":2015,"i_long":106.828284,"station_name":"Juanda","station_id":"JUA","time":4,"transit":false,"i_lat":-6.166716},{"station_id":"SW","is_transit":false,"i_long":106.827103,"station_name":"Sawah Besar","i_lat":-6.160725,"line":2,"transit":false,"distance":1149,"time":2},{"station_name":"Manggabesar","i_long":106.82482,"i_lat":-6.149769,"line":2,"distance":906,"transit":false,"time":2,"station_id":"MGB","is_transit":false}],[{"station_id":"KBY","is_transit":false,"transit":false,"line":6,"i_lat":-6.237242,"i_long":106.780334,"time":0,"distance":0,"station_name":"Kebayoran"},{"i_lat":-6.207404,"station_id":"PLM","is_transit":false,"time":7,"station_name":"Palmerah","transit":false,"distance":3737,"i_long":106.79689,"line":6},{"i_long":106.811091,"time":6,"line":1,"distance":3191,"station_name":"Tanah Abang","transit":true,"is_transit":true,"i_lat":-6.185545,"station_id":"THB"},{"station_id":"KAT","station_name":"Karet","transit":false,"time":5,"i_lat":-6.20132,"i_long":106.816351,"is_transit":false,"distance":2029,"line":1},{"i_lat":-6.201433,"is_transit":false,"time":1,"station_id":"SUDB","distance":471,"station_name":"Sudirman Baru","line":1,"i_long":106.819881,"transit":false},{"transit":false,"is_transit":false,"i_lat":-6.202263,"distance":280,"station_name":"Sudirman","station_id":"SUD","time":1,"i_long":106.822649,"line":1},{"time":4,"station_id":"MRI","i_lat":-6.209883,"line":0,"distance":3186,"station_name":"Manggarai","i_long":106.84912,"is_transit":true,"transit":false},{"i_long":106.858896,"transit":false,"line":1,"station_name":"Matraman","station_id":"MTR","time":2,"i_lat":-6.212485,"is_transit":false,"distance":1275},{"distance":1377,"station_id":"JNG","station_name":"Jatinegara","transit":true,"i_long":106.86807400000001,"is_transit":true,"i_lat":-6.215091,"time":8,"line":0},{"i_lat":-6.209188,"is_transit":false,"line":11,"transit":false,"station_id":"POK","i_long":106.861737,"station_name":"Pondok Jati","distance":1236,"time":2},{"transit":false,"distance":1829,"station_name":"Kramat","i_long":106.855437,"is_transit":false,"time":2,"station_id":"KMT","line":11,"i_lat":-6.193792},{"transit":false,"distance":973,"station_id":"GST","time":1,"i_long":106.850107,"station_name":"Gang Sentiong","is_transit":false,"i_lat":-6.185975,"line":11},{"transit":false,"is_transit":false,"station_id":"PSE","time":8,"distance":1567,"station_name":"Pasar Senen","i_lat":-6.174784,"i_long":106.84368,"line":11},{"i_long":106.839204,"distance":1436,"station_id":"KMO","i_lat":-6.161728,"transit":false,"line":11,"time":4,"is_transit":false,"station_name":"Kemayoran"},{"i_long":106.836569,"distance":1901,"station_id":"RJW","station_name":"Rajawali","is_transit":false,"transit":false,"time":5,"line":11,"i_lat":-6.14505},{"station_name":"Kampung Bandan","transit":true,"i_long":106.826365,"distance":1444,"station_id":"KPB","is_transit":true,"line":0,"i_lat":-6.132549,"time":3},{"is_transit":true,"station_id":"JAKK","time":3,"line":0,"transit":true,"i_lat":-6.137569,"distance":1364,"station_name":"Jakarta Kota","i_long":106.812439},{"station_id":"JAY","distance":1264,"is_transit":false,"station_name":"Jayakarta","transit":false,"i_long":106.820901,"i_lat":-6.141205,"time":4,"line":7},{"distance":1080,"time":2,"i_lat":-6.149769,"station_name":"Manggabesar","i_long":106.82482,"is_transit":false,"station_id":"MGB","line":2,"transit":false}],[{"time":0,"distance":0,"line":6,"transit":false,"is_transit":false,"station_name":"Kebayoran","station_id":"KBY","i_lat":-6.237242,"i_long":106.780334},{"line":6,"station_id":"PLM","station_name":"Palmerah","i_lat":-6.207404,"transit":false,"is_transit":false,"time":7,"i_long":106.79689,"distance":3737},{"station_id":"THB","i_long":106.811091,"time":6,"is_transit":true,"transit":true,"station_name":"Tanah Abang","distance":3191,"i_lat":-6.185545,"line":1},{"line":1,"is_transit":true,"station_id":"DU","transit":true,"i_lat":-6.155215,"station_name":"Duri","time":8,"distance":3632,"i_long":106.800832},{"is_transit":false,"station_name":"Angke","line":0,"station_id":"AK","time":4,"distance":1230,"i_lat":-6.144674,"i_long":106.79867,"transit":false},{"is_transit":true,"station_name":"Kampung Bandan","station_id":"KPB","time":9,"transit":true,"i_lat":-6.132549,"i_long":106.826365,"distance":4102,"line":0},{"time":3,"transit":false,"is_transit":false,"i_lat":-6.14505,"i_long":106.836569,"station_name":"Rajawali","line":11,"station_id":"RJW","distance":1444},{"distance":1901,"station_id":"KMO","time":5,"station_name":"Kemayoran","i_lat":-6.161728,"i_long":106.839204,"transit":false,"line":11,"is_transit":false},{"is_transit":false,"i_long":106.84368,"station_name":"Pasar Senen","time":4,"i_lat":-6.174784,"station_id":"PSE","transit":false,"distance":1436,"line":11},{"is_transit":false,"distance":1567,"station_name":"Gang Sentiong","time":8,"transit":false,"i_lat":-6.185975,"station_id":"GST","i_long":106.850107,"line":11},{"time":1,"line":11,"i_lat":-6.193792,"distance":973,"i_long":106.855437,"station_name":"Kramat","is_transit":false,"transit":false,"station_id":"KMT"},{"time":2,"i_long":106.861737,"is_transit":false,"line":11,"station_name":"Pondok Jati","distance":1829,"station_id":"POK","transit":false,"i_lat":-6.209188},{"is_transit":true,"time":9,"distance":1236,"transit":true,"station_name":"Jatinegara","station_id":"JNG","i_lat":-6.215091,"i_long":106.86807400000001,"line":0},{"transit":false,"line":1,"station_name":"Matraman","i_lat":-6.212485,"is_transit":false,"station_id":"MTR","time":2,"distance":1377,"i_long":106.858896},{"distance":1275,"i_long":106.84912,"line":0,"time":2,"is_transit":true,"station_name":"Manggarai","i_lat":-6.209883,"station_id":"MRI","transit":true},{"distance":1590,"line":0,"i_lat":-6.198556,"time":4,"station_id":"CKI","is_transit":false,"transit":false,"station_name":"Cikini","i_long":106.840169},{"i_long":106.832183,"station_name":"Gondangdia","transit":false,"i_lat":-6.186295,"time":3,"station_id":"GDD","line":2,"is_transit":false,"distance":1750},{"station_id":"JUA","transit":false,"time":4,"station_name":"Juanda","i_long":106.828284,"is_transit":false,"i_lat":-6.166716,"line":2,"distance":2015},{"station_name":"Sawah Besar","is_transit":false,"time":2,"transit":false,"i_lat":-6.160725,"i_long":106.827103,"distance":1149,"station_id":"SW","line":2},{"station_name":"Manggabesar","i_lat":-6.149769,"time":2,"i_long":106.82482,"line":2,"station_id":"MGB","transit":false,"is_transit":false,"distance":906}]]}