{"data":[[{"i_long":106.780334,"station_name":"Kebayoran","is_transit":false,"station_id":"KBY","time":0,"i_lat":-6.237242,"distance":0,"transit":false,"line":6},{"i_long":106.79689,"time":7,"station_id":"PLM","line":6,"is_transit":false,"i_lat":-6.207404,"distance":3737,"transit":false,"station_name":"Palmerah"},{"i_long":106.811091,"i_lat":-6.185545,"time":6,"station_id":"THB","station_name":"Tanah Abang","line":1,"transit":true,"is_transit":true,"distance":3191},{"station_name":"Karet","transit":false,"i_long":106.816351,"line":1,"is_transit":false,"time":5,"distance":2029,"i_lat":-6.20132,"station_id":"KAT"},{"i_long":106.819881,"distance":471,"line":1,"time":1,"station_name":"Sudirman Baru","station_id":"SUDB","transit":false,"i_lat":-6.201433,"is_transit":false},{"i_lat":-6.202263,"station_name":"Sudirman","time":1,"line":1,"station_id":"SUD","distance":280,"is_transit":false,"i_long":106.822649,"transit":false},{"distance":3186,"station_id":"MRI","i_long":106.84912,"is_transit":true,"transit":true,"line":0,"station_name":"Manggarai","i_lat":-6.209883,"time":4},{"is_transit":false,"station_name":"Cikini","i_lat":-6.198556,"distance":1590,"i_long":106.840169,"time":4,"line":0,"station_id":"CKI","transit":false},{"time":3,"is_transit":false,"transit":false,"station_name":"Gondangdia","i_lat":-6.186295,"line":2,"distance":1750,"station_id":"GDD","i_long":106.832183},{"line":2,"i_long":106.828284,"is_transit":false,"distance":2015,"i_lat":-6.166716,"station_name":"Juanda","time":4,"station_id":"JUA","transit":false}],[{"transit":false,"time":0,"i_long":106.780334,"line":6,"is_transit":false,"station_id":"KBY","i_lat":-6.237242,"distance":0,"station_name":"Kebayoran"},{"time":7,"station_id":"PLM","i_long":106.79689,"is_transit":false,"line":6,"distance":3737,"station_name":"Palmerah","transit":false,"i_lat":-6.207404},{"is_transit":true,"i_lat":-6.185545,"i_long":106.811091,"distance":3191,"station_name":"Tanah Abang","time":6,"line":1,"station_id":"THB","transit":true},{"distance":3632,"line":1,"station_name":"Duri","i_lat":-6.155215,"is_transit":true,"i_long":106.800832,"station_id":"DU","time":8,"transit":true},{"time":4,"is_transit":false,"transit":false,"station_name":"Angke","i_lat":-6.144674,"line":0,"distance":1230,"i_long":106.79867,"station_id":"AK"},{"i_long":106.826365,"is_transit":true,"transit":false,"line":0,"station_id":"KPB","i_lat":-6.132549,"station_name":"Kampung Bandan","distance":4102,"time":9},{"distance":1364,"station_id":"JAKK","station_name":"Jakarta Kota","transit":true,"is_transit":true,"i_long":106.812439,"line":0,"time":3,"i_lat":-6.137569},{"line":7,"distance":1264,"time":4,"transit":false,"station_id":"JAY","i_long":106.820901,"station_name":"Jayakarta","is_transit":false,"i_lat":-6.141205},{"i_lat":-6.149769,"i_long":106.82482,"station_id":"MGB","transit":false,"distance":1080,"station_name":"Manggabesar","is_transit":false,"time":2,"line":2},{"line":2,"is_transit":false,"i_lat":-6.160725,"time":2,"distance":906,"station_id":"SW","station_name":"Sawah Besar","transit":false,"i_long":106.827103},{"transit":false,"line":2,"i_long":106.828284,"station_name":"Juanda","time":2,"station_id":"JUA","i_lat":-6.166716,"distance":1149,"is_transit":false}],[{"transit":false,"i_lat":-6.237242,"i_long":106.780334,"line":6,"time":0,"station_id":"KBY","is_transit":false,"station_name":"Kebayoran","distance":0},{"station_id":"PLM","transit":false,"time":7,"i_lat":-6.207404,"station_name":"Palmerah","distance":3737,"i_long":106.79689,"is_transit":false,"line":6},{"station_id":"THB","transit":true,"i_lat":-6.185545,"station_name":"Tanah Abang","distance":3191,"i_long":106.811091,"time":6,"is_transit":true,"line":1},{"station_name":"Duri","line":1,"is_transit":true,"i_long":106.800832,"transit":true,"distance":3632,"time":8,"i_lat":-6.155215,"station_id":"DU"},{"line":0,"is_transit":false,"time":4,"distance":1230,"i_long":106.79867,"station_name":"Angke","station_id":"AK","transit":false,"i_lat":-6.144674},{"station_id":"KPB","i_lat":-6.132549,"distance":4102,"transit":true,"i_long":106.826365,"time":9,"line":0,"is_transit":true,"station_name":"Kampung Bandan"},{"i_long":106.836569,"is_transit":false,"time":3,"station_id":"RJW","distance":1444,"station_name":"Rajawali","transit":false,"line":11,"i_lat":-6.14505},{"line":11,"i_long":106.839204,"i_lat":-6.161728,"time":5,"is_transit":false,"distance":1901,"station_id":"KMO","station_name":"Kemayoran","transit":false},{"station_name":"Pasar Senen","is_transit":false,"i_long":106.84368,"line":11,"station_id":"PSE","time":4,"transit":false,"distance":1436,"i_lat":-6.174784},{"distance":1567,"station_id":"GST","time":8,"transit":false,"i_long":106.850107,"line":11,"station_name":"Gang Sentiong","i_lat":-6.185975,"is_transit":false},{"line":11,"is_transit":false,"i_lat":-6.193792,"station_name":"Kramat","time":1,"distance":973,"transit":false,"station_id":"KMT","i_long":106.855437},{"station_id":"POK","i_lat":-6.209188,"distance":1829,"time":2,"line":11,"station_name":"Pondok Jati","transit":false,"i_long":106.861737,"is_transit":false},{"distance":1236,"i_lat":-6.215091,"line":0,"transit":true,"station_id":"JNG","is_transit":true,"i_long":106.86807400000001,"time":9,"station_name":"Jatinegara"},{"line":1,"station_id":"MTR","station_name":"Matraman","is_transit":false,"time":2,"distance":1377,"transit":false,"i_lat":-6.212485,"i_long":106.858896},{"station_id":"MRI","line":0,"transit":true,"i_lat":-6.209883,"station_name":"Manggarai","time":2,"is_transit":true,"distance":1275,"i_long":106.84912},{"line":0,"station_id":"CKI","time":4,"transit":false,"distance":1590,"station_name":"Cikini","is_transit":false,"i_lat":-6.198556,"i_long":106.840169},{"i_long":106.832183,"line":2,"time":3,"station_name":"Gondangdia","transit":false,"distance":1750,"station_id":"GDD","is_transit":false,"i_lat":-6.186295},{"station_id":"JUA","time":4,"is_transit":false,"i_lat":-6.166716,"station_name":"Juanda","transit":false,"i_long":106.828284,"line":2,"distance":2015}],[{"station_id":"KBY","transit":false,"time":0,"distance":0,"station_name":"Kebayoran","line":6,"is_transit":false,"i_long":106.780334,"i_lat":-6.237242},{"station_id":"PLM","i_long":106.79689,"distance":3737,"i_lat":-6.207404,"line":6,"time":7,"is_transit":false,"station_name":"Palmerah","transit":false},{"is_transit":true,"distance":3191,"i_lat":-6.185545,"station_name":"Tanah Abang","i_long":106.811091,"station_id":"THB","line":1,"time":6,"transit":true},{"i_lat":-6.20132,"station_id":"KAT","line":1,"i_long":106.816351,"is_transit":false,"time":5,"station_name":"Karet","distance":2029,"transit":false},{"time":1,"is_transit":false,"transit":false,"station_name":"Sudirman Baru","distance":471,"station_id":"SUDB","i_long":106.819881,"i_lat":-6.201433,"line":1},{"is_transit":false,"i_lat":-6.202263,"time":1,"station_id":"SUD","line":1,"transit":false,"distance":280,"i_long":106.822649,"station_name":"Sudirman"},{"station_id":"MRI","i_long":106.84912,"distance":3186,"station_name":"Manggarai","is_transit":true,"i_lat":-6.209883,"line":0,"transit":false,"time":4},{"i_lat":-6.212485,"distance":1275,"i_long":106.858896,"station_id":"MTR","transit":false,"station_name":"Matraman","time":2,"line":1,"is_transit":false},{"time":8,"i_long":106.86807400000001,"transit":true,"station_id":"JNG","distance":1377,"is_transit":true,"i_lat":-6.215091,"station_name":"Jatinegara","line":0},{"i_long":106.861737,"i_lat":-6.209188,"line":11,"distance":1236,"is_transit":false,"transit":false,"station_id":"POK","time":2,"station_name":"Pondok Jati"},{"station_name":"Kramat","time":2,"i_long":106.855437,"line":11,"station_id":"KMT","is_transit":false,"distance":1829,"transit":false,"i_lat":-6.193792},{"line":11,"station_name":"Gang Sentiong","is_transit":false,"transit":false,"i_long":106.850107,"station_id":"GST","i_lat":-6.185975,"distance":973,"time":1},{"distance":1567,"station_name":"Pasar Senen","transit":false,"i_lat":-6.174784,"time":8,"i_long":106.84368,"line":11,"station_id":"PSE","is_transit":false},{"station_name":"Kemayoran","time":4,"distance":1436,"station_id":"KMO","line":11,"is_transit":false,"i_long":106.839204,"transit":false,"i_lat":-6.161728},{"time":5,"i_long":106.836569,"station_id":"RJW","line":11,"station_name":"Rajawali","i_lat":-6.14505,"is_transit":false,"transit":false,"distance":1901},{"station_id":"KPB","time":3,"transit":true,"is_transit":true,"station_name":"Kampung Bandan","distance":1444,"i_lat":-6.132549,"i_long":106.826365,"line":0},{"i_lat":-6.137569,"station_id":"JAKK","time":3,"i_long":106.812439,"line":0,"transit":true,"distance":1364,"station_name":"Jakarta Kota","is_transit":true},{"transit":false,"station_name":"Jayakarta","is_transit":false,"time":4,"i_long":106.820901,"line":7,"i_lat":-6.141205,"station_id":"JAY","distance":1264},{"station_id":"MGB","i_long":106.82482,"station_name":"Manggabesar","distance":1080,"line":2,"time":2,"is_transit":false,"i_lat":-6.149769,"transit":false},{"i_lat":-6.160725,"is_transit":false,"time":2,"station_id":"SW","line":2,"transit":false,"station_name":"Sawah Besar","distance":906,"i_long":106.827103},{"i_lat":-6.166716,"station_id":"JUA","transit":false,"station_name":"Juanda","is_transit":false,"time":2,"distance":1149,"i_long":106.828284,"line":2}]]}