{"data":[[{"i_lat":-6.237242,"line":6,"time":0,"station_name":"Kebayoran","transit":false,"is_transit":false,"distance":0,"station_id":"KBY","i_long":106.780334},{"i_lat":-6.207404,"station_id":"PLM","transit":false,"time":7,"line":6,"is_transit":false,"i_long":106.79689,"distance":3737,"station_name":"Palmerah"},{"i_long":106.811091,"distance":3191,"station_name":"Tanah Abang","time":6,"transit":true,"i_lat":-6.185545,"line":1,"is_transit":true,"station_id":"THB"},{"distance":2029,"station_name":"Karet","station_id":"KAT","i_long":106.816351,"line":1,"is_transit":false,"i_lat":-6.20132,"time":5,"transit":false},{"station_name":"Sudirman Baru","time":1,"i_lat":-6.201433,"i_long":106.819881,"transit":false,"is_transit":false,"distance":471,"line":1,"station_id":"SUDB"},{"distance":280,"time":1,"i_lat":-6.202263,"transit":false,"line":1,"station_name":"Sudirman","i_long":106.822649,"station_id":"SUD","is_transit":false},{"station_name":"Manggarai","i_lat":-6.209883,"distance":3186,"is_transit":true,"transit":true,"line":2,"i_long":106.84912,"time":4,"station_id":"MRI"},{"is_transit":false,"station_name":"Cikini","time":4,"station_id":"CKI","i_lat":-6.198556,"distance":1590,"transit":false,"i_long":106.840169,"line":2},{"transit":false,"distance":1750,"time":3,"station_id":"GDD","i_lat":-6.186295,"i_long":106.832183,"line":2,"is_transit":false,"station_name":"Gondangdia"},{"i_lat":-6.166716,"time":4,"station_id":"JUA","line":2,"i_long":106.828284,"transit":false,"distance":2015,"is_transit":false,"station_name":"Juanda"}],[{"station_name":"Kebayoran","is_transit":false,"line":6,"time":0,"transit":false,"station_id":"KBY","i_lat":-6.237242,"distance":0,"i_long":106.780334},{"line":6,"station_name":"Palmerah","time":7,"station_id":"PLM","is_transit":false,"i_long":106.79689,"distance":3737,"transit":false,"i_lat":-6.207404},{"i_lat":-6.185545,"line":1,"station_id":"THB","time":6,"i_long":106.811091,"distance":3191,"is_transit":true,"transit":true,"station_name":"Tanah Abang"},{"transit":false,"i_lat":-6.155215,"line":1,"station_name":"Duri","time":8,"distance":3632,"station_id":"DU","is_transit":false,"i_long":106.800832},{"distance":1230,"i_lat":-6.144674,"time":4,"station_id":"AK","line":1,"transit":false,"i_long":106.79867,"station_name":"Angke","is_transit":false},{"distance":4102,"transit":true,"i_lat":-6.132549,"station_name":"Kampung Bandan","station_id":"KPB","line":4,"time":9,"i_long":106.826365,"is_transit":true},{"transit":true,"i_long":106.812439,"is_transit":true,"station_name":"Jakarta Kota","line":2,"distance":1364,"time":3,"i_lat":-6.137569,"station_id":"JAKK"},{"is_transit":false,"i_lat":-6.141205,"i_long":106.820901,"distance":1264,"station_id":"JAY","line":2,"transit":false,"station_name":"Jayakarta","time":4},{"i_long":106.82482,"distance":1080,"i_lat":-6.149769,"time":2,"transit":false,"station_id":"MGB","is_transit":false,"station_name":"Manggabesar","line":2},{"station_id":"SW","line":2,"i_lat":-6.160725,"is_transit":false,"time":2,"transit":false,"distance":906,"i_long":106.827103,"station_name":"Sawah Besar"},{"time":2,"i_lat":-6.166716,"i_long":106.828284,"station_name":"Juanda","line":2,"distance":1149,"is_transit":false,"transit":false,"station_id":"JUA"}],[{"station_id":"KBY","transit":false,"i_long":106.780334,"time":0,"i_lat":-6.237242,"line":6,"station_name":"Kebayoran","is_transit":false,"distance":0},{"station_name":"Palmerah","time":7,"i_long":106.79689,"station_id":"PLM","line":6,"distance":3737,"transit":false,"is_transit":false,"i_lat":-6.207404},{"time":6,"i_long":106.811091,"is_transit":true,"i_lat":-6.185545,"station_id":"THB","distance":3191,"transit":true,"line":1,"station_name":"Tanah Abang"},{"i_lat":-6.155215,"line":1,"station_id":"DU","time":8,"is_transit":false,"i_long":106.800832,"station_name":"Duri","distance":3632,"transit":false},{"station_id":"AK","is_transit":false,"line":1,"station_name":"Angke","distance":1230,"i_long":106.79867,"time":4,"transit":false,"i_lat":-6.144674},{"time":9,"i_lat":-6.132549,"transit":true,"i_long":106.826365,"line":4,"distance":4102,"station_name":"Kampung Bandan","station_id":"KPB","is_transit":true},{"station_id":"RJW","is_transit":false,"i_long":106.836569,"station_name":"Rajawali","line":11,"i_lat":-6.14505,"transit":false,"distance":1444,"time":3},{"time":5,"transit":false,"station_name":"Kemayoran","is_transit":false,"i_lat":-6.161728,"station_id":"KMO","i_long":106.839204,"line":11,"distance":1901},{"i_long":106.84368,"station_id":"PSE","distance":1436,"station_name":"Pasar Senen","line":11,"i_lat":-6.174784,"transit":false,"is_transit":false,"time":4},{"i_lat":-6.185975,"line":11,"transit":false,"time":8,"i_long":106.850107,"station_name":"Gang Sentiong","distance":1567,"is_transit":false,"station_id":"GST"},{"is_transit":false,"i_lat":-6.193792,"station_name":"Kramat","distance":973,"i_long":106.855437,"transit":false,"station_id":"KMT","time":1,"line":11},{"station_id":"POK","transit":false,"i_lat":-6.209188,"is_transit":false,"distance":1829,"line":11,"station_name":"Pondok Jati","time":2,"i_long":106.861737},{"transit":true,"time":9,"station_name":"Jatinegara","is_transit":true,"distance":1236,"line":1,"station_id":"JNG","i_lat":-6.215091,"i_long":106.86807400000001},{"is_transit":false,"time":2,"transit":false,"i_lat":-6.212485,"line":1,"station_id":"MTR","distance":1377,"station_name":"Matraman","i_long":106.858896},{"station_name":"Manggarai","station_id":"MRI","is_transit":true,"line":2,"i_lat":-6.209883,"distance":1275,"i_long":106.84912,"time":2,"transit":true},{"is_transit":false,"line":2,"time":4,"station_id":"CKI","distance":1590,"station_name":"Cikini","i_long":106.840169,"transit":false,"i_lat":-6.198556},{"distance":1750,"station_id":"GDD","is_transit":false,"i_long":106.832183,"station_name":"Gondangdia","transit":false,"time":3,"line":2,"i_lat":-6.186295},{"line":2,"transit":false,"is_transit":false,"distance":2015,"station_name":"Juanda","station_id":"JUA","i_long":106.828284,"time":4,"i_lat":-6.166716}],[{"line":6,"i_lat":-6.237242,"transit":false,"is_transit":false,"i_long":106.780334,"distance":0,"station_name":"Kebayoran","time":0,"station_id":"KBY"},{"i_long":106.79689,"distance":3737,"transit":false,"station_id":"PLM","is_transit":false,"line":6,"time":7,"station_name":"Palmerah","i_lat":-6.207404},{"line":1,"time":6,"transit":true,"distance":3191,"is_transit":true,"station_id":"THB","station_name":"Tanah Abang","i_lat":-6.185545,"i_long":106.811091},{"station_id":"KAT","transit":false,"is_transit":false,"i_lat":-6.20132,"time":5,"station_name":"Karet","i_long":106.816351,"distance":2029,"line":1},{"station_name":"Sudirman Baru","is_transit":false,"i_long":106.819881,"distance":471,"line":1,"i_lat":-6.201433,"transit":false,"station_id":"SUDB","time":1},{"station_name":"Sudirman","is_transit":false,"i_long":106.822649,"distance":280,"station_id":"SUD","i_lat":-6.202263,"time":1,"transit":false,"line":1},{"station_name":"Manggarai","i_long":106.84912,"transit":false,"distance":3186,"time":4,"station_id":"MRI","line":2,"i_lat":-6.209883,"is_transit":false},{"station_name":"Matraman","i_long":106.858896,"station_id":"MTR","transit":false,"is_transit":false,"line":1,"distance":1275,"time":2,"i_lat":-6.212485},{"station_id":"JNG","distance":1377,"i_lat":-6.215091,"time":8,"is_transit":true,"line":1,"station_name":"Jatinegara","i_long":106.86807400000001,"transit":true},{"time":2,"is_transit":false,"transit":false,"station_id":"POK","line":11,"i_long":106.861737,"i_lat":-6.209188,"station_name":"Pondok Jati","distance":1236},{"i_lat":-6.193792,"i_long":106.855437,"line":11,"transit":false,"station_name":"Kramat","is_transit":false,"time":2,"station_id":"KMT","distance":1829},{"distance":973,"i_lat":-6.185975,"is_transit":false,"i_long":106.850107,"line":11,"transit":false,"station_id":"GST","station_name":"Gang Sentiong","time":1},{"station_name":"Pasar Senen","station_id":"PSE","time":8,"transit":false,"distance":1567,"i_lat":-6.174784,"line":11,"is_transit":false,"i_long":106.84368},{"transit":false,"i_lat":-6.161728,"station_name":"Kemayoran","line":11,"distance":1436,"time":4,"station_id":"KMO","is_transit":false,"i_long":106.839204},{"line":11,"time":5,"is_transit":false,"i_long":106.836569,"distance":1901,"station_name":"Rajawali","station_id":"RJW","transit":false,"i_lat":-6.14505},{"station_id":"KPB","distance":1444,"i_long":106.826365,"line":4,"is_transit":true,"i_lat":-6.132549,"station_name":"Kampung Bandan","time":3,"transit":true},{"distance":1364,"time":3,"i_long":106.812439,"station_id":"JAKK","transit":true,"i_lat":-6.137569,"is_transit":true,"line":2,"station_name":"Jakarta Kota"},{"is_transit":false,"transit":false,"station_id":"JAY","i_long":106.820901,"line":2,"time":4,"distance":1264,"station_name":"Jayakarta","i_lat":-6.141205},{"i_long":106.82482,"line":2,"i_lat":-6.149769,"transit":false,"station_id":"MGB","distance":1080,"station_name":"Manggabesar","is_transit":false,"time":2},{"i_lat":-6.160725,"transit":false,"line":2,"distance":906,"time":2,"station_id":"SW","is_transit":false,"station_name":"Sawah Besar","i_long":106.827103},{"distance":1149,"transit":false,"station_name":"Juanda","station_id":"JUA","i_long":106.828284,"line":2,"i_lat":-6.166716,"is_transit":false,"time":2}]]}