{"data":[[{"station_id":"KBY","station_name":"Kebayoran","is_transit":false,"i_lat":-6.237242,"line":6,"transit":false,"distance":0,"i_long":106.780334,"time":0},{"station_name":"Pondokranji","transit":false,"is_transit":false,"station_id":"PDJ","line":6,"i_long":106.74273,"i_lat":-6.276362,"distance":6218,"time":8},{"distance":2179,"transit":false,"time":3,"station_name":"Jurangmangu","i_lat":-6.288927,"i_long":106.728916,"station_id":"JMU","line":6,"is_transit":false},{"distance":1994,"time":4,"transit":false,"station_id":"SDM","i_long":106.712277,"line":6,"is_transit":false,"station_name":"Sudimara","i_lat":-6.296963},{"station_id":"RU","time":6,"line":6,"i_long":106.675475,"i_lat":-6.314823,"station_name":"Rawa Buntu","transit":false,"is_transit":false,"distance":4566},{"is_transit":false,"time":4,"distance":2413,"transit":false,"station_id":"SRP","line":6,"i_long":106.66566,"i_lat":-6.319871,"station_name":"Serpong"},{"i_lat":-6.32484,"distance":1784,"line":3,"transit":false,"station_id":"CSK","i_long":106.640411,"is_transit":false,"station_name":"Cisauk","time":4},{"time":4,"station_id":"CC","is_transit":false,"distance":2519,"i_long":106.617853,"i_lat":-6.329547,"line":3,"station_name":"Cicayur","transit":false},{"station_id":"PRP","station_name":"Parung Panjang","i_lat":-6.3441410000000005,"line":6,"is_transit":false,"time":8,"distance":5968,"transit":false,"i_long":106.568863},{"time":9,"station_name":"Cilejit","station_id":"CJT","line":3,"distance":7025,"transit":false,"i_long":106.508482,"is_transit":false,"i_lat":-6.354349},{"is_transit":false,"station_id":"DAR","i_long":106.491338,"station_name":"Daru","line":0,"distance":2675,"time":6,"i_lat":-6.338021,"transit":false},{"i_long":106.460812,"transit":false,"distance":3902,"station_name":"Tenjo","time":5,"station_id":"TEJ","i_lat":-6.327251,"is_transit":false,"line":6},{"distance":2974,"line":6,"i_lat":-6.328533,"transit":false,"station_id":"TGS","time":5,"i_long":106.425991,"station_name":"Tigaraksa","is_transit":false},{"station_id":"CKY","distance":2651,"station_name":"Cikoya","time":3,"i_long":106.411216,"is_transit":false,"i_lat":-6.33561,"line":3,"transit":false},{"station_name":"Maja","time":4,"station_id":"MJ","transit":false,"i_lat":-6.332307,"is_transit":false,"i_long":106.394373,"line":6,"distance":1853},{"transit":false,"i_lat":-6.334892,"i_long":106.332092,"is_transit":false,"station_name":"Citeras","time":10,"station_id":"CTR","line":3,"distance":7293},{"i_long":106.250396,"i_lat":-6.352675,"station_name":"Rangkasbitung","distance":9847,"line":3,"transit":false,"is_transit":false,"station_id":"RK","time":13}]]}