{"data":[[{"i_lat":-6.237242,"transit":false,"line":6,"time":0,"is_transit":false,"station_id":"KBY","distance":0,"station_name":"Kebayoran","i_long":106.780334},{"distance":3737,"line":6,"time":7,"transit":false,"i_lat":-6.207404,"i_long":106.79689,"station_name":"Palmerah","is_transit":false,"station_id":"PLM"},{"station_id":"THB","i_lat":-6.185545,"line":1,"i_long":106.811091,"distance":3191,"transit":true,"is_transit":true,"time":6,"station_name":"Tanah Abang"},{"line":1,"distance":2029,"transit":false,"i_lat":-6.20132,"is_transit":false,"time":5,"i_long":106.816351,"station_name":"Karet","station_id":"KAT"},{"i_long":106.819881,"station_name":"Sudirman Baru","line":1,"i_lat":-6.201433,"transit":false,"is_transit":false,"station_id":"SUDB","time":1,"distance":471},{"station_name":"Sudirman","station_id":"SUD","i_long":106.822649,"distance":280,"is_transit":false,"time":1,"line":1,"transit":false,"i_lat":-6.202263},{"time":4,"i_lat":-6.209883,"line":0,"distance":3186,"station_name":"Manggarai","is_transit":true,"i_long":106.84912,"station_id":"MRI","transit":false},{"i_lat":-6.212485,"time":2,"transit":false,"line":1,"distance":1275,"is_transit":false,"i_long":106.858896,"station_name":"Matraman","station_id":"MTR"},{"station_id":"JNG","i_lat":-6.215091,"distance":1377,"i_long":106.86807400000001,"line":0,"time":8,"station_name":"Jatinegara","transit":false,"is_transit":true},{"time":3,"station_name":"Klender","line":1,"is_transit":false,"station_id":"KLD","i_long":106.899548,"i_lat":-6.2135,"transit":false,"distance":3395},{"transit":false,"distance":3100,"is_transit":false,"i_long":106.922662,"station_id":"BUA","line":0,"station_name":"Buaran","time":2,"i_lat":-6.215568},{"station_name":"Klenderbaru","i_lat":-6.217455,"time":1,"is_transit":false,"transit":false,"i_long":106.939679,"line":1,"distance":1305,"station_id":"KLDB"},{"transit":false,"is_transit":false,"i_lat":-6.219053,"distance":1385,"time":8,"station_name":"Cakung","station_id":"CUK","line":0,"i_long":106.951283},{"is_transit":false,"time":3,"station_name":"Kranji","i_long":106.977657,"line":1,"i_lat":-6.224515,"distance":3097,"transit":false,"station_id":"KRI"},{"distance":2520,"station_id":"BKS","i_long":106.997013,"transit":false,"is_transit":false,"station_name":"Bekasi","line":0,"i_lat":-6.236616,"time":4}],[{"station_id":"KBY","distance":0,"line":6,"is_transit":false,"i_lat":-6.237242,"transit":false,"station_name":"Kebayoran","time":0,"i_long":106.780334},{"i_lat":-6.207404,"time":7,"is_transit":false,"station_name":"Palmerah","distance":3737,"station_id":"PLM","transit":false,"line":6,"i_long":106.79689},{"line":1,"distance":3191,"station_name":"Tanah Abang","time":6,"is_transit":true,"transit":true,"station_id":"THB","i_lat":-6.185545,"i_long":106.811091},{"time":8,"transit":true,"distance":3632,"station_name":"Duri","is_transit":true,"station_id":"DU","i_lat":-6.155215,"i_long":106.800832,"line":1},{"line":0,"transit":false,"time":4,"station_id":"AK","is_transit":false,"i_lat":-6.144674,"i_long":106.79867,"station_name":"Angke","distance":1230},{"is_transit":true,"time":9,"station_name":"Kampung Bandan","i_lat":-6.132549,"i_long":106.826365,"line":0,"distance":4102,"station_id":"KPB","transit":true},{"i_lat":-6.14505,"station_id":"RJW","line":11,"time":3,"is_transit":false,"i_long":106.836569,"station_name":"Rajawali","distance":1444,"transit":false},{"i_lat":-6.161728,"is_transit":false,"distance":1901,"line":11,"i_long":106.839204,"time":5,"station_name":"Kemayoran","transit":false,"station_id":"KMO"},{"station_name":"Pasar Senen","station_id":"PSE","i_long":106.84368,"time":4,"is_transit":false,"line":11,"i_lat":-6.174784,"transit":false,"distance":1436},{"is_transit":false,"time":8,"i_lat":-6.185975,"line":11,"station_name":"Gang Sentiong","distance":1567,"transit":false,"station_id":"GST","i_long":106.850107},{"station_id":"KMT","i_lat":-6.193792,"i_long":106.855437,"is_transit":false,"time":1,"transit":false,"distance":973,"station_name":"Kramat","line":11},{"station_id":"POK","i_long":106.861737,"transit":false,"time":2,"station_name":"Pondok Jati","i_lat":-6.209188,"is_transit":false,"line":11,"distance":1829},{"line":0,"station_name":"Jatinegara","station_id":"JNG","distance":1236,"transit":true,"time":9,"i_long":106.86807400000001,"is_transit":true,"i_lat":-6.215091},{"station_name":"Klender","is_transit":false,"i_long":106.899548,"i_lat":-6.2135,"station_id":"KLD","distance":3395,"line":1,"time":3,"transit":false},{"station_name":"Buaran","station_id":"BUA","distance":3100,"i_long":106.922662,"time":2,"transit":false,"line":0,"i_lat":-6.215568,"is_transit":false},{"is_transit":false,"i_long":106.939679,"line":1,"transit":false,"station_id":"KLDB","time":1,"distance":1305,"station_name":"Klenderbaru","i_lat":-6.217455},{"transit":false,"station_id":"CUK","distance":1385,"i_lat":-6.219053,"line":0,"station_name":"Cakung","i_long":106.951283,"is_transit":false,"time":8},{"time":3,"i_long":106.977657,"is_transit":false,"station_name":"Kranji","distance":3097,"transit":false,"line":1,"station_id":"KRI","i_lat":-6.224515},{"distance":2520,"is_transit":false,"station_id":"BKS","i_long":106.997013,"time":4,"transit":false,"i_lat":-6.236616,"station_name":"Bekasi","line":0}],[{"transit":false,"distance":0,"station_name":"Kebayoran","i_lat":-6.237242,"i_long":106.780334,"is_transit":false,"line":6,"time":0,"station_id":"KBY"},{"station_id":"PLM","transit":false,"i_long":106.79689,"distance":3737,"station_name":"Palmerah","line":6,"time":7,"is_transit":false,"i_lat":-6.207404},{"distance":3191,"station_name":"Tanah Abang","is_transit":true,"i_lat":-6.185545,"station_id":"THB","time":6,"transit":true,"line":1,"i_long":106.811091},{"station_name":"Duri","transit":true,"i_long":106.800832,"station_id":"DU","i_lat":-6.155215,"time":8,"distance":3632,"is_transit":true,"line":1},{"time":4,"transit":false,"line":0,"station_id":"AK","i_long":106.79867,"distance":1230,"is_transit":false,"i_lat":-6.144674,"station_name":"Angke"},{"time":9,"i_lat":-6.132549,"line":0,"station_id":"KPB","is_transit":true,"distance":4102,"station_name":"Kampung Bandan","transit":false,"i_long":106.826365},{"line":0,"distance":1364,"station_name":"Jakarta Kota","transit":true,"i_lat":-6.137569,"is_transit":true,"time":3,"i_long":106.812439,"station_id":"JAKK"},{"i_long":106.820901,"station_id":"JAY","time":4,"is_transit":false,"line":7,"transit":false,"i_lat":-6.141205,"distance":1264,"station_name":"Jayakarta"},{"transit":false,"distance":1080,"station_name":"Manggabesar","i_long":106.82482,"is_transit":false,"station_id":"MGB","i_lat":-6.149769,"time":2,"line":2},{"is_transit":false,"transit":false,"time":2,"station_name":"Sawah Besar","distance":906,"line":2,"i_long":106.827103,"i_lat":-6.160725,"station_id":"SW"},{"transit":false,"i_lat":-6.166716,"station_name":"Juanda","distance":1149,"station_id":"JUA","is_transit":false,"time":2,"i_long":106.828284,"line":2},{"station_name":"Gondangdia","distance":2015,"time":4,"transit":false,"station_id":"GDD","i_lat":-6.186295,"i_long":106.832183,"is_transit":false,"line":2},{"time":3,"station_name":"Cikini","line":0,"is_transit":false,"transit":false,"distance":1750,"i_long":106.840169,"station_id":"CKI","i_lat":-6.198556},{"distance":1590,"station_name":"Manggarai","station_id":"MRI","line":0,"transit":true,"i_lat":-6.209883,"is_transit":true,"time":4,"i_long":106.84912},{"distance":1275,"station_id":"MTR","i_lat":-6.212485,"i_long":106.858896,"is_transit":false,"line":1,"station_name":"Matraman","time":2,"transit":false},{"is_transit":true,"time":8,"distance":1377,"station_name":"Jatinegara","transit":false,"station_id":"JNG","i_lat":-6.215091,"line":0,"i_long":106.86807400000001},{"i_lat":-6.2135,"time":3,"is_transit":false,"station_id":"KLD","line":1,"station_name":"Klender","distance":3395,"transit":false,"i_long":106.899548},{"station_id":"BUA","time":2,"station_name":"Buaran","line":0,"distance":3100,"is_transit":false,"transit":false,"i_long":106.922662,"i_lat":-6.215568},{"time":1,"station_id":"KLDB","distance":1305,"transit":false,"i_lat":-6.217455,"i_long":106.939679,"line":1,"station_name":"Klenderbaru","is_transit":false},{"station_name":"Cakung","line":0,"i_lat":-6.219053,"transit":false,"is_transit":false,"distance":1385,"i_long":106.951283,"time":8,"station_id":"CUK"},{"station_id":"KRI","time":3,"station_name":"Kranji","i_lat":-6.224515,"is_transit":false,"i_long":106.977657,"distance":3097,"transit":false,"line":1},{"i_lat":-6.236616,"line":0,"time":4,"transit":false,"station_name":"Bekasi","station_id":"BKS","i_long":106.997013,"distance":2520,"is_transit":false}],[{"line":6,"station_name":"Kebayoran","station_id":"KBY","i_lat":-6.237242,"time":0,"i_long":106.780334,"distance":0,"transit":false,"is_transit":false},{"line":6,"is_transit":false,"distance":3737,"station_name":"Palmerah","time":7,"transit":false,"station_id":"PLM","i_lat":-6.207404,"i_long":106.79689},{"i_lat":-6.185545,"transit":true,"line":1,"station_id":"THB","is_transit":true,"i_long":106.811091,"station_name":"Tanah Abang","time":6,"distance":3191},{"station_id":"KAT","transit":false,"i_long":106.816351,"i_lat":-6.20132,"distance":2029,"station_name":"Karet","time":5,"is_transit":false,"line":1},{"line":1,"time":1,"station_name":"Sudirman Baru","transit":false,"station_id":"SUDB","is_transit":false,"i_lat":-6.201433,"distance":471,"i_long":106.819881},{"i_lat":-6.202263,"is_transit":false,"distance":280,"time":1,"station_name":"Sudirman","transit":false,"station_id":"SUD","line":1,"i_long":106.822649},{"is_transit":true,"i_lat":-6.209883,"i_long":106.84912,"station_id":"MRI","line":0,"time":4,"station_name":"Manggarai","distance":3186,"transit":true},{"time":4,"distance":1590,"station_name":"Cikini","transit":false,"station_id":"CKI","is_transit":false,"line":0,"i_lat":-6.198556,"i_long":106.840169},{"station_id":"GDD","transit":false,"station_name":"Gondangdia","i_lat":-6.186295,"time":3,"line":2,"is_transit":false,"i_long":106.832183,"distance":1750},{"transit":false,"is_transit":false,"time":4,"line":2,"distance":2015,"station_name":"Juanda","station_id":"JUA","i_lat":-6.166716,"i_long":106.828284},{"line":2,"station_name":"Sawah Besar","distance":1149,"i_lat":-6.160725,"is_transit":false,"transit":false,"station_id":"SW","time":2,"i_long":106.827103},{"station_name":"Manggabesar","i_lat":-6.149769,"transit":false,"line":2,"is_transit":false,"time":2,"distance":906,"i_long":106.82482,"station_id":"MGB"},{"time":2,"is_transit":false,"distance":1080,"station_name":"Jayakarta","transit":false,"i_long":106.820901,"i_lat":-6.141205,"station_id":"JAY","line":7},{"distance":1264,"station_name":"Jakarta Kota","i_lat":-6.137569,"i_long":106.812439,"transit":true,"is_transit":true,"line":0,"time":4,"station_id":"JAKK"},{"transit":true,"line":0,"i_lat":-6.132549,"time":3,"distance":1364,"is_transit":true,"station_id":"KPB","station_name":"Kampung Bandan","i_long":106.826365},{"i_lat":-6.14505,"distance":1444,"transit":false,"line":11,"time":3,"is_transit":false,"station_name":"Rajawali","i_long":106.836569,"station_id":"RJW"},{"is_transit":false,"transit":false,"i_lat":-6.161728,"station_id":"KMO","distance":1901,"i_long":106.839204,"time":5,"station_name":"Kemayoran","line":11},{"distance":1436,"station_id":"PSE","i_long":106.84368,"line":11,"time":4,"station_name":"Pasar Senen","transit":false,"is_transit":false,"i_lat":-6.174784},{"distance":1567,"station_id":"GST","transit":false,"i_long":106.850107,"time":8,"line":11,"station_name":"Gang Sentiong","is_transit":false,"i_lat":-6.185975},{"i_long":106.855437,"station_id":"KMT","transit":false,"station_name":"Kramat","time":1,"distance":973,"line":11,"i_lat":-6.193792,"is_transit":false},{"i_lat":-6.209188,"is_transit":false,"i_long":106.861737,"line":11,"distance":1829,"station_id":"POK","time":2,"transit":false,"station_name":"Pondok Jati"},{"station_id":"JNG","distance":1236,"time":9,"is_transit":true,"line":0,"station_name":"Jatinegara","transit":true,"i_lat":-6.215091,"i_long":106.86807400000001},{"distance":3395,"transit":false,"line":1,"station_name":"Klender","time":3,"i_lat":-6.2135,"i_long":106.899548,"station_id":"KLD","is_transit":false},{"is_transit":false,"i_long":106.922662,"time":2,"distance":3100,"station_name":"Buaran","transit":false,"station_id":"BUA","i_lat":-6.215568,"line":0},{"is_transit":false,"transit":false,"station_name":"Klenderbaru","i_lat":-6.217455,"time":1,"distance":1305,"i_long":106.939679,"line":1,"station_id":"KLDB"},{"i_lat":-6.219053,"line":0,"time":8,"station_name":"Cakung","transit":false,"i_long":106.951283,"distance":1385,"is_transit":false,"station_id":"CUK"},{"distance":3097,"is_transit":false,"i_long":106.977657,"i_lat":-6.224515,"station_name":"Kranji","station_id":"KRI","line":1,"transit":false,"time":3},{"transit":false,"i_long":106.997013,"i_lat":-6.236616,"station_id":"BKS","is_transit":false,"distance":2520,"station_name":"Bekasi","line":0,"time":4}]]}