{"data":[[{"distance":0,"station_id":"KBY","station_name":"Kebayoran","transit":false,"i_lat":-6.237242,"time":0,"is_transit":false,"i_long":106.780334,"line":6},{"is_transit":false,"i_long":106.79689,"time":7,"station_id":"PLM","line":6,"station_name":"Palmerah","transit":false,"i_lat":-6.207404,"distance":3737},{"transit":true,"station_name":"Tanah Abang","i_long":106.811091,"station_id":"THB","time":6,"line":1,"is_transit":true,"i_lat":-6.185545,"distance":3191},{"station_name":"Karet","i_long":106.816351,"distance":2029,"i_lat":-6.20132,"line":1,"station_id":"KAT","is_transit":false,"transit":false,"time":5},{"station_id":"SUDB","line":1,"transit":false,"time":1,"i_long":106.819881,"distance":471,"station_name":"Sudirman Baru","i_lat":-6.201433,"is_transit":false},{"transit":false,"i_lat":-6.202263,"station_name":"Sudirman","line":1,"time":1,"distance":280,"i_long":106.822649,"station_id":"SUD","is_transit":false},{"transit":false,"is_transit":false,"station_name":"Manggarai","station_id":"MRI","time":4,"i_lat":-6.209883,"i_long":106.84912,"line":2,"distance":3186},{"station_id":"MTR","time":2,"station_name":"Matraman","distance":1275,"is_transit":false,"transit":false,"i_lat":-6.212485,"i_long":106.858896,"line":1},{"line":1,"i_lat":-6.215091,"distance":1377,"station_id":"JNG","transit":false,"time":8,"station_name":"Jatinegara","is_transit":false,"i_long":106.86807400000001},{"distance":3395,"i_lat":-6.2135,"is_transit":false,"time":3,"station_id":"KLD","transit":false,"i_long":106.899548,"station_name":"Klender","line":1},{"line":1,"transit":false,"distance":3100,"station_id":"BUA","station_name":"Buaran","i_long":106.922662,"time":2,"is_transit":false,"i_lat":-6.215568},{"station_name":"Klenderbaru","i_lat":-6.217455,"station_id":"KLDB","distance":1305,"i_long":106.939679,"is_transit":false,"time":1,"transit":false,"line":1},{"line":1,"is_transit":false,"station_id":"CUK","time":8,"i_long":106.951283,"distance":1385,"i_lat":-6.219053,"station_name":"Cakung","transit":false},{"station_id":"KRI","distance":3097,"is_transit":false,"line":1,"i_lat":-6.224515,"station_name":"Kranji","transit":false,"time":3,"i_long":106.977657},{"time":4,"station_id":"BKS","distance":2520,"is_transit":false,"line":1,"transit":false,"station_name":"Bekasi","i_long":106.997013,"i_lat":-6.236616},{"station_id":"BKST","i_lat":-6.248029,"station_name":"Bekasi Timur","is_transit":false,"i_long":107.016735,"line":1,"time":2,"transit":false,"distance":2368},{"line":1,"station_id":"TB","station_name":"Tambun","transit":false,"i_long":107.055722,"i_lat":-6.258864,"time":7,"distance":4460,"is_transit":false}],[{"line":6,"time":0,"distance":0,"is_transit":false,"station_id":"KBY","station_name":"Kebayoran","i_lat":-6.237242,"i_long":106.780334,"transit":false},{"station_id":"PLM","i_long":106.79689,"line":6,"is_transit":false,"station_name":"Palmerah","distance":3737,"i_lat":-6.207404,"time":7,"transit":false},{"is_transit":true,"transit":true,"station_name":"Tanah Abang","i_lat":-6.185545,"line":1,"station_id":"THB","distance":3191,"i_long":106.811091,"time":6},{"distance":3632,"i_long":106.800832,"station_id":"DU","time":8,"transit":false,"is_transit":false,"station_name":"Duri","i_lat":-6.155215,"line":1},{"transit":false,"line":1,"station_name":"Angke","i_long":106.79867,"time":4,"is_transit":false,"distance":1230,"i_lat":-6.144674,"station_id":"AK"},{"i_long":106.826365,"time":9,"transit":true,"is_transit":true,"line":4,"i_lat":-6.132549,"distance":4102,"station_name":"Kampung Bandan","station_id":"KPB"},{"station_name":"Rajawali","is_transit":false,"transit":false,"i_lat":-6.14505,"i_long":106.836569,"time":3,"line":11,"station_id":"RJW","distance":1444},{"station_id":"KMO","time":5,"line":11,"transit":false,"station_name":"Kemayoran","distance":1901,"i_long":106.839204,"i_lat":-6.161728,"is_transit":false},{"distance":1436,"is_transit":false,"i_lat":-6.174784,"i_long":106.84368,"line":11,"station_name":"Pasar Senen","station_id":"PSE","transit":false,"time":4},{"distance":1567,"transit":false,"i_lat":-6.185975,"station_id":"GST","time":8,"line":11,"station_name":"Gang Sentiong","i_long":106.850107,"is_transit":false},{"i_long":106.855437,"line":11,"is_transit":false,"transit":false,"station_id":"KMT","distance":973,"i_lat":-6.193792,"time":1,"station_name":"Kramat"},{"i_long":106.861737,"line":11,"transit":false,"is_transit":false,"station_id":"POK","time":2,"i_lat":-6.209188,"station_name":"Pondok Jati","distance":1829},{"line":1,"station_name":"Jatinegara","station_id":"JNG","i_lat":-6.215091,"i_long":106.86807400000001,"time":9,"distance":1236,"is_transit":true,"transit":true},{"transit":false,"distance":3395,"station_id":"KLD","is_transit":false,"station_name":"Klender","i_lat":-6.2135,"i_long":106.899548,"time":3,"line":1},{"transit":false,"line":1,"i_lat":-6.215568,"distance":3100,"station_name":"Buaran","i_long":106.922662,"is_transit":false,"station_id":"BUA","time":2},{"station_id":"KLDB","station_name":"Klenderbaru","time":1,"i_long":106.939679,"is_transit":false,"distance":1305,"transit":false,"i_lat":-6.217455,"line":1},{"time":8,"i_long":106.951283,"transit":false,"is_transit":false,"station_id":"CUK","i_lat":-6.219053,"distance":1385,"station_name":"Cakung","line":1},{"time":3,"transit":false,"is_transit":false,"distance":3097,"i_long":106.977657,"i_lat":-6.224515,"station_id":"KRI","station_name":"Kranji","line":1},{"station_id":"BKS","i_lat":-6.236616,"station_name":"Bekasi","distance":2520,"time":4,"transit":false,"i_long":106.997013,"line":1,"is_transit":false},{"distance":2368,"i_lat":-6.248029,"line":1,"i_long":107.016735,"station_id":"BKST","time":2,"station_name":"Bekasi Timur","transit":false,"is_transit":false},{"i_long":107.055722,"station_id":"TB","transit":false,"is_transit":false,"line":1,"distance":4460,"time":7,"i_lat":-6.258864,"station_name":"Tambun"}],[{"i_lat":-6.237242,"line":6,"i_long":106.780334,"station_name":"Kebayoran","is_transit":false,"transit":false,"station_id":"KBY","distance":0,"time":0},{"station_name":"Palmerah","time":7,"station_id":"PLM","line":6,"transit":false,"i_lat":-6.207404,"i_long":106.79689,"distance":3737,"is_transit":false},{"station_id":"THB","transit":true,"distance":3191,"time":6,"i_long":106.811091,"i_lat":-6.185545,"is_transit":true,"line":1,"station_name":"Tanah Abang"},{"line":1,"time":8,"is_transit":false,"station_id":"DU","transit":false,"i_long":106.800832,"station_name":"Duri","distance":3632,"i_lat":-6.155215},{"transit":false,"station_id":"AK","station_name":"Angke","i_lat":-6.144674,"i_long":106.79867,"distance":1230,"time":4,"line":1,"is_transit":false},{"line":4,"i_lat":-6.132549,"station_name":"Kampung Bandan","time":9,"distance":4102,"is_transit":true,"i_long":106.826365,"transit":true,"station_id":"KPB"},{"transit":true,"station_id":"JAKK","station_name":"Jakarta Kota","distance":1364,"i_lat":-6.137569,"i_long":106.812439,"line":2,"is_transit":true,"time":3},{"is_transit":false,"i_lat":-6.141205,"station_id":"JAY","distance":1264,"transit":false,"line":2,"i_long":106.820901,"time":4,"station_name":"Jayakarta"},{"time":2,"is_transit":false,"line":2,"distance":1080,"i_long":106.82482,"station_id":"MGB","transit":false,"i_lat":-6.149769,"station_name":"Manggabesar"},{"transit":false,"time":2,"station_id":"SW","station_name":"Sawah Besar","i_long":106.827103,"distance":906,"i_lat":-6.160725,"is_transit":false,"line":2},{"line":2,"distance":1149,"time":2,"transit":false,"is_transit":false,"station_id":"JUA","station_name":"Juanda","i_lat":-6.166716,"i_long":106.828284},{"station_name":"Gondangdia","is_transit":false,"distance":2015,"station_id":"GDD","transit":false,"i_lat":-6.186295,"i_long":106.832183,"time":4,"line":2},{"i_lat":-6.198556,"i_long":106.840169,"line":2,"distance":1750,"is_transit":false,"station_name":"Cikini","time":3,"transit":false,"station_id":"CKI"},{"station_name":"Manggarai","distance":1590,"is_transit":true,"time":4,"line":2,"transit":true,"i_lat":-6.209883,"station_id":"MRI","i_long":106.84912},{"station_id":"MTR","station_name":"Matraman","time":2,"distance":1275,"i_lat":-6.212485,"i_long":106.858896,"is_transit":false,"line":1,"transit":false},{"time":8,"is_transit":false,"station_id":"JNG","i_long":106.86807400000001,"station_name":"Jatinegara","i_lat":-6.215091,"line":1,"transit":false,"distance":1377},{"distance":3395,"station_name":"Klender","station_id":"KLD","time":3,"transit":false,"i_lat":-6.2135,"line":1,"is_transit":false,"i_long":106.899548},{"station_name":"Buaran","distance":3100,"transit":false,"is_transit":false,"time":2,"station_id":"BUA","line":1,"i_lat":-6.215568,"i_long":106.922662},{"station_id":"KLDB","transit":false,"station_name":"Klenderbaru","distance":1305,"line":1,"is_transit":false,"i_lat":-6.217455,"i_long":106.939679,"time":1},{"line":1,"time":8,"station_name":"Cakung","i_lat":-6.219053,"transit":false,"distance":1385,"is_transit":false,"station_id":"CUK","i_long":106.951283},{"line":1,"station_name":"Kranji","transit":false,"station_id":"KRI","i_long":106.977657,"distance":3097,"is_transit":false,"i_lat":-6.224515,"time":3},{"distance":2520,"station_id":"BKS","i_long":106.997013,"transit":false,"time":4,"line":1,"station_name":"Bekasi","is_transit":false,"i_lat":-6.236616},{"station_id":"BKST","is_transit":false,"i_lat":-6.248029,"line":1,"time":2,"i_long":107.016735,"station_name":"Bekasi Timur","transit":false,"distance":2368},{"station_id":"TB","i_long":107.055722,"distance":4460,"transit":false,"time":7,"i_lat":-6.258864,"is_transit":false,"station_name":"Tambun","line":1}],[{"is_transit":false,"station_id":"KBY","transit":false,"i_long":106.780334,"time":0,"distance":0,"station_name":"Kebayoran","line":6,"i_lat":-6.237242},{"transit":false,"i_long":106.79689,"station_id":"PLM","station_name":"Palmerah","line":6,"distance":3737,"is_transit":false,"time":7,"i_lat":-6.207404},{"is_transit":true,"i_long":106.811091,"distance":3191,"line":1,"station_name":"Tanah Abang","station_id":"THB","time":6,"i_lat":-6.185545,"transit":true},{"i_lat":-6.20132,"station_name":"Karet","time":5,"line":1,"transit":false,"i_long":106.816351,"distance":2029,"station_id":"KAT","is_transit":false},{"is_transit":false,"distance":471,"i_lat":-6.201433,"i_long":106.819881,"transit":false,"station_id":"SUDB","station_name":"Sudirman Baru","line":1,"time":1},{"station_id":"SUD","station_name":"Sudirman","line":1,"i_lat":-6.202263,"i_long":106.822649,"is_transit":false,"time":1,"distance":280,"transit":false},{"time":4,"is_transit":true,"station_id":"MRI","i_long":106.84912,"line":2,"transit":true,"distance":3186,"i_lat":-6.209883,"station_name":"Manggarai"},{"distance":1590,"station_id":"CKI","is_transit":false,"i_lat":-6.198556,"station_name":"Cikini","line":2,"transit":false,"time":4,"i_long":106.840169},{"line":2,"station_name":"Gondangdia","i_long":106.832183,"distance":1750,"transit":false,"station_id":"GDD","time":3,"is_transit":false,"i_lat":-6.186295},{"transit":false,"station_name":"Juanda","station_id":"JUA","i_lat":-6.166716,"line":2,"distance":2015,"time":4,"is_transit":false,"i_long":106.828284},{"station_name":"Sawah Besar","i_long":106.827103,"i_lat":-6.160725,"station_id":"SW","line":2,"transit":false,"time":2,"is_transit":false,"distance":1149},{"station_id":"MGB","transit":false,"station_name":"Manggabesar","distance":906,"time":2,"i_lat":-6.149769,"i_long":106.82482,"is_transit":false,"line":2},{"station_id":"JAY","i_long":106.820901,"station_name":"Jayakarta","is_transit":false,"transit":false,"distance":1080,"i_lat":-6.141205,"time":2,"line":2},{"i_long":106.812439,"station_id":"JAKK","time":4,"is_transit":true,"distance":1264,"transit":true,"line":2,"i_lat":-6.137569,"station_name":"Jakarta Kota"},{"is_transit":true,"i_long":106.826365,"station_id":"KPB","station_name":"Kampung Bandan","i_lat":-6.132549,"line":4,"time":3,"distance":1364,"transit":true},{"i_lat":-6.14505,"transit":false,"time":3,"is_transit":false,"station_id":"RJW","i_long":106.836569,"station_name":"Rajawali","distance":1444,"line":11},{"time":5,"i_long":106.839204,"distance":1901,"transit":false,"is_transit":false,"station_id":"KMO","line":11,"i_lat":-6.161728,"station_name":"Kemayoran"},{"station_name":"Pasar Senen","station_id":"PSE","i_lat":-6.174784,"i_long":106.84368,"line":11,"transit":false,"is_transit":false,"distance":1436,"time":4},{"is_transit":false,"line":11,"station_name":"Gang Sentiong","time":8,"station_id":"GST","i_lat":-6.185975,"i_long":106.850107,"transit":false,"distance":1567},{"line":11,"time":1,"station_name":"Kramat","transit":false,"station_id":"KMT","distance":973,"i_lat":-6.193792,"i_long":106.855437,"is_transit":false},{"station_id":"POK","line":11,"i_long":106.861737,"transit":false,"i_lat":-6.209188,"distance":1829,"is_transit":false,"station_name":"Pondok Jati","time":2},{"i_long":106.86807400000001,"time":9,"transit":true,"i_lat":-6.215091,"distance":1236,"station_name":"Jatinegara","line":1,"is_transit":true,"station_id":"JNG"},{"station_name":"Klender","line":1,"time":3,"transit":false,"i_lat":-6.2135,"station_id":"KLD","i_long":106.899548,"distance":3395,"is_transit":false},{"line":1,"is_transit":false,"i_lat":-6.215568,"time":2,"station_id":"BUA","i_long":106.922662,"distance":3100,"station_name":"Buaran","transit":false},{"station_name":"Klenderbaru","distance":1305,"is_transit":false,"time":1,"transit":false,"line":1,"i_long":106.939679,"i_lat":-6.217455,"station_id":"KLDB"},{"line":1,"i_lat":-6.219053,"transit":false,"station_id":"CUK","time":8,"distance":1385,"station_name":"Cakung","is_transit":false,"i_long":106.951283},{"i_lat":-6.224515,"transit":false,"line":1,"station_id":"KRI","time":3,"station_name":"Kranji","i_long":106.977657,"distance":3097,"is_transit":false},{"is_transit":false,"distance":2520,"line":1,"station_name":"Bekasi","time":4,"transit":false,"station_id":"BKS","i_lat":-6.236616,"i_long":106.997013},{"station_name":"Bekasi Timur","station_id":"BKST","time":2,"distance":2368,"transit":false,"i_long":107.016735,"line":1,"is_transit":false,"i_lat":-6.248029},{"distance":4460,"i_long":107.055722,"station_name":"Tambun","transit":false,"station_id":"TB","i_lat":-6.258864,"time":7,"is_transit":false,"line":1}]]}