{"data":[[{"is_transit":false,"distance":0,"time":0,"station_id":"KBY","transit":false,"line":6,"station_name":"Kebayoran","i_long":106.780334,"i_lat":-6.237242},{"is_transit":false,"transit":false,"i_long":106.79689,"distance":3737,"station_id":"PLM","time":7,"i_lat":-6.207404,"line":6,"station_name":"Palmerah"},{"is_transit":true,"distance":3191,"i_long":106.811091,"transit":true,"station_name":"Tanah Abang","time":6,"station_id":"THB","i_lat":-6.185545,"line":1},{"station_id":"KAT","distance":2029,"is_transit":false,"transit":false,"i_long":106.816351,"i_lat":-6.20132,"time":5,"line":1,"station_name":"Karet"},{"station_id":"SUDB","distance":471,"station_name":"Sudirman Baru","transit":false,"i_lat":-6.201433,"line":1,"is_transit":false,"time":1,"i_long":106.819881},{"i_lat":-6.202263,"station_name":"Sudirman","time":1,"distance":280,"station_id":"SUD","line":1,"i_long":106.822649,"is_transit":false,"transit":false},{"i_long":106.84912,"is_transit":false,"transit":false,"time":4,"line":2,"i_lat":-6.209883,"station_name":"Manggarai","distance":3186,"station_id":"MRI"},{"distance":1275,"is_transit":false,"station_name":"Matraman","transit":false,"time":2,"line":1,"i_long":106.858896,"station_id":"MTR","i_lat":-6.212485},{"station_name":"Jatinegara","station_id":"JNG","transit":false,"i_long":106.86807400000001,"i_lat":-6.215091,"line":1,"time":8,"is_transit":false,"distance":1377},{"is_transit":false,"i_lat":-6.2135,"transit":false,"i_long":106.899548,"station_name":"Klender","time":3,"distance":3395,"line":1,"station_id":"KLD"}],[{"time":0,"station_name":"Kebayoran","station_id":"KBY","transit":false,"is_transit":false,"i_lat":-6.237242,"line":6,"distance":0,"i_long":106.780334},{"station_id":"PLM","i_lat":-6.207404,"station_name":"Palmerah","time":7,"transit":false,"i_long":106.79689,"distance":3737,"is_transit":false,"line":6},{"transit":true,"station_name":"Tanah Abang","i_lat":-6.185545,"is_transit":true,"station_id":"THB","distance":3191,"i_long":106.811091,"line":1,"time":6},{"i_lat":-6.155215,"distance":3632,"station_name":"Duri","time":8,"transit":false,"station_id":"DU","line":1,"i_long":106.800832,"is_transit":false},{"transit":false,"station_name":"Angke","line":1,"is_transit":false,"i_long":106.79867,"time":4,"distance":1230,"station_id":"AK","i_lat":-6.144674},{"transit":true,"time":9,"station_id":"KPB","distance":4102,"i_long":106.826365,"station_name":"Kampung Bandan","line":4,"i_lat":-6.132549,"is_transit":true},{"i_long":106.836569,"i_lat":-6.14505,"is_transit":false,"station_id":"RJW","line":11,"transit":false,"distance":1444,"time":3,"station_name":"Rajawali"},{"time":5,"i_long":106.839204,"is_transit":false,"station_name":"Kemayoran","station_id":"KMO","line":11,"i_lat":-6.161728,"transit":false,"distance":1901},{"i_long":106.84368,"line":11,"time":4,"distance":1436,"station_id":"PSE","is_transit":false,"station_name":"Pasar Senen","transit":false,"i_lat":-6.174784},{"station_name":"Gang Sentiong","time":8,"is_transit":false,"i_lat":-6.185975,"transit":false,"distance":1567,"line":11,"station_id":"GST","i_long":106.850107},{"is_transit":false,"time":1,"i_lat":-6.193792,"station_name":"Kramat","line":11,"transit":false,"i_long":106.855437,"distance":973,"station_id":"KMT"},{"i_lat":-6.209188,"station_id":"POK","line":11,"distance":1829,"time":2,"station_name":"Pondok Jati","is_transit":false,"transit":false,"i_long":106.861737},{"time":9,"i_long":106.86807400000001,"station_id":"JNG","distance":1236,"line":1,"is_transit":true,"transit":true,"station_name":"Jatinegara","i_lat":-6.215091},{"station_id":"KLD","i_lat":-6.2135,"time":3,"is_transit":false,"i_long":106.899548,"transit":false,"station_name":"Klender","line":1,"distance":3395}],[{"is_transit":false,"distance":0,"time":0,"station_name":"Kebayoran","station_id":"KBY","transit":false,"i_lat":-6.237242,"line":6,"i_long":106.780334},{"line":6,"distance":3737,"station_id":"PLM","time":7,"i_lat":-6.207404,"station_name":"Palmerah","is_transit":false,"transit":false,"i_long":106.79689},{"line":1,"station_name":"Tanah Abang","time":6,"station_id":"THB","is_transit":true,"transit":true,"distance":3191,"i_lat":-6.185545,"i_long":106.811091},{"i_lat":-6.155215,"transit":false,"distance":3632,"time":8,"station_id":"DU","i_long":106.800832,"is_transit":false,"station_name":"Duri","line":1},{"distance":1230,"transit":false,"line":1,"station_name":"Angke","station_id":"AK","i_lat":-6.144674,"time":4,"i_long":106.79867,"is_transit":false},{"line":4,"distance":4102,"station_name":"Kampung Bandan","transit":true,"is_transit":true,"time":9,"i_lat":-6.132549,"station_id":"KPB","i_long":106.826365},{"is_transit":true,"transit":true,"station_id":"JAKK","line":2,"i_long":106.812439,"station_name":"Jakarta Kota","time":3,"distance":1364,"i_lat":-6.137569},{"time":4,"station_name":"Jayakarta","line":2,"station_id":"JAY","is_transit":false,"distance":1264,"i_lat":-6.141205,"i_long":106.820901,"transit":false},{"line":2,"time":2,"distance":1080,"is_transit":false,"station_id":"MGB","transit":false,"i_lat":-6.149769,"station_name":"Manggabesar","i_long":106.82482},{"is_transit":false,"i_lat":-6.160725,"distance":906,"i_long":106.827103,"station_id":"SW","time":2,"station_name":"Sawah Besar","transit":false,"line":2},{"station_id":"JUA","time":2,"station_name":"Juanda","i_lat":-6.166716,"transit":false,"i_long":106.828284,"distance":1149,"line":2,"is_transit":false},{"distance":2015,"i_lat":-6.186295,"station_id":"GDD","station_name":"Gondangdia","i_long":106.832183,"time":4,"is_transit":false,"transit":false,"line":2},{"station_name":"Cikini","distance":1750,"i_lat":-6.198556,"station_id":"CKI","time":3,"line":2,"is_transit":false,"transit":false,"i_long":106.840169},{"time":4,"transit":true,"is_transit":true,"station_name":"Manggarai","distance":1590,"i_long":106.84912,"station_id":"MRI","i_lat":-6.209883,"line":2},{"line":1,"distance":1275,"is_transit":false,"i_lat":-6.212485,"i_long":106.858896,"transit":false,"time":2,"station_id":"MTR","station_name":"Matraman"},{"station_id":"JNG","distance":1377,"transit":false,"is_transit":false,"time":8,"station_name":"Jatinegara","line":1,"i_lat":-6.215091,"i_long":106.86807400000001},{"station_name":"Klender","i_long":106.899548,"i_lat":-6.2135,"transit":false,"line":1,"is_transit":false,"time":3,"distance":3395,"station_id":"KLD"}],[{"is_transit":false,"station_name":"Kebayoran","i_lat":-6.237242,"transit":false,"distance":0,"i_long":106.780334,"time":0,"station_id":"KBY","line":6},{"distance":3737,"station_name":"Palmerah","time":7,"station_id":"PLM","is_transit":false,"transit":false,"line":6,"i_long":106.79689,"i_lat":-6.207404},{"distance":3191,"station_id":"THB","i_lat":-6.185545,"line":1,"transit":true,"station_name":"Tanah Abang","i_long":106.811091,"is_transit":true,"time":6},{"i_long":106.816351,"distance":2029,"station_name":"Karet","i_lat":-6.20132,"is_transit":false,"time":5,"transit":false,"line":1,"station_id":"KAT"},{"station_name":"Sudirman Baru","time":1,"distance":471,"station_id":"SUDB","i_long":106.819881,"is_transit":false,"line":1,"transit":false,"i_lat":-6.201433},{"time":1,"i_long":106.822649,"distance":280,"station_id":"SUD","is_transit":false,"transit":false,"line":1,"i_lat":-6.202263,"station_name":"Sudirman"},{"time":4,"i_long":106.84912,"i_lat":-6.209883,"distance":3186,"station_id":"MRI","is_transit":true,"station_name":"Manggarai","transit":true,"line":2},{"is_transit":false,"transit":false,"i_lat":-6.198556,"station_id":"CKI","i_long":106.840169,"line":2,"time":4,"distance":1590,"station_name":"Cikini"},{"distance":1750,"transit":false,"time":3,"i_lat":-6.186295,"station_name":"Gondangdia","is_transit":false,"i_long":106.832183,"line":2,"station_id":"GDD"},{"transit":false,"i_long":106.828284,"distance":2015,"station_name":"Juanda","is_transit":false,"time":4,"i_lat":-6.166716,"station_id":"JUA","line":2},{"transit":false,"station_id":"SW","i_long":106.827103,"time":2,"station_name":"Sawah Besar","is_transit":false,"line":2,"distance":1149,"i_lat":-6.160725},{"station_name":"Manggabesar","time":2,"i_long":106.82482,"is_transit":false,"line":2,"transit":false,"station_id":"MGB","distance":906,"i_lat":-6.149769},{"distance":1080,"station_id":"JAY","i_lat":-6.141205,"i_long":106.820901,"station_name":"Jayakarta","time":2,"transit":false,"is_transit":false,"line":2},{"time":4,"is_transit":true,"station_name":"Jakarta Kota","line":2,"i_lat":-6.137569,"distance":1264,"i_long":106.812439,"station_id":"JAKK","transit":true},{"time":3,"transit":true,"is_transit":true,"distance":1364,"i_long":106.826365,"line":4,"i_lat":-6.132549,"station_name":"Kampung Bandan","station_id":"KPB"},{"i_long":106.836569,"transit":false,"time":3,"station_id":"RJW","is_transit":false,"line":11,"station_name":"Rajawali","distance":1444,"i_lat":-6.14505},{"station_name":"Kemayoran","time":5,"distance":1901,"i_long":106.839204,"is_transit":false,"line":11,"station_id":"KMO","i_lat":-6.161728,"transit":false},{"i_long":106.84368,"line":11,"i_lat":-6.174784,"is_transit":false,"time":4,"station_id":"PSE","transit":false,"station_name":"Pasar Senen","distance":1436},{"transit":false,"is_transit":false,"i_long":106.850107,"line":11,"station_name":"Gang Sentiong","distance":1567,"i_lat":-6.185975,"station_id":"GST","time":8},{"line":11,"is_transit":false,"time":1,"transit":false,"i_long":106.855437,"distance":973,"station_id":"KMT","i_lat":-6.193792,"station_name":"Kramat"},{"station_name":"Pondok Jati","is_transit":false,"time":2,"i_long":106.861737,"i_lat":-6.209188,"distance":1829,"station_id":"POK","line":11,"transit":false},{"transit":true,"line":1,"station_id":"JNG","i_long":106.86807400000001,"is_transit":true,"i_lat":-6.215091,"time":9,"distance":1236,"station_name":"Jatinegara"},{"station_id":"KLD","transit":false,"i_long":106.899548,"distance":3395,"station_name":"Klender","is_transit":false,"time":3,"i_lat":-6.2135,"line":1}]]}