{"data":[[{"i_long":106.780334,"line":6,"transit":false,"time":0,"station_name":"Kebayoran","is_transit":false,"distance":0,"station_id":"KBY","i_lat":-6.237242},{"distance":3737,"station_id":"PLM","is_transit":false,"i_long":106.79689,"line":6,"station_name":"Palmerah","i_lat":-6.207404,"time":7,"transit":false},{"time":6,"i_lat":-6.185545,"i_long":106.811091,"line":1,"is_transit":true,"station_id":"THB","distance":3191,"station_name":"Tanah Abang","transit":true},{"station_id":"DU","i_lat":-6.155215,"transit":true,"distance":3632,"i_long":106.800832,"time":8,"is_transit":true,"station_name":"Duri","line":1},{"distance":1700,"i_lat":-6.162021,"station_name":"Grogol","line":5,"i_long":106.788277,"is_transit":false,"time":3,"station_id":"GGL","transit":false}],[{"is_transit":false,"time":0,"distance":0,"transit":false,"station_id":"KBY","line":6,"i_lat":-6.237242,"i_long":106.780334,"station_name":"Kebayoran"},{"distance":3737,"station_name":"Palmerah","is_transit":false,"station_id":"PLM","transit":false,"time":7,"i_long":106.79689,"line":6,"i_lat":-6.207404},{"station_name":"Tanah Abang","transit":true,"is_transit":true,"distance":3191,"line":1,"i_lat":-6.185545,"i_long":106.811091,"time":6,"station_id":"THB"},{"i_lat":-6.20132,"is_transit":false,"station_id":"KAT","i_long":106.816351,"transit":false,"station_name":"Karet","time":5,"line":1,"distance":2029},{"station_name":"Sudirman Baru","i_long":106.819881,"line":1,"i_lat":-6.201433,"time":1,"is_transit":false,"transit":false,"distance":471,"station_id":"SUDB"},{"time":1,"station_id":"SUD","i_lat":-6.202263,"transit":false,"station_name":"Sudirman","is_transit":false,"distance":280,"i_long":106.822649,"line":1},{"time":4,"distance":3186,"line":2,"station_id":"MRI","i_lat":-6.209883,"transit":true,"i_long":106.84912,"station_name":"Manggarai","is_transit":true},{"transit":false,"line":2,"distance":1590,"time":4,"is_transit":false,"station_id":"CKI","i_lat":-6.198556,"i_long":106.840169,"station_name":"Cikini"},{"is_transit":false,"station_id":"GDD","time":3,"transit":false,"station_name":"Gondangdia","i_lat":-6.186295,"line":2,"distance":1750,"i_long":106.832183},{"time":4,"i_lat":-6.166716,"station_name":"Juanda","is_transit":false,"transit":false,"station_id":"JUA","i_long":106.828284,"distance":2015,"line":2},{"transit":false,"station_name":"Sawah Besar","station_id":"SW","i_long":106.827103,"is_transit":false,"distance":1149,"line":2,"i_lat":-6.160725,"time":2},{"station_id":"MGB","is_transit":false,"i_long":106.82482,"time":2,"i_lat":-6.149769,"station_name":"Manggabesar","line":2,"distance":906,"transit":false},{"time":2,"station_name":"Jayakarta","station_id":"JAY","is_transit":false,"distance":1080,"line":2,"transit":false,"i_lat":-6.141205,"i_long":106.820901},{"is_transit":true,"distance":1264,"transit":true,"i_long":106.812439,"station_id":"JAKK","line":2,"station_name":"Jakarta Kota","i_lat":-6.137569,"time":4},{"is_transit":true,"station_id":"KPB","transit":true,"distance":1364,"time":3,"i_long":106.826365,"station_name":"Kampung Bandan","line":4,"i_lat":-6.132549},{"station_id":"AK","transit":false,"i_lat":-6.144674,"line":1,"time":9,"station_name":"Angke","i_long":106.79867,"distance":4102,"is_transit":false},{"distance":1230,"is_transit":true,"transit":true,"station_id":"DU","time":4,"station_name":"Duri","i_lat":-6.155215,"i_long":106.800832,"line":1},{"distance":1700,"i_long":106.788277,"i_lat":-6.162021,"station_name":"Grogol","transit":false,"is_transit":false,"time":3,"station_id":"GGL","line":5}],[{"distance":0,"transit":false,"station_name":"Kebayoran","station_id":"KBY","i_long":106.780334,"is_transit":false,"line":6,"i_lat":-6.237242,"time":0},{"station_id":"PLM","i_long":106.79689,"is_transit":false,"i_lat":-6.207404,"station_name":"Palmerah","transit":false,"time":7,"distance":3737,"line":6},{"distance":3191,"station_id":"THB","station_name":"Tanah Abang","line":1,"is_transit":true,"i_long":106.811091,"transit":true,"i_lat":-6.185545,"time":6},{"is_transit":false,"station_name":"Karet","transit":false,"i_lat":-6.20132,"time":5,"distance":2029,"i_long":106.816351,"line":1,"station_id":"KAT"},{"transit":false,"station_name":"Sudirman Baru","distance":471,"i_lat":-6.201433,"i_long":106.819881,"is_transit":false,"station_id":"SUDB","line":1,"time":1},{"time":1,"i_long":106.822649,"distance":280,"i_lat":-6.202263,"station_name":"Sudirman","transit":false,"line":1,"station_id":"SUD","is_transit":false},{"station_name":"Manggarai","i_lat":-6.209883,"line":2,"station_id":"MRI","is_transit":false,"transit":false,"time":4,"i_long":106.84912,"distance":3186},{"distance":1275,"is_transit":false,"station_id":"MTR","transit":false,"i_lat":-6.212485,"line":1,"time":2,"station_name":"Matraman","i_long":106.858896},{"distance":1377,"i_lat":-6.215091,"station_name":"Jatinegara","i_long":106.86807400000001,"time":8,"line":1,"station_id":"JNG","transit":true,"is_transit":true},{"i_lat":-6.209188,"i_long":106.861737,"line":11,"time":2,"distance":1236,"transit":false,"station_name":"Pondok Jati","station_id":"POK","is_transit":false},{"transit":false,"distance":1829,"station_id":"KMT","line":11,"time":2,"station_name":"Kramat","i_lat":-6.193792,"is_transit":false,"i_long":106.855437},{"station_id":"GST","distance":973,"i_lat":-6.185975,"i_long":106.850107,"line":11,"transit":false,"station_name":"Gang Sentiong","time":1,"is_transit":false},{"distance":1567,"line":11,"i_lat":-6.174784,"is_transit":false,"transit":false,"time":8,"i_long":106.84368,"station_name":"Pasar Senen","station_id":"PSE"},{"is_transit":false,"time":4,"line":11,"i_lat":-6.161728,"distance":1436,"i_long":106.839204,"transit":false,"station_name":"Kemayoran","station_id":"KMO"},{"transit":false,"i_long":106.836569,"i_lat":-6.14505,"distance":1901,"time":5,"line":11,"is_transit":false,"station_name":"Rajawali","station_id":"RJW"},{"line":4,"time":3,"station_id":"KPB","i_lat":-6.132549,"distance":1444,"is_transit":true,"i_long":106.826365,"station_name":"Kampung Bandan","transit":true},{"line":1,"station_name":"Angke","transit":false,"distance":4102,"i_lat":-6.144674,"time":9,"is_transit":false,"i_long":106.79867,"station_id":"AK"},{"station_id":"DU","station_name":"Duri","time":4,"distance":1230,"transit":true,"i_lat":-6.155215,"is_transit":true,"i_long":106.800832,"line":1},{"i_long":106.788277,"distance":1700,"line":5,"i_lat":-6.162021,"time":3,"is_transit":false,"transit":false,"station_id":"GGL","station_name":"Grogol"}]]}