{"data":[[{"line":6,"i_lat":-6.237242,"i_long":106.780334,"is_transit":false,"time":0,"transit":false,"station_name":"Kebayoran","station_id":"KBY","distance":0},{"transit":false,"i_lat":-6.207404,"i_long":106.79689,"line":6,"is_transit":false,"time":7,"distance":3737,"station_id":"PLM","station_name":"Palmerah"},{"i_lat":-6.185545,"line":1,"station_id":"THB","i_long":106.811091,"time":6,"distance":3191,"station_name":"Tanah Abang","is_transit":true,"transit":true},{"transit":false,"station_name":"Karet","distance":2029,"time":5,"is_transit":false,"i_lat":-6.20132,"i_long":106.816351,"station_id":"KAT","line":1},{"transit":false,"station_name":"Sudirman Baru","distance":471,"i_lat":-6.201433,"time":1,"i_long":106.819881,"station_id":"SUDB","line":1,"is_transit":false},{"transit":false,"station_id":"SUD","is_transit":false,"time":1,"i_lat":-6.202263,"i_long":106.822649,"station_name":"Sudirman","line":1,"distance":280},{"i_long":106.84912,"line":2,"time":4,"is_transit":false,"transit":false,"distance":3186,"station_name":"Manggarai","i_lat":-6.209883,"station_id":"MRI"},{"i_long":106.858896,"time":2,"is_transit":false,"distance":1275,"line":1,"station_id":"MTR","transit":false,"i_lat":-6.212485,"station_name":"Matraman"},{"i_lat":-6.215091,"line":1,"station_name":"Jatinegara","time":8,"i_long":106.86807400000001,"station_id":"JNG","distance":1377,"is_transit":false,"transit":false},{"i_long":106.899548,"line":1,"station_id":"KLD","station_name":"Klender","transit":false,"i_lat":-6.2135,"distance":3395,"is_transit":false,"time":3},{"is_transit":false,"i_long":106.922662,"station_name":"Buaran","line":1,"time":2,"distance":3100,"transit":false,"i_lat":-6.215568,"station_id":"BUA"},{"distance":1305,"transit":false,"is_transit":false,"station_id":"KLDB","time":1,"i_long":106.939679,"station_name":"Klenderbaru","line":1,"i_lat":-6.217455},{"i_long":106.951283,"station_name":"Cakung","i_lat":-6.219053,"time":8,"is_transit":false,"line":1,"transit":false,"station_id":"CUK","distance":1385},{"i_long":106.977657,"distance":3097,"i_lat":-6.224515,"transit":false,"line":1,"time":3,"station_name":"Kranji","station_id":"KRI","is_transit":false},{"distance":2520,"time":4,"i_lat":-6.236616,"line":1,"station_name":"Bekasi","is_transit":false,"transit":false,"i_long":106.997013,"station_id":"BKS"}],[{"transit":false,"i_long":106.780334,"is_transit":false,"i_lat":-6.237242,"line":6,"time":0,"distance":0,"station_id":"KBY","station_name":"Kebayoran"},{"distance":3737,"time":7,"station_id":"PLM","station_name":"Palmerah","transit":false,"line":6,"i_long":106.79689,"i_lat":-6.207404,"is_transit":false},{"i_long":106.811091,"station_id":"THB","station_name":"Tanah Abang","is_transit":true,"time":6,"transit":true,"line":1,"i_lat":-6.185545,"distance":3191},{"i_lat":-6.155215,"line":1,"station_name":"Duri","transit":false,"time":8,"distance":3632,"is_transit":false,"i_long":106.800832,"station_id":"DU"},{"distance":1230,"is_transit":false,"station_name":"Angke","station_id":"AK","transit":false,"i_lat":-6.144674,"line":1,"i_long":106.79867,"time":4},{"station_id":"KPB","i_long":106.826365,"time":9,"distance":4102,"line":4,"station_name":"Kampung Bandan","transit":true,"is_transit":true,"i_lat":-6.132549},{"time":3,"station_id":"RJW","i_long":106.836569,"line":11,"station_name":"Rajawali","distance":1444,"is_transit":false,"i_lat":-6.14505,"transit":false},{"line":11,"station_name":"Kemayoran","station_id":"KMO","transit":false,"i_lat":-6.161728,"i_long":106.839204,"time":5,"distance":1901,"is_transit":false},{"station_name":"Pasar Senen","station_id":"PSE","transit":false,"is_transit":false,"distance":1436,"time":4,"i_long":106.84368,"i_lat":-6.174784,"line":11},{"i_lat":-6.185975,"i_long":106.850107,"time":8,"station_id":"GST","line":11,"is_transit":false,"distance":1567,"transit":false,"station_name":"Gang Sentiong"},{"is_transit":false,"time":1,"i_lat":-6.193792,"distance":973,"station_name":"Kramat","i_long":106.855437,"transit":false,"line":11,"station_id":"KMT"},{"station_name":"Pondok Jati","distance":1829,"line":11,"i_lat":-6.209188,"i_long":106.861737,"transit":false,"time":2,"is_transit":false,"station_id":"POK"},{"time":9,"i_long":106.86807400000001,"line":1,"station_id":"JNG","i_lat":-6.215091,"distance":1236,"is_transit":true,"station_name":"Jatinegara","transit":true},{"station_id":"KLD","line":1,"i_long":106.899548,"time":3,"transit":false,"i_lat":-6.2135,"station_name":"Klender","is_transit":false,"distance":3395},{"line":1,"is_transit":false,"station_name":"Buaran","i_lat":-6.215568,"i_long":106.922662,"distance":3100,"station_id":"BUA","time":2,"transit":false},{"transit":false,"i_long":106.939679,"station_id":"KLDB","station_name":"Klenderbaru","is_transit":false,"time":1,"i_lat":-6.217455,"line":1,"distance":1305},{"line":1,"time":8,"station_id":"CUK","is_transit":false,"distance":1385,"transit":false,"i_lat":-6.219053,"i_long":106.951283,"station_name":"Cakung"},{"i_long":106.977657,"station_name":"Kranji","is_transit":false,"station_id":"KRI","line":1,"distance":3097,"time":3,"transit":false,"i_lat":-6.224515},{"transit":false,"i_lat":-6.236616,"station_id":"BKS","distance":2520,"i_long":106.997013,"line":1,"time":4,"station_name":"Bekasi","is_transit":false}],[{"distance":0,"station_name":"Kebayoran","transit":false,"is_transit":false,"time":0,"i_lat":-6.237242,"line":6,"i_long":106.780334,"station_id":"KBY"},{"is_transit":false,"line":6,"transit":false,"distance":3737,"time":7,"i_lat":-6.207404,"i_long":106.79689,"station_id":"PLM","station_name":"Palmerah"},{"is_transit":true,"distance":3191,"transit":true,"station_name":"Tanah Abang","station_id":"THB","time":6,"i_lat":-6.185545,"i_long":106.811091,"line":1},{"distance":3632,"is_transit":false,"time":8,"i_long":106.800832,"line":1,"station_id":"DU","station_name":"Duri","transit":false,"i_lat":-6.155215},{"i_lat":-6.144674,"line":1,"is_transit":false,"station_id":"AK","distance":1230,"transit":false,"station_name":"Angke","i_long":106.79867,"time":4},{"is_transit":true,"time":9,"i_lat":-6.132549,"transit":true,"station_id":"KPB","station_name":"Kampung Bandan","i_long":106.826365,"line":4,"distance":4102},{"station_id":"JAKK","line":2,"i_long":106.812439,"is_transit":true,"distance":1364,"station_name":"Jakarta Kota","time":3,"transit":true,"i_lat":-6.137569},{"transit":false,"line":2,"is_transit":false,"distance":1264,"station_id":"JAY","i_long":106.820901,"i_lat":-6.141205,"time":4,"station_name":"Jayakarta"},{"line":2,"distance":1080,"station_name":"Manggabesar","i_lat":-6.149769,"station_id":"MGB","time":2,"transit":false,"is_transit":false,"i_long":106.82482},{"time":2,"transit":false,"i_lat":-6.160725,"i_long":106.827103,"distance":906,"station_id":"SW","station_name":"Sawah Besar","is_transit":false,"line":2},{"line":2,"i_long":106.828284,"distance":1149,"transit":false,"station_name":"Juanda","time":2,"station_id":"JUA","i_lat":-6.166716,"is_transit":false},{"time":4,"transit":false,"i_lat":-6.186295,"station_id":"GDD","distance":2015,"i_long":106.832183,"is_transit":false,"line":2,"station_name":"Gondangdia"},{"time":3,"is_transit":false,"i_lat":-6.198556,"i_long":106.840169,"station_name":"Cikini","distance":1750,"line":2,"transit":false,"station_id":"CKI"},{"i_long":106.84912,"station_id":"MRI","line":2,"is_transit":true,"transit":true,"i_lat":-6.209883,"station_name":"Manggarai","distance":1590,"time":4},{"i_lat":-6.212485,"transit":false,"time":2,"line":1,"station_name":"Matraman","station_id":"MTR","distance":1275,"is_transit":false,"i_long":106.858896},{"i_long":106.86807400000001,"distance":1377,"station_id":"JNG","transit":false,"time":8,"i_lat":-6.215091,"is_transit":false,"station_name":"Jatinegara","line":1},{"transit":false,"line":1,"time":3,"station_id":"KLD","station_name":"Klender","i_long":106.899548,"is_transit":false,"distance":3395,"i_lat":-6.2135},{"is_transit":false,"i_lat":-6.215568,"time":2,"station_id":"BUA","distance":3100,"station_name":"Buaran","line":1,"i_long":106.922662,"transit":false},{"is_transit":false,"time":1,"line":1,"transit":false,"i_long":106.939679,"station_id":"KLDB","distance":1305,"station_name":"Klenderbaru","i_lat":-6.217455},{"is_transit":false,"transit":false,"station_name":"Cakung","station_id":"CUK","time":8,"i_lat":-6.219053,"distance":1385,"i_long":106.951283,"line":1},{"i_lat":-6.224515,"transit":false,"is_transit":false,"station_name":"Kranji","station_id":"KRI","distance":3097,"i_long":106.977657,"time":3,"line":1},{"time":4,"i_long":106.997013,"line":1,"station_id":"BKS","station_name":"Bekasi","i_lat":-6.236616,"transit":false,"is_transit":false,"distance":2520}],[{"time":0,"station_id":"KBY","is_transit":false,"line":6,"distance":0,"station_name":"Kebayoran","i_lat":-6.237242,"i_long":106.780334,"transit":false},{"station_id":"PLM","line":6,"i_lat":-6.207404,"transit":false,"is_transit":false,"station_name":"Palmerah","time":7,"distance":3737,"i_long":106.79689},{"distance":3191,"i_lat":-6.185545,"station_name":"Tanah Abang","is_transit":true,"transit":true,"time":6,"i_long":106.811091,"station_id":"THB","line":1},{"station_id":"KAT","transit":false,"time":5,"station_name":"Karet","i_lat":-6.20132,"i_long":106.816351,"line":1,"distance":2029,"is_transit":false},{"i_lat":-6.201433,"i_long":106.819881,"time":1,"line":1,"distance":471,"is_transit":false,"transit":false,"station_id":"SUDB","station_name":"Sudirman Baru"},{"time":1,"line":1,"station_name":"Sudirman","is_transit":false,"i_long":106.822649,"transit":false,"station_id":"SUD","distance":280,"i_lat":-6.202263},{"i_lat":-6.209883,"line":2,"is_transit":true,"transit":true,"distance":3186,"station_name":"Manggarai","time":4,"station_id":"MRI","i_long":106.84912},{"station_name":"Cikini","transit":false,"distance":1590,"is_transit":false,"i_long":106.840169,"time":4,"i_lat":-6.198556,"line":2,"station_id":"CKI"},{"station_id":"GDD","is_transit":false,"line":2,"i_long":106.832183,"station_name":"Gondangdia","transit":false,"time":3,"distance":1750,"i_lat":-6.186295},{"time":4,"i_lat":-6.166716,"station_name":"Juanda","line":2,"station_id":"JUA","is_transit":false,"i_long":106.828284,"transit":false,"distance":2015},{"time":2,"transit":false,"i_lat":-6.160725,"i_long":106.827103,"distance":1149,"line":2,"station_id":"SW","is_transit":false,"station_name":"Sawah Besar"},{"station_id":"MGB","station_name":"Manggabesar","time":2,"transit":false,"is_transit":false,"i_lat":-6.149769,"i_long":106.82482,"line":2,"distance":906},{"distance":1080,"i_lat":-6.141205,"time":2,"transit":false,"station_id":"JAY","line":2,"station_name":"Jayakarta","is_transit":false,"i_long":106.820901},{"station_id":"JAKK","line":2,"is_transit":true,"distance":1264,"time":4,"transit":true,"i_lat":-6.137569,"station_name":"Jakarta Kota","i_long":106.812439},{"i_long":106.826365,"distance":1364,"station_name":"Kampung Bandan","time":3,"transit":true,"is_transit":true,"station_id":"KPB","line":4,"i_lat":-6.132549},{"time":3,"line":11,"i_long":106.836569,"is_transit":false,"i_lat":-6.14505,"transit":false,"station_name":"Rajawali","station_id":"RJW","distance":1444},{"line":11,"distance":1901,"i_lat":-6.161728,"is_transit":false,"station_id":"KMO","time":5,"station_name":"Kemayoran","transit":false,"i_long":106.839204},{"i_lat":-6.174784,"line":11,"i_long":106.84368,"transit":false,"time":4,"station_name":"Pasar Senen","station_id":"PSE","distance":1436,"is_transit":false},{"i_lat":-6.185975,"is_transit":false,"i_long":106.850107,"transit":false,"line":11,"time":8,"station_id":"GST","station_name":"Gang Sentiong","distance":1567},{"is_transit":false,"i_long":106.855437,"distance":973,"i_lat":-6.193792,"line":11,"transit":false,"station_id":"KMT","station_name":"Kramat","time":1},{"transit":false,"time":2,"station_id":"POK","is_transit":false,"line":11,"i_lat":-6.209188,"station_name":"Pondok Jati","distance":1829,"i_long":106.861737},{"i_long":106.86807400000001,"station_id":"JNG","time":9,"distance":1236,"line":1,"transit":true,"station_name":"Jatinegara","i_lat":-6.215091,"is_transit":true},{"time":3,"distance":3395,"transit":false,"line":1,"i_lat":-6.2135,"station_name":"Klender","is_transit":false,"i_long":106.899548,"station_id":"KLD"},{"i_long":106.922662,"distance":3100,"time":2,"station_id":"BUA","line":1,"is_transit":false,"transit":false,"station_name":"Buaran","i_lat":-6.215568},{"transit":false,"station_name":"Klenderbaru","time":1,"distance":1305,"i_lat":-6.217455,"i_long":106.939679,"station_id":"KLDB","line":1,"is_transit":false},{"line":1,"station_name":"Cakung","i_long":106.951283,"transit":false,"station_id":"CUK","distance":1385,"is_transit":false,"time":8,"i_lat":-6.219053},{"distance":3097,"i_lat":-6.224515,"line":1,"i_long":106.977657,"transit":false,"station_name":"Kranji","is_transit":false,"time":3,"station_id":"KRI"},{"i_long":106.997013,"station_name":"Bekasi","transit":false,"station_id":"BKS","time":4,"i_lat":-6.236616,"distance":2520,"is_transit":false,"line":1}]]}