{"data":[[{"i_lat":-6.237242,"i_long":106.780334,"distance":0,"is_transit":false,"time":0,"station_id":"KBY","transit":false,"line":6,"station_name":"Kebayoran"},{"i_lat":-6.207404,"distance":3737,"station_name":"Palmerah","time":7,"station_id":"PLM","transit":false,"is_transit":false,"i_long":106.79689,"line":6},{"line":1,"station_name":"Tanah Abang","is_transit":true,"time":6,"station_id":"THB","transit":true,"i_long":106.811091,"distance":3191,"i_lat":-6.185545},{"line":1,"station_name":"Karet","distance":2029,"i_lat":-6.20132,"i_long":106.816351,"is_transit":false,"transit":false,"time":5,"station_id":"KAT"},{"i_lat":-6.201433,"station_name":"Sudirman Baru","distance":471,"station_id":"SUDB","line":1,"transit":false,"time":1,"is_transit":false,"i_long":106.819881},{"is_transit":false,"time":1,"station_name":"Sudirman","line":1,"distance":280,"station_id":"SUD","i_lat":-6.202263,"i_long":106.822649,"transit":false},{"is_transit":false,"distance":3186,"station_name":"Manggarai","transit":false,"i_long":106.84912,"line":2,"station_id":"MRI","i_lat":-6.209883,"time":4},{"time":2,"distance":1275,"i_long":106.858896,"line":1,"is_transit":false,"i_lat":-6.212485,"station_name":"Matraman","station_id":"MTR","transit":false},{"distance":1377,"line":1,"transit":false,"station_name":"Jatinegara","is_transit":false,"station_id":"JNG","i_lat":-6.215091,"time":8,"i_long":106.86807400000001},{"i_long":106.899548,"station_name":"Klender","line":1,"time":3,"transit":false,"is_transit":false,"station_id":"KLD","distance":3395,"i_lat":-6.2135},{"station_name":"Buaran","line":1,"is_transit":false,"station_id":"BUA","i_lat":-6.215568,"distance":3100,"i_long":106.922662,"transit":false,"time":2},{"distance":1305,"transit":false,"line":1,"is_transit":false,"station_id":"KLDB","time":1,"i_lat":-6.217455,"station_name":"Klenderbaru","i_long":106.939679},{"station_name":"Cakung","distance":1385,"i_long":106.951283,"station_id":"CUK","line":1,"i_lat":-6.219053,"transit":false,"is_transit":false,"time":8},{"i_long":106.977657,"line":1,"i_lat":-6.224515,"station_id":"KRI","transit":false,"is_transit":false,"time":3,"station_name":"Kranji","distance":3097},{"distance":2520,"time":4,"i_lat":-6.236616,"is_transit":false,"transit":false,"station_id":"BKS","i_long":106.997013,"line":1,"station_name":"Bekasi"},{"distance":2368,"is_transit":false,"time":2,"line":1,"station_name":"Bekasi Timur","i_lat":-6.248029,"i_long":107.016735,"station_id":"BKST","transit":false},{"station_id":"TB","i_lat":-6.258864,"transit":false,"i_long":107.055722,"station_name":"Tambun","is_transit":false,"time":7,"distance":4460,"line":1}],[{"time":0,"is_transit":false,"line":6,"i_lat":-6.237242,"i_long":106.780334,"station_id":"KBY","transit":false,"distance":0,"station_name":"Kebayoran"},{"station_id":"PLM","time":7,"distance":3737,"transit":false,"line":6,"i_lat":-6.207404,"station_name":"Palmerah","i_long":106.79689,"is_transit":false},{"transit":true,"i_lat":-6.185545,"time":6,"station_id":"THB","i_long":106.811091,"line":1,"is_transit":true,"distance":3191,"station_name":"Tanah Abang"},{"station_id":"DU","distance":3632,"line":1,"time":8,"station_name":"Duri","i_long":106.800832,"is_transit":false,"i_lat":-6.155215,"transit":false},{"transit":false,"distance":1230,"line":1,"station_name":"Angke","time":4,"station_id":"AK","i_long":106.79867,"is_transit":false,"i_lat":-6.144674},{"i_long":106.826365,"time":9,"transit":true,"distance":4102,"i_lat":-6.132549,"station_name":"Kampung Bandan","is_transit":true,"station_id":"KPB","line":4},{"is_transit":false,"i_lat":-6.14505,"transit":false,"station_name":"Rajawali","time":3,"distance":1444,"line":11,"station_id":"RJW","i_long":106.836569},{"station_id":"KMO","is_transit":false,"station_name":"Kemayoran","line":11,"i_long":106.839204,"transit":false,"i_lat":-6.161728,"time":5,"distance":1901},{"station_name":"Pasar Senen","distance":1436,"i_lat":-6.174784,"i_long":106.84368,"transit":false,"station_id":"PSE","line":11,"is_transit":false,"time":4},{"is_transit":false,"time":8,"station_id":"GST","transit":false,"distance":1567,"i_lat":-6.185975,"line":11,"i_long":106.850107,"station_name":"Gang Sentiong"},{"distance":973,"line":11,"is_transit":false,"station_id":"KMT","i_lat":-6.193792,"station_name":"Kramat","time":1,"transit":false,"i_long":106.855437},{"i_lat":-6.209188,"station_name":"Pondok Jati","transit":false,"is_transit":false,"time":2,"distance":1829,"station_id":"POK","i_long":106.861737,"line":11},{"transit":true,"station_name":"Jatinegara","i_lat":-6.215091,"line":1,"i_long":106.86807400000001,"time":9,"distance":1236,"is_transit":true,"station_id":"JNG"},{"time":3,"station_id":"KLD","i_long":106.899548,"transit":false,"station_name":"Klender","is_transit":false,"distance":3395,"i_lat":-6.2135,"line":1},{"station_id":"BUA","line":1,"i_lat":-6.215568,"i_long":106.922662,"is_transit":false,"time":2,"station_name":"Buaran","transit":false,"distance":3100},{"time":1,"station_name":"Klenderbaru","station_id":"KLDB","i_lat":-6.217455,"distance":1305,"is_transit":false,"i_long":106.939679,"transit":false,"line":1},{"time":8,"i_lat":-6.219053,"line":1,"is_transit":false,"transit":false,"station_id":"CUK","i_long":106.951283,"station_name":"Cakung","distance":1385},{"transit":false,"station_name":"Kranji","line":1,"i_long":106.977657,"distance":3097,"i_lat":-6.224515,"time":3,"is_transit":false,"station_id":"KRI"},{"time":4,"transit":false,"i_long":106.997013,"station_name":"Bekasi","distance":2520,"line":1,"station_id":"BKS","is_transit":false,"i_lat":-6.236616},{"time":2,"i_lat":-6.248029,"station_id":"BKST","distance":2368,"i_long":107.016735,"line":1,"is_transit":false,"transit":false,"station_name":"Bekasi Timur"},{"distance":4460,"is_transit":false,"i_lat":-6.258864,"transit":false,"i_long":107.055722,"station_id":"TB","station_name":"Tambun","line":1,"time":7}],[{"is_transit":false,"time":0,"i_long":106.780334,"station_name":"Kebayoran","distance":0,"i_lat":-6.237242,"station_id":"KBY","line":6,"transit":false},{"transit":false,"distance":3737,"i_long":106.79689,"time":7,"i_lat":-6.207404,"station_id":"PLM","line":6,"is_transit":false,"station_name":"Palmerah"},{"station_id":"THB","time":6,"distance":3191,"is_transit":true,"i_lat":-6.185545,"station_name":"Tanah Abang","line":1,"transit":true,"i_long":106.811091},{"station_name":"Duri","time":8,"transit":false,"is_transit":false,"line":1,"distance":3632,"i_lat":-6.155215,"station_id":"DU","i_long":106.800832},{"time":4,"i_long":106.79867,"is_transit":false,"i_lat":-6.144674,"line":1,"transit":false,"station_name":"Angke","station_id":"AK","distance":1230},{"i_lat":-6.132549,"is_transit":true,"i_long":106.826365,"station_id":"KPB","line":4,"transit":true,"distance":4102,"station_name":"Kampung Bandan","time":9},{"time":3,"station_name":"Jakarta Kota","distance":1364,"i_lat":-6.137569,"i_long":106.812439,"station_id":"JAKK","line":2,"is_transit":true,"transit":true},{"distance":1264,"i_long":106.820901,"time":4,"transit":false,"is_transit":false,"station_id":"JAY","i_lat":-6.141205,"line":2,"station_name":"Jayakarta"},{"is_transit":false,"transit":false,"time":2,"station_id":"MGB","i_lat":-6.149769,"distance":1080,"i_long":106.82482,"station_name":"Manggabesar","line":2},{"transit":false,"is_transit":false,"i_lat":-6.160725,"station_id":"SW","i_long":106.827103,"line":2,"station_name":"Sawah Besar","distance":906,"time":2},{"is_transit":false,"station_name":"Juanda","time":2,"distance":1149,"i_lat":-6.166716,"line":2,"transit":false,"station_id":"JUA","i_long":106.828284},{"time":4,"i_lat":-6.186295,"station_name":"Gondangdia","line":2,"distance":2015,"transit":false,"station_id":"GDD","i_long":106.832183,"is_transit":false},{"i_lat":-6.198556,"distance":1750,"i_long":106.840169,"time":3,"is_transit":false,"transit":false,"station_name":"Cikini","station_id":"CKI","line":2},{"distance":1590,"i_lat":-6.209883,"station_name":"Manggarai","line":2,"time":4,"i_long":106.84912,"is_transit":true,"station_id":"MRI","transit":true},{"is_transit":false,"time":2,"station_id":"MTR","distance":1275,"line":1,"i_lat":-6.212485,"transit":false,"i_long":106.858896,"station_name":"Matraman"},{"is_transit":false,"station_id":"JNG","i_long":106.86807400000001,"transit":false,"distance":1377,"line":1,"station_name":"Jatinegara","i_lat":-6.215091,"time":8},{"i_long":106.899548,"transit":false,"i_lat":-6.2135,"line":1,"distance":3395,"station_name":"Klender","is_transit":false,"time":3,"station_id":"KLD"},{"i_lat":-6.215568,"station_name":"Buaran","time":2,"distance":3100,"is_transit":false,"station_id":"BUA","i_long":106.922662,"line":1,"transit":false},{"transit":false,"distance":1305,"station_name":"Klenderbaru","is_transit":false,"i_lat":-6.217455,"i_long":106.939679,"station_id":"KLDB","time":1,"line":1},{"station_id":"CUK","time":8,"i_lat":-6.219053,"i_long":106.951283,"transit":false,"station_name":"Cakung","is_transit":false,"distance":1385,"line":1},{"station_id":"KRI","line":1,"time":3,"distance":3097,"station_name":"Kranji","is_transit":false,"transit":false,"i_lat":-6.224515,"i_long":106.977657},{"i_lat":-6.236616,"station_id":"BKS","i_long":106.997013,"line":1,"transit":false,"time":4,"distance":2520,"station_name":"Bekasi","is_transit":false},{"distance":2368,"station_name":"Bekasi Timur","station_id":"BKST","i_lat":-6.248029,"i_long":107.016735,"line":1,"is_transit":false,"transit":false,"time":2},{"line":1,"station_name":"Tambun","is_transit":false,"station_id":"TB","i_lat":-6.258864,"distance":4460,"transit":false,"time":7,"i_long":107.055722}],[{"distance":0,"is_transit":false,"i_long":106.780334,"time":0,"station_name":"Kebayoran","line":6,"station_id":"KBY","i_lat":-6.237242,"transit":false},{"is_transit":false,"time":7,"i_long":106.79689,"station_name":"Palmerah","i_lat":-6.207404,"line":6,"distance":3737,"transit":false,"station_id":"PLM"},{"distance":3191,"line":1,"i_lat":-6.185545,"is_transit":true,"time":6,"station_id":"THB","transit":true,"i_long":106.811091,"station_name":"Tanah Abang"},{"distance":2029,"transit":false,"is_transit":false,"i_lat":-6.20132,"station_id":"KAT","line":1,"station_name":"Karet","i_long":106.816351,"time":5},{"station_id":"SUDB","line":1,"time":1,"station_name":"Sudirman Baru","distance":471,"i_lat":-6.201433,"transit":false,"is_transit":false,"i_long":106.819881},{"i_lat":-6.202263,"transit":false,"station_name":"Sudirman","i_long":106.822649,"line":1,"distance":280,"station_id":"SUD","is_transit":false,"time":1},{"is_transit":true,"i_lat":-6.209883,"i_long":106.84912,"transit":true,"station_name":"Manggarai","time":4,"station_id":"MRI","line":2,"distance":3186},{"station_name":"Cikini","i_long":106.840169,"time":4,"distance":1590,"i_lat":-6.198556,"line":2,"is_transit":false,"transit":false,"station_id":"CKI"},{"i_lat":-6.186295,"distance":1750,"transit":false,"station_name":"Gondangdia","station_id":"GDD","time":3,"is_transit":false,"i_long":106.832183,"line":2},{"distance":2015,"i_long":106.828284,"station_name":"Juanda","station_id":"JUA","i_lat":-6.166716,"is_transit":false,"transit":false,"time":4,"line":2},{"is_transit":false,"line":2,"i_long":106.827103,"time":2,"station_id":"SW","i_lat":-6.160725,"station_name":"Sawah Besar","distance":1149,"transit":false},{"station_id":"MGB","i_lat":-6.149769,"transit":false,"i_long":106.82482,"station_name":"Manggabesar","is_transit":false,"time":2,"distance":906,"line":2},{"i_lat":-6.141205,"time":2,"i_long":106.820901,"distance":1080,"is_transit":false,"transit":false,"line":2,"station_name":"Jayakarta","station_id":"JAY"},{"i_long":106.812439,"time":4,"distance":1264,"station_id":"JAKK","is_transit":true,"line":2,"station_name":"Jakarta Kota","i_lat":-6.137569,"transit":true},{"i_long":106.826365,"line":4,"is_transit":true,"time":3,"distance":1364,"station_name":"Kampung Bandan","i_lat":-6.132549,"transit":true,"station_id":"KPB"},{"i_long":106.836569,"station_id":"RJW","distance":1444,"transit":false,"line":11,"is_transit":false,"station_name":"Rajawali","i_lat":-6.14505,"time":3},{"distance":1901,"is_transit":false,"station_id":"KMO","station_name":"Kemayoran","time":5,"line":11,"transit":false,"i_lat":-6.161728,"i_long":106.839204},{"station_name":"Pasar Senen","transit":false,"line":11,"distance":1436,"i_lat":-6.174784,"station_id":"PSE","time":4,"is_transit":false,"i_long":106.84368},{"line":11,"is_transit":false,"station_name":"Gang Sentiong","time":8,"station_id":"GST","transit":false,"distance":1567,"i_lat":-6.185975,"i_long":106.850107},{"time":1,"station_id":"KMT","i_long":106.855437,"line":11,"i_lat":-6.193792,"distance":973,"station_name":"Kramat","transit":false,"is_transit":false},{"time":2,"i_long":106.861737,"station_name":"Pondok Jati","station_id":"POK","distance":1829,"is_transit":false,"i_lat":-6.209188,"transit":false,"line":11},{"i_lat":-6.215091,"is_transit":true,"station_id":"JNG","time":9,"transit":true,"station_name":"Jatinegara","distance":1236,"i_long":106.86807400000001,"line":1},{"station_id":"KLD","i_long":106.899548,"time":3,"transit":false,"distance":3395,"i_lat":-6.2135,"line":1,"station_name":"Klender","is_transit":false},{"time":2,"i_lat":-6.215568,"transit":false,"is_transit":false,"distance":3100,"station_id":"BUA","i_long":106.922662,"station_name":"Buaran","line":1},{"i_lat":-6.217455,"station_name":"Klenderbaru","time":1,"transit":false,"is_transit":false,"distance":1305,"station_id":"KLDB","line":1,"i_long":106.939679},{"is_transit":false,"time":8,"distance":1385,"transit":false,"station_id":"CUK","i_lat":-6.219053,"station_name":"Cakung","line":1,"i_long":106.951283},{"i_lat":-6.224515,"station_id":"KRI","i_long":106.977657,"line":1,"distance":3097,"is_transit":false,"time":3,"transit":false,"station_name":"Kranji"},{"is_transit":false,"time":4,"i_long":106.997013,"line":1,"transit":false,"station_name":"Bekasi","station_id":"BKS","distance":2520,"i_lat":-6.236616},{"time":2,"is_transit":false,"distance":2368,"station_name":"Bekasi Timur","station_id":"BKST","i_long":107.016735,"i_lat":-6.248029,"transit":false,"line":1},{"i_long":107.055722,"transit":false,"is_transit":false,"time":7,"station_name":"Tambun","distance":4460,"station_id":"TB","i_lat":-6.258864,"line":1}]]}