{"data":[[{"i_lat":-6.237242,"time":0,"station_id":"KBY","line":6,"is_transit":false,"transit":false,"station_name":"Kebayoran","distance":0,"i_long":106.780334},{"station_id":"PLM","line":6,"i_lat":-6.207404,"distance":3737,"i_long":106.79689,"transit":false,"time":7,"station_name":"Palmerah","is_transit":false},{"distance":3191,"is_transit":true,"station_name":"Tanah Abang","line":1,"i_long":106.811091,"transit":true,"station_id":"THB","time":6,"i_lat":-6.185545},{"time":5,"i_long":106.816351,"line":1,"i_lat":-6.20132,"distance":2029,"is_transit":false,"station_name":"Karet","station_id":"KAT","transit":false},{"is_transit":false,"i_lat":-6.201433,"station_name":"Sudirman Baru","i_long":106.819881,"distance":471,"transit":false,"station_id":"SUDB","time":1,"line":1},{"is_transit":false,"transit":false,"time":1,"i_long":106.822649,"i_lat":-6.202263,"station_id":"SUD","distance":280,"station_name":"Sudirman","line":1},{"station_id":"MRI","station_name":"Manggarai","transit":false,"i_lat":-6.209883,"distance":3186,"is_transit":false,"i_long":106.84912,"time":4,"line":2},{"i_lat":-6.212485,"station_id":"MTR","is_transit":false,"station_name":"Matraman","distance":1275,"transit":false,"time":2,"i_long":106.858896,"line":1},{"station_id":"JNG","station_name":"Jatinegara","time":8,"distance":1377,"is_transit":false,"i_lat":-6.215091,"i_long":106.86807400000001,"transit":false,"line":1},{"is_transit":false,"i_long":106.899548,"distance":3395,"time":3,"transit":false,"station_id":"KLD","station_name":"Klender","i_lat":-6.2135,"line":1},{"station_id":"BUA","i_lat":-6.215568,"line":1,"station_name":"Buaran","is_transit":false,"distance":3100,"time":2,"i_long":106.922662,"transit":false},{"station_id":"KLDB","is_transit":false,"transit":false,"i_lat":-6.217455,"station_name":"Klenderbaru","time":1,"distance":1305,"i_long":106.939679,"line":1},{"station_name":"Cakung","time":8,"line":1,"i_long":106.951283,"transit":false,"is_transit":false,"distance":1385,"i_lat":-6.219053,"station_id":"CUK"},{"transit":false,"distance":3097,"station_id":"KRI","time":3,"i_lat":-6.224515,"i_long":106.977657,"line":1,"station_name":"Kranji","is_transit":false},{"i_long":106.997013,"transit":false,"distance":2520,"station_name":"Bekasi","is_transit":false,"station_id":"BKS","time":4,"i_lat":-6.236616,"line":1},{"i_long":107.016735,"station_name":"Bekasi Timur","station_id":"BKST","i_lat":-6.248029,"is_transit":false,"distance":2368,"time":2,"transit":false,"line":1},{"line":1,"i_lat":-6.258864,"transit":false,"station_id":"TB","station_name":"Tambun","distance":4460,"i_long":107.055722,"is_transit":false,"time":7}],[{"distance":0,"i_lat":-6.237242,"station_id":"KBY","line":6,"transit":false,"time":0,"station_name":"Kebayoran","i_long":106.780334,"is_transit":false},{"i_lat":-6.207404,"line":6,"i_long":106.79689,"station_id":"PLM","transit":false,"time":7,"distance":3737,"station_name":"Palmerah","is_transit":false},{"i_lat":-6.185545,"line":1,"time":6,"distance":3191,"transit":true,"is_transit":true,"station_id":"THB","i_long":106.811091,"station_name":"Tanah Abang"},{"station_name":"Duri","i_lat":-6.155215,"station_id":"DU","time":8,"transit":false,"i_long":106.800832,"is_transit":false,"line":1,"distance":3632},{"time":4,"line":1,"is_transit":false,"station_id":"AK","transit":false,"i_long":106.79867,"station_name":"Angke","i_lat":-6.144674,"distance":1230},{"i_long":106.826365,"station_id":"KPB","is_transit":true,"station_name":"Kampung Bandan","transit":true,"time":9,"distance":4102,"line":4,"i_lat":-6.132549},{"i_lat":-6.14505,"line":11,"station_id":"RJW","i_long":106.836569,"transit":false,"is_transit":false,"distance":1444,"time":3,"station_name":"Rajawali"},{"time":5,"i_long":106.839204,"transit":false,"distance":1901,"station_name":"Kemayoran","station_id":"KMO","line":11,"i_lat":-6.161728,"is_transit":false},{"line":11,"i_lat":-6.174784,"station_id":"PSE","distance":1436,"time":4,"station_name":"Pasar Senen","i_long":106.84368,"transit":false,"is_transit":false},{"station_id":"GST","time":8,"transit":false,"i_long":106.850107,"distance":1567,"station_name":"Gang Sentiong","line":11,"i_lat":-6.185975,"is_transit":false},{"i_lat":-6.193792,"distance":973,"station_id":"KMT","line":11,"time":1,"i_long":106.855437,"transit":false,"is_transit":false,"station_name":"Kramat"},{"line":11,"station_name":"Pondok Jati","distance":1829,"is_transit":false,"transit":false,"station_id":"POK","i_long":106.861737,"time":2,"i_lat":-6.209188},{"distance":1236,"is_transit":true,"time":9,"i_lat":-6.215091,"line":1,"i_long":106.86807400000001,"transit":true,"station_id":"JNG","station_name":"Jatinegara"},{"station_name":"Klender","i_lat":-6.2135,"station_id":"KLD","time":3,"transit":false,"i_long":106.899548,"line":1,"is_transit":false,"distance":3395},{"is_transit":false,"line":1,"distance":3100,"station_id":"BUA","i_long":106.922662,"time":2,"station_name":"Buaran","transit":false,"i_lat":-6.215568},{"distance":1305,"station_id":"KLDB","transit":false,"line":1,"time":1,"i_lat":-6.217455,"station_name":"Klenderbaru","i_long":106.939679,"is_transit":false},{"time":8,"station_name":"Cakung","is_transit":false,"i_lat":-6.219053,"station_id":"CUK","line":1,"distance":1385,"transit":false,"i_long":106.951283},{"is_transit":false,"distance":3097,"i_long":106.977657,"line":1,"i_lat":-6.224515,"transit":false,"time":3,"station_name":"Kranji","station_id":"KRI"},{"transit":false,"distance":2520,"i_lat":-6.236616,"station_id":"BKS","line":1,"i_long":106.997013,"is_transit":false,"time":4,"station_name":"Bekasi"},{"transit":false,"station_name":"Bekasi Timur","distance":2368,"i_long":107.016735,"is_transit":false,"line":1,"station_id":"BKST","time":2,"i_lat":-6.248029},{"line":1,"is_transit":false,"station_id":"TB","i_lat":-6.258864,"station_name":"Tambun","time":7,"transit":false,"distance":4460,"i_long":107.055722}],[{"distance":0,"line":6,"transit":false,"is_transit":false,"i_lat":-6.237242,"i_long":106.780334,"station_id":"KBY","station_name":"Kebayoran","time":0},{"line":6,"i_long":106.79689,"station_name":"Palmerah","transit":false,"distance":3737,"is_transit":false,"i_lat":-6.207404,"time":7,"station_id":"PLM"},{"transit":true,"line":1,"i_lat":-6.185545,"time":6,"station_name":"Tanah Abang","station_id":"THB","is_transit":true,"distance":3191,"i_long":106.811091},{"transit":false,"distance":3632,"station_id":"DU","is_transit":false,"line":1,"time":8,"station_name":"Duri","i_lat":-6.155215,"i_long":106.800832},{"distance":1230,"station_id":"AK","transit":false,"station_name":"Angke","is_transit":false,"i_lat":-6.144674,"i_long":106.79867,"time":4,"line":1},{"station_name":"Kampung Bandan","time":9,"i_long":106.826365,"i_lat":-6.132549,"station_id":"KPB","distance":4102,"is_transit":true,"line":4,"transit":true},{"station_id":"JAKK","transit":true,"i_long":106.812439,"station_name":"Jakarta Kota","is_transit":true,"distance":1364,"time":3,"i_lat":-6.137569,"line":2},{"station_name":"Jayakarta","line":2,"time":4,"distance":1264,"station_id":"JAY","i_lat":-6.141205,"transit":false,"is_transit":false,"i_long":106.820901},{"i_long":106.82482,"transit":false,"i_lat":-6.149769,"station_id":"MGB","line":2,"time":2,"distance":1080,"station_name":"Manggabesar","is_transit":false},{"is_transit":false,"time":2,"distance":906,"station_id":"SW","i_long":106.827103,"line":2,"i_lat":-6.160725,"transit":false,"station_name":"Sawah Besar"},{"transit":false,"station_id":"JUA","station_name":"Juanda","line":2,"i_lat":-6.166716,"distance":1149,"i_long":106.828284,"is_transit":false,"time":2},{"time":4,"station_id":"GDD","transit":false,"station_name":"Gondangdia","is_transit":false,"line":2,"distance":2015,"i_long":106.832183,"i_lat":-6.186295},{"transit":false,"station_name":"Cikini","station_id":"CKI","distance":1750,"i_lat":-6.198556,"i_long":106.840169,"line":2,"is_transit":false,"time":3},{"i_long":106.84912,"is_transit":true,"distance":1590,"transit":true,"line":2,"station_name":"Manggarai","time":4,"i_lat":-6.209883,"station_id":"MRI"},{"distance":1275,"i_long":106.858896,"station_id":"MTR","i_lat":-6.212485,"transit":false,"is_transit":false,"line":1,"station_name":"Matraman","time":2},{"line":1,"i_long":106.86807400000001,"distance":1377,"station_name":"Jatinegara","time":8,"transit":false,"station_id":"JNG","i_lat":-6.215091,"is_transit":false},{"transit":false,"is_transit":false,"i_lat":-6.2135,"station_id":"KLD","distance":3395,"i_long":106.899548,"station_name":"Klender","time":3,"line":1},{"transit":false,"is_transit":false,"station_id":"BUA","time":2,"line":1,"distance":3100,"i_long":106.922662,"i_lat":-6.215568,"station_name":"Buaran"},{"transit":false,"i_lat":-6.217455,"time":1,"line":1,"is_transit":false,"station_id":"KLDB","distance":1305,"station_name":"Klenderbaru","i_long":106.939679},{"is_transit":false,"station_id":"CUK","i_long":106.951283,"i_lat":-6.219053,"distance":1385,"station_name":"Cakung","transit":false,"time":8,"line":1},{"station_id":"KRI","i_lat":-6.224515,"distance":3097,"station_name":"Kranji","transit":false,"i_long":106.977657,"line":1,"is_transit":false,"time":3},{"i_lat":-6.236616,"station_id":"BKS","time":4,"station_name":"Bekasi","is_transit":false,"i_long":106.997013,"transit":false,"distance":2520,"line":1},{"i_long":107.016735,"i_lat":-6.248029,"station_id":"BKST","time":2,"station_name":"Bekasi Timur","distance":2368,"transit":false,"line":1,"is_transit":false},{"is_transit":false,"transit":false,"time":7,"i_long":107.055722,"station_id":"TB","i_lat":-6.258864,"line":1,"distance":4460,"station_name":"Tambun"}],[{"station_id":"KBY","is_transit":false,"distance":0,"i_long":106.780334,"station_name":"Kebayoran","time":0,"line":6,"transit":false,"i_lat":-6.237242},{"station_id":"PLM","line":6,"transit":false,"i_lat":-6.207404,"time":7,"distance":3737,"station_name":"Palmerah","is_transit":false,"i_long":106.79689},{"i_lat":-6.185545,"station_name":"Tanah Abang","station_id":"THB","i_long":106.811091,"time":6,"distance":3191,"transit":true,"is_transit":true,"line":1},{"station_id":"KAT","distance":2029,"line":1,"is_transit":false,"time":5,"transit":false,"i_long":106.816351,"station_name":"Karet","i_lat":-6.20132},{"station_id":"SUDB","distance":471,"transit":false,"station_name":"Sudirman Baru","i_lat":-6.201433,"line":1,"i_long":106.819881,"time":1,"is_transit":false},{"transit":false,"time":1,"i_long":106.822649,"i_lat":-6.202263,"station_id":"SUD","station_name":"Sudirman","is_transit":false,"distance":280,"line":1},{"time":4,"line":2,"i_long":106.84912,"transit":true,"is_transit":true,"station_id":"MRI","station_name":"Manggarai","distance":3186,"i_lat":-6.209883},{"station_name":"Cikini","i_long":106.840169,"line":2,"is_transit":false,"time":4,"distance":1590,"i_lat":-6.198556,"transit":false,"station_id":"CKI"},{"transit":false,"i_long":106.832183,"station_id":"GDD","station_name":"Gondangdia","distance":1750,"time":3,"i_lat":-6.186295,"line":2,"is_transit":false},{"distance":2015,"is_transit":false,"station_id":"JUA","i_lat":-6.166716,"line":2,"i_long":106.828284,"transit":false,"time":4,"station_name":"Juanda"},{"is_transit":false,"distance":1149,"time":2,"line":2,"transit":false,"i_long":106.827103,"station_name":"Sawah Besar","i_lat":-6.160725,"station_id":"SW"},{"transit":false,"distance":906,"station_id":"MGB","is_transit":false,"time":2,"i_long":106.82482,"station_name":"Manggabesar","line":2,"i_lat":-6.149769},{"i_long":106.820901,"station_name":"Jayakarta","station_id":"JAY","transit":false,"line":2,"is_transit":false,"time":2,"i_lat":-6.141205,"distance":1080},{"i_lat":-6.137569,"is_transit":true,"transit":true,"distance":1264,"i_long":106.812439,"line":2,"time":4,"station_id":"JAKK","station_name":"Jakarta Kota"},{"distance":1364,"i_lat":-6.132549,"line":4,"time":3,"i_long":106.826365,"is_transit":true,"station_id":"KPB","station_name":"Kampung Bandan","transit":true},{"distance":1444,"transit":false,"is_transit":false,"station_id":"RJW","i_lat":-6.14505,"station_name":"Rajawali","time":3,"line":11,"i_long":106.836569},{"i_long":106.839204,"is_transit":false,"line":11,"distance":1901,"station_name":"Kemayoran","i_lat":-6.161728,"time":5,"transit":false,"station_id":"KMO"},{"station_id":"PSE","transit":false,"station_name":"Pasar Senen","time":4,"i_lat":-6.174784,"is_transit":false,"distance":1436,"i_long":106.84368,"line":11},{"line":11,"station_name":"Gang Sentiong","i_lat":-6.185975,"distance":1567,"station_id":"GST","is_transit":false,"transit":false,"time":8,"i_long":106.850107},{"station_name":"Kramat","transit":false,"time":1,"distance":973,"line":11,"station_id":"KMT","is_transit":false,"i_lat":-6.193792,"i_long":106.855437},{"line":11,"station_name":"Pondok Jati","station_id":"POK","i_lat":-6.209188,"i_long":106.861737,"time":2,"is_transit":false,"distance":1829,"transit":false},{"transit":true,"i_lat":-6.215091,"station_name":"Jatinegara","is_transit":true,"time":9,"i_long":106.86807400000001,"distance":1236,"station_id":"JNG","line":1},{"time":3,"distance":3395,"i_lat":-6.2135,"station_name":"Klender","transit":false,"station_id":"KLD","i_long":106.899548,"is_transit":false,"line":1},{"i_lat":-6.215568,"transit":false,"station_id":"BUA","i_long":106.922662,"is_transit":false,"station_name":"Buaran","time":2,"line":1,"distance":3100},{"time":1,"station_name":"Klenderbaru","is_transit":false,"distance":1305,"transit":false,"i_long":106.939679,"i_lat":-6.217455,"station_id":"KLDB","line":1},{"line":1,"transit":false,"time":8,"is_transit":false,"station_name":"Cakung","station_id":"CUK","i_long":106.951283,"distance":1385,"i_lat":-6.219053},{"station_id":"KRI","is_transit":false,"line":1,"time":3,"station_name":"Kranji","i_lat":-6.224515,"transit":false,"distance":3097,"i_long":106.977657},{"station_name":"Bekasi","transit":false,"distance":2520,"is_transit":false,"line":1,"station_id":"BKS","i_lat":-6.236616,"time":4,"i_long":106.997013},{"station_id":"BKST","transit":false,"i_lat":-6.248029,"line":1,"time":2,"i_long":107.016735,"is_transit":false,"distance":2368,"station_name":"Bekasi Timur"},{"station_id":"TB","transit":false,"time":7,"i_lat":-6.258864,"is_transit":false,"distance":4460,"line":1,"station_name":"Tambun","i_long":107.055722}]]}