{"data":[[{"is_transit":false,"station_id":"KBY","station_name":"Kebayoran","i_long":106.780334,"time":0,"distance":0,"transit":false,"i_lat":-6.237242,"line":6},{"transit":false,"i_lat":-6.207404,"distance":3737,"station_id":"PLM","station_name":"Palmerah","is_transit":false,"i_long":106.79689,"time":7,"line":6},{"station_id":"THB","station_name":"Tanah Abang","line":1,"time":6,"i_lat":-6.185545,"distance":3191,"i_long":106.811091,"is_transit":true,"transit":true},{"time":5,"distance":2029,"transit":false,"line":1,"station_name":"Karet","is_transit":false,"i_lat":-6.20132,"station_id":"KAT","i_long":106.816351},{"line":1,"station_id":"SUDB","is_transit":false,"i_lat":-6.201433,"time":1,"station_name":"Sudirman Baru","transit":false,"i_long":106.819881,"distance":471},{"i_lat":-6.202263,"station_id":"SUD","is_transit":false,"distance":280,"time":1,"transit":false,"i_long":106.822649,"station_name":"Sudirman","line":1},{"i_lat":-6.209883,"time":4,"station_id":"MRI","station_name":"Manggarai","transit":false,"distance":3186,"line":0,"is_transit":true,"i_long":106.84912},{"station_name":"Matraman","i_long":106.858896,"is_transit":false,"transit":false,"line":1,"i_lat":-6.212485,"distance":1275,"time":2,"station_id":"MTR"},{"transit":false,"station_id":"JNG","time":8,"line":0,"i_long":106.86807400000001,"is_transit":true,"distance":1377,"i_lat":-6.215091,"station_name":"Jatinegara"},{"station_name":"Klender","transit":false,"distance":3395,"i_lat":-6.2135,"time":3,"i_long":106.899548,"line":1,"station_id":"KLD","is_transit":false}],[{"line":6,"time":0,"is_transit":false,"station_name":"Kebayoran","i_lat":-6.237242,"station_id":"KBY","distance":0,"transit":false,"i_long":106.780334},{"station_name":"Palmerah","i_lat":-6.207404,"i_long":106.79689,"distance":3737,"station_id":"PLM","time":7,"is_transit":false,"line":6,"transit":false},{"distance":3191,"i_long":106.811091,"transit":true,"station_id":"THB","time":6,"i_lat":-6.185545,"is_transit":true,"line":1,"station_name":"Tanah Abang"},{"station_name":"Duri","is_transit":true,"distance":3632,"i_lat":-6.155215,"line":1,"time":8,"station_id":"DU","i_long":106.800832,"transit":true},{"distance":1230,"is_transit":false,"line":0,"i_long":106.79867,"i_lat":-6.144674,"transit":false,"time":4,"station_name":"Angke","station_id":"AK"},{"is_transit":true,"distance":4102,"time":9,"i_lat":-6.132549,"transit":true,"station_name":"Kampung Bandan","station_id":"KPB","line":0,"i_long":106.826365},{"station_name":"Rajawali","time":3,"i_lat":-6.14505,"is_transit":false,"station_id":"RJW","distance":1444,"i_long":106.836569,"transit":false,"line":11},{"time":5,"line":11,"transit":false,"station_id":"KMO","i_lat":-6.161728,"distance":1901,"i_long":106.839204,"station_name":"Kemayoran","is_transit":false},{"station_id":"PSE","station_name":"Pasar Senen","distance":1436,"i_long":106.84368,"is_transit":false,"time":4,"transit":false,"i_lat":-6.174784,"line":11},{"station_id":"GST","i_lat":-6.185975,"i_long":106.850107,"distance":1567,"transit":false,"line":11,"is_transit":false,"time":8,"station_name":"Gang Sentiong"},{"i_long":106.855437,"is_transit":false,"station_name":"Kramat","distance":973,"line":11,"time":1,"transit":false,"i_lat":-6.193792,"station_id":"KMT"},{"station_name":"Pondok Jati","time":2,"distance":1829,"i_lat":-6.209188,"i_long":106.861737,"line":11,"is_transit":false,"transit":false,"station_id":"POK"},{"i_lat":-6.215091,"is_transit":true,"transit":true,"i_long":106.86807400000001,"station_name":"Jatinegara","distance":1236,"time":9,"station_id":"JNG","line":0},{"is_transit":false,"station_name":"Klender","distance":3395,"transit":false,"time":3,"station_id":"KLD","i_long":106.899548,"line":1,"i_lat":-6.2135}],[{"station_id":"KBY","line":6,"station_name":"Kebayoran","distance":0,"i_lat":-6.237242,"transit":false,"i_long":106.780334,"time":0,"is_transit":false},{"distance":3737,"transit":false,"i_lat":-6.207404,"i_long":106.79689,"is_transit":false,"station_name":"Palmerah","time":7,"line":6,"station_id":"PLM"},{"station_id":"THB","i_lat":-6.185545,"distance":3191,"transit":true,"line":1,"is_transit":true,"i_long":106.811091,"station_name":"Tanah Abang","time":6},{"distance":3632,"transit":true,"i_lat":-6.155215,"line":1,"station_name":"Duri","time":8,"i_long":106.800832,"is_transit":true,"station_id":"DU"},{"station_id":"AK","distance":1230,"transit":false,"i_lat":-6.144674,"station_name":"Angke","is_transit":false,"i_long":106.79867,"line":0,"time":4},{"i_long":106.826365,"line":0,"distance":4102,"station_name":"Kampung Bandan","is_transit":true,"i_lat":-6.132549,"time":9,"transit":false,"station_id":"KPB"},{"time":3,"i_lat":-6.137569,"distance":1364,"transit":true,"line":0,"station_id":"JAKK","i_long":106.812439,"is_transit":true,"station_name":"Jakarta Kota"},{"transit":false,"station_id":"JAY","i_lat":-6.141205,"i_long":106.820901,"station_name":"Jayakarta","is_transit":false,"time":4,"distance":1264,"line":7},{"station_id":"MGB","time":2,"distance":1080,"transit":false,"station_name":"Manggabesar","i_long":106.82482,"line":2,"is_transit":false,"i_lat":-6.149769},{"i_lat":-6.160725,"time":2,"line":2,"station_name":"Sawah Besar","i_long":106.827103,"is_transit":false,"station_id":"SW","transit":false,"distance":906},{"i_lat":-6.166716,"station_name":"Juanda","transit":false,"station_id":"JUA","i_long":106.828284,"line":2,"time":2,"is_transit":false,"distance":1149},{"station_name":"Gondangdia","station_id":"GDD","i_long":106.832183,"time":4,"i_lat":-6.186295,"is_transit":false,"transit":false,"line":2,"distance":2015},{"i_lat":-6.198556,"transit":false,"line":0,"station_id":"CKI","is_transit":false,"i_long":106.840169,"station_name":"Cikini","time":3,"distance":1750},{"i_lat":-6.209883,"distance":1590,"is_transit":true,"station_name":"Manggarai","i_long":106.84912,"transit":true,"station_id":"MRI","time":4,"line":0},{"i_long":106.858896,"time":2,"line":1,"station_name":"Matraman","is_transit":false,"i_lat":-6.212485,"station_id":"MTR","distance":1275,"transit":false},{"i_long":106.86807400000001,"time":8,"i_lat":-6.215091,"is_transit":true,"line":0,"station_id":"JNG","station_name":"Jatinegara","distance":1377,"transit":false},{"is_transit":false,"time":3,"station_id":"KLD","distance":3395,"station_name":"Klender","line":1,"i_lat":-6.2135,"i_long":106.899548,"transit":false}],[{"transit":false,"is_transit":false,"i_long":106.780334,"station_name":"Kebayoran","time":0,"i_lat":-6.237242,"distance":0,"line":6,"station_id":"KBY"},{"is_transit":false,"station_name":"Palmerah","distance":3737,"station_id":"PLM","time":7,"transit":false,"i_long":106.79689,"i_lat":-6.207404,"line":6},{"i_lat":-6.185545,"distance":3191,"is_transit":true,"transit":true,"station_name":"Tanah Abang","line":1,"i_long":106.811091,"time":6,"station_id":"THB"},{"time":5,"distance":2029,"line":1,"is_transit":false,"i_long":106.816351,"i_lat":-6.20132,"station_name":"Karet","station_id":"KAT","transit":false},{"transit":false,"line":1,"station_id":"SUDB","i_long":106.819881,"station_name":"Sudirman Baru","time":1,"distance":471,"is_transit":false,"i_lat":-6.201433},{"station_name":"Sudirman","time":1,"transit":false,"i_long":106.822649,"distance":280,"is_transit":false,"station_id":"SUD","i_lat":-6.202263,"line":1},{"station_id":"MRI","is_transit":true,"time":4,"distance":3186,"transit":true,"line":0,"i_lat":-6.209883,"station_name":"Manggarai","i_long":106.84912},{"time":4,"distance":1590,"i_lat":-6.198556,"station_name":"Cikini","transit":false,"i_long":106.840169,"is_transit":false,"line":0,"station_id":"CKI"},{"transit":false,"line":2,"is_transit":false,"time":3,"i_lat":-6.186295,"station_id":"GDD","distance":1750,"i_long":106.832183,"station_name":"Gondangdia"},{"is_transit":false,"i_long":106.828284,"line":2,"station_id":"JUA","station_name":"Juanda","distance":2015,"i_lat":-6.166716,"transit":false,"time":4},{"transit":false,"line":2,"station_id":"SW","time":2,"station_name":"Sawah Besar","distance":1149,"i_lat":-6.160725,"i_long":106.827103,"is_transit":false},{"transit":false,"line":2,"station_name":"Manggabesar","is_transit":false,"distance":906,"time":2,"i_lat":-6.149769,"i_long":106.82482,"station_id":"MGB"},{"transit":false,"distance":1080,"is_transit":false,"i_lat":-6.141205,"i_long":106.820901,"line":7,"station_id":"JAY","time":2,"station_name":"Jayakarta"},{"is_transit":true,"station_id":"JAKK","i_lat":-6.137569,"time":4,"transit":true,"line":0,"station_name":"Jakarta Kota","distance":1264,"i_long":106.812439},{"station_name":"Kampung Bandan","i_long":106.826365,"station_id":"KPB","is_transit":true,"time":3,"line":0,"distance":1364,"transit":true,"i_lat":-6.132549},{"station_id":"RJW","line":11,"is_transit":false,"i_long":106.836569,"transit":false,"time":3,"i_lat":-6.14505,"station_name":"Rajawali","distance":1444},{"line":11,"distance":1901,"station_name":"Kemayoran","station_id":"KMO","is_transit":false,"time":5,"transit":false,"i_lat":-6.161728,"i_long":106.839204},{"transit":false,"is_transit":false,"i_long":106.84368,"distance":1436,"station_id":"PSE","i_lat":-6.174784,"line":11,"station_name":"Pasar Senen","time":4},{"i_long":106.850107,"station_name":"Gang Sentiong","distance":1567,"line":11,"time":8,"is_transit":false,"station_id":"GST","i_lat":-6.185975,"transit":false},{"distance":973,"transit":false,"station_name":"Kramat","i_long":106.855437,"line":11,"i_lat":-6.193792,"station_id":"KMT","is_transit":false,"time":1},{"i_lat":-6.209188,"transit":false,"station_name":"Pondok Jati","station_id":"POK","distance":1829,"i_long":106.861737,"time":2,"is_transit":false,"line":11},{"time":9,"is_transit":true,"line":0,"transit":true,"station_name":"Jatinegara","station_id":"JNG","distance":1236,"i_lat":-6.215091,"i_long":106.86807400000001},{"station_name":"Klender","is_transit":false,"station_id":"KLD","i_lat":-6.2135,"time":3,"distance":3395,"i_long":106.899548,"transit":false,"line":1}]]}