{"data":[[{"distance":0,"station_id":"KBY","i_lat":-6.237242,"transit":false,"station_name":"Kebayoran","is_transit":false,"time":0,"i_long":106.780334,"line":6},{"distance":3737,"line":6,"is_transit":false,"i_long":106.79689,"transit":false,"station_name":"Palmerah","time":7,"station_id":"PLM","i_lat":-6.207404},{"station_id":"THB","is_transit":true,"i_long":106.811091,"transit":true,"distance":3191,"station_name":"Tanah Abang","i_lat":-6.185545,"line":1,"time":6},{"station_name":"Duri","time":8,"distance":3632,"station_id":"DU","line":1,"transit":false,"i_lat":-6.155215,"i_long":106.800832,"is_transit":true}],[{"i_long":106.780334,"station_id":"KBY","is_transit":false,"line":6,"distance":0,"transit":false,"time":0,"station_name":"Kebayoran","i_lat":-6.237242},{"transit":false,"i_long":106.79689,"line":6,"time":7,"distance":3737,"station_id":"PLM","station_name":"Palmerah","i_lat":-6.207404,"is_transit":false},{"is_transit":true,"line":1,"i_long":106.811091,"i_lat":-6.185545,"time":6,"distance":3191,"station_id":"THB","station_name":"Tanah Abang","transit":true},{"is_transit":false,"line":1,"time":5,"station_name":"Karet","i_long":106.816351,"station_id":"KAT","i_lat":-6.20132,"transit":false,"distance":2029},{"time":1,"station_id":"SUDB","line":1,"distance":471,"i_lat":-6.201433,"i_long":106.819881,"is_transit":false,"station_name":"Sudirman Baru","transit":false},{"i_long":106.822649,"line":1,"station_id":"SUD","i_lat":-6.202263,"transit":false,"station_name":"Sudirman","is_transit":false,"distance":280,"time":1},{"i_lat":-6.209883,"i_long":106.84912,"is_transit":true,"station_id":"MRI","time":4,"station_name":"Manggarai","line":0,"transit":true,"distance":3186},{"time":4,"station_id":"CKI","line":0,"is_transit":false,"transit":false,"station_name":"Cikini","i_lat":-6.198556,"distance":1590,"i_long":106.840169},{"station_name":"Gondangdia","transit":false,"i_lat":-6.186295,"distance":1750,"i_long":106.832183,"station_id":"GDD","line":2,"is_transit":false,"time":3},{"time":4,"transit":false,"station_id":"JUA","is_transit":false,"i_lat":-6.166716,"i_long":106.828284,"line":2,"distance":2015,"station_name":"Juanda"},{"is_transit":false,"distance":1149,"station_name":"Sawah Besar","transit":false,"i_lat":-6.160725,"line":2,"i_long":106.827103,"station_id":"SW","time":2},{"distance":906,"i_lat":-6.149769,"i_long":106.82482,"line":2,"station_name":"Manggabesar","is_transit":false,"time":2,"transit":false,"station_id":"MGB"},{"distance":1080,"station_name":"Jayakarta","transit":false,"i_long":106.820901,"station_id":"JAY","line":7,"is_transit":false,"time":2,"i_lat":-6.141205},{"station_id":"JAKK","station_name":"Jakarta Kota","transit":true,"i_long":106.812439,"line":0,"i_lat":-6.137569,"distance":1264,"is_transit":true,"time":4},{"i_lat":-6.132549,"station_name":"Kampung Bandan","is_transit":true,"time":3,"transit":false,"distance":1364,"line":0,"station_id":"KPB","i_long":106.826365},{"distance":4102,"i_long":106.79867,"time":9,"is_transit":false,"i_lat":-6.144674,"station_id":"AK","transit":false,"line":0,"station_name":"Angke"},{"i_long":106.800832,"line":1,"is_transit":true,"station_id":"DU","transit":false,"distance":1230,"i_lat":-6.155215,"station_name":"Duri","time":4}],[{"distance":0,"line":6,"station_id":"KBY","transit":false,"i_lat":-6.237242,"is_transit":false,"station_name":"Kebayoran","time":0,"i_long":106.780334},{"station_name":"Palmerah","i_lat":-6.207404,"is_transit":false,"line":6,"transit":false,"distance":3737,"i_long":106.79689,"time":7,"station_id":"PLM"},{"is_transit":true,"transit":true,"station_id":"THB","line":1,"i_long":106.811091,"time":6,"station_name":"Tanah Abang","distance":3191,"i_lat":-6.185545},{"station_id":"KAT","transit":false,"station_name":"Karet","distance":2029,"is_transit":false,"time":5,"i_long":106.816351,"i_lat":-6.20132,"line":1},{"line":1,"transit":false,"i_lat":-6.201433,"time":1,"station_name":"Sudirman Baru","station_id":"SUDB","distance":471,"i_long":106.819881,"is_transit":false},{"i_lat":-6.202263,"time":1,"line":1,"i_long":106.822649,"station_id":"SUD","transit":false,"is_transit":false,"distance":280,"station_name":"Sudirman"},{"i_lat":-6.209883,"distance":3186,"transit":false,"station_name":"Manggarai","time":4,"line":0,"is_transit":true,"i_long":106.84912,"station_id":"MRI"},{"transit":false,"distance":1275,"is_transit":false,"station_id":"MTR","time":2,"line":1,"station_name":"Matraman","i_long":106.858896,"i_lat":-6.212485},{"is_transit":true,"distance":1377,"time":8,"station_id":"JNG","transit":true,"station_name":"Jatinegara","i_long":106.86807400000001,"line":0,"i_lat":-6.215091},{"i_long":106.861737,"transit":false,"time":2,"station_name":"Pondok Jati","is_transit":false,"distance":1236,"station_id":"POK","i_lat":-6.209188,"line":11},{"i_long":106.855437,"time":2,"transit":false,"is_transit":false,"station_name":"Kramat","distance":1829,"station_id":"KMT","i_lat":-6.193792,"line":11},{"station_id":"GST","i_lat":-6.185975,"line":11,"station_name":"Gang Sentiong","i_long":106.850107,"transit":false,"time":1,"distance":973,"is_transit":false},{"station_id":"PSE","is_transit":false,"time":8,"line":11,"distance":1567,"station_name":"Pasar Senen","i_long":106.84368,"i_lat":-6.174784,"transit":false},{"i_lat":-6.161728,"distance":1436,"time":4,"station_name":"Kemayoran","transit":false,"is_transit":false,"station_id":"KMO","i_long":106.839204,"line":11},{"i_lat":-6.14505,"station_id":"RJW","i_long":106.836569,"distance":1901,"transit":false,"is_transit":false,"line":11,"station_name":"Rajawali","time":5},{"distance":1444,"station_name":"Kampung Bandan","i_long":106.826365,"is_transit":true,"transit":true,"time":3,"i_lat":-6.132549,"line":0,"station_id":"KPB"},{"distance":4102,"i_long":106.79867,"i_lat":-6.144674,"transit":false,"is_transit":false,"station_id":"AK","line":0,"station_name":"Angke","time":9},{"station_id":"DU","i_long":106.800832,"time":4,"is_transit":true,"transit":false,"station_name":"Duri","distance":1230,"line":1,"i_lat":-6.155215}]]}