{"data":[[{"transit":false,"station_name":"Kebayoran","time":0,"distance":0,"i_long":106.780334,"is_transit":false,"i_lat":-6.237242,"line":6,"station_id":"KBY"},{"line":6,"distance":3737,"i_long":106.79689,"transit":false,"is_transit":false,"station_name":"Palmerah","time":7,"i_lat":-6.207404,"station_id":"PLM"},{"station_name":"Tanah Abang","line":1,"is_transit":true,"time":6,"distance":3191,"station_id":"THB","i_long":106.811091,"transit":true,"i_lat":-6.185545},{"station_name":"Duri","transit":true,"is_transit":true,"i_long":106.800832,"distance":3632,"line":1,"station_id":"DU","i_lat":-6.155215,"time":8},{"line":5,"i_long":106.788277,"is_transit":false,"distance":1700,"transit":false,"time":3,"station_id":"GGL","i_lat":-6.162021,"station_name":"Grogol"}],[{"i_long":106.780334,"line":6,"i_lat":-6.237242,"time":0,"distance":0,"transit":false,"station_id":"KBY","is_transit":false,"station_name":"Kebayoran"},{"transit":false,"station_id":"PLM","line":6,"i_long":106.79689,"is_transit":false,"distance":3737,"station_name":"Palmerah","i_lat":-6.207404,"time":7},{"time":6,"i_lat":-6.185545,"distance":3191,"station_name":"Tanah Abang","i_long":106.811091,"station_id":"THB","line":1,"transit":true,"is_transit":true},{"i_long":106.816351,"station_name":"Karet","i_lat":-6.20132,"station_id":"KAT","distance":2029,"line":1,"time":5,"transit":false,"is_transit":false},{"line":1,"i_lat":-6.201433,"i_long":106.819881,"transit":false,"station_name":"Sudirman Baru","station_id":"SUDB","distance":471,"is_transit":false,"time":1},{"station_name":"Sudirman","transit":false,"station_id":"SUD","time":1,"distance":280,"i_long":106.822649,"is_transit":false,"i_lat":-6.202263,"line":1},{"distance":3186,"time":4,"i_lat":-6.209883,"line":2,"is_transit":true,"i_long":106.84912,"station_name":"Manggarai","transit":true,"station_id":"MRI"},{"station_id":"CKI","i_long":106.840169,"is_transit":false,"time":4,"distance":1590,"station_name":"Cikini","i_lat":-6.198556,"line":2,"transit":false},{"i_long":106.832183,"transit":false,"is_transit":false,"i_lat":-6.186295,"distance":1750,"station_id":"GDD","line":2,"station_name":"Gondangdia","time":3},{"station_name":"Juanda","station_id":"JUA","transit":false,"is_transit":false,"distance":2015,"i_long":106.828284,"line":2,"time":4,"i_lat":-6.166716},{"time":2,"line":2,"transit":false,"i_lat":-6.160725,"is_transit":false,"distance":1149,"station_id":"SW","i_long":106.827103,"station_name":"Sawah Besar"},{"i_long":106.82482,"i_lat":-6.149769,"line":2,"station_name":"Manggabesar","distance":906,"transit":false,"is_transit":false,"time":2,"station_id":"MGB"},{"line":2,"station_name":"Jayakarta","distance":1080,"is_transit":false,"transit":false,"time":2,"i_lat":-6.141205,"i_long":106.820901,"station_id":"JAY"},{"transit":true,"line":2,"i_long":106.812439,"distance":1264,"station_name":"Jakarta Kota","time":4,"station_id":"JAKK","is_transit":true,"i_lat":-6.137569},{"station_id":"KPB","time":3,"is_transit":true,"i_lat":-6.132549,"i_long":106.826365,"transit":true,"line":4,"station_name":"Kampung Bandan","distance":1364},{"time":9,"line":1,"station_id":"AK","transit":false,"is_transit":false,"distance":4102,"i_lat":-6.144674,"i_long":106.79867,"station_name":"Angke"},{"transit":true,"distance":1230,"station_name":"Duri","time":4,"is_transit":true,"i_lat":-6.155215,"i_long":106.800832,"station_id":"DU","line":1},{"i_lat":-6.162021,"line":5,"distance":1700,"time":3,"transit":false,"station_id":"GGL","i_long":106.788277,"station_name":"Grogol","is_transit":false}],[{"i_lat":-6.237242,"distance":0,"station_id":"KBY","line":6,"time":0,"station_name":"Kebayoran","transit":false,"i_long":106.780334,"is_transit":false},{"distance":3737,"station_name":"Palmerah","time":7,"is_transit":false,"station_id":"PLM","i_long":106.79689,"line":6,"transit":false,"i_lat":-6.207404},{"i_long":106.811091,"station_id":"THB","distance":3191,"time":6,"is_transit":true,"station_name":"Tanah Abang","transit":true,"i_lat":-6.185545,"line":1},{"is_transit":false,"station_name":"Karet","i_lat":-6.20132,"transit":false,"time":5,"i_long":106.816351,"distance":2029,"station_id":"KAT","line":1},{"station_name":"Sudirman Baru","station_id":"SUDB","i_lat":-6.201433,"distance":471,"transit":false,"i_long":106.819881,"is_transit":false,"time":1,"line":1},{"is_transit":false,"distance":280,"time":1,"i_lat":-6.202263,"station_name":"Sudirman","line":1,"transit":false,"station_id":"SUD","i_long":106.822649},{"i_lat":-6.209883,"is_transit":false,"line":2,"i_long":106.84912,"station_name":"Manggarai","transit":false,"distance":3186,"time":4,"station_id":"MRI"},{"line":1,"station_name":"Matraman","station_id":"MTR","distance":1275,"i_long":106.858896,"time":2,"transit":false,"i_lat":-6.212485,"is_transit":false},{"station_name":"Jatinegara","line":1,"distance":1377,"time":8,"transit":true,"is_transit":true,"i_long":106.86807400000001,"station_id":"JNG","i_lat":-6.215091},{"line":11,"transit":false,"distance":1236,"is_transit":false,"i_long":106.861737,"station_id":"POK","station_name":"Pondok Jati","time":2,"i_lat":-6.209188},{"line":11,"station_name":"Kramat","station_id":"KMT","time":2,"transit":false,"distance":1829,"i_long":106.855437,"is_transit":false,"i_lat":-6.193792},{"distance":973,"time":1,"station_name":"Gang Sentiong","transit":false,"is_transit":false,"i_long":106.850107,"station_id":"GST","i_lat":-6.185975,"line":11},{"time":8,"transit":false,"line":11,"station_id":"PSE","distance":1567,"station_name":"Pasar Senen","is_transit":false,"i_long":106.84368,"i_lat":-6.174784},{"line":11,"i_long":106.839204,"time":4,"i_lat":-6.161728,"station_id":"KMO","transit":false,"distance":1436,"is_transit":false,"station_name":"Kemayoran"},{"i_lat":-6.14505,"distance":1901,"station_name":"Rajawali","time":5,"station_id":"RJW","transit":false,"line":11,"is_transit":false,"i_long":106.836569},{"line":4,"time":3,"distance":1444,"transit":true,"i_long":106.826365,"station_name":"Kampung Bandan","is_transit":true,"station_id":"KPB","i_lat":-6.132549},{"line":1,"i_lat":-6.144674,"station_id":"AK","time":9,"is_transit":false,"i_long":106.79867,"transit":false,"station_name":"Angke","distance":4102},{"station_id":"DU","is_transit":true,"i_lat":-6.155215,"station_name":"Duri","line":1,"distance":1230,"i_long":106.800832,"transit":true,"time":4},{"distance":1700,"is_transit":false,"transit":false,"station_name":"Grogol","i_lat":-6.162021,"i_long":106.788277,"line":5,"station_id":"GGL","time":3}]]}