{"data":[[{"i_long":106.780334,"line":6,"distance":0,"station_name":"Kebayoran","time":0,"is_transit":false,"transit":false,"station_id":"KBY","i_lat":-6.237242},{"is_transit":false,"station_id":"PDJ","station_name":"Pondokranji","time":8,"i_lat":-6.276362,"i_long":106.74273,"distance":6218,"transit":false,"line":6},{"station_name":"Jurangmangu","transit":false,"time":3,"i_lat":-6.288927,"is_transit":false,"i_long":106.728916,"station_id":"JMU","line":6,"distance":2179},{"transit":false,"i_lat":-6.296963,"i_long":106.712277,"time":4,"is_transit":false,"line":6,"station_id":"SDM","distance":1994,"station_name":"Sudimara"},{"line":6,"transit":false,"station_name":"Rawa Buntu","station_id":"RU","distance":4566,"is_transit":false,"time":6,"i_lat":-6.314823,"i_long":106.675475}]]}