{"data":[[{"time":0,"is_transit":false,"i_lat":-6.237242,"transit":false,"station_name":"Kebayoran","station_id":"KBY","i_long":106.780334,"line":6,"distance":0},{"i_lat":-6.276362,"station_name":"Pondokranji","time":8,"distance":6218,"station_id":"PDJ","is_transit":false,"i_long":106.74273,"transit":false,"line":6},{"transit":false,"distance":2179,"station_id":"JMU","line":6,"time":3,"i_long":106.728916,"is_transit":false,"station_name":"Jurangmangu","i_lat":-6.288927},{"station_name":"Sudimara","time":4,"transit":false,"station_id":"SDM","distance":1994,"is_transit":false,"i_lat":-6.296963,"line":6,"i_long":106.712277},{"distance":4566,"transit":false,"time":6,"line":6,"i_long":106.675475,"station_name":"Rawa Buntu","i_lat":-6.314823,"station_id":"RU","is_transit":false},{"i_long":106.66566,"station_name":"Serpong","is_transit":false,"time":4,"station_id":"SRP","i_lat":-6.319871,"transit":false,"distance":2413,"line":6},{"i_long":106.640411,"station_id":"CSK","line":3,"transit":false,"time":4,"is_transit":false,"distance":1784,"station_name":"Cisauk","i_lat":-6.32484},{"distance":2519,"transit":false,"time":4,"line":3,"station_id":"CC","i_long":106.617853,"station_name":"Cicayur","is_transit":false,"i_lat":-6.329547},{"i_lat":-6.3441410000000005,"transit":false,"is_transit":false,"distance":5968,"station_id":"PRP","i_long":106.568863,"time":8,"station_name":"Parung Panjang","line":6},{"station_name":"Cilejit","transit":false,"time":9,"station_id":"CJT","is_transit":false,"distance":7025,"i_lat":-6.354349,"line":3,"i_long":106.508482},{"i_long":106.491338,"time":6,"station_id":"DAR","i_lat":-6.338021,"line":0,"is_transit":false,"station_name":"Daru","transit":false,"distance":2675},{"transit":false,"distance":3902,"station_name":"Tenjo","time":5,"is_transit":false,"station_id":"TEJ","i_lat":-6.327251,"i_long":106.460812,"line":6},{"station_name":"Tigaraksa","distance":2974,"is_transit":false,"i_long":106.425991,"station_id":"TGS","i_lat":-6.328533,"transit":false,"time":5,"line":6}]]}