{"data":[[{"station_id":"KBY","i_long":106.780334,"line":6,"i_lat":-6.237242,"time":0,"station_name":"Kebayoran","is_transit":false,"transit":false,"distance":0},{"distance":6218,"station_id":"PDJ","time":8,"i_lat":-6.276362,"station_name":"Pondokranji","line":6,"i_long":106.74273,"is_transit":false,"transit":false},{"is_transit":false,"line":6,"station_name":"Jurangmangu","time":3,"transit":false,"i_lat":-6.288927,"i_long":106.728916,"distance":2179,"station_id":"JMU"},{"time":4,"station_id":"SDM","i_long":106.712277,"transit":false,"i_lat":-6.296963,"station_name":"Sudimara","is_transit":false,"distance":1994,"line":6},{"i_lat":-6.314823,"line":6,"station_name":"Rawa Buntu","time":6,"transit":false,"is_transit":false,"distance":4566,"i_long":106.675475,"station_id":"RU"},{"i_lat":-6.319871,"distance":2413,"time":4,"is_transit":false,"line":6,"station_id":"SRP","transit":false,"i_long":106.66566,"station_name":"Serpong"},{"i_long":106.640411,"time":4,"is_transit":false,"line":0,"station_id":"CSK","distance":1784,"transit":false,"station_name":"Cisauk","i_lat":-6.32484},{"time":4,"is_transit":false,"transit":false,"i_lat":-6.329547,"i_long":106.617853,"station_name":"Cicayur","distance":2519,"line":0,"station_id":"CC"},{"line":6,"i_lat":-6.3441410000000005,"station_id":"PRP","transit":false,"distance":5968,"i_long":106.568863,"is_transit":false,"time":8,"station_name":"Parung Panjang"},{"i_long":106.508482,"station_id":"CJT","line":0,"distance":7025,"time":9,"is_transit":false,"i_lat":-6.354349,"station_name":"Cilejit","transit":false},{"station_id":"DAR","station_name":"Daru","distance":2675,"transit":false,"i_lat":-6.338021,"line":0,"is_transit":false,"time":6,"i_long":106.491338},{"time":5,"station_name":"Tenjo","i_long":106.460812,"distance":3902,"i_lat":-6.327251,"transit":false,"line":6,"station_id":"TEJ","is_transit":false},{"station_id":"TGS","line":6,"is_transit":false,"time":5,"i_long":106.425991,"transit":false,"station_name":"Tigaraksa","distance":2974,"i_lat":-6.328533},{"i_lat":-6.33561,"is_transit":false,"station_name":"Cikoya","time":3,"line":0,"i_long":106.411216,"station_id":"CKY","distance":2651,"transit":false},{"time":4,"i_long":106.394373,"line":6,"transit":false,"i_lat":-6.332307,"station_id":"MJ","is_transit":false,"distance":1853,"station_name":"Maja"},{"i_long":106.332092,"station_name":"Citeras","is_transit":false,"time":10,"distance":7293,"i_lat":-6.334892,"line":0,"transit":false,"station_id":"CTR"},{"station_id":"RK","is_transit":true,"line":0,"time":13,"i_long":106.250396,"distance":9847,"i_lat":-6.352675,"station_name":"Rangkasbitung","transit":false}]]}