{"data":[[{"time":0,"i_lat":-6.237242,"i_long":106.780334,"line":6,"station_id":"KBY","is_transit":false,"distance":0,"station_name":"Kebayoran","transit":false},{"i_lat":-6.207404,"station_id":"PLM","transit":false,"time":7,"is_transit":false,"line":6,"i_long":106.79689,"station_name":"Palmerah","distance":3737},{"time":6,"line":1,"station_id":"THB","station_name":"Tanah Abang","is_transit":true,"i_long":106.811091,"distance":3191,"i_lat":-6.185545,"transit":true},{"time":5,"distance":2029,"transit":false,"is_transit":false,"line":1,"i_lat":-6.20132,"i_long":106.816351,"station_name":"Karet","station_id":"KAT"},{"is_transit":false,"i_lat":-6.201433,"station_name":"Sudirman Baru","distance":471,"time":1,"line":1,"station_id":"SUDB","transit":false,"i_long":106.819881},{"station_id":"SUD","distance":280,"is_transit":false,"i_lat":-6.202263,"station_name":"Sudirman","transit":false,"time":1,"line":1,"i_long":106.822649},{"station_id":"MRI","transit":false,"line":2,"is_transit":false,"i_lat":-6.209883,"i_long":106.84912,"station_name":"Manggarai","time":4,"distance":3186},{"line":1,"transit":false,"is_transit":false,"station_name":"Matraman","i_long":106.858896,"distance":1275,"station_id":"MTR","time":2,"i_lat":-6.212485},{"station_name":"Jatinegara","time":8,"transit":false,"station_id":"JNG","i_long":106.86807400000001,"line":1,"distance":1377,"i_lat":-6.215091,"is_transit":false},{"station_id":"KLD","i_lat":-6.2135,"i_long":106.899548,"transit":false,"station_name":"Klender","is_transit":false,"time":3,"distance":3395,"line":1},{"is_transit":false,"time":2,"i_lat":-6.215568,"distance":3100,"station_name":"Buaran","i_long":106.922662,"line":1,"station_id":"BUA","transit":false},{"distance":1305,"transit":false,"time":1,"line":1,"station_id":"KLDB","station_name":"Klenderbaru","is_transit":false,"i_lat":-6.217455,"i_long":106.939679},{"station_id":"CUK","time":8,"is_transit":false,"distance":1385,"transit":false,"station_name":"Cakung","i_long":106.951283,"i_lat":-6.219053,"line":1},{"station_id":"KRI","is_transit":false,"distance":3097,"line":1,"time":3,"transit":false,"station_name":"Kranji","i_lat":-6.224515,"i_long":106.977657},{"transit":false,"station_id":"BKS","is_transit":false,"station_name":"Bekasi","i_long":106.997013,"i_lat":-6.236616,"distance":2520,"line":1,"time":4}],[{"station_id":"KBY","i_lat":-6.237242,"line":6,"time":0,"i_long":106.780334,"station_name":"Kebayoran","is_transit":false,"distance":0,"transit":false},{"i_lat":-6.207404,"is_transit":false,"transit":false,"distance":3737,"time":7,"i_long":106.79689,"station_name":"Palmerah","line":6,"station_id":"PLM"},{"time":6,"i_long":106.811091,"station_name":"Tanah Abang","is_transit":true,"i_lat":-6.185545,"line":1,"transit":true,"station_id":"THB","distance":3191},{"station_id":"DU","is_transit":false,"station_name":"Duri","i_lat":-6.155215,"line":1,"distance":3632,"transit":false,"time":8,"i_long":106.800832},{"station_name":"Angke","is_transit":false,"i_lat":-6.144674,"i_long":106.79867,"time":4,"station_id":"AK","transit":false,"distance":1230,"line":1},{"time":9,"line":4,"transit":true,"distance":4102,"i_lat":-6.132549,"i_long":106.826365,"station_name":"Kampung Bandan","station_id":"KPB","is_transit":true},{"i_lat":-6.14505,"i_long":106.836569,"transit":false,"is_transit":false,"station_name":"Rajawali","station_id":"RJW","time":3,"distance":1444,"line":11},{"transit":false,"station_name":"Kemayoran","is_transit":false,"time":5,"i_long":106.839204,"station_id":"KMO","distance":1901,"i_lat":-6.161728,"line":11},{"i_lat":-6.174784,"station_id":"PSE","transit":false,"station_name":"Pasar Senen","is_transit":false,"time":4,"line":11,"distance":1436,"i_long":106.84368},{"station_name":"Gang Sentiong","is_transit":false,"distance":1567,"transit":false,"time":8,"i_long":106.850107,"station_id":"GST","line":11,"i_lat":-6.185975},{"line":11,"is_transit":false,"transit":false,"station_name":"Kramat","i_lat":-6.193792,"station_id":"KMT","time":1,"distance":973,"i_long":106.855437},{"distance":1829,"line":11,"transit":false,"station_id":"POK","i_long":106.861737,"time":2,"i_lat":-6.209188,"station_name":"Pondok Jati","is_transit":false},{"i_lat":-6.215091,"i_long":106.86807400000001,"station_id":"JNG","line":1,"time":9,"transit":true,"is_transit":true,"distance":1236,"station_name":"Jatinegara"},{"transit":false,"station_id":"KLD","line":1,"i_lat":-6.2135,"i_long":106.899548,"station_name":"Klender","distance":3395,"time":3,"is_transit":false},{"time":2,"is_transit":false,"transit":false,"line":1,"i_long":106.922662,"i_lat":-6.215568,"distance":3100,"station_id":"BUA","station_name":"Buaran"},{"distance":1305,"i_lat":-6.217455,"i_long":106.939679,"station_name":"Klenderbaru","transit":false,"station_id":"KLDB","is_transit":false,"time":1,"line":1},{"transit":false,"is_transit":false,"line":1,"i_lat":-6.219053,"distance":1385,"i_long":106.951283,"time":8,"station_id":"CUK","station_name":"Cakung"},{"station_id":"KRI","transit":false,"distance":3097,"station_name":"Kranji","is_transit":false,"time":3,"i_long":106.977657,"i_lat":-6.224515,"line":1},{"station_id":"BKS","station_name":"Bekasi","transit":false,"distance":2520,"i_long":106.997013,"line":1,"is_transit":false,"i_lat":-6.236616,"time":4}],[{"station_id":"KBY","i_long":106.780334,"i_lat":-6.237242,"transit":false,"time":0,"station_name":"Kebayoran","is_transit":false,"distance":0,"line":6},{"transit":false,"station_name":"Palmerah","i_lat":-6.207404,"distance":3737,"station_id":"PLM","is_transit":false,"time":7,"line":6,"i_long":106.79689},{"transit":true,"station_name":"Tanah Abang","i_long":106.811091,"is_transit":true,"station_id":"THB","line":1,"distance":3191,"time":6,"i_lat":-6.185545},{"is_transit":false,"i_lat":-6.155215,"transit":false,"station_name":"Duri","time":8,"distance":3632,"i_long":106.800832,"station_id":"DU","line":1},{"time":4,"is_transit":false,"i_lat":-6.144674,"distance":1230,"station_name":"Angke","transit":false,"station_id":"AK","line":1,"i_long":106.79867},{"distance":4102,"transit":true,"station_id":"KPB","i_lat":-6.132549,"is_transit":true,"line":4,"i_long":106.826365,"station_name":"Kampung Bandan","time":9},{"line":2,"is_transit":true,"i_lat":-6.137569,"station_name":"Jakarta Kota","transit":true,"i_long":106.812439,"time":3,"station_id":"JAKK","distance":1364},{"is_transit":false,"i_long":106.820901,"line":2,"station_name":"Jayakarta","station_id":"JAY","i_lat":-6.141205,"time":4,"transit":false,"distance":1264},{"transit":false,"i_long":106.82482,"station_id":"MGB","is_transit":false,"distance":1080,"station_name":"Manggabesar","time":2,"i_lat":-6.149769,"line":2},{"i_lat":-6.160725,"station_name":"Sawah Besar","station_id":"SW","line":2,"i_long":106.827103,"transit":false,"is_transit":false,"time":2,"distance":906},{"distance":1149,"transit":false,"i_lat":-6.166716,"station_id":"JUA","station_name":"Juanda","i_long":106.828284,"time":2,"is_transit":false,"line":2},{"distance":2015,"station_name":"Gondangdia","i_long":106.832183,"time":4,"line":2,"transit":false,"is_transit":false,"i_lat":-6.186295,"station_id":"GDD"},{"station_name":"Cikini","time":3,"distance":1750,"station_id":"CKI","transit":false,"i_lat":-6.198556,"is_transit":false,"line":2,"i_long":106.840169},{"transit":true,"station_name":"Manggarai","distance":1590,"station_id":"MRI","is_transit":true,"i_long":106.84912,"line":2,"time":4,"i_lat":-6.209883},{"line":1,"station_id":"MTR","station_name":"Matraman","transit":false,"is_transit":false,"time":2,"i_lat":-6.212485,"i_long":106.858896,"distance":1275},{"i_lat":-6.215091,"is_transit":false,"i_long":106.86807400000001,"line":1,"station_id":"JNG","time":8,"transit":false,"station_name":"Jatinegara","distance":1377},{"station_id":"KLD","time":3,"transit":false,"distance":3395,"is_transit":false,"station_name":"Klender","i_long":106.899548,"line":1,"i_lat":-6.2135},{"i_lat":-6.215568,"distance":3100,"line":1,"is_transit":false,"time":2,"transit":false,"station_name":"Buaran","i_long":106.922662,"station_id":"BUA"},{"station_name":"Klenderbaru","transit":false,"i_long":106.939679,"i_lat":-6.217455,"line":1,"distance":1305,"station_id":"KLDB","time":1,"is_transit":false},{"line":1,"time":8,"distance":1385,"station_id":"CUK","i_long":106.951283,"station_name":"Cakung","i_lat":-6.219053,"transit":false,"is_transit":false},{"station_id":"KRI","i_long":106.977657,"i_lat":-6.224515,"station_name":"Kranji","transit":false,"time":3,"distance":3097,"is_transit":false,"line":1},{"station_name":"Bekasi","time":4,"distance":2520,"line":1,"i_lat":-6.236616,"station_id":"BKS","transit":false,"is_transit":false,"i_long":106.997013}],[{"i_lat":-6.237242,"station_id":"KBY","station_name":"Kebayoran","time":0,"distance":0,"transit":false,"is_transit":false,"i_long":106.780334,"line":6},{"station_id":"PLM","line":6,"time":7,"is_transit":false,"transit":false,"station_name":"Palmerah","i_lat":-6.207404,"distance":3737,"i_long":106.79689},{"distance":3191,"transit":true,"i_lat":-6.185545,"i_long":106.811091,"time":6,"station_id":"THB","line":1,"station_name":"Tanah Abang","is_transit":true},{"i_lat":-6.20132,"station_id":"KAT","is_transit":false,"line":1,"i_long":106.816351,"transit":false,"station_name":"Karet","time":5,"distance":2029},{"station_id":"SUDB","is_transit":false,"i_lat":-6.201433,"distance":471,"time":1,"station_name":"Sudirman Baru","line":1,"i_long":106.819881,"transit":false},{"i_long":106.822649,"station_id":"SUD","transit":false,"line":1,"i_lat":-6.202263,"is_transit":false,"station_name":"Sudirman","distance":280,"time":1},{"is_transit":true,"station_name":"Manggarai","transit":true,"time":4,"distance":3186,"i_long":106.84912,"station_id":"MRI","line":2,"i_lat":-6.209883},{"transit":false,"i_long":106.840169,"time":4,"station_id":"CKI","distance":1590,"is_transit":false,"line":2,"station_name":"Cikini","i_lat":-6.198556},{"station_id":"GDD","i_lat":-6.186295,"line":2,"station_name":"Gondangdia","transit":false,"i_long":106.832183,"time":3,"is_transit":false,"distance":1750},{"is_transit":false,"station_id":"JUA","distance":2015,"i_lat":-6.166716,"station_name":"Juanda","i_long":106.828284,"transit":false,"line":2,"time":4},{"i_long":106.827103,"distance":1149,"i_lat":-6.160725,"time":2,"station_name":"Sawah Besar","transit":false,"station_id":"SW","line":2,"is_transit":false},{"transit":false,"station_id":"MGB","distance":906,"time":2,"station_name":"Manggabesar","is_transit":false,"line":2,"i_long":106.82482,"i_lat":-6.149769},{"distance":1080,"i_long":106.820901,"i_lat":-6.141205,"time":2,"transit":false,"station_name":"Jayakarta","station_id":"JAY","line":2,"is_transit":false},{"i_lat":-6.137569,"transit":true,"is_transit":true,"i_long":106.812439,"line":2,"time":4,"station_id":"JAKK","distance":1264,"station_name":"Jakarta Kota"},{"transit":true,"is_transit":true,"i_long":106.826365,"time":3,"i_lat":-6.132549,"line":4,"station_name":"Kampung Bandan","distance":1364,"station_id":"KPB"},{"line":11,"station_name":"Rajawali","station_id":"RJW","i_long":106.836569,"transit":false,"time":3,"is_transit":false,"distance":1444,"i_lat":-6.14505},{"station_name":"Kemayoran","time":5,"is_transit":false,"i_lat":-6.161728,"i_long":106.839204,"station_id":"KMO","transit":false,"line":11,"distance":1901},{"station_id":"PSE","distance":1436,"i_lat":-6.174784,"i_long":106.84368,"is_transit":false,"station_name":"Pasar Senen","time":4,"transit":false,"line":11},{"station_id":"GST","is_transit":false,"distance":1567,"i_long":106.850107,"transit":false,"line":11,"time":8,"i_lat":-6.185975,"station_name":"Gang Sentiong"},{"i_long":106.855437,"line":11,"is_transit":false,"station_id":"KMT","station_name":"Kramat","time":1,"transit":false,"distance":973,"i_lat":-6.193792},{"time":2,"station_name":"Pondok Jati","i_lat":-6.209188,"i_long":106.861737,"is_transit":false,"station_id":"POK","line":11,"transit":false,"distance":1829},{"station_id":"JNG","i_lat":-6.215091,"line":1,"is_transit":true,"distance":1236,"time":9,"station_name":"Jatinegara","i_long":106.86807400000001,"transit":true},{"station_id":"KLD","is_transit":false,"i_lat":-6.2135,"i_long":106.899548,"station_name":"Klender","transit":false,"line":1,"time":3,"distance":3395},{"is_transit":false,"time":2,"transit":false,"station_name":"Buaran","i_lat":-6.215568,"line":1,"distance":3100,"station_id":"BUA","i_long":106.922662},{"line":1,"station_name":"Klenderbaru","station_id":"KLDB","transit":false,"is_transit":false,"time":1,"distance":1305,"i_long":106.939679,"i_lat":-6.217455},{"line":1,"distance":1385,"i_long":106.951283,"transit":false,"station_name":"Cakung","i_lat":-6.219053,"is_transit":false,"station_id":"CUK","time":8},{"station_id":"KRI","station_name":"Kranji","line":1,"distance":3097,"time":3,"i_long":106.977657,"is_transit":false,"transit":false,"i_lat":-6.224515},{"i_long":106.997013,"line":1,"distance":2520,"is_transit":false,"time":4,"station_id":"BKS","transit":false,"station_name":"Bekasi","i_lat":-6.236616}]]}