{"data":[[{"i_long":106.780334,"time":0,"station_name":"Kebayoran","distance":0,"i_lat":-6.237242,"is_transit":false,"transit":false,"station_id":"KBY","line":6},{"is_transit":false,"i_lat":-6.207404,"i_long":106.79689,"station_id":"PLM","transit":false,"line":6,"time":7,"distance":3737,"station_name":"Palmerah"},{"station_name":"Tanah Abang","transit":true,"time":6,"i_lat":-6.185545,"station_id":"THB","is_transit":true,"distance":3191,"i_long":106.811091,"line":1},{"i_lat":-6.155215,"time":8,"i_long":106.800832,"transit":false,"distance":3632,"station_id":"DU","line":1,"station_name":"Duri","is_transit":false}],[{"station_id":"KBY","i_lat":-6.237242,"station_name":"Kebayoran","line":6,"time":0,"i_long":106.780334,"distance":0,"is_transit":false,"transit":false},{"i_lat":-6.207404,"transit":false,"time":7,"station_id":"PLM","distance":3737,"line":6,"is_transit":false,"station_name":"Palmerah","i_long":106.79689},{"time":6,"distance":3191,"station_id":"THB","line":1,"i_long":106.811091,"transit":true,"station_name":"Tanah Abang","i_lat":-6.185545,"is_transit":true},{"distance":2029,"line":1,"station_id":"KAT","transit":false,"i_lat":-6.20132,"is_transit":false,"station_name":"Karet","i_long":106.816351,"time":5},{"i_lat":-6.201433,"line":1,"time":1,"station_id":"SUDB","is_transit":false,"i_long":106.819881,"transit":false,"distance":471,"station_name":"Sudirman Baru"},{"station_id":"SUD","distance":280,"i_lat":-6.202263,"transit":false,"station_name":"Sudirman","time":1,"is_transit":false,"line":1,"i_long":106.822649},{"transit":true,"station_id":"MRI","station_name":"Manggarai","is_transit":true,"time":4,"distance":3186,"i_lat":-6.209883,"i_long":106.84912,"line":2},{"is_transit":false,"i_lat":-6.198556,"line":2,"distance":1590,"i_long":106.840169,"transit":false,"station_id":"CKI","station_name":"Cikini","time":4},{"station_id":"GDD","is_transit":false,"time":3,"i_lat":-6.186295,"i_long":106.832183,"line":2,"transit":false,"distance":1750,"station_name":"Gondangdia"},{"is_transit":false,"time":4,"station_id":"JUA","line":2,"station_name":"Juanda","i_lat":-6.166716,"i_long":106.828284,"transit":false,"distance":2015},{"transit":false,"station_id":"SW","time":2,"i_long":106.827103,"station_name":"Sawah Besar","i_lat":-6.160725,"distance":1149,"line":2,"is_transit":false},{"time":2,"i_long":106.82482,"transit":false,"station_id":"MGB","i_lat":-6.149769,"station_name":"Manggabesar","distance":906,"line":2,"is_transit":false},{"is_transit":false,"i_long":106.820901,"i_lat":-6.141205,"time":2,"station_id":"JAY","distance":1080,"station_name":"Jayakarta","line":2,"transit":false},{"transit":true,"station_id":"JAKK","line":2,"is_transit":true,"station_name":"Jakarta Kota","time":4,"distance":1264,"i_lat":-6.137569,"i_long":106.812439},{"transit":true,"station_name":"Kampung Bandan","distance":1364,"station_id":"KPB","i_long":106.826365,"line":4,"time":3,"is_transit":true,"i_lat":-6.132549},{"transit":false,"time":9,"station_id":"AK","is_transit":false,"station_name":"Angke","distance":4102,"i_long":106.79867,"i_lat":-6.144674,"line":1},{"is_transit":false,"i_long":106.800832,"station_id":"DU","station_name":"Duri","time":4,"line":1,"distance":1230,"transit":false,"i_lat":-6.155215}],[{"time":0,"i_lat":-6.237242,"i_long":106.780334,"transit":false,"line":6,"is_transit":false,"distance":0,"station_name":"Kebayoran","station_id":"KBY"},{"station_name":"Palmerah","i_long":106.79689,"station_id":"PLM","distance":3737,"is_transit":false,"time":7,"line":6,"transit":false,"i_lat":-6.207404},{"is_transit":true,"line":1,"station_id":"THB","station_name":"Tanah Abang","time":6,"i_lat":-6.185545,"distance":3191,"i_long":106.811091,"transit":true},{"is_transit":false,"i_long":106.816351,"i_lat":-6.20132,"time":5,"distance":2029,"station_id":"KAT","line":1,"transit":false,"station_name":"Karet"},{"time":1,"i_lat":-6.201433,"station_name":"Sudirman Baru","distance":471,"i_long":106.819881,"line":1,"station_id":"SUDB","transit":false,"is_transit":false},{"i_long":106.822649,"line":1,"station_name":"Sudirman","transit":false,"time":1,"distance":280,"station_id":"SUD","i_lat":-6.202263,"is_transit":false},{"station_name":"Manggarai","station_id":"MRI","i_lat":-6.209883,"i_long":106.84912,"time":4,"distance":3186,"is_transit":false,"line":2,"transit":false},{"transit":false,"i_long":106.858896,"time":2,"is_transit":false,"station_name":"Matraman","station_id":"MTR","distance":1275,"line":1,"i_lat":-6.212485},{"i_lat":-6.215091,"is_transit":true,"line":1,"station_name":"Jatinegara","transit":true,"i_long":106.86807400000001,"time":8,"distance":1377,"station_id":"JNG"},{"time":2,"i_lat":-6.209188,"transit":false,"distance":1236,"i_long":106.861737,"station_name":"Pondok Jati","station_id":"POK","line":11,"is_transit":false},{"station_id":"KMT","line":11,"time":2,"station_name":"Kramat","i_long":106.855437,"transit":false,"distance":1829,"i_lat":-6.193792,"is_transit":false},{"transit":false,"time":1,"i_lat":-6.185975,"line":11,"i_long":106.850107,"station_id":"GST","station_name":"Gang Sentiong","is_transit":false,"distance":973},{"i_lat":-6.174784,"i_long":106.84368,"distance":1567,"is_transit":false,"time":8,"station_id":"PSE","transit":false,"line":11,"station_name":"Pasar Senen"},{"i_lat":-6.161728,"distance":1436,"station_name":"Kemayoran","time":4,"station_id":"KMO","transit":false,"is_transit":false,"i_long":106.839204,"line":11},{"line":11,"station_name":"Rajawali","is_transit":false,"time":5,"station_id":"RJW","transit":false,"i_long":106.836569,"distance":1901,"i_lat":-6.14505},{"line":4,"station_name":"Kampung Bandan","distance":1444,"i_lat":-6.132549,"i_long":106.826365,"is_transit":true,"transit":true,"time":3,"station_id":"KPB"},{"i_lat":-6.144674,"station_name":"Angke","distance":4102,"station_id":"AK","line":1,"transit":false,"time":9,"is_transit":false,"i_long":106.79867},{"i_long":106.800832,"distance":1230,"i_lat":-6.155215,"is_transit":false,"time":4,"line":1,"station_name":"Duri","transit":false,"station_id":"DU"}]]}