{"data":[[{"is_transit":false,"i_lat":-6.237242,"time":0,"station_id":"KBY","distance":0,"station_name":"Kebayoran","i_long":106.780334,"transit":false,"line":6},{"station_name":"Palmerah","transit":false,"is_transit":false,"distance":3737,"station_id":"PLM","i_long":106.79689,"line":6,"time":7,"i_lat":-6.207404},{"distance":3191,"station_id":"THB","is_transit":true,"line":1,"transit":true,"i_long":106.811091,"i_lat":-6.185545,"time":6,"station_name":"Tanah Abang"},{"i_lat":-6.155215,"is_transit":false,"time":8,"line":1,"station_name":"Duri","station_id":"DU","distance":3632,"transit":false,"i_long":106.800832},{"transit":false,"i_lat":-6.144674,"station_id":"AK","is_transit":false,"time":4,"distance":1230,"line":1,"station_name":"Angke","i_long":106.79867},{"time":9,"i_lat":-6.132549,"station_id":"KPB","line":4,"transit":true,"station_name":"Kampung Bandan","i_long":106.826365,"is_transit":true,"distance":4102},{"station_id":"JAKK","distance":1364,"is_transit":true,"i_long":106.812439,"transit":true,"line":2,"time":3,"station_name":"Jakarta Kota","i_lat":-6.137569},{"line":2,"transit":false,"station_name":"Jayakarta","distance":1264,"is_transit":false,"i_lat":-6.141205,"i_long":106.820901,"time":4,"station_id":"JAY"},{"is_transit":false,"time":2,"station_name":"Manggabesar","i_long":106.82482,"line":2,"transit":false,"i_lat":-6.149769,"distance":1080,"station_id":"MGB"}],[{"distance":0,"station_id":"KBY","i_lat":-6.237242,"i_long":106.780334,"line":6,"time":0,"station_name":"Kebayoran","transit":false,"is_transit":false},{"station_name":"Palmerah","transit":false,"time":7,"i_long":106.79689,"station_id":"PLM","is_transit":false,"i_lat":-6.207404,"distance":3737,"line":6},{"i_long":106.811091,"line":1,"is_transit":true,"station_id":"THB","transit":true,"i_lat":-6.185545,"station_name":"Tanah Abang","time":6,"distance":3191},{"time":5,"i_long":106.816351,"line":1,"distance":2029,"station_id":"KAT","i_lat":-6.20132,"transit":false,"station_name":"Karet","is_transit":false},{"i_lat":-6.201433,"is_transit":false,"i_long":106.819881,"transit":false,"line":1,"time":1,"station_id":"SUDB","station_name":"Sudirman Baru","distance":471},{"is_transit":false,"i_long":106.822649,"distance":280,"i_lat":-6.202263,"line":1,"transit":false,"time":1,"station_id":"SUD","station_name":"Sudirman"},{"time":4,"transit":true,"station_id":"MRI","is_transit":true,"line":2,"i_lat":-6.209883,"station_name":"Manggarai","distance":3186,"i_long":106.84912},{"i_long":106.840169,"station_id":"CKI","time":4,"distance":1590,"line":2,"transit":false,"station_name":"Cikini","i_lat":-6.198556,"is_transit":false},{"station_name":"Gondangdia","is_transit":false,"i_lat":-6.186295,"time":3,"distance":1750,"transit":false,"line":2,"i_long":106.832183,"station_id":"GDD"},{"time":4,"transit":false,"i_lat":-6.166716,"station_id":"JUA","line":2,"i_long":106.828284,"station_name":"Juanda","is_transit":false,"distance":2015},{"distance":1149,"time":2,"is_transit":false,"i_lat":-6.160725,"station_id":"SW","transit":false,"line":2,"station_name":"Sawah Besar","i_long":106.827103},{"distance":906,"i_long":106.82482,"transit":false,"i_lat":-6.149769,"line":2,"is_transit":false,"time":2,"station_id":"MGB","station_name":"Manggabesar"}],[{"transit":false,"line":6,"time":0,"station_name":"Kebayoran","i_lat":-6.237242,"station_id":"KBY","is_transit":false,"distance":0,"i_long":106.780334},{"line":6,"time":7,"is_transit":false,"transit":false,"i_long":106.79689,"distance":3737,"station_name":"Palmerah","i_lat":-6.207404,"station_id":"PLM"},{"station_name":"Tanah Abang","time":6,"station_id":"THB","is_transit":true,"transit":true,"i_long":106.811091,"line":1,"i_lat":-6.185545,"distance":3191},{"distance":2029,"i_lat":-6.20132,"time":5,"transit":false,"line":1,"station_id":"KAT","i_long":106.816351,"is_transit":false,"station_name":"Karet"},{"is_transit":false,"i_long":106.819881,"station_id":"SUDB","distance":471,"transit":false,"i_lat":-6.201433,"line":1,"time":1,"station_name":"Sudirman Baru"},{"distance":280,"i_lat":-6.202263,"time":1,"station_id":"SUD","i_long":106.822649,"line":1,"station_name":"Sudirman","is_transit":false,"transit":false},{"i_long":106.84912,"time":4,"line":2,"transit":false,"distance":3186,"station_name":"Manggarai","station_id":"MRI","i_lat":-6.209883,"is_transit":false},{"station_name":"Matraman","is_transit":false,"station_id":"MTR","i_lat":-6.212485,"line":1,"time":2,"i_long":106.858896,"distance":1275,"transit":false},{"i_lat":-6.215091,"i_long":106.86807400000001,"distance":1377,"station_name":"Jatinegara","line":1,"is_transit":true,"time":8,"station_id":"JNG","transit":true},{"is_transit":false,"i_long":106.861737,"station_name":"Pondok Jati","distance":1236,"line":11,"time":2,"i_lat":-6.209188,"station_id":"POK","transit":false},{"time":2,"distance":1829,"station_id":"KMT","i_long":106.855437,"line":11,"is_transit":false,"transit":false,"station_name":"Kramat","i_lat":-6.193792},{"time":1,"i_lat":-6.185975,"i_long":106.850107,"is_transit":false,"station_id":"GST","line":11,"distance":973,"station_name":"Gang Sentiong","transit":false},{"time":8,"station_id":"PSE","is_transit":false,"distance":1567,"transit":false,"i_lat":-6.174784,"line":11,"station_name":"Pasar Senen","i_long":106.84368},{"i_long":106.839204,"station_name":"Kemayoran","is_transit":false,"time":4,"transit":false,"station_id":"KMO","line":11,"distance":1436,"i_lat":-6.161728},{"station_name":"Rajawali","i_lat":-6.14505,"station_id":"RJW","is_transit":false,"i_long":106.836569,"distance":1901,"transit":false,"line":11,"time":5},{"distance":1444,"station_id":"KPB","station_name":"Kampung Bandan","line":4,"i_lat":-6.132549,"time":3,"is_transit":true,"i_long":106.826365,"transit":true},{"is_transit":true,"i_lat":-6.137569,"i_long":106.812439,"time":3,"distance":1364,"station_id":"JAKK","station_name":"Jakarta Kota","transit":true,"line":2},{"is_transit":false,"time":4,"station_name":"Jayakarta","transit":false,"i_lat":-6.141205,"i_long":106.820901,"distance":1264,"line":2,"station_id":"JAY"},{"distance":1080,"i_lat":-6.149769,"is_transit":false,"station_name":"Manggabesar","station_id":"MGB","transit":false,"time":2,"line":2,"i_long":106.82482}],[{"i_lat":-6.237242,"is_transit":false,"time":0,"i_long":106.780334,"line":6,"distance":0,"station_id":"KBY","transit":false,"station_name":"Kebayoran"},{"distance":3737,"is_transit":false,"transit":false,"i_long":106.79689,"station_name":"Palmerah","time":7,"station_id":"PLM","i_lat":-6.207404,"line":6},{"distance":3191,"station_id":"THB","transit":true,"time":6,"line":1,"i_long":106.811091,"is_transit":true,"station_name":"Tanah Abang","i_lat":-6.185545},{"line":1,"distance":3632,"station_name":"Duri","transit":false,"time":8,"is_transit":false,"station_id":"DU","i_lat":-6.155215,"i_long":106.800832},{"i_lat":-6.144674,"i_long":106.79867,"distance":1230,"time":4,"station_id":"AK","station_name":"Angke","transit":false,"line":1,"is_transit":false},{"is_transit":true,"distance":4102,"station_id":"KPB","time":9,"transit":true,"line":4,"i_long":106.826365,"station_name":"Kampung Bandan","i_lat":-6.132549},{"is_transit":false,"transit":false,"distance":1444,"station_id":"RJW","time":3,"i_long":106.836569,"line":11,"i_lat":-6.14505,"station_name":"Rajawali"},{"i_lat":-6.161728,"is_transit":false,"distance":1901,"station_id":"KMO","station_name":"Kemayoran","time":5,"transit":false,"i_long":106.839204,"line":11},{"time":4,"i_lat":-6.174784,"is_transit":false,"station_name":"Pasar Senen","distance":1436,"line":11,"station_id":"PSE","transit":false,"i_long":106.84368},{"is_transit":false,"i_long":106.850107,"transit":false,"i_lat":-6.185975,"line":11,"distance":1567,"station_id":"GST","station_name":"Gang Sentiong","time":8},{"is_transit":false,"distance":973,"time":1,"i_long":106.855437,"station_id":"KMT","line":11,"station_name":"Kramat","i_lat":-6.193792,"transit":false},{"i_lat":-6.209188,"transit":false,"station_id":"POK","distance":1829,"station_name":"Pondok Jati","time":2,"i_long":106.861737,"is_transit":false,"line":11},{"time":9,"distance":1236,"station_id":"JNG","line":1,"i_lat":-6.215091,"station_name":"Jatinegara","is_transit":true,"transit":true,"i_long":106.86807400000001},{"line":1,"station_id":"MTR","distance":1377,"is_transit":false,"time":2,"i_long":106.858896,"i_lat":-6.212485,"station_name":"Matraman","transit":false},{"distance":1275,"station_name":"Manggarai","time":2,"transit":true,"i_long":106.84912,"i_lat":-6.209883,"line":2,"is_transit":true,"station_id":"MRI"},{"is_transit":false,"distance":1590,"line":2,"time":4,"station_name":"Cikini","i_long":106.840169,"station_id":"CKI","transit":false,"i_lat":-6.198556},{"i_lat":-6.186295,"i_long":106.832183,"transit":false,"time":3,"is_transit":false,"distance":1750,"station_name":"Gondangdia","line":2,"station_id":"GDD"},{"line":2,"station_id":"JUA","i_lat":-6.166716,"station_name":"Juanda","distance":2015,"transit":false,"time":4,"is_transit":false,"i_long":106.828284},{"line":2,"i_lat":-6.160725,"station_name":"Sawah Besar","i_long":106.827103,"distance":1149,"is_transit":false,"time":2,"transit":false,"station_id":"SW"},{"is_transit":false,"distance":906,"time":2,"station_name":"Manggabesar","station_id":"MGB","i_lat":-6.149769,"i_long":106.82482,"transit":false,"line":2}]]}