{"data":[[{"line":6,"transit":false,"station_id":"KBY","is_transit":false,"i_long":106.780334,"distance":0,"station_name":"Kebayoran","i_lat":-6.237242,"time":0},{"i_long":106.74273,"line":6,"distance":6218,"station_id":"PDJ","transit":false,"i_lat":-6.276362,"station_name":"Pondokranji","is_transit":false,"time":8},{"transit":false,"line":6,"time":3,"i_lat":-6.288927,"station_name":"Jurangmangu","station_id":"JMU","i_long":106.728916,"is_transit":false,"distance":2179},{"i_long":106.712277,"distance":1994,"is_transit":false,"station_id":"SDM","time":4,"station_name":"Sudimara","i_lat":-6.296963,"line":6,"transit":false},{"time":6,"station_id":"RU","i_lat":-6.314823,"transit":false,"distance":4566,"station_name":"Rawa Buntu","i_long":106.675475,"line":6,"is_transit":false},{"is_transit":false,"station_id":"SRP","time":4,"station_name":"Serpong","transit":false,"i_long":106.66566,"line":6,"distance":2413,"i_lat":-6.319871},{"distance":1784,"station_id":"CSK","i_long":106.640411,"time":4,"is_transit":false,"i_lat":-6.32484,"station_name":"Cisauk","line":3,"transit":false},{"transit":false,"distance":2519,"station_id":"CC","station_name":"Cicayur","i_long":106.617853,"line":3,"time":4,"i_lat":-6.329547,"is_transit":false},{"is_transit":false,"distance":5968,"i_long":106.568863,"transit":false,"i_lat":-6.3441410000000005,"station_name":"Parung Panjang","line":6,"time":8,"station_id":"PRP"},{"transit":false,"station_name":"Cilejit","is_transit":false,"distance":7025,"time":9,"i_lat":-6.354349,"line":3,"station_id":"CJT","i_long":106.508482},{"distance":2675,"transit":false,"time":6,"i_lat":-6.338021,"i_long":106.491338,"station_name":"Daru","station_id":"DAR","is_transit":false,"line":0},{"time":5,"station_name":"Tenjo","i_long":106.460812,"is_transit":false,"station_id":"TEJ","line":6,"distance":3902,"i_lat":-6.327251,"transit":false},{"time":5,"transit":false,"distance":2974,"station_name":"Tigaraksa","i_lat":-6.328533,"i_long":106.425991,"line":6,"station_id":"TGS","is_transit":false},{"time":3,"station_id":"CKY","i_lat":-6.33561,"is_transit":false,"distance":2651,"i_long":106.411216,"line":3,"station_name":"Cikoya","transit":false},{"distance":1853,"line":6,"time":4,"transit":false,"is_transit":false,"station_id":"MJ","station_name":"Maja","i_lat":-6.332307,"i_long":106.394373},{"i_long":106.332092,"line":3,"distance":7293,"is_transit":false,"station_id":"CTR","transit":false,"i_lat":-6.334892,"station_name":"Citeras","time":10},{"i_long":106.250396,"line":3,"transit":false,"time":13,"is_transit":false,"station_id":"RK","distance":9847,"i_lat":-6.352675,"station_name":"Rangkasbitung"}]]}