{"data":[[{"is_transit":false,"transit":false,"line":6,"distance":0,"time":0,"station_name":"Kebayoran","station_id":"KBY","i_lat":-6.237242,"i_long":106.780334},{"station_name":"Palmerah","i_lat":-6.207404,"i_long":106.79689,"line":6,"transit":false,"station_id":"PLM","distance":3737,"is_transit":false,"time":7},{"transit":true,"station_name":"Tanah Abang","is_transit":true,"i_long":106.811091,"i_lat":-6.185545,"distance":3191,"line":1,"time":6,"station_id":"THB"},{"transit":false,"distance":3632,"i_lat":-6.155215,"i_long":106.800832,"time":8,"line":1,"station_name":"Duri","station_id":"DU","is_transit":false}],[{"i_lat":-6.237242,"station_id":"KBY","station_name":"Kebayoran","is_transit":false,"distance":0,"line":6,"i_long":106.780334,"transit":false,"time":0},{"time":7,"station_id":"PLM","distance":3737,"i_long":106.79689,"line":6,"station_name":"Palmerah","transit":false,"is_transit":false,"i_lat":-6.207404},{"distance":3191,"station_name":"Tanah Abang","time":6,"station_id":"THB","is_transit":true,"i_long":106.811091,"line":1,"i_lat":-6.185545,"transit":true},{"is_transit":false,"line":1,"time":5,"i_lat":-6.20132,"i_long":106.816351,"distance":2029,"transit":false,"station_name":"Karet","station_id":"KAT"},{"is_transit":false,"station_name":"Sudirman Baru","time":1,"i_long":106.819881,"line":1,"i_lat":-6.201433,"station_id":"SUDB","distance":471,"transit":false},{"i_long":106.822649,"distance":280,"time":1,"i_lat":-6.202263,"line":1,"station_id":"SUD","transit":false,"is_transit":false,"station_name":"Sudirman"},{"time":4,"is_transit":true,"station_name":"Manggarai","distance":3186,"i_lat":-6.209883,"transit":true,"station_id":"MRI","i_long":106.84912,"line":2},{"line":2,"is_transit":false,"i_lat":-6.198556,"distance":1590,"transit":false,"station_name":"Cikini","time":4,"station_id":"CKI","i_long":106.840169},{"time":3,"station_id":"GDD","i_lat":-6.186295,"is_transit":false,"i_long":106.832183,"station_name":"Gondangdia","transit":false,"distance":1750,"line":2},{"distance":2015,"station_id":"JUA","line":2,"i_lat":-6.166716,"i_long":106.828284,"transit":false,"is_transit":false,"station_name":"Juanda","time":4},{"distance":1149,"is_transit":false,"i_long":106.827103,"time":2,"station_name":"Sawah Besar","i_lat":-6.160725,"transit":false,"line":2,"station_id":"SW"},{"line":2,"station_name":"Manggabesar","distance":906,"i_long":106.82482,"time":2,"i_lat":-6.149769,"transit":false,"is_transit":false,"station_id":"MGB"},{"time":2,"is_transit":false,"station_name":"Jayakarta","transit":false,"distance":1080,"i_long":106.820901,"line":2,"i_lat":-6.141205,"station_id":"JAY"},{"line":2,"is_transit":true,"station_id":"JAKK","transit":true,"distance":1264,"station_name":"Jakarta Kota","i_lat":-6.137569,"time":4,"i_long":106.812439},{"i_lat":-6.132549,"station_name":"Kampung Bandan","transit":true,"distance":1364,"is_transit":true,"i_long":106.826365,"time":3,"station_id":"KPB","line":4},{"time":9,"station_id":"AK","i_long":106.79867,"is_transit":false,"transit":false,"distance":4102,"line":1,"station_name":"Angke","i_lat":-6.144674},{"i_long":106.800832,"line":1,"transit":false,"time":4,"distance":1230,"i_lat":-6.155215,"station_id":"DU","station_name":"Duri","is_transit":false}],[{"is_transit":false,"i_long":106.780334,"transit":false,"i_lat":-6.237242,"distance":0,"station_id":"KBY","station_name":"Kebayoran","line":6,"time":0},{"transit":false,"station_name":"Palmerah","is_transit":false,"station_id":"PLM","i_lat":-6.207404,"line":6,"distance":3737,"time":7,"i_long":106.79689},{"time":6,"i_long":106.811091,"is_transit":true,"station_id":"THB","transit":true,"distance":3191,"i_lat":-6.185545,"station_name":"Tanah Abang","line":1},{"distance":2029,"is_transit":false,"i_long":106.816351,"i_lat":-6.20132,"station_name":"Karet","time":5,"transit":false,"station_id":"KAT","line":1},{"time":1,"i_lat":-6.201433,"station_id":"SUDB","line":1,"station_name":"Sudirman Baru","distance":471,"transit":false,"is_transit":false,"i_long":106.819881},{"distance":280,"station_name":"Sudirman","time":1,"i_long":106.822649,"line":1,"station_id":"SUD","i_lat":-6.202263,"is_transit":false,"transit":false},{"transit":false,"station_id":"MRI","i_long":106.84912,"i_lat":-6.209883,"line":2,"time":4,"is_transit":false,"distance":3186,"station_name":"Manggarai"},{"time":2,"station_id":"MTR","i_long":106.858896,"station_name":"Matraman","transit":false,"distance":1275,"is_transit":false,"i_lat":-6.212485,"line":1},{"i_long":106.86807400000001,"time":8,"station_name":"Jatinegara","i_lat":-6.215091,"distance":1377,"is_transit":true,"station_id":"JNG","line":1,"transit":true},{"time":2,"distance":1236,"i_lat":-6.209188,"is_transit":false,"i_long":106.861737,"transit":false,"line":11,"station_name":"Pondok Jati","station_id":"POK"},{"i_lat":-6.193792,"time":2,"line":11,"distance":1829,"station_id":"KMT","transit":false,"station_name":"Kramat","is_transit":false,"i_long":106.855437},{"transit":false,"line":11,"time":1,"station_id":"GST","i_lat":-6.185975,"i_long":106.850107,"is_transit":false,"station_name":"Gang Sentiong","distance":973},{"i_lat":-6.174784,"distance":1567,"line":11,"is_transit":false,"i_long":106.84368,"station_name":"Pasar Senen","transit":false,"time":8,"station_id":"PSE"},{"time":4,"is_transit":false,"station_id":"KMO","i_long":106.839204,"line":11,"i_lat":-6.161728,"transit":false,"station_name":"Kemayoran","distance":1436},{"transit":false,"is_transit":false,"i_long":106.836569,"station_name":"Rajawali","line":11,"time":5,"distance":1901,"i_lat":-6.14505,"station_id":"RJW"},{"transit":true,"i_lat":-6.132549,"line":4,"distance":1444,"i_long":106.826365,"time":3,"station_name":"Kampung Bandan","is_transit":true,"station_id":"KPB"},{"i_long":106.79867,"station_name":"Angke","line":1,"is_transit":false,"i_lat":-6.144674,"distance":4102,"time":9,"station_id":"AK","transit":false},{"i_lat":-6.155215,"distance":1230,"line":1,"transit":false,"station_id":"DU","i_long":106.800832,"time":4,"is_transit":false,"station_name":"Duri"}]]}