{"data":[[{"is_transit":false,"i_lat":-6.237242,"distance":0,"i_long":106.780334,"time":0,"transit":false,"station_id":"KBY","line":6,"station_name":"Kebayoran"},{"transit":false,"station_name":"Palmerah","i_lat":-6.207404,"i_long":106.79689,"time":7,"distance":3737,"line":6,"station_id":"PLM","is_transit":false},{"station_id":"THB","is_transit":true,"distance":3191,"line":1,"station_name":"Tanah Abang","i_long":106.811091,"transit":true,"time":6,"i_lat":-6.185545},{"station_name":"Duri","line":1,"distance":3632,"station_id":"DU","i_lat":-6.155215,"transit":false,"i_long":106.800832,"time":8,"is_transit":false},{"i_long":106.79867,"transit":false,"station_id":"AK","station_name":"Angke","line":1,"distance":1230,"i_lat":-6.144674,"time":4,"is_transit":false},{"time":9,"line":4,"distance":4102,"station_id":"KPB","i_lat":-6.132549,"i_long":106.826365,"station_name":"Kampung Bandan","is_transit":true,"transit":true},{"station_name":"Jakarta Kota","distance":1364,"station_id":"JAKK","i_long":106.812439,"is_transit":true,"i_lat":-6.137569,"time":3,"line":2,"transit":true},{"time":4,"line":2,"transit":false,"is_transit":false,"i_lat":-6.141205,"station_name":"Jayakarta","distance":1264,"station_id":"JAY","i_long":106.820901},{"distance":1080,"time":2,"is_transit":false,"transit":false,"station_id":"MGB","station_name":"Manggabesar","i_lat":-6.149769,"i_long":106.82482,"line":2}],[{"line":6,"i_lat":-6.237242,"i_long":106.780334,"station_name":"Kebayoran","station_id":"KBY","transit":false,"is_transit":false,"distance":0,"time":0},{"is_transit":false,"time":7,"station_id":"PLM","distance":3737,"station_name":"Palmerah","i_lat":-6.207404,"line":6,"transit":false,"i_long":106.79689},{"transit":true,"i_long":106.811091,"line":1,"i_lat":-6.185545,"distance":3191,"is_transit":true,"station_name":"Tanah Abang","time":6,"station_id":"THB"},{"i_long":106.816351,"i_lat":-6.20132,"time":5,"distance":2029,"station_name":"Karet","transit":false,"is_transit":false,"station_id":"KAT","line":1},{"is_transit":false,"i_long":106.819881,"station_id":"SUDB","station_name":"Sudirman Baru","time":1,"i_lat":-6.201433,"distance":471,"transit":false,"line":1},{"time":1,"station_name":"Sudirman","distance":280,"line":1,"station_id":"SUD","is_transit":false,"transit":false,"i_lat":-6.202263,"i_long":106.822649},{"transit":true,"time":4,"is_transit":true,"station_id":"MRI","i_long":106.84912,"station_name":"Manggarai","distance":3186,"line":2,"i_lat":-6.209883},{"transit":false,"i_lat":-6.198556,"is_transit":false,"time":4,"distance":1590,"station_id":"CKI","i_long":106.840169,"line":2,"station_name":"Cikini"},{"station_id":"GDD","time":3,"i_lat":-6.186295,"distance":1750,"i_long":106.832183,"is_transit":false,"station_name":"Gondangdia","transit":false,"line":2},{"line":2,"distance":2015,"station_id":"JUA","transit":false,"is_transit":false,"station_name":"Juanda","time":4,"i_lat":-6.166716,"i_long":106.828284},{"time":2,"distance":1149,"station_id":"SW","i_lat":-6.160725,"i_long":106.827103,"is_transit":false,"station_name":"Sawah Besar","line":2,"transit":false},{"station_name":"Manggabesar","distance":906,"i_long":106.82482,"line":2,"time":2,"transit":false,"i_lat":-6.149769,"is_transit":false,"station_id":"MGB"}],[{"time":0,"i_lat":-6.237242,"i_long":106.780334,"is_transit":false,"station_name":"Kebayoran","station_id":"KBY","line":6,"transit":false,"distance":0},{"line":6,"is_transit":false,"station_name":"Palmerah","time":7,"transit":false,"distance":3737,"station_id":"PLM","i_lat":-6.207404,"i_long":106.79689},{"i_long":106.811091,"time":6,"i_lat":-6.185545,"line":1,"is_transit":true,"station_id":"THB","transit":true,"distance":3191,"station_name":"Tanah Abang"},{"i_lat":-6.20132,"station_name":"Karet","time":5,"distance":2029,"line":1,"i_long":106.816351,"is_transit":false,"transit":false,"station_id":"KAT"},{"station_id":"SUDB","transit":false,"line":1,"i_long":106.819881,"time":1,"distance":471,"station_name":"Sudirman Baru","i_lat":-6.201433,"is_transit":false},{"i_long":106.822649,"station_name":"Sudirman","is_transit":false,"line":1,"time":1,"distance":280,"i_lat":-6.202263,"transit":false,"station_id":"SUD"},{"transit":false,"station_id":"MRI","i_lat":-6.209883,"i_long":106.84912,"station_name":"Manggarai","line":2,"time":4,"distance":3186,"is_transit":false},{"transit":false,"station_name":"Matraman","distance":1275,"is_transit":false,"time":2,"i_lat":-6.212485,"i_long":106.858896,"line":1,"station_id":"MTR"},{"distance":1377,"transit":true,"is_transit":true,"station_id":"JNG","time":8,"i_lat":-6.215091,"line":1,"i_long":106.86807400000001,"station_name":"Jatinegara"},{"station_id":"POK","i_long":106.861737,"line":11,"is_transit":false,"distance":1236,"station_name":"Pondok Jati","time":2,"transit":false,"i_lat":-6.209188},{"station_id":"KMT","i_lat":-6.193792,"station_name":"Kramat","time":2,"transit":false,"i_long":106.855437,"line":11,"distance":1829,"is_transit":false},{"station_name":"Gang Sentiong","distance":973,"station_id":"GST","time":1,"line":11,"i_long":106.850107,"transit":false,"i_lat":-6.185975,"is_transit":false},{"station_name":"Pasar Senen","distance":1567,"i_long":106.84368,"time":8,"transit":false,"is_transit":false,"station_id":"PSE","i_lat":-6.174784,"line":11},{"distance":1436,"is_transit":false,"station_id":"KMO","i_long":106.839204,"line":11,"i_lat":-6.161728,"transit":false,"time":4,"station_name":"Kemayoran"},{"transit":false,"time":5,"is_transit":false,"station_name":"Rajawali","i_long":106.836569,"distance":1901,"i_lat":-6.14505,"line":11,"station_id":"RJW"},{"i_lat":-6.132549,"distance":1444,"is_transit":true,"i_long":106.826365,"station_name":"Kampung Bandan","line":4,"time":3,"station_id":"KPB","transit":true},{"transit":true,"distance":1364,"time":3,"line":2,"i_long":106.812439,"station_name":"Jakarta Kota","i_lat":-6.137569,"is_transit":true,"station_id":"JAKK"},{"station_name":"Jayakarta","time":4,"is_transit":false,"transit":false,"station_id":"JAY","i_lat":-6.141205,"i_long":106.820901,"line":2,"distance":1264},{"distance":1080,"station_id":"MGB","station_name":"Manggabesar","i_lat":-6.149769,"transit":false,"i_long":106.82482,"is_transit":false,"line":2,"time":2}],[{"distance":0,"line":6,"transit":false,"i_lat":-6.237242,"is_transit":false,"station_name":"Kebayoran","station_id":"KBY","i_long":106.780334,"time":0},{"is_transit":false,"transit":false,"i_long":106.79689,"i_lat":-6.207404,"time":7,"line":6,"station_id":"PLM","distance":3737,"station_name":"Palmerah"},{"is_transit":true,"line":1,"station_name":"Tanah Abang","i_lat":-6.185545,"time":6,"i_long":106.811091,"distance":3191,"transit":true,"station_id":"THB"},{"distance":3632,"station_name":"Duri","line":1,"i_lat":-6.155215,"transit":false,"time":8,"station_id":"DU","is_transit":false,"i_long":106.800832},{"line":1,"is_transit":false,"time":4,"i_lat":-6.144674,"transit":false,"station_id":"AK","station_name":"Angke","i_long":106.79867,"distance":1230},{"transit":true,"time":9,"distance":4102,"station_id":"KPB","station_name":"Kampung Bandan","i_lat":-6.132549,"i_long":106.826365,"is_transit":true,"line":4},{"time":3,"transit":false,"station_name":"Rajawali","station_id":"RJW","i_lat":-6.14505,"is_transit":false,"i_long":106.836569,"distance":1444,"line":11},{"line":11,"i_lat":-6.161728,"transit":false,"station_name":"Kemayoran","is_transit":false,"time":5,"distance":1901,"station_id":"KMO","i_long":106.839204},{"time":4,"station_name":"Pasar Senen","transit":false,"distance":1436,"i_long":106.84368,"is_transit":false,"i_lat":-6.174784,"station_id":"PSE","line":11},{"station_name":"Gang Sentiong","transit":false,"time":8,"distance":1567,"i_long":106.850107,"line":11,"i_lat":-6.185975,"is_transit":false,"station_id":"GST"},{"line":11,"station_name":"Kramat","is_transit":false,"station_id":"KMT","time":1,"distance":973,"i_lat":-6.193792,"i_long":106.855437,"transit":false},{"i_lat":-6.209188,"station_id":"POK","station_name":"Pondok Jati","time":2,"i_long":106.861737,"distance":1829,"line":11,"transit":false,"is_transit":false},{"i_lat":-6.215091,"station_id":"JNG","time":9,"distance":1236,"is_transit":true,"line":1,"transit":true,"station_name":"Jatinegara","i_long":106.86807400000001},{"i_long":106.858896,"line":1,"time":2,"is_transit":false,"station_name":"Matraman","distance":1377,"transit":false,"station_id":"MTR","i_lat":-6.212485},{"i_lat":-6.209883,"i_long":106.84912,"is_transit":true,"station_name":"Manggarai","line":2,"transit":true,"time":2,"distance":1275,"station_id":"MRI"},{"line":2,"station_id":"CKI","time":4,"is_transit":false,"transit":false,"i_lat":-6.198556,"distance":1590,"i_long":106.840169,"station_name":"Cikini"},{"i_lat":-6.186295,"i_long":106.832183,"line":2,"distance":1750,"time":3,"station_name":"Gondangdia","is_transit":false,"transit":false,"station_id":"GDD"},{"is_transit":false,"station_name":"Juanda","i_long":106.828284,"line":2,"time":4,"i_lat":-6.166716,"station_id":"JUA","transit":false,"distance":2015},{"transit":false,"i_long":106.827103,"is_transit":false,"distance":1149,"station_name":"Sawah Besar","line":2,"time":2,"i_lat":-6.160725,"station_id":"SW"},{"i_long":106.82482,"line":2,"station_id":"MGB","station_name":"Manggabesar","is_transit":false,"time":2,"distance":906,"transit":false,"i_lat":-6.149769}]]}