{"data":[[{"time":0,"i_lat":-6.237242,"station_name":"Kebayoran","line":6,"station_id":"KBY","is_transit":false,"transit":false,"distance":0,"i_long":106.780334},{"transit":false,"i_long":106.74273,"distance":6218,"time":8,"is_transit":false,"station_name":"Pondokranji","line":6,"i_lat":-6.276362,"station_id":"PDJ"},{"transit":false,"i_long":106.728916,"is_transit":false,"station_name":"Jurangmangu","line":6,"station_id":"JMU","distance":2179,"time":3,"i_lat":-6.288927},{"station_id":"SDM","transit":false,"line":6,"i_lat":-6.296963,"is_transit":false,"distance":1994,"station_name":"Sudimara","time":4,"i_long":106.712277},{"transit":false,"station_name":"Rawa Buntu","i_long":106.675475,"line":6,"i_lat":-6.314823,"station_id":"RU","is_transit":false,"time":6,"distance":4566},{"line":6,"time":4,"distance":2413,"station_name":"Serpong","i_long":106.66566,"i_lat":-6.319871,"station_id":"SRP","transit":false,"is_transit":false},{"station_name":"Cisauk","is_transit":false,"station_id":"CSK","time":4,"i_long":106.640411,"i_lat":-6.32484,"distance":1784,"transit":false,"line":3},{"line":3,"transit":false,"station_id":"CC","is_transit":false,"distance":2519,"time":4,"station_name":"Cicayur","i_long":106.617853,"i_lat":-6.329547},{"station_id":"PRP","line":6,"time":8,"i_lat":-6.3441410000000005,"transit":false,"is_transit":false,"i_long":106.568863,"distance":5968,"station_name":"Parung Panjang"},{"station_name":"Cilejit","time":9,"station_id":"CJT","line":3,"i_long":106.508482,"distance":7025,"is_transit":false,"transit":false,"i_lat":-6.354349},{"i_lat":-6.338021,"line":0,"station_name":"Daru","i_long":106.491338,"distance":2675,"station_id":"DAR","transit":false,"time":6,"is_transit":false}]]}