{"data":[[{"i_lat":-6.237242,"i_long":106.780334,"line":6,"station_name":"Kebayoran","station_id":"KBY","is_transit":false,"transit":false,"distance":0,"time":0},{"station_name":"Palmerah","transit":false,"line":6,"station_id":"PLM","i_lat":-6.207404,"i_long":106.79689,"distance":3737,"is_transit":false,"time":7},{"transit":true,"i_long":106.811091,"is_transit":true,"i_lat":-6.185545,"station_name":"Tanah Abang","station_id":"THB","time":6,"distance":3191,"line":1},{"line":1,"distance":3632,"i_long":106.800832,"station_id":"DU","transit":false,"station_name":"Duri","is_transit":false,"time":8,"i_lat":-6.155215},{"time":4,"is_transit":false,"station_name":"Angke","line":1,"i_long":106.79867,"transit":false,"station_id":"AK","distance":1230,"i_lat":-6.144674}],[{"station_id":"KBY","time":0,"i_lat":-6.237242,"transit":false,"station_name":"Kebayoran","distance":0,"i_long":106.780334,"line":6,"is_transit":false},{"i_lat":-6.207404,"is_transit":false,"station_id":"PLM","i_long":106.79689,"distance":3737,"transit":false,"station_name":"Palmerah","time":7,"line":6},{"transit":true,"time":6,"distance":3191,"line":1,"is_transit":true,"station_id":"THB","i_lat":-6.185545,"i_long":106.811091,"station_name":"Tanah Abang"},{"i_lat":-6.20132,"i_long":106.816351,"distance":2029,"line":1,"time":5,"is_transit":false,"transit":false,"station_name":"Karet","station_id":"KAT"},{"i_lat":-6.201433,"i_long":106.819881,"line":1,"is_transit":false,"time":1,"station_name":"Sudirman Baru","distance":471,"transit":false,"station_id":"SUDB"},{"time":1,"i_lat":-6.202263,"is_transit":false,"line":1,"i_long":106.822649,"station_id":"SUD","station_name":"Sudirman","transit":false,"distance":280},{"transit":true,"is_transit":true,"distance":3186,"i_lat":-6.209883,"i_long":106.84912,"station_name":"Manggarai","station_id":"MRI","line":2,"time":4},{"station_id":"CKI","transit":false,"line":2,"station_name":"Cikini","i_lat":-6.198556,"distance":1590,"is_transit":false,"i_long":106.840169,"time":4},{"is_transit":false,"distance":1750,"transit":false,"i_lat":-6.186295,"i_long":106.832183,"line":2,"station_name":"Gondangdia","time":3,"station_id":"GDD"},{"is_transit":false,"time":4,"i_lat":-6.166716,"line":2,"transit":false,"distance":2015,"station_name":"Juanda","i_long":106.828284,"station_id":"JUA"},{"i_long":106.827103,"transit":false,"time":2,"station_name":"Sawah Besar","distance":1149,"i_lat":-6.160725,"is_transit":false,"station_id":"SW","line":2},{"station_name":"Manggabesar","line":2,"is_transit":false,"distance":906,"i_long":106.82482,"station_id":"MGB","time":2,"i_lat":-6.149769,"transit":false},{"i_long":106.820901,"distance":1080,"station_id":"JAY","line":2,"is_transit":false,"station_name":"Jayakarta","time":2,"i_lat":-6.141205,"transit":false},{"station_id":"JAKK","i_lat":-6.137569,"distance":1264,"transit":true,"i_long":106.812439,"time":4,"is_transit":true,"line":2,"station_name":"Jakarta Kota"},{"time":3,"station_name":"Kampung Bandan","transit":true,"station_id":"KPB","distance":1364,"i_lat":-6.132549,"is_transit":true,"line":4,"i_long":106.826365},{"station_name":"Angke","station_id":"AK","i_lat":-6.144674,"line":1,"transit":false,"distance":4102,"i_long":106.79867,"time":9,"is_transit":false}],[{"line":6,"station_name":"Kebayoran","distance":0,"station_id":"KBY","transit":false,"i_lat":-6.237242,"i_long":106.780334,"is_transit":false,"time":0},{"distance":3737,"i_lat":-6.207404,"i_long":106.79689,"time":7,"is_transit":false,"station_id":"PLM","line":6,"transit":false,"station_name":"Palmerah"},{"line":1,"distance":3191,"station_id":"THB","is_transit":true,"i_long":106.811091,"time":6,"transit":true,"i_lat":-6.185545,"station_name":"Tanah Abang"},{"distance":2029,"time":5,"transit":false,"station_id":"KAT","station_name":"Karet","i_long":106.816351,"line":1,"is_transit":false,"i_lat":-6.20132},{"is_transit":false,"time":1,"i_long":106.819881,"i_lat":-6.201433,"station_id":"SUDB","distance":471,"transit":false,"line":1,"station_name":"Sudirman Baru"},{"station_id":"SUD","distance":280,"time":1,"transit":false,"is_transit":false,"station_name":"Sudirman","i_long":106.822649,"line":1,"i_lat":-6.202263},{"transit":false,"station_id":"MRI","station_name":"Manggarai","i_lat":-6.209883,"line":2,"is_transit":false,"distance":3186,"i_long":106.84912,"time":4},{"station_name":"Matraman","i_long":106.858896,"is_transit":false,"time":2,"transit":false,"distance":1275,"i_lat":-6.212485,"station_id":"MTR","line":1},{"distance":1377,"transit":true,"i_long":106.86807400000001,"time":8,"is_transit":true,"line":1,"i_lat":-6.215091,"station_name":"Jatinegara","station_id":"JNG"},{"station_name":"Pondok Jati","line":11,"i_long":106.861737,"i_lat":-6.209188,"time":2,"station_id":"POK","is_transit":false,"distance":1236,"transit":false},{"i_lat":-6.193792,"station_name":"Kramat","is_transit":false,"i_long":106.855437,"station_id":"KMT","line":11,"time":2,"distance":1829,"transit":false},{"time":1,"is_transit":false,"i_lat":-6.185975,"distance":973,"i_long":106.850107,"line":11,"transit":false,"station_id":"GST","station_name":"Gang Sentiong"},{"i_lat":-6.174784,"time":8,"station_id":"PSE","station_name":"Pasar Senen","is_transit":false,"distance":1567,"transit":false,"i_long":106.84368,"line":11},{"time":4,"is_transit":false,"line":11,"station_name":"Kemayoran","distance":1436,"transit":false,"station_id":"KMO","i_lat":-6.161728,"i_long":106.839204},{"distance":1901,"station_name":"Rajawali","station_id":"RJW","i_lat":-6.14505,"line":11,"transit":false,"is_transit":false,"time":5,"i_long":106.836569},{"i_lat":-6.132549,"transit":true,"i_long":106.826365,"station_id":"KPB","is_transit":true,"time":3,"distance":1444,"line":4,"station_name":"Kampung Bandan"},{"distance":4102,"station_name":"Angke","transit":false,"line":1,"time":9,"station_id":"AK","is_transit":false,"i_lat":-6.144674,"i_long":106.79867}]]}