{"data":[[{"transit":false,"i_long":106.780334,"is_transit":false,"station_id":"KBY","time":0,"distance":0,"line":6,"i_lat":-6.237242,"station_name":"Kebayoran"},{"transit":false,"distance":6218,"i_lat":-6.276362,"line":6,"is_transit":false,"station_id":"PDJ","time":8,"station_name":"Pondokranji","i_long":106.74273},{"station_name":"Jurangmangu","station_id":"JMU","i_long":106.728916,"distance":2179,"i_lat":-6.288927,"time":3,"transit":false,"is_transit":false,"line":6},{"i_lat":-6.296963,"i_long":106.712277,"station_name":"Sudimara","distance":1994,"transit":false,"time":4,"line":6,"is_transit":false,"station_id":"SDM"},{"is_transit":false,"i_lat":-6.314823,"transit":false,"station_id":"RU","station_name":"Rawa Buntu","distance":4566,"i_long":106.675475,"line":6,"time":6},{"i_lat":-6.319871,"station_name":"Serpong","line":6,"i_long":106.66566,"station_id":"SRP","time":4,"transit":false,"is_transit":false,"distance":2413},{"transit":false,"i_lat":-6.32484,"station_id":"CSK","is_transit":false,"i_long":106.640411,"line":3,"distance":1784,"station_name":"Cisauk","time":4},{"is_transit":false,"distance":2519,"line":3,"time":4,"station_name":"Cicayur","transit":false,"station_id":"CC","i_lat":-6.329547,"i_long":106.617853},{"is_transit":false,"transit":false,"i_lat":-6.3441410000000005,"station_name":"Parung Panjang","i_long":106.568863,"line":6,"time":8,"distance":5968,"station_id":"PRP"},{"transit":false,"station_id":"CJT","distance":7025,"station_name":"Cilejit","time":9,"i_long":106.508482,"line":3,"i_lat":-6.354349,"is_transit":false},{"time":6,"station_name":"Daru","is_transit":false,"transit":false,"i_lat":-6.338021,"distance":2675,"i_long":106.491338,"station_id":"DAR","line":0}]]}