{"data":[[{"is_transit":false,"time":0,"distance":0,"i_lat":-6.237242,"line":6,"transit":false,"station_name":"Kebayoran","i_long":106.780334,"station_id":"KBY"},{"time":7,"distance":3737,"transit":false,"i_lat":-6.207404,"line":6,"is_transit":false,"station_id":"PLM","i_long":106.79689,"station_name":"Palmerah"},{"is_transit":true,"i_long":106.811091,"i_lat":-6.185545,"time":6,"distance":3191,"station_id":"THB","station_name":"Tanah Abang","transit":true,"line":1},{"time":8,"distance":3632,"transit":true,"station_name":"Duri","i_long":106.800832,"is_transit":true,"line":1,"i_lat":-6.155215,"station_id":"DU"},{"time":3,"transit":false,"station_id":"GGL","distance":1700,"is_transit":false,"station_name":"Grogol","i_lat":-6.162021,"i_long":106.788277,"line":5}],[{"time":0,"line":6,"distance":0,"transit":false,"i_long":106.780334,"is_transit":false,"station_id":"KBY","i_lat":-6.237242,"station_name":"Kebayoran"},{"transit":false,"station_name":"Palmerah","i_long":106.79689,"i_lat":-6.207404,"line":6,"station_id":"PLM","distance":3737,"time":7,"is_transit":false},{"i_lat":-6.185545,"is_transit":true,"station_id":"THB","station_name":"Tanah Abang","time":6,"line":1,"i_long":106.811091,"transit":true,"distance":3191},{"time":5,"distance":2029,"line":1,"transit":false,"i_lat":-6.20132,"station_name":"Karet","station_id":"KAT","i_long":106.816351,"is_transit":false},{"time":1,"i_long":106.819881,"transit":false,"line":1,"station_name":"Sudirman Baru","i_lat":-6.201433,"station_id":"SUDB","distance":471,"is_transit":false},{"transit":false,"i_lat":-6.202263,"distance":280,"station_id":"SUD","i_long":106.822649,"line":1,"is_transit":false,"time":1,"station_name":"Sudirman"},{"station_id":"MRI","station_name":"Manggarai","distance":3186,"i_long":106.84912,"is_transit":true,"line":0,"transit":true,"time":4,"i_lat":-6.209883},{"is_transit":false,"i_long":106.840169,"i_lat":-6.198556,"line":0,"time":4,"distance":1590,"station_id":"CKI","station_name":"Cikini","transit":false},{"station_name":"Gondangdia","is_transit":false,"i_long":106.832183,"distance":1750,"station_id":"GDD","line":2,"transit":false,"time":3,"i_lat":-6.186295},{"line":2,"distance":2015,"i_lat":-6.166716,"i_long":106.828284,"station_id":"JUA","station_name":"Juanda","is_transit":false,"transit":false,"time":4},{"station_id":"SW","i_lat":-6.160725,"time":2,"station_name":"Sawah Besar","i_long":106.827103,"line":2,"is_transit":false,"transit":false,"distance":1149},{"station_name":"Manggabesar","distance":906,"i_lat":-6.149769,"station_id":"MGB","line":2,"is_transit":false,"i_long":106.82482,"transit":false,"time":2},{"station_id":"JAY","i_lat":-6.141205,"line":7,"i_long":106.820901,"station_name":"Jayakarta","is_transit":false,"time":2,"distance":1080,"transit":false},{"line":0,"station_id":"JAKK","i_lat":-6.137569,"transit":true,"distance":1264,"i_long":106.812439,"station_name":"Jakarta Kota","time":4,"is_transit":true},{"transit":false,"line":0,"station_name":"Kampung Bandan","i_long":106.826365,"station_id":"KPB","is_transit":true,"i_lat":-6.132549,"time":3,"distance":1364},{"station_id":"AK","is_transit":false,"station_name":"Angke","transit":false,"distance":4102,"i_lat":-6.144674,"i_long":106.79867,"line":0,"time":9},{"transit":true,"distance":1230,"i_long":106.800832,"is_transit":true,"i_lat":-6.155215,"station_id":"DU","station_name":"Duri","time":4,"line":1},{"time":3,"line":5,"i_long":106.788277,"station_id":"GGL","transit":false,"distance":1700,"station_name":"Grogol","is_transit":false,"i_lat":-6.162021}],[{"i_long":106.780334,"station_id":"KBY","i_lat":-6.237242,"time":0,"transit":false,"station_name":"Kebayoran","distance":0,"is_transit":false,"line":6},{"station_name":"Palmerah","is_transit":false,"transit":false,"i_lat":-6.207404,"line":6,"i_long":106.79689,"distance":3737,"station_id":"PLM","time":7},{"distance":3191,"station_name":"Tanah Abang","time":6,"transit":true,"station_id":"THB","i_lat":-6.185545,"i_long":106.811091,"line":1,"is_transit":true},{"is_transit":false,"line":1,"i_lat":-6.20132,"distance":2029,"transit":false,"i_long":106.816351,"station_name":"Karet","time":5,"station_id":"KAT"},{"is_transit":false,"distance":471,"i_lat":-6.201433,"transit":false,"station_id":"SUDB","time":1,"i_long":106.819881,"line":1,"station_name":"Sudirman Baru"},{"i_lat":-6.202263,"is_transit":false,"i_long":106.822649,"time":1,"transit":false,"station_id":"SUD","line":1,"station_name":"Sudirman","distance":280},{"line":0,"distance":3186,"transit":false,"station_id":"MRI","time":4,"i_lat":-6.209883,"i_long":106.84912,"station_name":"Manggarai","is_transit":true},{"i_lat":-6.212485,"line":1,"station_name":"Matraman","station_id":"MTR","is_transit":false,"transit":false,"i_long":106.858896,"distance":1275,"time":2},{"station_id":"JNG","station_name":"Jatinegara","time":8,"is_transit":true,"i_lat":-6.215091,"distance":1377,"transit":true,"line":0,"i_long":106.86807400000001},{"time":2,"station_name":"Pondok Jati","transit":false,"line":11,"is_transit":false,"i_long":106.861737,"i_lat":-6.209188,"distance":1236,"station_id":"POK"},{"i_lat":-6.193792,"station_name":"Kramat","time":2,"transit":false,"line":11,"is_transit":false,"station_id":"KMT","i_long":106.855437,"distance":1829},{"is_transit":false,"time":1,"station_id":"GST","distance":973,"i_lat":-6.185975,"transit":false,"i_long":106.850107,"line":11,"station_name":"Gang Sentiong"},{"i_long":106.84368,"time":8,"station_name":"Pasar Senen","line":11,"station_id":"PSE","is_transit":false,"transit":false,"distance":1567,"i_lat":-6.174784},{"station_name":"Kemayoran","is_transit":false,"time":4,"transit":false,"station_id":"KMO","line":11,"i_long":106.839204,"i_lat":-6.161728,"distance":1436},{"transit":false,"i_long":106.836569,"line":11,"station_name":"Rajawali","is_transit":false,"i_lat":-6.14505,"distance":1901,"station_id":"RJW","time":5},{"distance":1444,"station_name":"Kampung Bandan","time":3,"i_lat":-6.132549,"transit":true,"i_long":106.826365,"station_id":"KPB","is_transit":true,"line":0},{"is_transit":false,"i_lat":-6.144674,"transit":false,"station_id":"AK","time":9,"station_name":"Angke","distance":4102,"i_long":106.79867,"line":0},{"is_transit":true,"station_name":"Duri","time":4,"i_lat":-6.155215,"station_id":"DU","transit":true,"i_long":106.800832,"line":1,"distance":1230},{"i_lat":-6.162021,"line":5,"station_name":"Grogol","i_long":106.788277,"distance":1700,"is_transit":false,"time":3,"station_id":"GGL","transit":false}]]}