{"data":[[{"time":0,"is_transit":false,"station_id":"KBY","i_lat":-6.237242,"station_name":"Kebayoran","distance":0,"i_long":106.780334,"transit":false,"line":6},{"station_id":"PLM","time":7,"transit":false,"distance":3737,"is_transit":false,"station_name":"Palmerah","line":6,"i_long":106.79689,"i_lat":-6.207404},{"i_long":106.811091,"line":1,"station_id":"THB","distance":3191,"is_transit":true,"i_lat":-6.185545,"station_name":"Tanah Abang","transit":true,"time":6},{"is_transit":false,"transit":false,"i_lat":-6.155215,"station_id":"DU","station_name":"Duri","i_long":106.800832,"line":1,"time":8,"distance":3632},{"transit":false,"station_id":"AK","line":1,"distance":1230,"i_lat":-6.144674,"station_name":"Angke","i_long":106.79867,"time":4,"is_transit":false}],[{"line":6,"time":0,"i_long":106.780334,"is_transit":false,"transit":false,"station_name":"Kebayoran","distance":0,"station_id":"KBY","i_lat":-6.237242},{"i_long":106.79689,"line":6,"transit":false,"station_name":"Palmerah","station_id":"PLM","is_transit":false,"time":7,"distance":3737,"i_lat":-6.207404},{"distance":3191,"station_name":"Tanah Abang","station_id":"THB","line":1,"is_transit":true,"time":6,"i_lat":-6.185545,"transit":true,"i_long":106.811091},{"station_id":"KAT","is_transit":false,"time":5,"i_lat":-6.20132,"transit":false,"distance":2029,"i_long":106.816351,"station_name":"Karet","line":1},{"station_id":"SUDB","is_transit":false,"distance":471,"i_lat":-6.201433,"transit":false,"time":1,"line":1,"station_name":"Sudirman Baru","i_long":106.819881},{"station_id":"SUD","time":1,"line":1,"distance":280,"i_lat":-6.202263,"i_long":106.822649,"transit":false,"station_name":"Sudirman","is_transit":false},{"station_name":"Manggarai","station_id":"MRI","time":4,"i_lat":-6.209883,"is_transit":true,"distance":3186,"transit":true,"i_long":106.84912,"line":2},{"distance":1590,"is_transit":false,"i_lat":-6.198556,"time":4,"station_name":"Cikini","line":2,"i_long":106.840169,"station_id":"CKI","transit":false},{"distance":1750,"line":2,"station_id":"GDD","station_name":"Gondangdia","transit":false,"time":3,"i_lat":-6.186295,"i_long":106.832183,"is_transit":false},{"i_long":106.828284,"is_transit":false,"distance":2015,"station_id":"JUA","station_name":"Juanda","time":4,"line":2,"i_lat":-6.166716,"transit":false},{"distance":1149,"i_long":106.827103,"station_id":"SW","time":2,"station_name":"Sawah Besar","is_transit":false,"i_lat":-6.160725,"transit":false,"line":2},{"is_transit":false,"station_name":"Manggabesar","line":2,"transit":false,"station_id":"MGB","distance":906,"i_lat":-6.149769,"i_long":106.82482,"time":2},{"i_lat":-6.141205,"distance":1080,"station_id":"JAY","station_name":"Jayakarta","line":2,"i_long":106.820901,"transit":false,"time":2,"is_transit":false},{"is_transit":true,"station_id":"JAKK","transit":true,"i_long":106.812439,"distance":1264,"i_lat":-6.137569,"time":4,"station_name":"Jakarta Kota","line":2},{"distance":1364,"station_id":"KPB","line":4,"station_name":"Kampung Bandan","i_lat":-6.132549,"transit":true,"time":3,"is_transit":true,"i_long":106.826365},{"i_lat":-6.144674,"is_transit":false,"transit":false,"station_name":"Angke","i_long":106.79867,"time":9,"station_id":"AK","line":1,"distance":4102}],[{"distance":0,"line":6,"station_name":"Kebayoran","transit":false,"i_long":106.780334,"time":0,"i_lat":-6.237242,"station_id":"KBY","is_transit":false},{"station_name":"Palmerah","transit":false,"i_long":106.79689,"i_lat":-6.207404,"line":6,"is_transit":false,"time":7,"station_id":"PLM","distance":3737},{"i_long":106.811091,"line":1,"transit":true,"station_id":"THB","distance":3191,"time":6,"is_transit":true,"station_name":"Tanah Abang","i_lat":-6.185545},{"is_transit":false,"distance":2029,"i_long":106.816351,"station_id":"KAT","transit":false,"time":5,"i_lat":-6.20132,"station_name":"Karet","line":1},{"station_name":"Sudirman Baru","is_transit":false,"distance":471,"station_id":"SUDB","transit":false,"i_long":106.819881,"line":1,"i_lat":-6.201433,"time":1},{"station_id":"SUD","is_transit":false,"station_name":"Sudirman","time":1,"line":1,"transit":false,"distance":280,"i_lat":-6.202263,"i_long":106.822649},{"transit":false,"distance":3186,"station_id":"MRI","i_lat":-6.209883,"is_transit":false,"station_name":"Manggarai","time":4,"line":2,"i_long":106.84912},{"is_transit":false,"station_id":"MTR","transit":false,"distance":1275,"i_lat":-6.212485,"station_name":"Matraman","time":2,"i_long":106.858896,"line":1},{"time":8,"is_transit":true,"transit":true,"i_long":106.86807400000001,"station_name":"Jatinegara","distance":1377,"i_lat":-6.215091,"station_id":"JNG","line":1},{"time":2,"i_long":106.861737,"line":11,"station_name":"Pondok Jati","station_id":"POK","is_transit":false,"transit":false,"distance":1236,"i_lat":-6.209188},{"distance":1829,"time":2,"i_lat":-6.193792,"line":11,"transit":false,"i_long":106.855437,"station_id":"KMT","station_name":"Kramat","is_transit":false},{"i_lat":-6.185975,"transit":false,"station_id":"GST","is_transit":false,"time":1,"distance":973,"i_long":106.850107,"line":11,"station_name":"Gang Sentiong"},{"line":11,"distance":1567,"station_id":"PSE","i_lat":-6.174784,"i_long":106.84368,"is_transit":false,"transit":false,"station_name":"Pasar Senen","time":8},{"is_transit":false,"station_id":"KMO","line":11,"i_long":106.839204,"distance":1436,"time":4,"transit":false,"i_lat":-6.161728,"station_name":"Kemayoran"},{"is_transit":false,"transit":false,"station_name":"Rajawali","time":5,"i_lat":-6.14505,"station_id":"RJW","distance":1901,"line":11,"i_long":106.836569},{"station_name":"Kampung Bandan","i_lat":-6.132549,"time":3,"distance":1444,"i_long":106.826365,"line":4,"is_transit":true,"transit":true,"station_id":"KPB"},{"time":9,"station_name":"Angke","station_id":"AK","is_transit":false,"distance":4102,"line":1,"i_long":106.79867,"i_lat":-6.144674,"transit":false}]]}