{"data":[[{"line":6,"distance":0,"i_long":106.780334,"station_name":"Kebayoran","station_id":"KBY","i_lat":-6.237242,"time":0,"is_transit":false,"transit":false},{"station_id":"PLM","transit":false,"distance":3737,"time":7,"station_name":"Palmerah","is_transit":false,"line":6,"i_long":106.79689,"i_lat":-6.207404},{"line":1,"i_long":106.811091,"time":6,"distance":3191,"station_name":"Tanah Abang","transit":true,"i_lat":-6.185545,"station_id":"THB","is_transit":true},{"time":5,"station_id":"KAT","station_name":"Karet","is_transit":false,"line":1,"transit":false,"i_lat":-6.20132,"i_long":106.816351,"distance":2029},{"transit":false,"distance":471,"time":1,"station_name":"Sudirman Baru","station_id":"SUDB","i_long":106.819881,"line":1,"i_lat":-6.201433,"is_transit":false},{"line":1,"i_lat":-6.202263,"is_transit":false,"station_id":"SUD","i_long":106.822649,"station_name":"Sudirman","time":1,"transit":false,"distance":280},{"station_id":"MRI","i_long":106.84912,"station_name":"Manggarai","line":2,"time":4,"is_transit":true,"distance":3186,"transit":true,"i_lat":-6.209883},{"station_name":"Cikini","is_transit":false,"station_id":"CKI","i_long":106.840169,"time":4,"distance":1590,"transit":false,"i_lat":-6.198556,"line":2},{"distance":1750,"i_lat":-6.186295,"station_name":"Gondangdia","time":3,"transit":false,"i_long":106.832183,"station_id":"GDD","line":2,"is_transit":false},{"transit":false,"i_long":106.828284,"station_name":"Juanda","i_lat":-6.166716,"distance":2015,"line":2,"is_transit":false,"time":4,"station_id":"JUA"}],[{"is_transit":false,"station_name":"Kebayoran","i_long":106.780334,"time":0,"transit":false,"distance":0,"i_lat":-6.237242,"line":6,"station_id":"KBY"},{"distance":3737,"i_long":106.79689,"station_name":"Palmerah","time":7,"is_transit":false,"station_id":"PLM","i_lat":-6.207404,"line":6,"transit":false},{"is_transit":true,"i_long":106.811091,"distance":3191,"station_name":"Tanah Abang","transit":true,"i_lat":-6.185545,"line":1,"time":6,"station_id":"THB"},{"station_id":"DU","is_transit":false,"station_name":"Duri","time":8,"i_lat":-6.155215,"line":1,"distance":3632,"transit":false,"i_long":106.800832},{"station_id":"AK","line":1,"is_transit":false,"i_long":106.79867,"station_name":"Angke","transit":false,"i_lat":-6.144674,"time":4,"distance":1230},{"station_id":"KPB","station_name":"Kampung Bandan","line":4,"is_transit":true,"distance":4102,"i_lat":-6.132549,"i_long":106.826365,"time":9,"transit":true},{"time":3,"i_long":106.812439,"distance":1364,"is_transit":true,"station_id":"JAKK","station_name":"Jakarta Kota","transit":true,"line":2,"i_lat":-6.137569},{"station_name":"Jayakarta","time":4,"line":2,"station_id":"JAY","i_long":106.820901,"distance":1264,"is_transit":false,"i_lat":-6.141205,"transit":false},{"is_transit":false,"line":2,"station_id":"MGB","station_name":"Manggabesar","transit":false,"i_lat":-6.149769,"time":2,"distance":1080,"i_long":106.82482},{"station_id":"SW","distance":906,"transit":false,"is_transit":false,"time":2,"station_name":"Sawah Besar","line":2,"i_lat":-6.160725,"i_long":106.827103},{"station_id":"JUA","is_transit":false,"line":2,"distance":1149,"i_long":106.828284,"station_name":"Juanda","i_lat":-6.166716,"transit":false,"time":2}],[{"i_long":106.780334,"i_lat":-6.237242,"line":6,"transit":false,"station_name":"Kebayoran","station_id":"KBY","time":0,"is_transit":false,"distance":0},{"i_lat":-6.207404,"station_id":"PLM","is_transit":false,"transit":false,"i_long":106.79689,"station_name":"Palmerah","time":7,"distance":3737,"line":6},{"i_long":106.811091,"station_name":"Tanah Abang","i_lat":-6.185545,"time":6,"distance":3191,"station_id":"THB","is_transit":true,"line":1,"transit":true},{"line":1,"station_id":"DU","distance":3632,"station_name":"Duri","time":8,"i_lat":-6.155215,"transit":false,"i_long":106.800832,"is_transit":false},{"i_lat":-6.144674,"line":1,"time":4,"distance":1230,"station_id":"AK","station_name":"Angke","is_transit":false,"transit":false,"i_long":106.79867},{"station_name":"Kampung Bandan","i_lat":-6.132549,"distance":4102,"is_transit":true,"i_long":106.826365,"station_id":"KPB","line":4,"transit":true,"time":9},{"station_id":"RJW","station_name":"Rajawali","time":3,"line":11,"i_lat":-6.14505,"distance":1444,"transit":false,"i_long":106.836569,"is_transit":false},{"i_lat":-6.161728,"is_transit":false,"i_long":106.839204,"transit":false,"line":11,"time":5,"station_id":"KMO","station_name":"Kemayoran","distance":1901},{"is_transit":false,"i_long":106.84368,"distance":1436,"i_lat":-6.174784,"line":11,"transit":false,"station_id":"PSE","station_name":"Pasar Senen","time":4},{"transit":false,"time":8,"station_id":"GST","is_transit":false,"line":11,"i_lat":-6.185975,"station_name":"Gang Sentiong","distance":1567,"i_long":106.850107},{"i_long":106.855437,"station_id":"KMT","time":1,"distance":973,"line":11,"transit":false,"station_name":"Kramat","i_lat":-6.193792,"is_transit":false},{"station_name":"Pondok Jati","is_transit":false,"i_lat":-6.209188,"transit":false,"time":2,"distance":1829,"line":11,"i_long":106.861737,"station_id":"POK"},{"time":9,"distance":1236,"i_lat":-6.215091,"station_id":"JNG","line":1,"i_long":106.86807400000001,"station_name":"Jatinegara","transit":true,"is_transit":true},{"distance":1377,"is_transit":false,"time":2,"i_lat":-6.212485,"station_id":"MTR","transit":false,"line":1,"station_name":"Matraman","i_long":106.858896},{"distance":1275,"i_long":106.84912,"transit":true,"i_lat":-6.209883,"line":2,"is_transit":true,"station_id":"MRI","station_name":"Manggarai","time":2},{"transit":false,"line":2,"time":4,"station_name":"Cikini","i_lat":-6.198556,"station_id":"CKI","is_transit":false,"distance":1590,"i_long":106.840169},{"line":2,"time":3,"transit":false,"is_transit":false,"i_long":106.832183,"distance":1750,"station_name":"Gondangdia","i_lat":-6.186295,"station_id":"GDD"},{"station_name":"Juanda","station_id":"JUA","transit":false,"is_transit":false,"time":4,"i_long":106.828284,"line":2,"i_lat":-6.166716,"distance":2015}],[{"distance":0,"i_lat":-6.237242,"time":0,"transit":false,"line":6,"station_id":"KBY","i_long":106.780334,"is_transit":false,"station_name":"Kebayoran"},{"time":7,"i_long":106.79689,"station_id":"PLM","distance":3737,"transit":false,"i_lat":-6.207404,"line":6,"is_transit":false,"station_name":"Palmerah"},{"distance":3191,"i_lat":-6.185545,"station_id":"THB","time":6,"i_long":106.811091,"line":1,"transit":true,"station_name":"Tanah Abang","is_transit":true},{"i_long":106.816351,"time":5,"line":1,"transit":false,"station_name":"Karet","distance":2029,"station_id":"KAT","i_lat":-6.20132,"is_transit":false},{"station_name":"Sudirman Baru","is_transit":false,"station_id":"SUDB","i_lat":-6.201433,"line":1,"time":1,"i_long":106.819881,"transit":false,"distance":471},{"i_lat":-6.202263,"i_long":106.822649,"station_name":"Sudirman","distance":280,"line":1,"is_transit":false,"station_id":"SUD","time":1,"transit":false},{"is_transit":false,"i_long":106.84912,"station_name":"Manggarai","distance":3186,"line":2,"time":4,"i_lat":-6.209883,"station_id":"MRI","transit":false},{"time":2,"station_id":"MTR","distance":1275,"i_long":106.858896,"line":1,"is_transit":false,"transit":false,"station_name":"Matraman","i_lat":-6.212485},{"time":8,"i_lat":-6.215091,"i_long":106.86807400000001,"is_transit":true,"station_id":"JNG","line":1,"transit":true,"station_name":"Jatinegara","distance":1377},{"time":2,"station_id":"POK","transit":false,"is_transit":false,"distance":1236,"i_lat":-6.209188,"line":11,"station_name":"Pondok Jati","i_long":106.861737},{"i_long":106.855437,"transit":false,"station_name":"Kramat","is_transit":false,"time":2,"station_id":"KMT","line":11,"distance":1829,"i_lat":-6.193792},{"station_name":"Gang Sentiong","i_lat":-6.185975,"station_id":"GST","is_transit":false,"i_long":106.850107,"distance":973,"transit":false,"line":11,"time":1},{"distance":1567,"station_id":"PSE","station_name":"Pasar Senen","line":11,"i_lat":-6.174784,"time":8,"is_transit":false,"i_long":106.84368,"transit":false},{"is_transit":false,"i_lat":-6.161728,"i_long":106.839204,"time":4,"station_id":"KMO","distance":1436,"station_name":"Kemayoran","transit":false,"line":11},{"distance":1901,"line":11,"station_id":"RJW","transit":false,"is_transit":false,"time":5,"station_name":"Rajawali","i_long":106.836569,"i_lat":-6.14505},{"i_long":106.826365,"line":4,"transit":true,"is_transit":true,"distance":1444,"station_id":"KPB","station_name":"Kampung Bandan","i_lat":-6.132549,"time":3},{"i_long":106.812439,"i_lat":-6.137569,"station_id":"JAKK","station_name":"Jakarta Kota","is_transit":true,"line":2,"transit":true,"time":3,"distance":1364},{"i_long":106.820901,"station_name":"Jayakarta","line":2,"time":4,"station_id":"JAY","transit":false,"is_transit":false,"distance":1264,"i_lat":-6.141205},{"line":2,"station_id":"MGB","i_lat":-6.149769,"is_transit":false,"transit":false,"station_name":"Manggabesar","time":2,"i_long":106.82482,"distance":1080},{"station_id":"SW","station_name":"Sawah Besar","i_lat":-6.160725,"time":2,"is_transit":false,"i_long":106.827103,"transit":false,"distance":906,"line":2},{"i_long":106.828284,"i_lat":-6.166716,"is_transit":false,"distance":1149,"transit":false,"station_id":"JUA","line":2,"station_name":"Juanda","time":2}]]}