{"data":[[{"distance":0,"i_lat":-6.237242,"line":6,"station_name":"Kebayoran","i_long":106.780334,"transit":false,"station_id":"KBY","time":0,"is_transit":false},{"transit":false,"time":8,"distance":6218,"station_id":"PDJ","is_transit":false,"i_lat":-6.276362,"station_name":"Pondokranji","i_long":106.74273,"line":6},{"i_lat":-6.288927,"distance":2179,"station_id":"JMU","transit":false,"is_transit":false,"time":3,"line":6,"station_name":"Jurangmangu","i_long":106.728916},{"i_lat":-6.296963,"distance":1994,"is_transit":false,"transit":false,"time":4,"i_long":106.712277,"station_id":"SDM","line":6,"station_name":"Sudimara"},{"line":6,"station_name":"Rawa Buntu","transit":false,"distance":4566,"time":6,"station_id":"RU","i_lat":-6.314823,"i_long":106.675475,"is_transit":false},{"distance":2413,"i_lat":-6.319871,"is_transit":false,"time":4,"station_id":"SRP","i_long":106.66566,"line":6,"transit":false,"station_name":"Serpong"},{"is_transit":false,"line":3,"time":4,"station_name":"Cisauk","distance":1784,"station_id":"CSK","transit":false,"i_lat":-6.32484,"i_long":106.640411},{"station_id":"CC","time":4,"i_lat":-6.329547,"i_long":106.617853,"distance":2519,"station_name":"Cicayur","line":3,"is_transit":false,"transit":false},{"station_id":"PRP","line":6,"time":8,"i_lat":-6.3441410000000005,"is_transit":false,"i_long":106.568863,"station_name":"Parung Panjang","transit":false,"distance":5968},{"station_name":"Cilejit","time":9,"station_id":"CJT","i_long":106.508482,"distance":7025,"line":3,"is_transit":false,"transit":false,"i_lat":-6.354349},{"transit":false,"time":6,"i_lat":-6.338021,"station_name":"Daru","i_long":106.491338,"distance":2675,"is_transit":false,"line":0,"station_id":"DAR"},{"distance":3902,"i_long":106.460812,"station_name":"Tenjo","transit":false,"station_id":"TEJ","is_transit":false,"time":5,"i_lat":-6.327251,"line":6},{"distance":2974,"line":6,"station_id":"TGS","station_name":"Tigaraksa","transit":false,"i_lat":-6.328533,"is_transit":false,"i_long":106.425991,"time":5}]]}