{"data":[[{"i_long":106.780334,"transit":false,"is_transit":false,"time":0,"station_id":"KBY","station_name":"Kebayoran","distance":0,"i_lat":-6.237242,"line":6},{"distance":3737,"station_name":"Palmerah","line":6,"station_id":"PLM","time":7,"is_transit":false,"transit":false,"i_long":106.79689,"i_lat":-6.207404},{"station_name":"Tanah Abang","i_long":106.811091,"station_id":"THB","is_transit":true,"i_lat":-6.185545,"transit":true,"time":6,"distance":3191,"line":1},{"distance":2029,"i_lat":-6.20132,"line":1,"is_transit":false,"i_long":106.816351,"station_name":"Karet","time":5,"transit":false,"station_id":"KAT"},{"transit":false,"i_long":106.819881,"line":1,"station_name":"Sudirman Baru","is_transit":false,"station_id":"SUDB","distance":471,"i_lat":-6.201433,"time":1},{"station_id":"SUD","time":1,"i_lat":-6.202263,"line":1,"transit":false,"distance":280,"station_name":"Sudirman","is_transit":false,"i_long":106.822649},{"station_id":"MRI","distance":3186,"time":4,"is_transit":false,"station_name":"Manggarai","line":2,"transit":false,"i_lat":-6.209883,"i_long":106.84912},{"i_long":106.858896,"station_id":"MTR","station_name":"Matraman","line":1,"time":2,"is_transit":false,"i_lat":-6.212485,"transit":false,"distance":1275},{"is_transit":false,"transit":false,"i_lat":-6.215091,"distance":1377,"i_long":106.86807400000001,"line":1,"station_id":"JNG","station_name":"Jatinegara","time":8},{"station_name":"Klender","time":3,"transit":false,"distance":3395,"i_lat":-6.2135,"i_long":106.899548,"line":1,"is_transit":false,"station_id":"KLD"},{"is_transit":false,"station_id":"BUA","i_lat":-6.215568,"i_long":106.922662,"line":1,"station_name":"Buaran","distance":3100,"transit":false,"time":2},{"station_name":"Klenderbaru","i_long":106.939679,"time":1,"line":1,"station_id":"KLDB","i_lat":-6.217455,"transit":false,"distance":1305,"is_transit":false},{"transit":false,"time":8,"i_lat":-6.219053,"line":1,"i_long":106.951283,"is_transit":false,"distance":1385,"station_name":"Cakung","station_id":"CUK"},{"transit":false,"distance":3097,"i_lat":-6.224515,"station_name":"Kranji","station_id":"KRI","is_transit":false,"i_long":106.977657,"line":1,"time":3},{"station_name":"Bekasi","line":1,"transit":false,"station_id":"BKS","time":4,"i_long":106.997013,"distance":2520,"is_transit":false,"i_lat":-6.236616},{"transit":false,"station_name":"Bekasi Timur","i_lat":-6.248029,"distance":2368,"line":1,"station_id":"BKST","is_transit":false,"time":2,"i_long":107.016735}],[{"station_name":"Kebayoran","time":0,"transit":false,"station_id":"KBY","i_long":106.780334,"line":6,"i_lat":-6.237242,"is_transit":false,"distance":0},{"station_id":"PLM","transit":false,"i_lat":-6.207404,"i_long":106.79689,"line":6,"distance":3737,"time":7,"station_name":"Palmerah","is_transit":false},{"distance":3191,"station_name":"Tanah Abang","time":6,"transit":true,"station_id":"THB","i_long":106.811091,"line":1,"i_lat":-6.185545,"is_transit":true},{"i_long":106.800832,"station_id":"DU","time":8,"i_lat":-6.155215,"line":1,"transit":false,"station_name":"Duri","distance":3632,"is_transit":false},{"is_transit":false,"distance":1230,"i_long":106.79867,"line":1,"time":4,"station_name":"Angke","transit":false,"station_id":"AK","i_lat":-6.144674},{"line":4,"distance":4102,"station_name":"Kampung Bandan","time":9,"i_long":106.826365,"transit":true,"is_transit":true,"station_id":"KPB","i_lat":-6.132549},{"station_name":"Rajawali","transit":false,"distance":1444,"is_transit":false,"line":11,"i_lat":-6.14505,"time":3,"station_id":"RJW","i_long":106.836569},{"station_id":"KMO","i_lat":-6.161728,"i_long":106.839204,"transit":false,"is_transit":false,"station_name":"Kemayoran","time":5,"line":11,"distance":1901},{"i_long":106.84368,"transit":false,"i_lat":-6.174784,"line":11,"station_name":"Pasar Senen","time":4,"station_id":"PSE","is_transit":false,"distance":1436},{"time":8,"i_long":106.850107,"transit":false,"line":11,"i_lat":-6.185975,"station_id":"GST","distance":1567,"is_transit":false,"station_name":"Gang Sentiong"},{"i_long":106.855437,"i_lat":-6.193792,"transit":false,"station_name":"Kramat","line":11,"time":1,"is_transit":false,"distance":973,"station_id":"KMT"},{"station_name":"Pondok Jati","line":11,"station_id":"POK","time":2,"i_long":106.861737,"is_transit":false,"transit":false,"distance":1829,"i_lat":-6.209188},{"station_id":"JNG","i_long":106.86807400000001,"transit":true,"time":9,"station_name":"Jatinegara","is_transit":true,"i_lat":-6.215091,"distance":1236,"line":1},{"transit":false,"time":3,"i_lat":-6.2135,"i_long":106.899548,"station_name":"Klender","line":1,"station_id":"KLD","is_transit":false,"distance":3395},{"station_name":"Buaran","i_lat":-6.215568,"distance":3100,"i_long":106.922662,"transit":false,"time":2,"line":1,"is_transit":false,"station_id":"BUA"},{"i_long":106.939679,"station_id":"KLDB","line":1,"transit":false,"station_name":"Klenderbaru","time":1,"is_transit":false,"distance":1305,"i_lat":-6.217455},{"line":1,"station_id":"CUK","i_lat":-6.219053,"i_long":106.951283,"distance":1385,"time":8,"transit":false,"is_transit":false,"station_name":"Cakung"},{"distance":3097,"station_name":"Kranji","transit":false,"i_lat":-6.224515,"is_transit":false,"i_long":106.977657,"line":1,"station_id":"KRI","time":3},{"is_transit":false,"time":4,"distance":2520,"transit":false,"station_name":"Bekasi","i_lat":-6.236616,"i_long":106.997013,"line":1,"station_id":"BKS"},{"i_lat":-6.248029,"transit":false,"line":1,"station_id":"BKST","is_transit":false,"station_name":"Bekasi Timur","time":2,"distance":2368,"i_long":107.016735}],[{"is_transit":false,"station_name":"Kebayoran","transit":false,"station_id":"KBY","distance":0,"time":0,"i_lat":-6.237242,"i_long":106.780334,"line":6},{"is_transit":false,"station_name":"Palmerah","distance":3737,"i_long":106.79689,"station_id":"PLM","time":7,"transit":false,"i_lat":-6.207404,"line":6},{"station_id":"THB","station_name":"Tanah Abang","is_transit":true,"distance":3191,"i_long":106.811091,"time":6,"transit":true,"line":1,"i_lat":-6.185545},{"i_long":106.800832,"time":8,"transit":false,"is_transit":false,"station_name":"Duri","i_lat":-6.155215,"station_id":"DU","line":1,"distance":3632},{"distance":1230,"station_id":"AK","is_transit":false,"i_long":106.79867,"i_lat":-6.144674,"station_name":"Angke","time":4,"line":1,"transit":false},{"line":4,"transit":true,"station_name":"Kampung Bandan","is_transit":true,"time":9,"distance":4102,"i_lat":-6.132549,"station_id":"KPB","i_long":106.826365},{"distance":1364,"station_id":"JAKK","i_long":106.812439,"i_lat":-6.137569,"line":2,"transit":true,"is_transit":true,"station_name":"Jakarta Kota","time":3},{"station_id":"JAY","time":4,"i_long":106.820901,"line":2,"station_name":"Jayakarta","transit":false,"distance":1264,"i_lat":-6.141205,"is_transit":false},{"station_name":"Manggabesar","is_transit":false,"station_id":"MGB","i_lat":-6.149769,"time":2,"transit":false,"line":2,"i_long":106.82482,"distance":1080},{"station_name":"Sawah Besar","transit":false,"distance":906,"i_long":106.827103,"station_id":"SW","time":2,"line":2,"is_transit":false,"i_lat":-6.160725},{"station_id":"JUA","transit":false,"i_lat":-6.166716,"time":2,"station_name":"Juanda","is_transit":false,"line":2,"i_long":106.828284,"distance":1149},{"distance":2015,"i_long":106.832183,"station_id":"GDD","is_transit":false,"transit":false,"station_name":"Gondangdia","time":4,"i_lat":-6.186295,"line":2},{"is_transit":false,"distance":1750,"i_long":106.840169,"i_lat":-6.198556,"station_name":"Cikini","transit":false,"time":3,"station_id":"CKI","line":2},{"time":4,"is_transit":true,"transit":true,"station_name":"Manggarai","distance":1590,"i_lat":-6.209883,"station_id":"MRI","i_long":106.84912,"line":2},{"transit":false,"time":2,"is_transit":false,"i_long":106.858896,"i_lat":-6.212485,"distance":1275,"station_id":"MTR","line":1,"station_name":"Matraman"},{"is_transit":false,"station_id":"JNG","distance":1377,"time":8,"i_lat":-6.215091,"i_long":106.86807400000001,"station_name":"Jatinegara","line":1,"transit":false},{"transit":false,"time":3,"is_transit":false,"line":1,"i_long":106.899548,"i_lat":-6.2135,"distance":3395,"station_id":"KLD","station_name":"Klender"},{"station_id":"BUA","i_lat":-6.215568,"is_transit":false,"i_long":106.922662,"station_name":"Buaran","transit":false,"line":1,"time":2,"distance":3100},{"is_transit":false,"time":1,"distance":1305,"line":1,"station_name":"Klenderbaru","transit":false,"i_lat":-6.217455,"i_long":106.939679,"station_id":"KLDB"},{"time":8,"distance":1385,"is_transit":false,"station_name":"Cakung","line":1,"transit":false,"i_lat":-6.219053,"i_long":106.951283,"station_id":"CUK"},{"station_id":"KRI","distance":3097,"station_name":"Kranji","is_transit":false,"time":3,"line":1,"transit":false,"i_lat":-6.224515,"i_long":106.977657},{"time":4,"i_lat":-6.236616,"station_name":"Bekasi","transit":false,"distance":2520,"i_long":106.997013,"station_id":"BKS","line":1,"is_transit":false},{"transit":false,"line":1,"distance":2368,"time":2,"is_transit":false,"i_lat":-6.248029,"station_name":"Bekasi Timur","station_id":"BKST","i_long":107.016735}],[{"time":0,"distance":0,"transit":false,"i_long":106.780334,"is_transit":false,"station_name":"Kebayoran","station_id":"KBY","i_lat":-6.237242,"line":6},{"i_long":106.79689,"station_name":"Palmerah","station_id":"PLM","time":7,"transit":false,"i_lat":-6.207404,"line":6,"is_transit":false,"distance":3737},{"transit":true,"i_long":106.811091,"distance":3191,"station_name":"Tanah Abang","station_id":"THB","line":1,"i_lat":-6.185545,"time":6,"is_transit":true},{"station_name":"Karet","i_long":106.816351,"line":1,"transit":false,"time":5,"station_id":"KAT","i_lat":-6.20132,"is_transit":false,"distance":2029},{"station_id":"SUDB","line":1,"i_lat":-6.201433,"station_name":"Sudirman Baru","transit":false,"i_long":106.819881,"time":1,"distance":471,"is_transit":false},{"line":1,"is_transit":false,"time":1,"i_lat":-6.202263,"station_id":"SUD","station_name":"Sudirman","transit":false,"distance":280,"i_long":106.822649},{"is_transit":true,"station_id":"MRI","line":2,"time":4,"i_long":106.84912,"i_lat":-6.209883,"station_name":"Manggarai","transit":true,"distance":3186},{"transit":false,"i_lat":-6.198556,"i_long":106.840169,"line":2,"station_id":"CKI","is_transit":false,"station_name":"Cikini","distance":1590,"time":4},{"distance":1750,"i_lat":-6.186295,"station_name":"Gondangdia","transit":false,"line":2,"i_long":106.832183,"station_id":"GDD","time":3,"is_transit":false},{"station_name":"Juanda","transit":false,"station_id":"JUA","is_transit":false,"line":2,"time":4,"distance":2015,"i_lat":-6.166716,"i_long":106.828284},{"is_transit":false,"i_long":106.827103,"station_name":"Sawah Besar","distance":1149,"transit":false,"station_id":"SW","line":2,"time":2,"i_lat":-6.160725},{"station_id":"MGB","i_lat":-6.149769,"time":2,"transit":false,"is_transit":false,"i_long":106.82482,"distance":906,"line":2,"station_name":"Manggabesar"},{"station_id":"JAY","time":2,"distance":1080,"i_lat":-6.141205,"line":2,"transit":false,"is_transit":false,"i_long":106.820901,"station_name":"Jayakarta"},{"distance":1264,"line":2,"i_lat":-6.137569,"is_transit":true,"station_id":"JAKK","time":4,"station_name":"Jakarta Kota","i_long":106.812439,"transit":true},{"station_name":"Kampung Bandan","is_transit":true,"transit":true,"i_lat":-6.132549,"station_id":"KPB","i_long":106.826365,"line":4,"time":3,"distance":1364},{"i_long":106.836569,"station_name":"Rajawali","transit":false,"station_id":"RJW","time":3,"is_transit":false,"i_lat":-6.14505,"line":11,"distance":1444},{"transit":false,"station_id":"KMO","station_name":"Kemayoran","distance":1901,"i_lat":-6.161728,"time":5,"is_transit":false,"i_long":106.839204,"line":11},{"transit":false,"is_transit":false,"station_name":"Pasar Senen","i_long":106.84368,"distance":1436,"time":4,"station_id":"PSE","i_lat":-6.174784,"line":11},{"distance":1567,"station_name":"Gang Sentiong","time":8,"transit":false,"is_transit":false,"line":11,"station_id":"GST","i_lat":-6.185975,"i_long":106.850107},{"station_name":"Kramat","time":1,"transit":false,"station_id":"KMT","i_long":106.855437,"is_transit":false,"i_lat":-6.193792,"line":11,"distance":973},{"transit":false,"is_transit":false,"line":11,"i_long":106.861737,"station_id":"POK","station_name":"Pondok Jati","time":2,"distance":1829,"i_lat":-6.209188},{"time":9,"transit":true,"is_transit":true,"i_lat":-6.215091,"i_long":106.86807400000001,"line":1,"distance":1236,"station_id":"JNG","station_name":"Jatinegara"},{"time":3,"distance":3395,"transit":false,"is_transit":false,"i_lat":-6.2135,"line":1,"station_name":"Klender","station_id":"KLD","i_long":106.899548},{"station_id":"BUA","i_lat":-6.215568,"i_long":106.922662,"station_name":"Buaran","is_transit":false,"transit":false,"distance":3100,"line":1,"time":2},{"i_lat":-6.217455,"line":1,"transit":false,"i_long":106.939679,"is_transit":false,"station_id":"KLDB","time":1,"distance":1305,"station_name":"Klenderbaru"},{"line":1,"station_id":"CUK","i_lat":-6.219053,"station_name":"Cakung","time":8,"is_transit":false,"distance":1385,"transit":false,"i_long":106.951283},{"i_lat":-6.224515,"transit":false,"station_name":"Kranji","is_transit":false,"time":3,"distance":3097,"station_id":"KRI","i_long":106.977657,"line":1},{"time":4,"line":1,"i_lat":-6.236616,"transit":false,"station_id":"BKS","distance":2520,"station_name":"Bekasi","is_transit":false,"i_long":106.997013},{"line":1,"time":2,"station_id":"BKST","is_transit":false,"i_lat":-6.248029,"i_long":107.016735,"transit":false,"distance":2368,"station_name":"Bekasi Timur"}]]}