{"data":[[{"distance":0,"transit":false,"is_transit":false,"line":6,"time":0,"i_long":106.780334,"station_id":"KBY","i_lat":-6.237242,"station_name":"Kebayoran"},{"distance":6218,"i_long":106.74273,"line":6,"transit":false,"is_transit":false,"i_lat":-6.276362,"time":8,"station_name":"Pondokranji","station_id":"PDJ"},{"distance":2179,"i_lat":-6.288927,"station_name":"Jurangmangu","line":6,"transit":false,"time":3,"i_long":106.728916,"is_transit":false,"station_id":"JMU"},{"line":6,"station_name":"Sudimara","distance":1994,"i_long":106.712277,"station_id":"SDM","transit":false,"time":4,"i_lat":-6.296963,"is_transit":false},{"transit":false,"line":6,"station_name":"Rawa Buntu","i_long":106.675475,"time":6,"is_transit":false,"i_lat":-6.314823,"distance":4566,"station_id":"RU"},{"i_lat":-6.319871,"i_long":106.66566,"line":6,"time":4,"station_id":"SRP","station_name":"Serpong","is_transit":false,"distance":2413,"transit":false},{"time":4,"distance":1784,"i_lat":-6.32484,"station_name":"Cisauk","station_id":"CSK","is_transit":false,"transit":false,"line":3,"i_long":106.640411},{"i_lat":-6.329547,"transit":false,"distance":2519,"time":4,"line":3,"station_id":"CC","station_name":"Cicayur","is_transit":false,"i_long":106.617853},{"distance":5968,"is_transit":false,"i_long":106.568863,"transit":false,"station_id":"PRP","station_name":"Parung Panjang","i_lat":-6.3441410000000005,"line":6,"time":8},{"station_id":"CJT","station_name":"Cilejit","is_transit":false,"i_lat":-6.354349,"i_long":106.508482,"distance":7025,"time":9,"transit":false,"line":3},{"i_lat":-6.338021,"line":0,"time":6,"distance":2675,"transit":false,"is_transit":false,"station_name":"Daru","station_id":"DAR","i_long":106.491338},{"time":5,"distance":3902,"station_id":"TEJ","transit":false,"i_long":106.460812,"line":6,"station_name":"Tenjo","i_lat":-6.327251,"is_transit":false},{"distance":2974,"i_long":106.425991,"i_lat":-6.328533,"station_name":"Tigaraksa","transit":false,"time":5,"station_id":"TGS","is_transit":false,"line":6},{"time":3,"station_id":"CKY","transit":false,"i_long":106.411216,"distance":2651,"is_transit":false,"station_name":"Cikoya","i_lat":-6.33561,"line":3},{"i_lat":-6.332307,"i_long":106.394373,"time":4,"distance":1853,"transit":false,"is_transit":false,"station_name":"Maja","station_id":"MJ","line":6},{"station_name":"Citeras","transit":false,"line":3,"is_transit":false,"station_id":"CTR","time":10,"i_lat":-6.334892,"distance":7293,"i_long":106.332092},{"i_lat":-6.352675,"line":3,"i_long":106.250396,"station_name":"Rangkasbitung","time":13,"distance":9847,"transit":false,"is_transit":false,"station_id":"RK"}]]}