{"data":[[{"line":6,"is_transit":false,"distance":0,"station_name":"Kebayoran","station_id":"KBY","time":0,"transit":false,"i_lat":-6.237242,"i_long":106.780334},{"is_transit":false,"station_id":"PLM","i_long":106.79689,"station_name":"Palmerah","line":6,"distance":3737,"i_lat":-6.207404,"transit":false,"time":7},{"is_transit":true,"transit":true,"i_lat":-6.185545,"i_long":106.811091,"station_name":"Tanah Abang","line":1,"distance":3191,"station_id":"THB","time":6},{"station_id":"KAT","line":1,"i_lat":-6.20132,"time":5,"is_transit":false,"station_name":"Karet","transit":false,"i_long":106.816351,"distance":2029},{"station_name":"Sudirman Baru","i_lat":-6.201433,"i_long":106.819881,"is_transit":false,"time":1,"distance":471,"transit":false,"station_id":"SUDB","line":1},{"is_transit":false,"transit":false,"time":1,"i_long":106.822649,"i_lat":-6.202263,"station_id":"SUD","line":1,"distance":280,"station_name":"Sudirman"},{"station_id":"MRI","line":2,"time":4,"i_long":106.84912,"station_name":"Manggarai","i_lat":-6.209883,"distance":3186,"is_transit":false,"transit":false},{"distance":1275,"line":1,"station_name":"Matraman","time":2,"transit":false,"i_lat":-6.212485,"i_long":106.858896,"is_transit":false,"station_id":"MTR"},{"i_lat":-6.215091,"station_name":"Jatinegara","i_long":106.86807400000001,"line":1,"distance":1377,"time":8,"is_transit":false,"station_id":"JNG","transit":false},{"transit":false,"distance":3395,"i_long":106.899548,"line":1,"i_lat":-6.2135,"station_name":"Klender","is_transit":false,"station_id":"KLD","time":3},{"i_lat":-6.215568,"distance":3100,"station_name":"Buaran","i_long":106.922662,"line":1,"is_transit":false,"transit":false,"station_id":"BUA","time":2},{"i_lat":-6.217455,"i_long":106.939679,"station_id":"KLDB","time":1,"distance":1305,"is_transit":false,"transit":false,"line":1,"station_name":"Klenderbaru"},{"station_name":"Cakung","time":8,"transit":false,"is_transit":false,"station_id":"CUK","i_long":106.951283,"i_lat":-6.219053,"line":1,"distance":1385},{"time":3,"station_name":"Kranji","transit":false,"i_long":106.977657,"i_lat":-6.224515,"station_id":"KRI","is_transit":false,"line":1,"distance":3097},{"transit":false,"i_long":106.997013,"distance":2520,"station_name":"Bekasi","time":4,"line":1,"is_transit":false,"i_lat":-6.236616,"station_id":"BKS"},{"i_long":107.016735,"distance":2368,"station_id":"BKST","transit":false,"i_lat":-6.248029,"is_transit":false,"time":2,"station_name":"Bekasi Timur","line":1}],[{"is_transit":false,"i_lat":-6.237242,"time":0,"i_long":106.780334,"station_id":"KBY","line":6,"station_name":"Kebayoran","distance":0,"transit":false},{"i_long":106.79689,"i_lat":-6.207404,"station_name":"Palmerah","time":7,"station_id":"PLM","transit":false,"line":6,"distance":3737,"is_transit":false},{"station_id":"THB","time":6,"is_transit":true,"station_name":"Tanah Abang","line":1,"i_long":106.811091,"distance":3191,"transit":true,"i_lat":-6.185545},{"i_long":106.800832,"station_id":"DU","transit":false,"line":1,"i_lat":-6.155215,"time":8,"distance":3632,"station_name":"Duri","is_transit":false},{"transit":false,"station_name":"Angke","is_transit":false,"i_long":106.79867,"time":4,"station_id":"AK","line":1,"distance":1230,"i_lat":-6.144674},{"i_long":106.826365,"i_lat":-6.132549,"line":4,"station_name":"Kampung Bandan","time":9,"station_id":"KPB","transit":true,"is_transit":true,"distance":4102},{"station_id":"RJW","i_lat":-6.14505,"distance":1444,"line":11,"station_name":"Rajawali","time":3,"is_transit":false,"transit":false,"i_long":106.836569},{"time":5,"station_id":"KMO","i_lat":-6.161728,"distance":1901,"line":11,"is_transit":false,"i_long":106.839204,"transit":false,"station_name":"Kemayoran"},{"distance":1436,"transit":false,"i_long":106.84368,"station_id":"PSE","station_name":"Pasar Senen","line":11,"i_lat":-6.174784,"is_transit":false,"time":4},{"station_name":"Gang Sentiong","time":8,"station_id":"GST","i_lat":-6.185975,"distance":1567,"i_long":106.850107,"transit":false,"line":11,"is_transit":false},{"line":11,"distance":973,"is_transit":false,"time":1,"station_id":"KMT","i_lat":-6.193792,"i_long":106.855437,"transit":false,"station_name":"Kramat"},{"station_name":"Pondok Jati","i_long":106.861737,"line":11,"i_lat":-6.209188,"is_transit":false,"transit":false,"distance":1829,"station_id":"POK","time":2},{"is_transit":true,"transit":true,"i_lat":-6.215091,"i_long":106.86807400000001,"line":1,"station_id":"JNG","time":9,"station_name":"Jatinegara","distance":1236},{"distance":3395,"i_lat":-6.2135,"line":1,"i_long":106.899548,"station_id":"KLD","is_transit":false,"time":3,"transit":false,"station_name":"Klender"},{"line":1,"distance":3100,"time":2,"i_long":106.922662,"station_name":"Buaran","i_lat":-6.215568,"station_id":"BUA","transit":false,"is_transit":false},{"distance":1305,"station_id":"KLDB","transit":false,"i_long":106.939679,"i_lat":-6.217455,"station_name":"Klenderbaru","time":1,"line":1,"is_transit":false},{"distance":1385,"time":8,"station_name":"Cakung","transit":false,"station_id":"CUK","line":1,"is_transit":false,"i_long":106.951283,"i_lat":-6.219053},{"distance":3097,"time":3,"station_name":"Kranji","is_transit":false,"i_lat":-6.224515,"line":1,"station_id":"KRI","transit":false,"i_long":106.977657},{"distance":2520,"station_name":"Bekasi","time":4,"transit":false,"i_lat":-6.236616,"is_transit":false,"station_id":"BKS","line":1,"i_long":106.997013},{"station_name":"Bekasi Timur","distance":2368,"i_lat":-6.248029,"time":2,"station_id":"BKST","i_long":107.016735,"is_transit":false,"transit":false,"line":1}],[{"is_transit":false,"line":6,"time":0,"station_name":"Kebayoran","station_id":"KBY","distance":0,"i_lat":-6.237242,"transit":false,"i_long":106.780334},{"i_long":106.79689,"station_name":"Palmerah","i_lat":-6.207404,"time":7,"distance":3737,"is_transit":false,"transit":false,"line":6,"station_id":"PLM"},{"station_name":"Tanah Abang","station_id":"THB","transit":true,"i_long":106.811091,"i_lat":-6.185545,"time":6,"is_transit":true,"line":1,"distance":3191},{"i_long":106.800832,"distance":3632,"i_lat":-6.155215,"line":1,"time":8,"transit":false,"station_id":"DU","is_transit":false,"station_name":"Duri"},{"station_id":"AK","distance":1230,"i_long":106.79867,"station_name":"Angke","i_lat":-6.144674,"is_transit":false,"transit":false,"time":4,"line":1},{"i_lat":-6.132549,"station_id":"KPB","i_long":106.826365,"line":4,"distance":4102,"station_name":"Kampung Bandan","is_transit":true,"time":9,"transit":true},{"line":2,"transit":true,"station_id":"JAKK","time":3,"i_long":106.812439,"station_name":"Jakarta Kota","i_lat":-6.137569,"distance":1364,"is_transit":true},{"transit":false,"station_id":"JAY","time":4,"distance":1264,"station_name":"Jayakarta","is_transit":false,"i_long":106.820901,"line":2,"i_lat":-6.141205},{"i_long":106.82482,"i_lat":-6.149769,"line":2,"station_name":"Manggabesar","distance":1080,"time":2,"transit":false,"station_id":"MGB","is_transit":false},{"time":2,"transit":false,"station_id":"SW","station_name":"Sawah Besar","i_long":106.827103,"distance":906,"line":2,"is_transit":false,"i_lat":-6.160725},{"i_long":106.828284,"distance":1149,"is_transit":false,"station_name":"Juanda","i_lat":-6.166716,"line":2,"transit":false,"station_id":"JUA","time":2},{"distance":2015,"i_long":106.832183,"transit":false,"i_lat":-6.186295,"station_id":"GDD","time":4,"line":2,"station_name":"Gondangdia","is_transit":false},{"station_id":"CKI","station_name":"Cikini","line":2,"distance":1750,"time":3,"transit":false,"is_transit":false,"i_lat":-6.198556,"i_long":106.840169},{"i_long":106.84912,"distance":1590,"station_name":"Manggarai","time":4,"station_id":"MRI","line":2,"transit":true,"i_lat":-6.209883,"is_transit":true},{"transit":false,"i_long":106.858896,"station_name":"Matraman","is_transit":false,"i_lat":-6.212485,"distance":1275,"time":2,"line":1,"station_id":"MTR"},{"transit":false,"time":8,"station_id":"JNG","is_transit":false,"line":1,"station_name":"Jatinegara","i_long":106.86807400000001,"i_lat":-6.215091,"distance":1377},{"station_name":"Klender","station_id":"KLD","distance":3395,"i_lat":-6.2135,"i_long":106.899548,"is_transit":false,"time":3,"transit":false,"line":1},{"time":2,"transit":false,"distance":3100,"station_id":"BUA","is_transit":false,"line":1,"i_lat":-6.215568,"i_long":106.922662,"station_name":"Buaran"},{"i_long":106.939679,"transit":false,"i_lat":-6.217455,"line":1,"time":1,"distance":1305,"station_name":"Klenderbaru","station_id":"KLDB","is_transit":false},{"i_lat":-6.219053,"transit":false,"i_long":106.951283,"distance":1385,"station_id":"CUK","station_name":"Cakung","line":1,"time":8,"is_transit":false},{"transit":false,"station_id":"KRI","i_lat":-6.224515,"line":1,"distance":3097,"station_name":"Kranji","i_long":106.977657,"time":3,"is_transit":false},{"transit":false,"i_long":106.997013,"line":1,"distance":2520,"station_name":"Bekasi","i_lat":-6.236616,"station_id":"BKS","time":4,"is_transit":false},{"line":1,"is_transit":false,"station_id":"BKST","time":2,"i_lat":-6.248029,"station_name":"Bekasi Timur","distance":2368,"transit":false,"i_long":107.016735}],[{"i_lat":-6.237242,"line":6,"station_id":"KBY","distance":0,"station_name":"Kebayoran","time":0,"transit":false,"i_long":106.780334,"is_transit":false},{"i_long":106.79689,"station_id":"PLM","station_name":"Palmerah","is_transit":false,"time":7,"i_lat":-6.207404,"line":6,"transit":false,"distance":3737},{"station_name":"Tanah Abang","station_id":"THB","distance":3191,"i_lat":-6.185545,"line":1,"is_transit":true,"transit":true,"time":6,"i_long":106.811091},{"station_id":"KAT","i_long":106.816351,"is_transit":false,"time":5,"i_lat":-6.20132,"line":1,"station_name":"Karet","distance":2029,"transit":false},{"transit":false,"distance":471,"i_lat":-6.201433,"station_id":"SUDB","i_long":106.819881,"time":1,"line":1,"station_name":"Sudirman Baru","is_transit":false},{"station_name":"Sudirman","is_transit":false,"time":1,"transit":false,"i_lat":-6.202263,"i_long":106.822649,"station_id":"SUD","line":1,"distance":280},{"transit":true,"distance":3186,"is_transit":true,"i_long":106.84912,"station_id":"MRI","line":2,"i_lat":-6.209883,"station_name":"Manggarai","time":4},{"is_transit":false,"station_id":"CKI","transit":false,"distance":1590,"station_name":"Cikini","time":4,"i_lat":-6.198556,"i_long":106.840169,"line":2},{"transit":false,"i_lat":-6.186295,"is_transit":false,"station_name":"Gondangdia","distance":1750,"time":3,"i_long":106.832183,"station_id":"GDD","line":2},{"time":4,"i_lat":-6.166716,"station_name":"Juanda","is_transit":false,"station_id":"JUA","distance":2015,"transit":false,"i_long":106.828284,"line":2},{"i_long":106.827103,"line":2,"time":2,"station_name":"Sawah Besar","i_lat":-6.160725,"station_id":"SW","is_transit":false,"transit":false,"distance":1149},{"station_id":"MGB","i_lat":-6.149769,"is_transit":false,"station_name":"Manggabesar","distance":906,"i_long":106.82482,"line":2,"time":2,"transit":false},{"line":2,"station_name":"Jayakarta","station_id":"JAY","is_transit":false,"i_lat":-6.141205,"i_long":106.820901,"time":2,"distance":1080,"transit":false},{"is_transit":true,"station_id":"JAKK","i_lat":-6.137569,"station_name":"Jakarta Kota","transit":true,"distance":1264,"i_long":106.812439,"time":4,"line":2},{"i_lat":-6.132549,"is_transit":true,"i_long":106.826365,"transit":true,"line":4,"time":3,"station_id":"KPB","station_name":"Kampung Bandan","distance":1364},{"is_transit":false,"i_long":106.836569,"distance":1444,"i_lat":-6.14505,"line":11,"transit":false,"station_id":"RJW","station_name":"Rajawali","time":3},{"time":5,"transit":false,"station_id":"KMO","is_transit":false,"line":11,"i_lat":-6.161728,"station_name":"Kemayoran","distance":1901,"i_long":106.839204},{"i_long":106.84368,"station_id":"PSE","time":4,"distance":1436,"line":11,"transit":false,"station_name":"Pasar Senen","i_lat":-6.174784,"is_transit":false},{"station_name":"Gang Sentiong","is_transit":false,"i_lat":-6.185975,"time":8,"distance":1567,"transit":false,"line":11,"i_long":106.850107,"station_id":"GST"},{"time":1,"transit":false,"i_lat":-6.193792,"station_id":"KMT","line":11,"i_long":106.855437,"station_name":"Kramat","is_transit":false,"distance":973},{"distance":1829,"is_transit":false,"time":2,"i_lat":-6.209188,"station_id":"POK","transit":false,"line":11,"station_name":"Pondok Jati","i_long":106.861737},{"distance":1236,"i_long":106.86807400000001,"transit":true,"i_lat":-6.215091,"line":1,"is_transit":true,"station_id":"JNG","station_name":"Jatinegara","time":9},{"transit":false,"line":1,"time":3,"station_name":"Klender","i_lat":-6.2135,"station_id":"KLD","is_transit":false,"distance":3395,"i_long":106.899548},{"line":1,"time":2,"is_transit":false,"transit":false,"i_long":106.922662,"distance":3100,"station_name":"Buaran","i_lat":-6.215568,"station_id":"BUA"},{"station_name":"Klenderbaru","station_id":"KLDB","is_transit":false,"time":1,"transit":false,"i_long":106.939679,"line":1,"i_lat":-6.217455,"distance":1305},{"distance":1385,"i_lat":-6.219053,"time":8,"transit":false,"line":1,"station_id":"CUK","i_long":106.951283,"is_transit":false,"station_name":"Cakung"},{"distance":3097,"line":1,"time":3,"transit":false,"i_long":106.977657,"station_id":"KRI","is_transit":false,"i_lat":-6.224515,"station_name":"Kranji"},{"distance":2520,"station_name":"Bekasi","is_transit":false,"time":4,"line":1,"station_id":"BKS","transit":false,"i_lat":-6.236616,"i_long":106.997013},{"time":2,"is_transit":false,"transit":false,"station_id":"BKST","distance":2368,"i_long":107.016735,"line":1,"i_lat":-6.248029,"station_name":"Bekasi Timur"}]]}