{"data":[[{"time":0,"station_id":"KDS","station_name":"Kalideres","distance":0,"i_lat":-6.166068,"i_long":106.701612,"is_transit":false,"transit":false,"line":5},{"line":5,"time":3,"transit":false,"station_id":"RW","distance":2504,"i_long":106.723064,"station_name":"Rawa Buaya","i_lat":-6.162758,"is_transit":false},{"i_lat":-6.159876,"transit":false,"i_long":106.737035,"distance":1152,"is_transit":false,"station_id":"BOI","time":4,"station_name":"Bojongindah","line":5},{"station_id":"TKO","is_transit":false,"distance":2334,"station_name":"Taman Kota","time":2,"transit":false,"i_long":106.756522,"line":5,"i_lat":-6.1587309999999995},{"station_name":"Pesing","i_long":106.771379,"line":5,"i_lat":-6.161433,"time":2,"is_transit":false,"station_id":"PSG","distance":1614,"transit":false}]]}