{"data":[[{"i_long":106.701612,"line":5,"station_name":"Kalideres","distance":0,"transit":false,"is_transit":false,"i_lat":-6.166068,"time":0,"station_id":"KDS"},{"station_name":"Rawa Buaya","i_long":106.723064,"line":5,"is_transit":false,"transit":false,"i_lat":-6.162758,"station_id":"RW","distance":2504,"time":3},{"i_lat":-6.159876,"transit":false,"is_transit":false,"station_id":"BOI","distance":1152,"i_long":106.737035,"line":5,"station_name":"Bojongindah","time":4},{"distance":2334,"line":5,"is_transit":false,"i_lat":-6.1587309999999995,"i_long":106.756522,"transit":false,"time":2,"station_name":"Taman Kota","station_id":"TKO"},{"station_id":"PSG","i_long":106.771379,"is_transit":false,"line":5,"station_name":"Pesing","i_lat":-6.161433,"distance":1614,"transit":false,"time":2},{"station_id":"GRG","station_name":"Grogol","distance":2036,"line":5,"i_long":106.788277,"i_lat":-6.162021,"transit":false,"is_transit":false,"time":2},{"station_name":"Duri","is_transit":true,"distance":1700,"transit":true,"line":1,"station_id":"DU","time":3,"i_lat":-6.155215,"i_long":106.800832},{"i_long":106.79867,"line":1,"i_lat":-6.144674,"station_name":"Angke","is_transit":false,"distance":1230,"transit":false,"station_id":"AK","time":4}],[{"station_name":"Kalideres","is_transit":false,"line":5,"time":0,"transit":false,"distance":0,"i_lat":-6.166068,"station_id":"KDS","i_long":106.701612},{"time":3,"transit":false,"station_name":"Rawa Buaya","station_id":"RW","i_long":106.723064,"line":5,"i_lat":-6.162758,"distance":2504,"is_transit":false},{"is_transit":false,"transit":false,"line":5,"distance":1152,"i_long":106.737035,"i_lat":-6.159876,"station_name":"Bojongindah","time":4,"station_id":"BOI"},{"i_long":106.756522,"station_name":"Taman Kota","time":2,"station_id":"TKO","is_transit":false,"line":5,"distance":2334,"transit":false,"i_lat":-6.1587309999999995},{"transit":false,"time":2,"station_name":"Pesing","station_id":"PSG","is_transit":false,"i_long":106.771379,"distance":1614,"line":5,"i_lat":-6.161433},{"i_lat":-6.162021,"station_name":"Grogol","station_id":"GRG","time":2,"transit":false,"is_transit":false,"i_long":106.788277,"distance":2036,"line":5},{"i_lat":-6.155215,"i_long":106.800832,"station_name":"Duri","line":1,"distance":1700,"transit":true,"station_id":"DU","is_transit":true,"time":3},{"time":8,"station_name":"Tanah Abang","line":1,"station_id":"THB","is_transit":false,"transit":false,"i_long":106.811091,"distance":3632,"i_lat":-6.185545},{"i_lat":-6.20132,"line":1,"station_id":"KAT","distance":2029,"is_transit":false,"transit":false,"time":5,"i_long":106.816351,"station_name":"Karet"},{"line":1,"i_lat":-6.201433,"distance":471,"transit":false,"i_long":106.819881,"station_id":"SUDB","time":1,"station_name":"Sudirman Baru","is_transit":false},{"is_transit":false,"station_name":"Sudirman","distance":280,"station_id":"SUD","transit":false,"time":1,"i_lat":-6.202263,"i_long":106.822649,"line":1},{"distance":3186,"time":4,"i_long":106.84912,"transit":true,"i_lat":-6.209883,"line":2,"is_transit":true,"station_id":"MRI","station_name":"Manggarai"},{"station_id":"CKI","station_name":"Cikini","i_lat":-6.198556,"i_long":106.840169,"distance":1590,"is_transit":false,"time":4,"transit":false,"line":2},{"station_id":"GDD","i_lat":-6.186295,"station_name":"Gondangdia","time":3,"i_long":106.832183,"is_transit":false,"transit":false,"distance":1750,"line":2},{"is_transit":false,"line":2,"i_long":106.828284,"station_name":"Juanda","time":4,"distance":2015,"i_lat":-6.166716,"station_id":"JUA","transit":false},{"i_lat":-6.160725,"is_transit":false,"time":2,"station_name":"Sawah Besar","line":2,"transit":false,"station_id":"SW","distance":1149,"i_long":106.827103},{"station_id":"MGB","transit":false,"station_name":"Manggabesar","i_lat":-6.149769,"line":2,"is_transit":false,"distance":906,"time":2,"i_long":106.82482},{"is_transit":false,"distance":1080,"transit":false,"i_lat":-6.141205,"time":2,"line":2,"station_name":"Jayakarta","i_long":106.820901,"station_id":"JAY"},{"i_lat":-6.137569,"time":4,"i_long":106.812439,"line":2,"station_id":"JAKK","transit":true,"is_transit":true,"station_name":"Jakarta Kota","distance":1264},{"is_transit":true,"transit":true,"station_id":"KPB","station_name":"Kampung Bandan","distance":1364,"i_lat":-6.132549,"i_long":106.826365,"time":3,"line":4},{"transit":false,"i_lat":-6.144674,"station_name":"Angke","line":1,"i_long":106.79867,"station_id":"AK","distance":4102,"is_transit":false,"time":9}],[{"transit":false,"station_id":"KDS","time":0,"i_lat":-6.166068,"i_long":106.701612,"line":5,"station_name":"Kalideres","distance":0,"is_transit":false},{"transit":false,"station_id":"RW","station_name":"Rawa Buaya","i_long":106.723064,"distance":2504,"is_transit":false,"line":5,"time":3,"i_lat":-6.162758},{"time":4,"i_long":106.737035,"transit":false,"station_id":"BOI","distance":1152,"i_lat":-6.159876,"station_name":"Bojongindah","line":5,"is_transit":false},{"distance":2334,"station_id":"TKO","i_lat":-6.1587309999999995,"is_transit":false,"station_name":"Taman Kota","line":5,"i_long":106.756522,"transit":false,"time":2},{"station_name":"Pesing","line":5,"i_lat":-6.161433,"transit":false,"distance":1614,"time":2,"station_id":"PSG","is_transit":false,"i_long":106.771379},{"transit":false,"station_id":"GRG","distance":2036,"is_transit":false,"i_lat":-6.162021,"station_name":"Grogol","line":5,"time":2,"i_long":106.788277},{"station_name":"Duri","transit":true,"i_lat":-6.155215,"is_transit":true,"line":1,"distance":1700,"station_id":"DU","time":3,"i_long":106.800832},{"transit":false,"is_transit":false,"i_long":106.811091,"line":1,"station_name":"Tanah Abang","time":8,"distance":3632,"station_id":"THB","i_lat":-6.185545},{"i_lat":-6.20132,"station_name":"Karet","distance":2029,"station_id":"KAT","transit":false,"time":5,"is_transit":false,"line":1,"i_long":106.816351},{"distance":471,"i_long":106.819881,"i_lat":-6.201433,"line":1,"time":1,"station_name":"Sudirman Baru","transit":false,"station_id":"SUDB","is_transit":false},{"is_transit":false,"i_long":106.822649,"station_id":"SUD","line":1,"station_name":"Sudirman","distance":280,"transit":false,"time":1,"i_lat":-6.202263},{"i_lat":-6.209883,"station_id":"MRI","time":4,"station_name":"Manggarai","distance":3186,"i_long":106.84912,"transit":false,"line":2,"is_transit":false},{"station_id":"MTR","distance":1275,"is_transit":false,"i_long":106.858896,"transit":false,"time":2,"station_name":"Matraman","line":1,"i_lat":-6.212485},{"station_id":"JNG","distance":1377,"transit":true,"i_lat":-6.215091,"time":8,"station_name":"Jatinegara","line":1,"is_transit":true,"i_long":106.86807400000001},{"transit":false,"station_id":"POK","i_lat":-6.209188,"station_name":"Pondok Jati","line":11,"is_transit":false,"time":2,"distance":1236,"i_long":106.861737},{"time":2,"i_lat":-6.193792,"line":11,"is_transit":false,"distance":1829,"station_id":"KMT","transit":false,"station_name":"Kramat","i_long":106.855437},{"station_id":"GST","time":1,"i_long":106.850107,"transit":false,"is_transit":false,"station_name":"Gang Sentiong","distance":973,"i_lat":-6.185975,"line":11},{"i_long":106.84368,"station_id":"PSE","line":11,"time":8,"station_name":"Pasar Senen","distance":1567,"transit":false,"i_lat":-6.174784,"is_transit":false},{"i_long":106.839204,"time":4,"station_id":"KMO","transit":false,"i_lat":-6.161728,"line":11,"is_transit":false,"distance":1436,"station_name":"Kemayoran"},{"station_name":"Rajawali","i_lat":-6.14505,"station_id":"RJW","time":5,"transit":false,"i_long":106.836569,"line":11,"is_transit":false,"distance":1901},{"i_lat":-6.132549,"i_long":106.826365,"transit":true,"time":3,"line":4,"station_id":"KPB","is_transit":true,"distance":1444,"station_name":"Kampung Bandan"},{"is_transit":false,"transit":false,"station_id":"AK","time":9,"station_name":"Angke","distance":4102,"i_lat":-6.144674,"line":1,"i_long":106.79867}]]}