{"data":[[{"i_lat":-6.166068,"is_transit":false,"station_id":"KDS","line":5,"transit":false,"time":0,"station_name":"Kalideres","i_long":106.701612,"distance":0},{"i_long":106.723064,"time":3,"station_name":"Rawa Buaya","distance":2504,"transit":false,"is_transit":false,"station_id":"RW","line":5,"i_lat":-6.162758},{"station_id":"BOI","transit":false,"i_lat":-6.159876,"distance":1152,"is_transit":false,"time":4,"station_name":"Bojongindah","i_long":106.737035,"line":5},{"i_long":106.756522,"distance":2334,"station_name":"Taman Kota","transit":false,"station_id":"TKO","i_lat":-6.1587309999999995,"is_transit":false,"time":2,"line":5},{"i_lat":-6.161433,"distance":1614,"i_long":106.771379,"line":5,"time":2,"station_id":"PSG","transit":false,"is_transit":false,"station_name":"Pesing"},{"i_long":106.788277,"station_name":"Grogol","station_id":"GGL","transit":false,"is_transit":false,"i_lat":-6.162021,"distance":2036,"line":5,"time":2},{"line":1,"i_long":106.800832,"is_transit":true,"time":3,"station_name":"Duri","station_id":"DU","i_lat":-6.155215,"distance":1700,"transit":true},{"time":8,"transit":true,"i_long":106.811091,"distance":3632,"station_id":"THB","station_name":"Tanah Abang","is_transit":true,"i_lat":-6.185545,"line":1},{"distance":3191,"transit":false,"i_long":106.79689,"line":6,"station_name":"Palmerah","is_transit":false,"i_lat":-6.207404,"time":6,"station_id":"PLM"},{"i_long":106.780334,"distance":3737,"is_transit":false,"time":7,"i_lat":-6.237242,"line":6,"station_name":"Kebayoran","station_id":"KBY","transit":false},{"transit":false,"time":8,"line":6,"station_name":"Pondokranji","is_transit":false,"distance":6218,"station_id":"PDJ","i_long":106.74273,"i_lat":-6.276362},{"distance":2179,"time":3,"station_name":"Jurangmangu","is_transit":false,"i_long":106.728916,"line":6,"station_id":"JMU","transit":false,"i_lat":-6.288927},{"station_id":"SDM","line":6,"i_lat":-6.296963,"i_long":106.712277,"is_transit":false,"time":4,"distance":1994,"station_name":"Sudimara","transit":false},{"i_long":106.675475,"station_name":"Rawa Buntu","time":6,"station_id":"RU","line":6,"distance":4566,"transit":false,"is_transit":false,"i_lat":-6.314823},{"i_long":106.66566,"transit":false,"time":4,"line":6,"station_name":"Serpong","is_transit":false,"distance":2413,"station_id":"SRP","i_lat":-6.319871},{"is_transit":false,"time":4,"station_id":"CSK","line":3,"distance":1784,"transit":false,"i_lat":-6.32484,"station_name":"Cisauk","i_long":106.640411},{"station_name":"Cicayur","i_long":106.617853,"station_id":"CC","line":3,"time":4,"is_transit":false,"distance":2519,"transit":false,"i_lat":-6.329547}],[{"station_id":"KDS","time":0,"transit":false,"i_lat":-6.166068,"line":5,"distance":0,"station_name":"Kalideres","is_transit":false,"i_long":106.701612},{"time":3,"station_id":"RW","is_transit":false,"distance":2504,"transit":false,"station_name":"Rawa Buaya","i_lat":-6.162758,"i_long":106.723064,"line":5},{"distance":1152,"station_id":"BOI","is_transit":false,"transit":false,"time":4,"i_long":106.737035,"line":5,"station_name":"Bojongindah","i_lat":-6.159876},{"transit":false,"i_long":106.756522,"station_id":"TKO","time":2,"line":5,"is_transit":false,"station_name":"Taman Kota","distance":2334,"i_lat":-6.1587309999999995},{"i_long":106.771379,"time":2,"i_lat":-6.161433,"is_transit":false,"transit":false,"station_name":"Pesing","distance":1614,"station_id":"PSG","line":5},{"time":2,"station_id":"GGL","i_long":106.788277,"distance":2036,"line":5,"station_name":"Grogol","transit":false,"is_transit":false,"i_lat":-6.162021},{"distance":1700,"is_transit":true,"i_long":106.800832,"line":1,"station_id":"DU","transit":true,"time":3,"i_lat":-6.155215,"station_name":"Duri"},{"line":1,"is_transit":false,"station_id":"AK","transit":false,"i_lat":-6.144674,"i_long":106.79867,"station_name":"Angke","distance":1230,"time":4},{"is_transit":true,"i_lat":-6.132549,"transit":true,"station_name":"Kampung Bandan","time":9,"station_id":"KPB","i_long":106.826365,"distance":4102,"line":4},{"distance":1364,"station_name":"Jakarta Kota","is_transit":true,"transit":true,"i_long":106.812439,"line":2,"i_lat":-6.137569,"time":3,"station_id":"JAKK"},{"station_name":"Jayakarta","i_lat":-6.141205,"time":4,"is_transit":false,"i_long":106.820901,"line":2,"transit":false,"distance":1264,"station_id":"JAY"},{"transit":false,"station_name":"Manggabesar","station_id":"MGB","line":2,"distance":1080,"i_long":106.82482,"is_transit":false,"time":2,"i_lat":-6.149769},{"time":2,"station_name":"Sawah Besar","distance":906,"station_id":"SW","transit":false,"i_long":106.827103,"line":2,"is_transit":false,"i_lat":-6.160725},{"station_name":"Juanda","i_long":106.828284,"distance":1149,"station_id":"JUA","is_transit":false,"i_lat":-6.166716,"line":2,"transit":false,"time":2},{"is_transit":false,"distance":2015,"transit":false,"i_lat":-6.186295,"line":2,"i_long":106.832183,"time":4,"station_name":"Gondangdia","station_id":"GDD"},{"distance":1750,"i_long":106.840169,"station_name":"Cikini","time":3,"i_lat":-6.198556,"is_transit":false,"station_id":"CKI","transit":false,"line":2},{"distance":1590,"line":2,"time":4,"station_id":"MRI","i_long":106.84912,"is_transit":true,"station_name":"Manggarai","transit":true,"i_lat":-6.209883},{"i_long":106.822649,"time":4,"is_transit":false,"distance":3186,"station_name":"Sudirman","station_id":"SUD","transit":false,"i_lat":-6.202263,"line":1},{"line":1,"i_long":106.819881,"station_name":"Sudirman Baru","distance":280,"transit":false,"time":1,"is_transit":false,"station_id":"SUDB","i_lat":-6.201433},{"i_lat":-6.20132,"line":1,"distance":471,"station_name":"Karet","i_long":106.816351,"transit":false,"is_transit":false,"station_id":"KAT","time":1},{"transit":true,"line":1,"is_transit":true,"time":5,"distance":2029,"station_id":"THB","i_long":106.811091,"station_name":"Tanah Abang","i_lat":-6.185545},{"i_long":106.79689,"i_lat":-6.207404,"transit":false,"time":6,"station_name":"Palmerah","station_id":"PLM","line":6,"distance":3191,"is_transit":false},{"station_id":"KBY","line":6,"station_name":"Kebayoran","is_transit":false,"distance":3737,"i_long":106.780334,"time":7,"transit":false,"i_lat":-6.237242},{"is_transit":false,"i_long":106.74273,"line":6,"time":8,"distance":6218,"i_lat":-6.276362,"station_name":"Pondokranji","transit":false,"station_id":"PDJ"},{"transit":false,"i_long":106.728916,"is_transit":false,"distance":2179,"line":6,"time":3,"station_name":"Jurangmangu","station_id":"JMU","i_lat":-6.288927},{"distance":1994,"transit":false,"station_id":"SDM","station_name":"Sudimara","i_long":106.712277,"line":6,"i_lat":-6.296963,"time":4,"is_transit":false},{"transit":false,"station_name":"Rawa Buntu","i_long":106.675475,"is_transit":false,"time":6,"i_lat":-6.314823,"line":6,"distance":4566,"station_id":"RU"},{"station_id":"SRP","distance":2413,"station_name":"Serpong","i_long":106.66566,"time":4,"transit":false,"is_transit":false,"line":6,"i_lat":-6.319871},{"line":3,"station_id":"CSK","i_long":106.640411,"time":4,"i_lat":-6.32484,"transit":false,"station_name":"Cisauk","distance":1784,"is_transit":false},{"i_long":106.617853,"line":3,"i_lat":-6.329547,"station_name":"Cicayur","distance":2519,"is_transit":false,"transit":false,"time":4,"station_id":"CC"}],[{"station_name":"Kalideres","i_lat":-6.166068,"i_long":106.701612,"line":5,"station_id":"KDS","time":0,"distance":0,"is_transit":false,"transit":false},{"i_long":106.723064,"line":5,"transit":false,"time":3,"is_transit":false,"distance":2504,"station_name":"Rawa Buaya","station_id":"RW","i_lat":-6.162758},{"is_transit":false,"time":4,"transit":false,"station_id":"BOI","i_long":106.737035,"station_name":"Bojongindah","line":5,"distance":1152,"i_lat":-6.159876},{"distance":2334,"line":5,"transit":false,"station_name":"Taman Kota","is_transit":false,"station_id":"TKO","i_lat":-6.1587309999999995,"i_long":106.756522,"time":2},{"time":2,"distance":1614,"station_id":"PSG","line":5,"i_lat":-6.161433,"i_long":106.771379,"is_transit":false,"station_name":"Pesing","transit":false},{"transit":false,"i_lat":-6.162021,"station_id":"GGL","line":5,"time":2,"distance":2036,"i_long":106.788277,"is_transit":false,"station_name":"Grogol"},{"station_name":"Duri","transit":true,"i_lat":-6.155215,"line":1,"time":3,"distance":1700,"i_long":106.800832,"is_transit":true,"station_id":"DU"},{"time":4,"line":1,"transit":false,"station_id":"AK","i_long":106.79867,"station_name":"Angke","is_transit":false,"i_lat":-6.144674,"distance":1230},{"distance":4102,"station_id":"KPB","station_name":"Kampung Bandan","transit":true,"line":4,"is_transit":true,"i_long":106.826365,"time":9,"i_lat":-6.132549},{"distance":1444,"station_name":"Rajawali","line":11,"transit":false,"i_long":106.836569,"is_transit":false,"station_id":"RJW","time":3,"i_lat":-6.14505},{"distance":1901,"station_id":"KMO","is_transit":false,"i_lat":-6.161728,"i_long":106.839204,"line":11,"time":5,"station_name":"Kemayoran","transit":false},{"station_name":"Pasar Senen","i_lat":-6.174784,"station_id":"PSE","distance":1436,"is_transit":false,"i_long":106.84368,"time":4,"line":11,"transit":false},{"line":11,"time":8,"i_lat":-6.185975,"i_long":106.850107,"transit":false,"station_name":"Gang Sentiong","is_transit":false,"station_id":"GST","distance":1567},{"distance":973,"is_transit":false,"station_id":"KMT","line":11,"time":1,"station_name":"Kramat","transit":false,"i_lat":-6.193792,"i_long":106.855437},{"line":11,"station_name":"Pondok Jati","station_id":"POK","is_transit":false,"transit":false,"distance":1829,"time":2,"i_lat":-6.209188,"i_long":106.861737},{"i_lat":-6.215091,"time":9,"station_id":"JNG","transit":true,"is_transit":true,"distance":1236,"i_long":106.86807400000001,"line":1,"station_name":"Jatinegara"},{"distance":1377,"line":1,"time":2,"station_name":"Matraman","station_id":"MTR","i_lat":-6.212485,"i_long":106.858896,"transit":false,"is_transit":false},{"distance":1275,"station_name":"Manggarai","i_long":106.84912,"i_lat":-6.209883,"station_id":"MRI","transit":false,"time":2,"line":2,"is_transit":false},{"station_name":"Sudirman","is_transit":false,"station_id":"SUD","i_long":106.822649,"time":4,"line":1,"i_lat":-6.202263,"transit":false,"distance":3186},{"transit":false,"distance":280,"station_id":"SUDB","i_lat":-6.201433,"station_name":"Sudirman Baru","is_transit":false,"time":1,"i_long":106.819881,"line":1},{"line":1,"is_transit":false,"i_lat":-6.20132,"station_id":"KAT","transit":false,"distance":471,"station_name":"Karet","time":1,"i_long":106.816351},{"i_long":106.811091,"station_name":"Tanah Abang","line":1,"distance":2029,"i_lat":-6.185545,"is_transit":true,"time":5,"transit":true,"station_id":"THB"},{"is_transit":false,"time":6,"transit":false,"station_id":"PLM","i_lat":-6.207404,"distance":3191,"i_long":106.79689,"station_name":"Palmerah","line":6},{"line":6,"station_id":"KBY","station_name":"Kebayoran","distance":3737,"time":7,"is_transit":false,"transit":false,"i_long":106.780334,"i_lat":-6.237242},{"distance":6218,"time":8,"i_long":106.74273,"is_transit":false,"transit":false,"i_lat":-6.276362,"station_id":"PDJ","station_name":"Pondokranji","line":6},{"station_id":"JMU","is_transit":false,"i_lat":-6.288927,"i_long":106.728916,"station_name":"Jurangmangu","time":3,"distance":2179,"transit":false,"line":6},{"transit":false,"time":4,"station_id":"SDM","is_transit":false,"station_name":"Sudimara","line":6,"distance":1994,"i_lat":-6.296963,"i_long":106.712277},{"distance":4566,"station_id":"RU","time":6,"line":6,"i_long":106.675475,"transit":false,"is_transit":false,"station_name":"Rawa Buntu","i_lat":-6.314823},{"distance":2413,"i_long":106.66566,"transit":false,"line":6,"station_name":"Serpong","i_lat":-6.319871,"time":4,"is_transit":false,"station_id":"SRP"},{"station_name":"Cisauk","i_long":106.640411,"station_id":"CSK","line":3,"distance":1784,"time":4,"is_transit":false,"i_lat":-6.32484,"transit":false},{"is_transit":false,"i_long":106.617853,"transit":false,"i_lat":-6.329547,"time":4,"distance":2519,"station_id":"CC","line":3,"station_name":"Cicayur"}]]}