{"data":[[{"line":5,"i_long":106.701612,"distance":0,"time":0,"station_id":"KDS","station_name":"Kalideres","is_transit":false,"i_lat":-6.166068,"transit":false},{"i_long":106.723064,"station_name":"Rawa Buaya","transit":false,"i_lat":-6.162758,"distance":2504,"time":3,"station_id":"RW","line":5,"is_transit":false},{"line":5,"transit":false,"station_id":"BOI","i_lat":-6.159876,"distance":1152,"i_long":106.737035,"station_name":"Bojongindah","time":4,"is_transit":false},{"transit":false,"is_transit":false,"station_id":"TKO","time":2,"distance":2334,"station_name":"Taman Kota","i_lat":-6.1587309999999995,"i_long":106.756522,"line":5},{"time":2,"i_long":106.771379,"line":5,"distance":1614,"transit":false,"is_transit":false,"station_id":"PSG","station_name":"Pesing","i_lat":-6.161433},{"is_transit":false,"time":2,"distance":2036,"i_long":106.788277,"station_name":"Grogol","station_id":"GGL","transit":false,"line":5,"i_lat":-6.162021},{"line":1,"i_lat":-6.155215,"distance":1700,"station_name":"Duri","station_id":"DU","transit":true,"time":3,"i_long":106.800832,"is_transit":true},{"i_lat":-6.185545,"transit":true,"station_name":"Tanah Abang","station_id":"THB","is_transit":true,"i_long":106.811091,"distance":3632,"line":1,"time":8},{"station_id":"PLM","i_long":106.79689,"distance":3191,"station_name":"Palmerah","i_lat":-6.207404,"transit":false,"time":6,"is_transit":false,"line":6},{"line":6,"time":7,"distance":3737,"is_transit":false,"station_id":"KBY","transit":false,"station_name":"Kebayoran","i_lat":-6.237242,"i_long":106.780334},{"station_id":"PDJ","time":8,"transit":false,"line":6,"station_name":"Pondokranji","distance":6218,"i_lat":-6.276362,"i_long":106.74273,"is_transit":false},{"station_name":"Jurangmangu","transit":false,"is_transit":false,"distance":2179,"i_lat":-6.288927,"line":6,"station_id":"JMU","i_long":106.728916,"time":3},{"i_lat":-6.296963,"time":4,"distance":1994,"is_transit":false,"station_name":"Sudimara","transit":false,"station_id":"SDM","i_long":106.712277,"line":6},{"i_lat":-6.314823,"distance":4566,"i_long":106.675475,"station_name":"Rawa Buntu","time":6,"line":6,"station_id":"RU","is_transit":false,"transit":false},{"is_transit":false,"distance":2413,"station_id":"SRP","i_lat":-6.319871,"i_long":106.66566,"station_name":"Serpong","time":4,"transit":false,"line":6},{"distance":1784,"station_name":"Cisauk","station_id":"CSK","i_lat":-6.32484,"i_long":106.640411,"line":3,"is_transit":false,"transit":false,"time":4},{"time":4,"line":3,"station_name":"Cicayur","distance":2519,"transit":false,"station_id":"CC","i_long":106.617853,"is_transit":false,"i_lat":-6.329547},{"time":8,"station_id":"PRP","i_long":106.568863,"i_lat":-6.3441410000000005,"line":6,"transit":false,"is_transit":false,"distance":5968,"station_name":"Parung Panjang"},{"distance":7025,"time":9,"station_name":"Cilejit","i_lat":-6.354349,"transit":false,"is_transit":false,"station_id":"CJT","i_long":106.508482,"line":3},{"distance":2675,"i_lat":-6.338021,"transit":false,"i_long":106.491338,"is_transit":false,"station_id":"DAR","station_name":"Daru","line":0,"time":6},{"station_id":"TEJ","time":5,"transit":false,"distance":3902,"i_lat":-6.327251,"station_name":"Tenjo","i_long":106.460812,"line":6,"is_transit":false},{"distance":2974,"transit":false,"station_id":"TGS","time":5,"station_name":"Tigaraksa","i_lat":-6.328533,"i_long":106.425991,"line":6,"is_transit":false},{"distance":2651,"station_id":"CKY","transit":false,"is_transit":false,"i_long":106.411216,"i_lat":-6.33561,"station_name":"Cikoya","time":3,"line":3}],[{"is_transit":false,"transit":false,"station_name":"Kalideres","i_lat":-6.166068,"station_id":"KDS","i_long":106.701612,"line":5,"time":0,"distance":0},{"station_name":"Rawa Buaya","line":5,"i_lat":-6.162758,"transit":false,"i_long":106.723064,"time":3,"distance":2504,"is_transit":false,"station_id":"RW"},{"transit":false,"station_id":"BOI","is_transit":false,"i_lat":-6.159876,"line":5,"i_long":106.737035,"time":4,"distance":1152,"station_name":"Bojongindah"},{"line":5,"station_id":"TKO","distance":2334,"i_lat":-6.1587309999999995,"station_name":"Taman Kota","is_transit":false,"transit":false,"i_long":106.756522,"time":2},{"time":2,"distance":1614,"transit":false,"station_id":"PSG","is_transit":false,"i_lat":-6.161433,"i_long":106.771379,"line":5,"station_name":"Pesing"},{"distance":2036,"is_transit":false,"transit":false,"station_name":"Grogol","station_id":"GGL","i_long":106.788277,"line":5,"i_lat":-6.162021,"time":2},{"line":1,"time":3,"distance":1700,"station_name":"Duri","station_id":"DU","is_transit":true,"transit":true,"i_lat":-6.155215,"i_long":106.800832},{"station_name":"Angke","transit":false,"is_transit":false,"distance":1230,"line":1,"i_lat":-6.144674,"i_long":106.79867,"time":4,"station_id":"AK"},{"i_long":106.826365,"line":4,"i_lat":-6.132549,"station_id":"KPB","transit":true,"distance":4102,"time":9,"is_transit":true,"station_name":"Kampung Bandan"},{"station_id":"JAKK","is_transit":true,"i_lat":-6.137569,"time":3,"station_name":"Jakarta Kota","transit":true,"i_long":106.812439,"line":2,"distance":1364},{"time":4,"line":2,"is_transit":false,"transit":false,"station_id":"JAY","i_lat":-6.141205,"distance":1264,"i_long":106.820901,"station_name":"Jayakarta"},{"station_name":"Manggabesar","line":2,"i_long":106.82482,"transit":false,"station_id":"MGB","i_lat":-6.149769,"distance":1080,"time":2,"is_transit":false},{"transit":false,"distance":906,"station_name":"Sawah Besar","line":2,"station_id":"SW","i_lat":-6.160725,"time":2,"i_long":106.827103,"is_transit":false},{"is_transit":false,"station_name":"Juanda","line":2,"transit":false,"i_long":106.828284,"distance":1149,"station_id":"JUA","i_lat":-6.166716,"time":2},{"station_id":"GDD","station_name":"Gondangdia","distance":2015,"time":4,"i_long":106.832183,"is_transit":false,"line":2,"i_lat":-6.186295,"transit":false},{"time":3,"line":2,"distance":1750,"is_transit":false,"station_name":"Cikini","i_lat":-6.198556,"transit":false,"station_id":"CKI","i_long":106.840169},{"i_lat":-6.209883,"i_long":106.84912,"station_name":"Manggarai","line":2,"distance":1590,"is_transit":true,"station_id":"MRI","transit":true,"time":4},{"distance":3186,"station_id":"SUD","time":4,"line":1,"is_transit":false,"station_name":"Sudirman","transit":false,"i_lat":-6.202263,"i_long":106.822649},{"i_lat":-6.201433,"station_id":"SUDB","distance":280,"time":1,"line":1,"i_long":106.819881,"transit":false,"station_name":"Sudirman Baru","is_transit":false},{"is_transit":false,"line":1,"transit":false,"distance":471,"time":1,"station_name":"Karet","station_id":"KAT","i_long":106.816351,"i_lat":-6.20132},{"station_name":"Tanah Abang","station_id":"THB","is_transit":true,"time":5,"i_lat":-6.185545,"transit":true,"i_long":106.811091,"line":1,"distance":2029},{"i_lat":-6.207404,"time":6,"is_transit":false,"i_long":106.79689,"station_name":"Palmerah","distance":3191,"transit":false,"line":6,"station_id":"PLM"},{"is_transit":false,"distance":3737,"time":7,"station_id":"KBY","i_lat":-6.237242,"line":6,"transit":false,"i_long":106.780334,"station_name":"Kebayoran"},{"time":8,"transit":false,"station_name":"Pondokranji","station_id":"PDJ","line":6,"is_transit":false,"distance":6218,"i_lat":-6.276362,"i_long":106.74273},{"distance":2179,"station_name":"Jurangmangu","transit":false,"is_transit":false,"i_long":106.728916,"line":6,"station_id":"JMU","time":3,"i_lat":-6.288927},{"station_id":"SDM","time":4,"line":6,"station_name":"Sudimara","distance":1994,"i_lat":-6.296963,"transit":false,"is_transit":false,"i_long":106.712277},{"i_long":106.675475,"line":6,"i_lat":-6.314823,"time":6,"station_name":"Rawa Buntu","transit":false,"is_transit":false,"distance":4566,"station_id":"RU"},{"distance":2413,"station_id":"SRP","time":4,"i_lat":-6.319871,"i_long":106.66566,"is_transit":false,"line":6,"station_name":"Serpong","transit":false},{"transit":false,"station_name":"Cisauk","i_long":106.640411,"station_id":"CSK","distance":1784,"i_lat":-6.32484,"time":4,"line":3,"is_transit":false},{"distance":2519,"i_lat":-6.329547,"i_long":106.617853,"station_name":"Cicayur","station_id":"CC","time":4,"transit":false,"line":3,"is_transit":false},{"station_name":"Parung Panjang","station_id":"PRP","i_lat":-6.3441410000000005,"transit":false,"time":8,"line":6,"is_transit":false,"distance":5968,"i_long":106.568863},{"station_id":"CJT","distance":7025,"is_transit":false,"i_long":106.508482,"station_name":"Cilejit","time":9,"i_lat":-6.354349,"line":3,"transit":false},{"station_id":"DAR","time":6,"is_transit":false,"distance":2675,"transit":false,"i_long":106.491338,"station_name":"Daru","i_lat":-6.338021,"line":0},{"i_long":106.460812,"station_id":"TEJ","transit":false,"is_transit":false,"distance":3902,"station_name":"Tenjo","i_lat":-6.327251,"line":6,"time":5},{"station_id":"TGS","i_lat":-6.328533,"transit":false,"is_transit":false,"i_long":106.425991,"line":6,"distance":2974,"time":5,"station_name":"Tigaraksa"},{"station_id":"CKY","station_name":"Cikoya","time":3,"line":3,"i_long":106.411216,"i_lat":-6.33561,"transit":false,"is_transit":false,"distance":2651}],[{"distance":0,"transit":false,"station_name":"Kalideres","i_long":106.701612,"time":0,"station_id":"KDS","is_transit":false,"i_lat":-6.166068,"line":5},{"time":3,"i_lat":-6.162758,"transit":false,"station_name":"Rawa Buaya","is_transit":false,"station_id":"RW","distance":2504,"i_long":106.723064,"line":5},{"station_id":"BOI","i_lat":-6.159876,"distance":1152,"i_long":106.737035,"line":5,"station_name":"Bojongindah","is_transit":false,"time":4,"transit":false},{"i_long":106.756522,"line":5,"distance":2334,"station_id":"TKO","time":2,"is_transit":false,"i_lat":-6.1587309999999995,"transit":false,"station_name":"Taman Kota"},{"station_id":"PSG","time":2,"transit":false,"i_lat":-6.161433,"distance":1614,"i_long":106.771379,"line":5,"is_transit":false,"station_name":"Pesing"},{"is_transit":false,"i_lat":-6.162021,"station_name":"Grogol","line":5,"transit":false,"i_long":106.788277,"station_id":"GGL","distance":2036,"time":2},{"line":1,"station_id":"DU","transit":true,"is_transit":true,"i_long":106.800832,"time":3,"i_lat":-6.155215,"station_name":"Duri","distance":1700},{"station_name":"Angke","station_id":"AK","is_transit":false,"time":4,"distance":1230,"transit":false,"i_lat":-6.144674,"i_long":106.79867,"line":1},{"time":9,"is_transit":true,"distance":4102,"station_id":"KPB","i_long":106.826365,"i_lat":-6.132549,"line":4,"transit":true,"station_name":"Kampung Bandan"},{"i_long":106.836569,"transit":false,"station_id":"RJW","is_transit":false,"distance":1444,"time":3,"line":11,"station_name":"Rajawali","i_lat":-6.14505},{"i_lat":-6.161728,"station_name":"Kemayoran","is_transit":false,"distance":1901,"transit":false,"time":5,"station_id":"KMO","i_long":106.839204,"line":11},{"transit":false,"station_id":"PSE","i_long":106.84368,"distance":1436,"line":11,"is_transit":false,"time":4,"station_name":"Pasar Senen","i_lat":-6.174784},{"is_transit":false,"distance":1567,"station_name":"Gang Sentiong","i_long":106.850107,"station_id":"GST","transit":false,"time":8,"i_lat":-6.185975,"line":11},{"distance":973,"time":1,"i_lat":-6.193792,"transit":false,"station_id":"KMT","is_transit":false,"i_long":106.855437,"line":11,"station_name":"Kramat"},{"is_transit":false,"i_lat":-6.209188,"transit":false,"time":2,"station_name":"Pondok Jati","distance":1829,"station_id":"POK","line":11,"i_long":106.861737},{"station_name":"Jatinegara","time":9,"distance":1236,"transit":true,"station_id":"JNG","is_transit":true,"i_lat":-6.215091,"i_long":106.86807400000001,"line":1},{"i_long":106.858896,"transit":false,"i_lat":-6.212485,"station_name":"Matraman","line":1,"station_id":"MTR","is_transit":false,"time":2,"distance":1377},{"station_name":"Manggarai","transit":false,"i_lat":-6.209883,"line":2,"station_id":"MRI","time":2,"distance":1275,"is_transit":false,"i_long":106.84912},{"distance":3186,"station_name":"Sudirman","i_long":106.822649,"is_transit":false,"line":1,"i_lat":-6.202263,"time":4,"station_id":"SUD","transit":false},{"transit":false,"distance":280,"i_lat":-6.201433,"line":1,"station_id":"SUDB","time":1,"station_name":"Sudirman Baru","i_long":106.819881,"is_transit":false},{"i_lat":-6.20132,"time":1,"i_long":106.816351,"station_id":"KAT","line":1,"distance":471,"is_transit":false,"transit":false,"station_name":"Karet"},{"station_name":"Tanah Abang","is_transit":true,"line":1,"transit":true,"distance":2029,"time":5,"i_lat":-6.185545,"station_id":"THB","i_long":106.811091},{"line":6,"i_long":106.79689,"is_transit":false,"transit":false,"station_name":"Palmerah","station_id":"PLM","distance":3191,"time":6,"i_lat":-6.207404},{"line":6,"is_transit":false,"i_long":106.780334,"transit":false,"distance":3737,"time":7,"station_id":"KBY","station_name":"Kebayoran","i_lat":-6.237242},{"time":8,"i_long":106.74273,"station_id":"PDJ","i_lat":-6.276362,"distance":6218,"transit":false,"station_name":"Pondokranji","is_transit":false,"line":6},{"line":6,"time":3,"transit":false,"is_transit":false,"i_lat":-6.288927,"i_long":106.728916,"station_name":"Jurangmangu","distance":2179,"station_id":"JMU"},{"station_id":"SDM","line":6,"is_transit":false,"i_lat":-6.296963,"station_name":"Sudimara","i_long":106.712277,"transit":false,"distance":1994,"time":4},{"is_transit":false,"station_name":"Rawa Buntu","station_id":"RU","time":6,"transit":false,"i_long":106.675475,"distance":4566,"i_lat":-6.314823,"line":6},{"station_id":"SRP","transit":false,"distance":2413,"time":4,"is_transit":false,"station_name":"Serpong","i_lat":-6.319871,"i_long":106.66566,"line":6},{"transit":false,"station_name":"Cisauk","station_id":"CSK","is_transit":false,"distance":1784,"i_lat":-6.32484,"i_long":106.640411,"time":4,"line":3},{"station_name":"Cicayur","is_transit":false,"distance":2519,"time":4,"line":3,"station_id":"CC","transit":false,"i_lat":-6.329547,"i_long":106.617853},{"station_id":"PRP","i_lat":-6.3441410000000005,"is_transit":false,"line":6,"time":8,"distance":5968,"i_long":106.568863,"transit":false,"station_name":"Parung Panjang"},{"time":9,"is_transit":false,"line":3,"transit":false,"i_lat":-6.354349,"station_id":"CJT","station_name":"Cilejit","distance":7025,"i_long":106.508482},{"i_long":106.491338,"station_id":"DAR","is_transit":false,"line":0,"distance":2675,"i_lat":-6.338021,"transit":false,"station_name":"Daru","time":6},{"i_lat":-6.327251,"station_id":"TEJ","distance":3902,"i_long":106.460812,"line":6,"transit":false,"station_name":"Tenjo","is_transit":false,"time":5},{"i_long":106.425991,"line":6,"time":5,"is_transit":false,"transit":false,"station_name":"Tigaraksa","station_id":"TGS","distance":2974,"i_lat":-6.328533},{"time":3,"distance":2651,"station_name":"Cikoya","station_id":"CKY","is_transit":false,"i_long":106.411216,"i_lat":-6.33561,"transit":false,"line":3}]]}