{"data":[[{"is_transit":false,"i_long":106.701612,"transit":false,"station_id":"KDS","line":5,"station_name":"Kalideres","i_lat":-6.166068,"distance":0,"time":0},{"line":5,"i_long":106.723064,"is_transit":false,"station_name":"Rawa Buaya","time":3,"station_id":"RW","i_lat":-6.162758,"transit":false,"distance":2504},{"time":4,"is_transit":false,"distance":1152,"transit":false,"i_lat":-6.159876,"station_name":"Bojongindah","line":5,"station_id":"BOI","i_long":106.737035},{"i_lat":-6.1587309999999995,"distance":2334,"station_name":"Taman Kota","i_long":106.756522,"station_id":"TKO","time":2,"line":5,"transit":false,"is_transit":false},{"line":5,"i_long":106.771379,"station_id":"PSG","distance":1614,"transit":false,"i_lat":-6.161433,"station_name":"Pesing","is_transit":false,"time":2},{"is_transit":false,"transit":false,"station_name":"Grogol","time":2,"i_lat":-6.162021,"line":5,"i_long":106.788277,"distance":2036,"station_id":"GGL"},{"transit":true,"station_name":"Duri","time":3,"is_transit":true,"station_id":"DU","i_lat":-6.155215,"i_long":106.800832,"line":1,"distance":1700},{"station_name":"Tanah Abang","is_transit":false,"i_lat":-6.185545,"i_long":106.811091,"line":1,"station_id":"THB","distance":3632,"time":8,"transit":false},{"transit":false,"station_name":"Karet","i_lat":-6.20132,"i_long":106.816351,"line":1,"station_id":"KAT","time":5,"is_transit":false,"distance":2029},{"i_long":106.819881,"transit":false,"station_name":"Sudirman Baru","station_id":"SUDB","i_lat":-6.201433,"line":1,"time":1,"is_transit":false,"distance":471},{"is_transit":false,"line":1,"station_name":"Sudirman","time":1,"station_id":"SUD","i_long":106.822649,"distance":280,"transit":false,"i_lat":-6.202263},{"station_id":"MRI","distance":3186,"i_long":106.84912,"line":2,"is_transit":false,"i_lat":-6.209883,"transit":false,"station_name":"Manggarai","time":4},{"time":2,"station_name":"Matraman","i_long":106.858896,"is_transit":false,"station_id":"MTR","i_lat":-6.212485,"line":1,"distance":1275,"transit":false}],[{"station_id":"KDS","station_name":"Kalideres","i_long":106.701612,"transit":false,"time":0,"is_transit":false,"line":5,"distance":0,"i_lat":-6.166068},{"i_lat":-6.162758,"station_name":"Rawa Buaya","time":3,"line":5,"station_id":"RW","transit":false,"is_transit":false,"i_long":106.723064,"distance":2504},{"transit":false,"distance":1152,"station_name":"Bojongindah","time":4,"i_long":106.737035,"is_transit":false,"i_lat":-6.159876,"station_id":"BOI","line":5},{"i_long":106.756522,"station_name":"Taman Kota","line":5,"distance":2334,"is_transit":false,"i_lat":-6.1587309999999995,"time":2,"station_id":"TKO","transit":false},{"station_id":"PSG","distance":1614,"i_lat":-6.161433,"i_long":106.771379,"time":2,"transit":false,"station_name":"Pesing","is_transit":false,"line":5},{"transit":false,"is_transit":false,"time":2,"i_long":106.788277,"station_name":"Grogol","line":5,"station_id":"GGL","distance":2036,"i_lat":-6.162021},{"i_long":106.800832,"is_transit":true,"station_id":"DU","line":1,"transit":true,"station_name":"Duri","distance":1700,"time":3,"i_lat":-6.155215},{"station_id":"AK","station_name":"Angke","time":4,"i_long":106.79867,"transit":false,"is_transit":false,"i_lat":-6.144674,"distance":1230,"line":1},{"transit":true,"station_name":"Kampung Bandan","station_id":"KPB","i_lat":-6.132549,"distance":4102,"i_long":106.826365,"is_transit":true,"time":9,"line":4},{"i_lat":-6.14505,"station_name":"Rajawali","station_id":"RJW","transit":false,"i_long":106.836569,"is_transit":false,"time":3,"line":11,"distance":1444},{"line":11,"i_lat":-6.161728,"is_transit":false,"transit":false,"station_id":"KMO","distance":1901,"station_name":"Kemayoran","i_long":106.839204,"time":5},{"station_id":"PSE","station_name":"Pasar Senen","i_long":106.84368,"transit":false,"is_transit":false,"i_lat":-6.174784,"distance":1436,"time":4,"line":11},{"line":11,"station_name":"Gang Sentiong","is_transit":false,"i_long":106.850107,"time":8,"station_id":"GST","transit":false,"distance":1567,"i_lat":-6.185975},{"time":1,"is_transit":false,"line":11,"distance":973,"i_lat":-6.193792,"station_id":"KMT","i_long":106.855437,"transit":false,"station_name":"Kramat"},{"line":11,"station_name":"Pondok Jati","is_transit":false,"time":2,"i_lat":-6.209188,"station_id":"POK","transit":false,"distance":1829,"i_long":106.861737},{"station_name":"Jatinegara","line":1,"time":9,"transit":true,"distance":1236,"is_transit":true,"station_id":"JNG","i_lat":-6.215091,"i_long":106.86807400000001},{"station_id":"MTR","transit":false,"time":2,"i_long":106.858896,"distance":1377,"line":1,"is_transit":false,"i_lat":-6.212485,"station_name":"Matraman"}],[{"station_id":"KDS","distance":0,"is_transit":false,"i_long":106.701612,"time":0,"station_name":"Kalideres","line":5,"i_lat":-6.166068,"transit":false},{"is_transit":false,"station_name":"Rawa Buaya","time":3,"station_id":"RW","i_lat":-6.162758,"i_long":106.723064,"line":5,"transit":false,"distance":2504},{"time":4,"transit":false,"is_transit":false,"station_id":"BOI","station_name":"Bojongindah","i_long":106.737035,"distance":1152,"line":5,"i_lat":-6.159876},{"time":2,"i_lat":-6.1587309999999995,"distance":2334,"line":5,"i_long":106.756522,"station_id":"TKO","station_name":"Taman Kota","is_transit":false,"transit":false},{"time":2,"i_lat":-6.161433,"i_long":106.771379,"transit":false,"station_name":"Pesing","is_transit":false,"line":5,"distance":1614,"station_id":"PSG"},{"station_name":"Grogol","time":2,"is_transit":false,"i_lat":-6.162021,"i_long":106.788277,"line":5,"transit":false,"station_id":"GGL","distance":2036},{"i_long":106.800832,"transit":true,"station_name":"Duri","is_transit":true,"i_lat":-6.155215,"station_id":"DU","time":3,"line":1,"distance":1700},{"station_id":"AK","transit":false,"distance":1230,"i_lat":-6.144674,"i_long":106.79867,"time":4,"line":1,"station_name":"Angke","is_transit":false},{"time":9,"distance":4102,"station_name":"Kampung Bandan","i_lat":-6.132549,"station_id":"KPB","i_long":106.826365,"line":4,"transit":true,"is_transit":true},{"distance":1364,"is_transit":true,"station_id":"JAKK","line":2,"station_name":"Jakarta Kota","time":3,"transit":true,"i_lat":-6.137569,"i_long":106.812439},{"line":2,"time":4,"distance":1264,"station_id":"JAY","is_transit":false,"station_name":"Jayakarta","i_long":106.820901,"transit":false,"i_lat":-6.141205},{"station_id":"MGB","line":2,"is_transit":false,"time":2,"i_lat":-6.149769,"station_name":"Manggabesar","transit":false,"i_long":106.82482,"distance":1080},{"i_lat":-6.160725,"distance":906,"transit":false,"station_name":"Sawah Besar","time":2,"is_transit":false,"station_id":"SW","i_long":106.827103,"line":2},{"is_transit":false,"distance":1149,"line":2,"station_name":"Juanda","time":2,"i_lat":-6.166716,"i_long":106.828284,"transit":false,"station_id":"JUA"},{"i_lat":-6.186295,"time":4,"i_long":106.832183,"transit":false,"is_transit":false,"distance":2015,"line":2,"station_id":"GDD","station_name":"Gondangdia"},{"time":3,"line":2,"is_transit":false,"i_long":106.840169,"distance":1750,"station_name":"Cikini","transit":false,"i_lat":-6.198556,"station_id":"CKI"},{"is_transit":true,"i_long":106.84912,"distance":1590,"time":4,"station_name":"Manggarai","transit":true,"line":2,"i_lat":-6.209883,"station_id":"MRI"},{"is_transit":false,"station_id":"MTR","i_long":106.858896,"time":2,"line":1,"station_name":"Matraman","i_lat":-6.212485,"distance":1275,"transit":false}],[{"time":0,"line":5,"distance":0,"station_id":"KDS","station_name":"Kalideres","i_lat":-6.166068,"transit":false,"is_transit":false,"i_long":106.701612},{"station_name":"Rawa Buaya","time":3,"line":5,"i_long":106.723064,"i_lat":-6.162758,"station_id":"RW","is_transit":false,"distance":2504,"transit":false},{"line":5,"is_transit":false,"time":4,"station_name":"Bojongindah","transit":false,"i_lat":-6.159876,"distance":1152,"i_long":106.737035,"station_id":"BOI"},{"line":5,"time":2,"transit":false,"i_long":106.756522,"station_name":"Taman Kota","is_transit":false,"distance":2334,"i_lat":-6.1587309999999995,"station_id":"TKO"},{"is_transit":false,"i_lat":-6.161433,"distance":1614,"time":2,"station_name":"Pesing","transit":false,"station_id":"PSG","line":5,"i_long":106.771379},{"distance":2036,"i_lat":-6.162021,"line":5,"station_id":"GGL","i_long":106.788277,"station_name":"Grogol","time":2,"is_transit":false,"transit":false},{"distance":1700,"transit":true,"time":3,"i_long":106.800832,"line":1,"station_id":"DU","station_name":"Duri","i_lat":-6.155215,"is_transit":true},{"station_name":"Tanah Abang","time":8,"line":1,"station_id":"THB","i_long":106.811091,"transit":false,"i_lat":-6.185545,"is_transit":false,"distance":3632},{"transit":false,"line":1,"station_id":"KAT","station_name":"Karet","time":5,"is_transit":false,"distance":2029,"i_lat":-6.20132,"i_long":106.816351},{"station_id":"SUDB","i_long":106.819881,"station_name":"Sudirman Baru","transit":false,"line":1,"time":1,"distance":471,"is_transit":false,"i_lat":-6.201433},{"transit":false,"line":1,"distance":280,"i_long":106.822649,"station_name":"Sudirman","time":1,"is_transit":false,"station_id":"SUD","i_lat":-6.202263},{"is_transit":true,"station_name":"Manggarai","station_id":"MRI","transit":true,"time":4,"distance":3186,"i_lat":-6.209883,"line":2,"i_long":106.84912},{"distance":1590,"i_long":106.840169,"transit":false,"i_lat":-6.198556,"station_id":"CKI","station_name":"Cikini","time":4,"line":2,"is_transit":false},{"line":2,"time":3,"station_name":"Gondangdia","is_transit":false,"station_id":"GDD","transit":false,"distance":1750,"i_lat":-6.186295,"i_long":106.832183},{"i_long":106.828284,"is_transit":false,"time":4,"distance":2015,"station_name":"Juanda","station_id":"JUA","transit":false,"i_lat":-6.166716,"line":2},{"distance":1149,"transit":false,"i_lat":-6.160725,"time":2,"is_transit":false,"line":2,"station_name":"Sawah Besar","station_id":"SW","i_long":106.827103},{"time":2,"is_transit":false,"i_long":106.82482,"line":2,"transit":false,"distance":906,"i_lat":-6.149769,"station_id":"MGB","station_name":"Manggabesar"},{"station_id":"JAY","station_name":"Jayakarta","line":2,"time":2,"transit":false,"i_long":106.820901,"is_transit":false,"i_lat":-6.141205,"distance":1080},{"transit":true,"station_name":"Jakarta Kota","i_lat":-6.137569,"i_long":106.812439,"time":4,"is_transit":true,"line":2,"distance":1264,"station_id":"JAKK"},{"station_name":"Kampung Bandan","transit":true,"station_id":"KPB","time":3,"i_long":106.826365,"distance":1364,"line":4,"is_transit":true,"i_lat":-6.132549},{"i_lat":-6.14505,"distance":1444,"line":11,"is_transit":false,"station_name":"Rajawali","station_id":"RJW","time":3,"i_long":106.836569,"transit":false},{"transit":false,"station_name":"Kemayoran","i_lat":-6.161728,"distance":1901,"time":5,"station_id":"KMO","i_long":106.839204,"line":11,"is_transit":false},{"distance":1436,"station_name":"Pasar Senen","is_transit":false,"i_long":106.84368,"line":11,"station_id":"PSE","transit":false,"i_lat":-6.174784,"time":4},{"is_transit":false,"i_lat":-6.185975,"distance":1567,"time":8,"line":11,"transit":false,"i_long":106.850107,"station_id":"GST","station_name":"Gang Sentiong"},{"time":1,"station_name":"Kramat","distance":973,"is_transit":false,"i_lat":-6.193792,"station_id":"KMT","transit":false,"line":11,"i_long":106.855437},{"station_name":"Pondok Jati","station_id":"POK","time":2,"i_long":106.861737,"line":11,"transit":false,"distance":1829,"is_transit":false,"i_lat":-6.209188},{"station_id":"JNG","time":9,"is_transit":true,"line":1,"distance":1236,"station_name":"Jatinegara","i_long":106.86807400000001,"i_lat":-6.215091,"transit":true},{"line":1,"time":2,"is_transit":false,"transit":false,"i_lat":-6.212485,"station_id":"MTR","distance":1377,"station_name":"Matraman","i_long":106.858896}]]}