{"data":[[{"distance":0,"i_long":106.701612,"time":0,"transit":false,"i_lat":-6.166068,"is_transit":false,"station_id":"KDS","station_name":"Kalideres","line":5},{"i_long":106.723064,"time":3,"station_name":"Rawa Buaya","i_lat":-6.162758,"line":5,"distance":2504,"station_id":"RW","is_transit":false,"transit":false},{"transit":false,"is_transit":false,"station_name":"Bojongindah","i_long":106.737035,"time":4,"line":0,"distance":1152,"station_id":"BOI","i_lat":-6.159876},{"transit":false,"station_name":"Taman Kota","station_id":"TKO","i_lat":-6.1587309999999995,"line":5,"is_transit":false,"i_long":106.756522,"time":2,"distance":2334},{"i_long":106.771379,"i_lat":-6.161433,"line":5,"transit":false,"station_id":"PSG","time":2,"station_name":"Pesing","distance":1614,"is_transit":false},{"distance":2036,"station_name":"Grogol","station_id":"GGL","is_transit":false,"i_long":106.788277,"i_lat":-6.162021,"transit":false,"time":2,"line":5},{"station_name":"Duri","line":1,"i_lat":-6.155215,"transit":true,"station_id":"DU","is_transit":true,"i_long":106.800832,"distance":1700,"time":3},{"transit":false,"time":8,"i_lat":-6.185545,"line":1,"distance":3632,"station_id":"THB","i_long":106.811091,"station_name":"Tanah Abang","is_transit":true},{"time":5,"distance":2029,"station_id":"KAT","i_lat":-6.20132,"i_long":106.816351,"station_name":"Karet","transit":false,"line":1,"is_transit":false},{"line":1,"time":1,"is_transit":false,"station_id":"SUDB","i_lat":-6.201433,"transit":false,"i_long":106.819881,"distance":471,"station_name":"Sudirman Baru"},{"is_transit":false,"time":1,"transit":false,"station_name":"Sudirman","i_lat":-6.202263,"line":1,"i_long":106.822649,"distance":280,"station_id":"SUD"}],[{"time":0,"transit":false,"i_lat":-6.166068,"is_transit":false,"distance":0,"station_id":"KDS","i_long":106.701612,"station_name":"Kalideres","line":5},{"distance":2504,"is_transit":false,"i_lat":-6.162758,"station_name":"Rawa Buaya","time":3,"station_id":"RW","line":5,"transit":false,"i_long":106.723064},{"line":0,"i_lat":-6.159876,"station_name":"Bojongindah","transit":false,"i_long":106.737035,"time":4,"station_id":"BOI","distance":1152,"is_transit":false},{"station_id":"TKO","is_transit":false,"i_lat":-6.1587309999999995,"line":5,"distance":2334,"transit":false,"i_long":106.756522,"time":2,"station_name":"Taman Kota"},{"time":2,"line":5,"i_long":106.771379,"station_id":"PSG","i_lat":-6.161433,"is_transit":false,"transit":false,"distance":1614,"station_name":"Pesing"},{"transit":false,"line":5,"distance":2036,"station_id":"GGL","i_lat":-6.162021,"i_long":106.788277,"time":2,"is_transit":false,"station_name":"Grogol"},{"time":3,"distance":1700,"is_transit":true,"i_lat":-6.155215,"line":1,"station_name":"Duri","transit":true,"i_long":106.800832,"station_id":"DU"},{"transit":false,"line":0,"station_name":"Angke","i_long":106.79867,"i_lat":-6.144674,"station_id":"AK","is_transit":false,"time":4,"distance":1230},{"transit":false,"is_transit":true,"distance":4102,"i_long":106.826365,"line":0,"i_lat":-6.132549,"station_name":"Kampung Bandan","station_id":"KPB","time":9},{"station_name":"Jakarta Kota","time":3,"line":0,"distance":1364,"transit":true,"station_id":"JAKK","i_lat":-6.137569,"is_transit":true,"i_long":106.812439},{"transit":false,"is_transit":false,"line":7,"station_id":"JAY","distance":1264,"time":4,"i_long":106.820901,"i_lat":-6.141205,"station_name":"Jayakarta"},{"transit":false,"station_name":"Manggabesar","time":2,"distance":1080,"line":2,"is_transit":false,"i_lat":-6.149769,"i_long":106.82482,"station_id":"MGB"},{"transit":false,"is_transit":false,"distance":906,"i_lat":-6.160725,"line":2,"time":2,"station_name":"Sawah Besar","i_long":106.827103,"station_id":"SW"},{"station_name":"Juanda","i_lat":-6.166716,"line":2,"station_id":"JUA","i_long":106.828284,"distance":1149,"is_transit":false,"transit":false,"time":2},{"i_long":106.832183,"distance":2015,"is_transit":false,"line":2,"i_lat":-6.186295,"station_id":"GDD","station_name":"Gondangdia","time":4,"transit":false},{"i_long":106.840169,"distance":1750,"transit":false,"line":0,"station_id":"CKI","station_name":"Cikini","time":3,"is_transit":false,"i_lat":-6.198556},{"is_transit":true,"i_lat":-6.209883,"distance":1590,"transit":true,"station_id":"MRI","i_long":106.84912,"line":0,"time":4,"station_name":"Manggarai"},{"transit":false,"time":4,"station_name":"Sudirman","i_long":106.822649,"station_id":"SUD","i_lat":-6.202263,"line":1,"is_transit":false,"distance":3186}],[{"time":0,"i_long":106.701612,"line":5,"distance":0,"transit":false,"station_name":"Kalideres","is_transit":false,"i_lat":-6.166068,"station_id":"KDS"},{"distance":2504,"i_lat":-6.162758,"i_long":106.723064,"is_transit":false,"line":5,"station_id":"RW","station_name":"Rawa Buaya","transit":false,"time":3},{"time":4,"station_id":"BOI","distance":1152,"line":0,"station_name":"Bojongindah","is_transit":false,"i_lat":-6.159876,"i_long":106.737035,"transit":false},{"station_id":"TKO","is_transit":false,"distance":2334,"transit":false,"line":5,"i_long":106.756522,"i_lat":-6.1587309999999995,"time":2,"station_name":"Taman Kota"},{"i_lat":-6.161433,"station_name":"Pesing","station_id":"PSG","distance":1614,"transit":false,"time":2,"is_transit":false,"i_long":106.771379,"line":5},{"station_id":"GGL","transit":false,"distance":2036,"time":2,"station_name":"Grogol","i_long":106.788277,"is_transit":false,"line":5,"i_lat":-6.162021},{"i_long":106.800832,"time":3,"is_transit":true,"station_id":"DU","station_name":"Duri","i_lat":-6.155215,"line":1,"distance":1700,"transit":true},{"i_long":106.79867,"line":0,"distance":1230,"transit":false,"is_transit":false,"station_id":"AK","i_lat":-6.144674,"time":4,"station_name":"Angke"},{"i_long":106.826365,"is_transit":true,"distance":4102,"station_name":"Kampung Bandan","station_id":"KPB","transit":true,"i_lat":-6.132549,"time":9,"line":0},{"line":11,"is_transit":false,"transit":false,"i_lat":-6.14505,"i_long":106.836569,"distance":1444,"station_name":"Rajawali","station_id":"RJW","time":3},{"time":5,"station_name":"Kemayoran","is_transit":false,"i_lat":-6.161728,"i_long":106.839204,"station_id":"KMO","distance":1901,"transit":false,"line":11},{"distance":1436,"station_name":"Pasar Senen","i_long":106.84368,"transit":false,"line":11,"time":4,"i_lat":-6.174784,"station_id":"PSE","is_transit":false},{"distance":1567,"line":11,"i_lat":-6.185975,"time":8,"transit":false,"station_name":"Gang Sentiong","is_transit":false,"i_long":106.850107,"station_id":"GST"},{"i_long":106.855437,"distance":973,"time":1,"station_name":"Kramat","line":11,"station_id":"KMT","is_transit":false,"transit":false,"i_lat":-6.193792},{"is_transit":false,"distance":1829,"station_name":"Pondok Jati","station_id":"POK","time":2,"i_long":106.861737,"i_lat":-6.209188,"transit":false,"line":11},{"station_name":"Jatinegara","station_id":"JNG","i_long":106.86807400000001,"i_lat":-6.215091,"is_transit":true,"line":0,"time":9,"distance":1236,"transit":true},{"i_lat":-6.212485,"i_long":106.858896,"line":1,"time":2,"distance":1377,"is_transit":false,"station_id":"MTR","transit":false,"station_name":"Matraman"},{"i_long":106.84912,"station_id":"MRI","i_lat":-6.209883,"station_name":"Manggarai","is_transit":true,"line":0,"time":2,"transit":false,"distance":1275},{"station_id":"SUD","line":1,"is_transit":false,"distance":3186,"i_long":106.822649,"time":4,"transit":false,"i_lat":-6.202263,"station_name":"Sudirman"}]]}