{"data":[[{"station_id":"KDS","time":0,"distance":0,"i_long":106.701612,"line":5,"station_name":"Kalideres","i_lat":-6.166068,"transit":false,"is_transit":false},{"transit":false,"is_transit":false,"line":5,"time":3,"station_id":"RW","i_long":106.723064,"i_lat":-6.162758,"distance":2504,"station_name":"Rawa Buaya"},{"i_lat":-6.159876,"is_transit":false,"station_id":"BOI","time":4,"station_name":"Bojongindah","transit":false,"distance":1152,"i_long":106.737035,"line":5},{"i_long":106.756522,"distance":2334,"i_lat":-6.1587309999999995,"station_name":"Taman Kota","line":5,"is_transit":false,"transit":false,"time":2,"station_id":"TKO"},{"station_name":"Pesing","is_transit":false,"station_id":"PSG","time":2,"transit":false,"line":5,"i_long":106.771379,"distance":1614,"i_lat":-6.161433},{"station_name":"Grogol","i_long":106.788277,"station_id":"GGL","is_transit":false,"transit":false,"time":2,"i_lat":-6.162021,"line":5,"distance":2036},{"station_id":"DU","station_name":"Duri","transit":true,"i_long":106.800832,"line":1,"is_transit":true,"i_lat":-6.155215,"time":3,"distance":1700},{"is_transit":false,"transit":false,"station_name":"Tanah Abang","i_lat":-6.185545,"station_id":"THB","distance":3632,"i_long":106.811091,"line":1,"time":8},{"i_long":106.816351,"is_transit":false,"line":1,"i_lat":-6.20132,"time":5,"distance":2029,"station_name":"Karet","transit":false,"station_id":"KAT"},{"is_transit":false,"time":1,"distance":471,"station_id":"SUDB","station_name":"Sudirman Baru","transit":false,"i_lat":-6.201433,"i_long":106.819881,"line":1},{"station_id":"SUD","station_name":"Sudirman","time":1,"transit":false,"distance":280,"i_lat":-6.202263,"line":1,"is_transit":false,"i_long":106.822649}],[{"line":5,"transit":false,"time":0,"is_transit":false,"i_long":106.701612,"station_name":"Kalideres","station_id":"KDS","i_lat":-6.166068,"distance":0},{"station_id":"RW","time":3,"transit":false,"i_long":106.723064,"distance":2504,"is_transit":false,"i_lat":-6.162758,"line":5,"station_name":"Rawa Buaya"},{"line":5,"i_lat":-6.159876,"distance":1152,"i_long":106.737035,"station_id":"BOI","station_name":"Bojongindah","time":4,"is_transit":false,"transit":false},{"transit":false,"line":5,"distance":2334,"is_transit":false,"time":2,"station_id":"TKO","station_name":"Taman Kota","i_lat":-6.1587309999999995,"i_long":106.756522},{"distance":1614,"transit":false,"i_lat":-6.161433,"time":2,"station_name":"Pesing","is_transit":false,"line":5,"station_id":"PSG","i_long":106.771379},{"station_id":"GGL","line":5,"is_transit":false,"station_name":"Grogol","transit":false,"distance":2036,"i_long":106.788277,"i_lat":-6.162021,"time":2},{"i_long":106.800832,"i_lat":-6.155215,"time":3,"station_id":"DU","line":1,"station_name":"Duri","transit":true,"is_transit":true,"distance":1700},{"station_id":"AK","distance":1230,"transit":false,"i_long":106.79867,"station_name":"Angke","is_transit":false,"line":1,"i_lat":-6.144674,"time":4},{"station_name":"Kampung Bandan","transit":true,"i_lat":-6.132549,"distance":4102,"station_id":"KPB","is_transit":true,"i_long":106.826365,"line":4,"time":9},{"is_transit":true,"transit":true,"station_name":"Jakarta Kota","i_lat":-6.137569,"i_long":106.812439,"distance":1364,"time":3,"line":2,"station_id":"JAKK"},{"is_transit":false,"i_lat":-6.141205,"i_long":106.820901,"station_id":"JAY","distance":1264,"station_name":"Jayakarta","time":4,"line":2,"transit":false},{"i_long":106.82482,"distance":1080,"station_id":"MGB","i_lat":-6.149769,"line":2,"station_name":"Manggabesar","time":2,"is_transit":false,"transit":false},{"distance":906,"station_id":"SW","line":2,"time":2,"station_name":"Sawah Besar","i_long":106.827103,"transit":false,"is_transit":false,"i_lat":-6.160725},{"time":2,"station_name":"Juanda","is_transit":false,"line":2,"distance":1149,"transit":false,"station_id":"JUA","i_lat":-6.166716,"i_long":106.828284},{"line":2,"station_name":"Gondangdia","time":4,"is_transit":false,"transit":false,"station_id":"GDD","i_lat":-6.186295,"i_long":106.832183,"distance":2015},{"station_id":"CKI","line":2,"i_long":106.840169,"time":3,"distance":1750,"station_name":"Cikini","is_transit":false,"i_lat":-6.198556,"transit":false},{"station_id":"MRI","is_transit":true,"i_lat":-6.209883,"line":2,"time":4,"station_name":"Manggarai","i_long":106.84912,"transit":true,"distance":1590},{"i_long":106.822649,"station_id":"SUD","i_lat":-6.202263,"is_transit":false,"station_name":"Sudirman","time":4,"line":1,"distance":3186,"transit":false}],[{"line":5,"i_lat":-6.166068,"time":0,"station_name":"Kalideres","distance":0,"transit":false,"i_long":106.701612,"is_transit":false,"station_id":"KDS"},{"is_transit":false,"line":5,"transit":false,"station_name":"Rawa Buaya","i_long":106.723064,"time":3,"i_lat":-6.162758,"distance":2504,"station_id":"RW"},{"station_id":"BOI","distance":1152,"transit":false,"station_name":"Bojongindah","i_lat":-6.159876,"i_long":106.737035,"is_transit":false,"line":5,"time":4},{"is_transit":false,"station_id":"TKO","transit":false,"time":2,"distance":2334,"station_name":"Taman Kota","i_lat":-6.1587309999999995,"i_long":106.756522,"line":5},{"distance":1614,"station_name":"Pesing","line":5,"is_transit":false,"station_id":"PSG","transit":false,"i_lat":-6.161433,"time":2,"i_long":106.771379},{"is_transit":false,"i_long":106.788277,"station_name":"Grogol","line":5,"distance":2036,"station_id":"GGL","time":2,"i_lat":-6.162021,"transit":false},{"distance":1700,"time":3,"line":1,"is_transit":true,"station_id":"DU","transit":true,"station_name":"Duri","i_long":106.800832,"i_lat":-6.155215},{"i_long":106.79867,"distance":1230,"is_transit":false,"line":1,"time":4,"station_id":"AK","transit":false,"station_name":"Angke","i_lat":-6.144674},{"distance":4102,"time":9,"station_id":"KPB","station_name":"Kampung Bandan","is_transit":true,"line":4,"i_lat":-6.132549,"i_long":106.826365,"transit":true},{"time":3,"distance":1444,"station_id":"RJW","i_lat":-6.14505,"is_transit":false,"station_name":"Rajawali","i_long":106.836569,"line":11,"transit":false},{"i_lat":-6.161728,"i_long":106.839204,"station_id":"KMO","is_transit":false,"station_name":"Kemayoran","line":11,"time":5,"distance":1901,"transit":false},{"station_id":"PSE","i_lat":-6.174784,"is_transit":false,"distance":1436,"transit":false,"station_name":"Pasar Senen","line":11,"i_long":106.84368,"time":4},{"station_name":"Gang Sentiong","i_lat":-6.185975,"line":11,"time":8,"distance":1567,"transit":false,"i_long":106.850107,"is_transit":false,"station_id":"GST"},{"time":1,"station_id":"KMT","station_name":"Kramat","i_long":106.855437,"distance":973,"i_lat":-6.193792,"is_transit":false,"line":11,"transit":false},{"transit":false,"station_name":"Pondok Jati","i_long":106.861737,"line":11,"station_id":"POK","distance":1829,"time":2,"i_lat":-6.209188,"is_transit":false},{"is_transit":true,"transit":true,"time":9,"station_name":"Jatinegara","station_id":"JNG","line":1,"i_long":106.86807400000001,"i_lat":-6.215091,"distance":1236},{"transit":false,"i_lat":-6.212485,"line":1,"distance":1377,"station_id":"MTR","time":2,"i_long":106.858896,"is_transit":false,"station_name":"Matraman"},{"distance":1275,"time":2,"is_transit":false,"i_long":106.84912,"line":2,"station_name":"Manggarai","station_id":"MRI","transit":false,"i_lat":-6.209883},{"time":4,"line":1,"station_id":"SUD","station_name":"Sudirman","distance":3186,"is_transit":false,"transit":false,"i_lat":-6.202263,"i_long":106.822649}]]}