{"data":[[{"distance":0,"i_long":106.701612,"line":5,"transit":false,"i_lat":-6.166068,"is_transit":false,"station_name":"Kalideres","time":0,"station_id":"KDS"},{"time":3,"i_long":106.723064,"transit":false,"station_name":"Rawa Buaya","is_transit":false,"station_id":"RW","line":5,"distance":2504,"i_lat":-6.162758},{"i_long":106.737035,"line":5,"station_name":"Bojongindah","station_id":"BOI","is_transit":false,"i_lat":-6.159876,"distance":1152,"transit":false,"time":4},{"line":5,"transit":false,"i_lat":-6.1587309999999995,"time":2,"is_transit":false,"distance":2334,"i_long":106.756522,"station_id":"TKO","station_name":"Taman Kota"},{"station_id":"PSG","i_long":106.771379,"time":2,"line":5,"transit":false,"i_lat":-6.161433,"distance":1614,"station_name":"Pesing","is_transit":false},{"time":2,"line":5,"transit":false,"i_lat":-6.162021,"station_id":"GGL","station_name":"Grogol","i_long":106.788277,"distance":2036,"is_transit":false},{"i_lat":-6.155215,"transit":true,"distance":1700,"i_long":106.800832,"time":3,"line":1,"station_id":"DU","station_name":"Duri","is_transit":true},{"transit":false,"time":8,"i_lat":-6.185545,"is_transit":false,"distance":3632,"station_id":"THB","i_long":106.811091,"line":1,"station_name":"Tanah Abang"},{"line":1,"transit":false,"i_lat":-6.20132,"station_id":"KAT","i_long":106.816351,"distance":2029,"is_transit":false,"station_name":"Karet","time":5},{"i_long":106.819881,"transit":false,"station_name":"Sudirman Baru","time":1,"line":1,"station_id":"SUDB","i_lat":-6.201433,"is_transit":false,"distance":471},{"distance":280,"i_lat":-6.202263,"station_id":"SUD","line":1,"i_long":106.822649,"time":1,"is_transit":false,"station_name":"Sudirman","transit":false},{"transit":true,"station_id":"MRI","time":4,"station_name":"Manggarai","i_lat":-6.209883,"distance":3186,"i_long":106.84912,"line":2,"is_transit":true},{"i_lat":-6.226659,"time":4,"i_long":106.857948,"station_id":"TEB","is_transit":false,"station_name":"Tebet","transit":false,"line":2,"distance":2610},{"transit":false,"distance":1230,"time":2,"i_lat":-6.242512,"i_long":106.856607,"is_transit":false,"line":2,"station_id":"CW","station_name":"Cawang"},{"is_transit":false,"distance":1546,"station_name":"Duren Kalibata","i_lat":-6.255332,"line":2,"station_id":"DRN","transit":false,"time":3,"i_long":106.85449},{"distance":824,"is_transit":false,"time":2,"line":2,"i_lat":-6.263214,"transit":false,"station_id":"PSMB","i_long":106.851577,"station_name":"Pasar Minggu Baru"},{"transit":false,"line":2,"station_name":"Pasar Minggu","i_long":106.843999,"station_id":"PSM","time":2,"is_transit":false,"distance":2380,"i_lat":-6.2842400000000005},{"transit":false,"i_lat":-6.3080680000000005,"time":4,"station_name":"Tanjung Barat","line":2,"distance":2820,"i_long":106.838896,"station_id":"TNT","is_transit":false},{"i_lat":-6.330363,"station_id":"LNA","station_name":"Lenteng Agung","i_long":106.832616,"transit":false,"time":3,"distance":2671,"line":2,"is_transit":false},{"i_long":106.834175,"i_lat":-6.339291,"distance":1029,"transit":false,"line":2,"station_id":"UP","station_name":"Univ. Pancasila","is_transit":false,"time":2}],[{"i_lat":-6.166068,"station_name":"Kalideres","line":5,"station_id":"KDS","is_transit":false,"time":0,"transit":false,"distance":0,"i_long":106.701612},{"is_transit":false,"transit":false,"station_name":"Rawa Buaya","i_lat":-6.162758,"station_id":"RW","distance":2504,"time":3,"i_long":106.723064,"line":5},{"distance":1152,"i_long":106.737035,"is_transit":false,"i_lat":-6.159876,"line":5,"transit":false,"time":4,"station_name":"Bojongindah","station_id":"BOI"},{"station_name":"Taman Kota","transit":false,"i_long":106.756522,"i_lat":-6.1587309999999995,"station_id":"TKO","is_transit":false,"line":5,"distance":2334,"time":2},{"i_long":106.771379,"station_id":"PSG","i_lat":-6.161433,"line":5,"station_name":"Pesing","is_transit":false,"time":2,"transit":false,"distance":1614},{"i_long":106.788277,"transit":false,"line":5,"is_transit":false,"station_name":"Grogol","i_lat":-6.162021,"time":2,"distance":2036,"station_id":"GGL"},{"station_id":"DU","i_long":106.800832,"distance":1700,"time":3,"transit":true,"station_name":"Duri","is_transit":true,"i_lat":-6.155215,"line":1},{"is_transit":false,"station_name":"Angke","transit":false,"line":1,"time":4,"i_lat":-6.144674,"station_id":"AK","distance":1230,"i_long":106.79867},{"i_lat":-6.132549,"i_long":106.826365,"transit":true,"is_transit":true,"station_name":"Kampung Bandan","distance":4102,"station_id":"KPB","time":9,"line":4},{"is_transit":true,"station_name":"Jakarta Kota","i_lat":-6.137569,"i_long":106.812439,"time":3,"distance":1364,"line":2,"station_id":"JAKK","transit":true},{"time":4,"transit":false,"i_long":106.820901,"line":2,"is_transit":false,"distance":1264,"station_id":"JAY","i_lat":-6.141205,"station_name":"Jayakarta"},{"station_id":"MGB","i_lat":-6.149769,"line":2,"i_long":106.82482,"station_name":"Manggabesar","time":2,"distance":1080,"transit":false,"is_transit":false},{"station_id":"SW","time":2,"is_transit":false,"line":2,"transit":false,"i_lat":-6.160725,"distance":906,"i_long":106.827103,"station_name":"Sawah Besar"},{"is_transit":false,"distance":1149,"transit":false,"station_id":"JUA","i_lat":-6.166716,"line":2,"time":2,"i_long":106.828284,"station_name":"Juanda"},{"transit":false,"distance":2015,"line":2,"i_lat":-6.186295,"station_id":"GDD","station_name":"Gondangdia","is_transit":false,"time":4,"i_long":106.832183},{"i_long":106.840169,"time":3,"distance":1750,"is_transit":false,"line":2,"i_lat":-6.198556,"transit":false,"station_id":"CKI","station_name":"Cikini"},{"transit":false,"time":4,"i_long":106.84912,"line":2,"distance":1590,"i_lat":-6.209883,"station_name":"Manggarai","station_id":"MRI","is_transit":false},{"distance":2610,"i_lat":-6.226659,"i_long":106.857948,"line":2,"transit":false,"is_transit":false,"time":4,"station_id":"TEB","station_name":"Tebet"},{"time":2,"station_id":"CW","distance":1230,"transit":false,"is_transit":false,"i_long":106.856607,"station_name":"Cawang","i_lat":-6.242512,"line":2},{"distance":1546,"time":3,"i_long":106.85449,"transit":false,"line":2,"is_transit":false,"station_id":"DRN","station_name":"Duren Kalibata","i_lat":-6.255332},{"i_long":106.851577,"time":2,"is_transit":false,"line":2,"transit":false,"station_id":"PSMB","station_name":"Pasar Minggu Baru","distance":824,"i_lat":-6.263214},{"i_long":106.843999,"line":2,"station_name":"Pasar Minggu","is_transit":false,"station_id":"PSM","time":2,"distance":2380,"i_lat":-6.2842400000000005,"transit":false},{"station_name":"Tanjung Barat","time":4,"distance":2820,"station_id":"TNT","line":2,"i_lat":-6.3080680000000005,"transit":false,"is_transit":false,"i_long":106.838896},{"is_transit":false,"station_id":"LNA","line":2,"i_long":106.832616,"station_name":"Lenteng Agung","distance":2671,"i_lat":-6.330363,"transit":false,"time":3},{"station_id":"UP","time":2,"i_lat":-6.339291,"line":2,"i_long":106.834175,"transit":false,"distance":1029,"is_transit":false,"station_name":"Univ. Pancasila"}],[{"time":0,"distance":0,"is_transit":false,"i_lat":-6.166068,"i_long":106.701612,"line":5,"transit":false,"station_id":"KDS","station_name":"Kalideres"},{"line":5,"is_transit":false,"station_id":"RW","transit":false,"time":3,"distance":2504,"i_lat":-6.162758,"station_name":"Rawa Buaya","i_long":106.723064},{"distance":1152,"station_id":"BOI","i_lat":-6.159876,"i_long":106.737035,"line":5,"transit":false,"station_name":"Bojongindah","is_transit":false,"time":4},{"station_name":"Taman Kota","line":5,"distance":2334,"i_lat":-6.1587309999999995,"is_transit":false,"time":2,"i_long":106.756522,"station_id":"TKO","transit":false},{"station_name":"Pesing","is_transit":false,"distance":1614,"i_long":106.771379,"transit":false,"station_id":"PSG","time":2,"i_lat":-6.161433,"line":5},{"distance":2036,"i_long":106.788277,"line":5,"is_transit":false,"i_lat":-6.162021,"station_name":"Grogol","transit":false,"station_id":"GGL","time":2},{"transit":true,"is_transit":true,"line":1,"i_long":106.800832,"station_name":"Duri","distance":1700,"time":3,"i_lat":-6.155215,"station_id":"DU"},{"station_name":"Angke","station_id":"AK","i_long":106.79867,"time":4,"distance":1230,"i_lat":-6.144674,"line":1,"is_transit":false,"transit":false},{"line":4,"is_transit":true,"i_lat":-6.132549,"station_name":"Kampung Bandan","i_long":106.826365,"station_id":"KPB","distance":4102,"transit":true,"time":9},{"is_transit":false,"transit":false,"station_id":"RJW","time":3,"i_long":106.836569,"line":11,"station_name":"Rajawali","distance":1444,"i_lat":-6.14505},{"station_name":"Kemayoran","transit":false,"is_transit":false,"i_lat":-6.161728,"i_long":106.839204,"line":11,"station_id":"KMO","distance":1901,"time":5},{"line":11,"is_transit":false,"station_id":"PSE","time":4,"distance":1436,"i_lat":-6.174784,"i_long":106.84368,"station_name":"Pasar Senen","transit":false},{"transit":false,"station_name":"Gang Sentiong","distance":1567,"line":11,"is_transit":false,"station_id":"GST","time":8,"i_lat":-6.185975,"i_long":106.850107},{"time":1,"distance":973,"station_name":"Kramat","station_id":"KMT","is_transit":false,"i_lat":-6.193792,"i_long":106.855437,"line":11,"transit":false},{"distance":1829,"i_lat":-6.209188,"station_id":"POK","i_long":106.861737,"time":2,"is_transit":false,"line":11,"transit":false,"station_name":"Pondok Jati"},{"transit":true,"is_transit":true,"time":9,"distance":1236,"station_id":"JNG","i_lat":-6.215091,"line":1,"station_name":"Jatinegara","i_long":106.86807400000001},{"time":2,"station_name":"Matraman","is_transit":false,"line":1,"transit":false,"station_id":"MTR","i_long":106.858896,"distance":1377,"i_lat":-6.212485},{"station_id":"MRI","distance":1275,"line":2,"i_long":106.84912,"transit":true,"station_name":"Manggarai","is_transit":true,"i_lat":-6.209883,"time":2},{"station_id":"TEB","i_lat":-6.226659,"distance":2610,"station_name":"Tebet","i_long":106.857948,"line":2,"is_transit":false,"transit":false,"time":4},{"station_id":"CW","line":2,"is_transit":false,"time":2,"i_long":106.856607,"station_name":"Cawang","transit":false,"distance":1230,"i_lat":-6.242512},{"time":3,"is_transit":false,"transit":false,"distance":1546,"station_name":"Duren Kalibata","station_id":"DRN","i_lat":-6.255332,"i_long":106.85449,"line":2},{"time":2,"i_long":106.851577,"line":2,"distance":824,"is_transit":false,"station_id":"PSMB","transit":false,"station_name":"Pasar Minggu Baru","i_lat":-6.263214},{"i_long":106.843999,"i_lat":-6.2842400000000005,"is_transit":false,"distance":2380,"transit":false,"time":2,"station_id":"PSM","station_name":"Pasar Minggu","line":2},{"distance":2820,"time":4,"i_lat":-6.3080680000000005,"i_long":106.838896,"transit":false,"line":2,"is_transit":false,"station_id":"TNT","station_name":"Tanjung Barat"},{"line":2,"station_id":"LNA","transit":false,"i_lat":-6.330363,"time":3,"station_name":"Lenteng Agung","i_long":106.832616,"distance":2671,"is_transit":false},{"station_id":"UP","is_transit":false,"i_lat":-6.339291,"i_long":106.834175,"station_name":"Univ. Pancasila","transit":false,"distance":1029,"line":2,"time":2}]]}