{"data":[[{"station_id":"KDS","is_transit":false,"line":5,"station_name":"Kalideres","transit":false,"time":0,"i_lat":-6.166068,"i_long":106.701612,"distance":0},{"station_id":"RW","line":5,"station_name":"Rawa Buaya","i_lat":-6.162758,"transit":false,"is_transit":false,"i_long":106.723064,"distance":2504,"time":3},{"station_id":"BOI","time":4,"transit":false,"i_lat":-6.159876,"i_long":106.737035,"distance":1152,"station_name":"Bojongindah","line":5,"is_transit":false},{"line":5,"station_name":"Taman Kota","i_lat":-6.1587309999999995,"distance":2334,"station_id":"TKO","is_transit":false,"time":2,"transit":false,"i_long":106.756522},{"distance":1614,"i_long":106.771379,"station_id":"PSG","i_lat":-6.161433,"transit":false,"line":5,"time":2,"is_transit":false,"station_name":"Pesing"},{"is_transit":false,"line":5,"station_name":"Grogol","i_long":106.788277,"time":2,"i_lat":-6.162021,"transit":false,"station_id":"GGL","distance":2036},{"is_transit":true,"distance":1700,"i_lat":-6.155215,"i_long":106.800832,"time":3,"station_name":"Duri","transit":true,"station_id":"DU","line":1},{"i_lat":-6.185545,"line":1,"is_transit":false,"transit":false,"station_id":"THB","time":8,"i_long":106.811091,"distance":3632,"station_name":"Tanah Abang"},{"line":1,"time":5,"distance":2029,"station_id":"KAT","transit":false,"station_name":"Karet","is_transit":false,"i_lat":-6.20132,"i_long":106.816351},{"i_long":106.819881,"distance":471,"transit":false,"station_name":"Sudirman Baru","station_id":"SUDB","i_lat":-6.201433,"is_transit":false,"time":1,"line":1},{"i_long":106.822649,"distance":280,"time":1,"is_transit":false,"line":1,"station_id":"SUD","station_name":"Sudirman","i_lat":-6.202263,"transit":false},{"transit":false,"i_long":106.84912,"time":4,"i_lat":-6.209883,"station_id":"MRI","line":2,"station_name":"Manggarai","distance":3186,"is_transit":false},{"station_id":"MTR","i_lat":-6.212485,"i_long":106.858896,"time":2,"line":1,"is_transit":false,"transit":false,"station_name":"Matraman","distance":1275}],[{"distance":0,"station_name":"Kalideres","is_transit":false,"i_lat":-6.166068,"time":0,"transit":false,"line":5,"station_id":"KDS","i_long":106.701612},{"line":5,"station_id":"RW","i_long":106.723064,"transit":false,"time":3,"is_transit":false,"distance":2504,"i_lat":-6.162758,"station_name":"Rawa Buaya"},{"time":4,"i_long":106.737035,"i_lat":-6.159876,"line":5,"is_transit":false,"distance":1152,"station_id":"BOI","transit":false,"station_name":"Bojongindah"},{"line":5,"station_id":"TKO","i_long":106.756522,"distance":2334,"is_transit":false,"time":2,"transit":false,"i_lat":-6.1587309999999995,"station_name":"Taman Kota"},{"station_name":"Pesing","i_lat":-6.161433,"is_transit":false,"time":2,"distance":1614,"station_id":"PSG","i_long":106.771379,"transit":false,"line":5},{"line":5,"is_transit":false,"time":2,"station_name":"Grogol","i_lat":-6.162021,"distance":2036,"transit":false,"station_id":"GGL","i_long":106.788277},{"distance":1700,"station_id":"DU","line":1,"time":3,"transit":true,"i_long":106.800832,"i_lat":-6.155215,"station_name":"Duri","is_transit":true},{"is_transit":false,"distance":1230,"station_id":"AK","transit":false,"i_long":106.79867,"station_name":"Angke","time":4,"i_lat":-6.144674,"line":1},{"time":9,"station_name":"Kampung Bandan","i_lat":-6.132549,"distance":4102,"is_transit":true,"transit":true,"i_long":106.826365,"station_id":"KPB","line":4},{"time":3,"distance":1444,"is_transit":false,"station_name":"Rajawali","i_lat":-6.14505,"transit":false,"line":11,"station_id":"RJW","i_long":106.836569},{"time":5,"distance":1901,"station_id":"KMO","line":11,"station_name":"Kemayoran","transit":false,"i_lat":-6.161728,"is_transit":false,"i_long":106.839204},{"i_long":106.84368,"distance":1436,"transit":false,"time":4,"line":11,"station_name":"Pasar Senen","is_transit":false,"station_id":"PSE","i_lat":-6.174784},{"station_name":"Gang Sentiong","line":11,"i_lat":-6.185975,"i_long":106.850107,"is_transit":false,"time":8,"distance":1567,"station_id":"GST","transit":false},{"line":11,"is_transit":false,"i_long":106.855437,"time":1,"transit":false,"distance":973,"station_name":"Kramat","i_lat":-6.193792,"station_id":"KMT"},{"distance":1829,"station_name":"Pondok Jati","transit":false,"i_lat":-6.209188,"time":2,"i_long":106.861737,"line":11,"is_transit":false,"station_id":"POK"},{"distance":1236,"station_name":"Jatinegara","i_long":106.86807400000001,"transit":true,"is_transit":true,"i_lat":-6.215091,"line":1,"station_id":"JNG","time":9},{"is_transit":false,"time":2,"distance":1377,"station_id":"MTR","station_name":"Matraman","i_long":106.858896,"line":1,"transit":false,"i_lat":-6.212485}],[{"i_lat":-6.166068,"is_transit":false,"distance":0,"transit":false,"station_id":"KDS","line":5,"i_long":106.701612,"time":0,"station_name":"Kalideres"},{"line":5,"time":3,"is_transit":false,"transit":false,"i_long":106.723064,"station_name":"Rawa Buaya","distance":2504,"station_id":"RW","i_lat":-6.162758},{"i_long":106.737035,"distance":1152,"station_id":"BOI","line":5,"time":4,"i_lat":-6.159876,"is_transit":false,"transit":false,"station_name":"Bojongindah"},{"i_long":106.756522,"transit":false,"station_name":"Taman Kota","station_id":"TKO","i_lat":-6.1587309999999995,"distance":2334,"is_transit":false,"line":5,"time":2},{"i_long":106.771379,"station_id":"PSG","station_name":"Pesing","i_lat":-6.161433,"time":2,"line":5,"distance":1614,"is_transit":false,"transit":false},{"is_transit":false,"i_lat":-6.162021,"line":5,"time":2,"transit":false,"station_name":"Grogol","distance":2036,"station_id":"GGL","i_long":106.788277},{"station_name":"Duri","transit":true,"i_lat":-6.155215,"line":1,"is_transit":true,"station_id":"DU","distance":1700,"time":3,"i_long":106.800832},{"i_long":106.79867,"distance":1230,"is_transit":false,"transit":false,"line":1,"i_lat":-6.144674,"station_id":"AK","time":4,"station_name":"Angke"},{"station_name":"Kampung Bandan","time":9,"transit":true,"i_lat":-6.132549,"station_id":"KPB","i_long":106.826365,"line":4,"is_transit":true,"distance":4102},{"is_transit":true,"i_lat":-6.137569,"time":3,"transit":true,"station_name":"Jakarta Kota","line":2,"station_id":"JAKK","i_long":106.812439,"distance":1364},{"station_id":"JAY","is_transit":false,"time":4,"distance":1264,"i_long":106.820901,"i_lat":-6.141205,"line":2,"station_name":"Jayakarta","transit":false},{"i_lat":-6.149769,"station_id":"MGB","distance":1080,"time":2,"i_long":106.82482,"is_transit":false,"station_name":"Manggabesar","line":2,"transit":false},{"station_name":"Sawah Besar","transit":false,"station_id":"SW","i_lat":-6.160725,"is_transit":false,"i_long":106.827103,"time":2,"distance":906,"line":2},{"is_transit":false,"station_name":"Juanda","transit":false,"i_lat":-6.166716,"line":2,"time":2,"i_long":106.828284,"distance":1149,"station_id":"JUA"},{"time":4,"distance":2015,"station_name":"Gondangdia","i_lat":-6.186295,"line":2,"transit":false,"is_transit":false,"i_long":106.832183,"station_id":"GDD"},{"station_name":"Cikini","transit":false,"i_lat":-6.198556,"i_long":106.840169,"time":3,"distance":1750,"is_transit":false,"station_id":"CKI","line":2},{"i_long":106.84912,"transit":true,"line":2,"distance":1590,"is_transit":true,"station_id":"MRI","time":4,"station_name":"Manggarai","i_lat":-6.209883},{"line":1,"transit":false,"i_long":106.858896,"distance":1275,"station_name":"Matraman","station_id":"MTR","is_transit":false,"i_lat":-6.212485,"time":2}],[{"station_name":"Kalideres","transit":false,"station_id":"KDS","is_transit":false,"i_lat":-6.166068,"time":0,"i_long":106.701612,"distance":0,"line":5},{"station_id":"RW","i_long":106.723064,"transit":false,"line":5,"i_lat":-6.162758,"time":3,"is_transit":false,"station_name":"Rawa Buaya","distance":2504},{"distance":1152,"i_lat":-6.159876,"line":5,"station_id":"BOI","time":4,"station_name":"Bojongindah","is_transit":false,"transit":false,"i_long":106.737035},{"distance":2334,"i_long":106.756522,"station_id":"TKO","transit":false,"i_lat":-6.1587309999999995,"line":5,"is_transit":false,"station_name":"Taman Kota","time":2},{"is_transit":false,"i_lat":-6.161433,"i_long":106.771379,"line":5,"station_id":"PSG","station_name":"Pesing","distance":1614,"transit":false,"time":2},{"time":2,"i_lat":-6.162021,"distance":2036,"station_name":"Grogol","line":5,"transit":false,"i_long":106.788277,"station_id":"GGL","is_transit":false},{"time":3,"line":1,"station_name":"Duri","i_lat":-6.155215,"station_id":"DU","distance":1700,"transit":true,"i_long":106.800832,"is_transit":true},{"transit":false,"i_lat":-6.185545,"distance":3632,"station_id":"THB","line":1,"time":8,"i_long":106.811091,"station_name":"Tanah Abang","is_transit":false},{"transit":false,"i_long":106.816351,"time":5,"line":1,"i_lat":-6.20132,"station_id":"KAT","is_transit":false,"distance":2029,"station_name":"Karet"},{"transit":false,"time":1,"station_name":"Sudirman Baru","station_id":"SUDB","distance":471,"i_lat":-6.201433,"is_transit":false,"i_long":106.819881,"line":1},{"transit":false,"i_long":106.822649,"i_lat":-6.202263,"station_name":"Sudirman","station_id":"SUD","time":1,"is_transit":false,"distance":280,"line":1},{"i_long":106.84912,"transit":true,"distance":3186,"station_name":"Manggarai","i_lat":-6.209883,"station_id":"MRI","line":2,"time":4,"is_transit":true},{"i_lat":-6.198556,"station_id":"CKI","distance":1590,"is_transit":false,"i_long":106.840169,"transit":false,"line":2,"time":4,"station_name":"Cikini"},{"station_name":"Gondangdia","distance":1750,"i_long":106.832183,"station_id":"GDD","i_lat":-6.186295,"transit":false,"line":2,"time":3,"is_transit":false},{"i_lat":-6.166716,"time":4,"station_id":"JUA","i_long":106.828284,"station_name":"Juanda","distance":2015,"line":2,"is_transit":false,"transit":false},{"distance":1149,"i_lat":-6.160725,"line":2,"is_transit":false,"time":2,"i_long":106.827103,"station_id":"SW","station_name":"Sawah Besar","transit":false},{"is_transit":false,"station_id":"MGB","transit":false,"line":2,"i_long":106.82482,"time":2,"station_name":"Manggabesar","distance":906,"i_lat":-6.149769},{"distance":1080,"line":2,"station_id":"JAY","i_long":106.820901,"time":2,"station_name":"Jayakarta","transit":false,"i_lat":-6.141205,"is_transit":false},{"i_long":106.812439,"station_id":"JAKK","transit":true,"line":2,"is_transit":true,"distance":1264,"time":4,"station_name":"Jakarta Kota","i_lat":-6.137569},{"is_transit":true,"time":3,"station_id":"KPB","distance":1364,"station_name":"Kampung Bandan","transit":true,"i_lat":-6.132549,"i_long":106.826365,"line":4},{"time":3,"distance":1444,"i_lat":-6.14505,"line":11,"transit":false,"station_name":"Rajawali","station_id":"RJW","i_long":106.836569,"is_transit":false},{"line":11,"station_id":"KMO","station_name":"Kemayoran","distance":1901,"transit":false,"i_lat":-6.161728,"time":5,"is_transit":false,"i_long":106.839204},{"line":11,"station_id":"PSE","is_transit":false,"time":4,"station_name":"Pasar Senen","i_long":106.84368,"i_lat":-6.174784,"distance":1436,"transit":false},{"transit":false,"line":11,"i_long":106.850107,"is_transit":false,"i_lat":-6.185975,"distance":1567,"station_name":"Gang Sentiong","station_id":"GST","time":8},{"distance":973,"time":1,"line":11,"station_name":"Kramat","is_transit":false,"i_lat":-6.193792,"i_long":106.855437,"transit":false,"station_id":"KMT"},{"distance":1829,"line":11,"is_transit":false,"i_lat":-6.209188,"time":2,"transit":false,"station_name":"Pondok Jati","i_long":106.861737,"station_id":"POK"},{"time":9,"is_transit":true,"station_name":"Jatinegara","i_long":106.86807400000001,"distance":1236,"transit":true,"line":1,"i_lat":-6.215091,"station_id":"JNG"},{"is_transit":false,"station_name":"Matraman","station_id":"MTR","line":1,"time":2,"i_lat":-6.212485,"transit":false,"i_long":106.858896,"distance":1377}]]}