{"data":[[{"station_name":"Kalideres","i_long":106.701612,"i_lat":-6.166068,"line":5,"station_id":"KDS","time":0,"transit":false,"distance":0,"is_transit":false},{"station_name":"Rawa Buaya","line":5,"time":3,"transit":false,"i_long":106.723064,"i_lat":-6.162758,"is_transit":false,"station_id":"RW","distance":2504},{"line":0,"transit":false,"station_name":"Bojongindah","is_transit":false,"distance":1152,"i_lat":-6.159876,"time":4,"i_long":106.737035,"station_id":"BOI"},{"distance":2334,"i_long":106.756522,"station_name":"Taman Kota","line":5,"is_transit":false,"i_lat":-6.1587309999999995,"station_id":"TKO","transit":false,"time":2},{"time":2,"station_name":"Pesing","is_transit":false,"i_long":106.771379,"i_lat":-6.161433,"station_id":"PSG","transit":false,"distance":1614,"line":5},{"is_transit":false,"station_name":"Grogol","i_lat":-6.162021,"distance":2036,"station_id":"GGL","transit":false,"i_long":106.788277,"line":5,"time":2}]]}