{"data":[[{"i_lat":-6.166068,"time":0,"station_name":"Kalideres","i_long":106.701612,"is_transit":false,"transit":false,"distance":0,"station_id":"KDS","line":5},{"time":3,"transit":false,"line":5,"i_long":106.723064,"station_id":"RW","is_transit":false,"station_name":"Rawa Buaya","distance":2504,"i_lat":-6.162758},{"time":4,"station_id":"BOI","i_lat":-6.159876,"transit":false,"distance":1152,"i_long":106.737035,"is_transit":false,"station_name":"Bojongindah","line":0},{"time":2,"is_transit":false,"i_long":106.756522,"i_lat":-6.1587309999999995,"station_id":"TKO","station_name":"Taman Kota","transit":false,"line":5,"distance":2334},{"station_id":"PSG","distance":1614,"time":2,"is_transit":false,"i_lat":-6.161433,"i_long":106.771379,"line":5,"transit":false,"station_name":"Pesing"},{"distance":2036,"i_lat":-6.162021,"station_id":"GGL","is_transit":false,"time":2,"i_long":106.788277,"transit":false,"station_name":"Grogol","line":5},{"transit":true,"station_name":"Duri","time":3,"is_transit":true,"i_long":106.800832,"line":1,"station_id":"DU","distance":1700,"i_lat":-6.155215},{"i_long":106.811091,"distance":3632,"is_transit":true,"i_lat":-6.185545,"station_name":"Tanah Abang","transit":false,"line":1,"station_id":"THB","time":8},{"transit":false,"i_long":106.816351,"station_name":"Karet","is_transit":false,"station_id":"KAT","line":1,"distance":2029,"time":5,"i_lat":-6.20132},{"station_name":"Sudirman Baru","station_id":"SUDB","time":1,"transit":false,"distance":471,"i_long":106.819881,"i_lat":-6.201433,"line":1,"is_transit":false}],[{"distance":0,"is_transit":false,"line":5,"time":0,"i_lat":-6.166068,"transit":false,"station_id":"KDS","station_name":"Kalideres","i_long":106.701612},{"transit":false,"time":3,"distance":2504,"station_name":"Rawa Buaya","is_transit":false,"i_long":106.723064,"i_lat":-6.162758,"line":5,"station_id":"RW"},{"i_long":106.737035,"distance":1152,"station_name":"Bojongindah","i_lat":-6.159876,"line":0,"station_id":"BOI","is_transit":false,"transit":false,"time":4},{"station_name":"Taman Kota","is_transit":false,"distance":2334,"line":5,"i_long":106.756522,"transit":false,"station_id":"TKO","i_lat":-6.1587309999999995,"time":2},{"i_lat":-6.161433,"station_id":"PSG","station_name":"Pesing","i_long":106.771379,"time":2,"line":5,"distance":1614,"is_transit":false,"transit":false},{"station_name":"Grogol","is_transit":false,"time":2,"i_lat":-6.162021,"station_id":"GGL","i_long":106.788277,"distance":2036,"transit":false,"line":5},{"is_transit":true,"time":3,"i_lat":-6.155215,"distance":1700,"i_long":106.800832,"line":1,"station_id":"DU","station_name":"Duri","transit":true},{"line":0,"station_id":"AK","is_transit":false,"distance":1230,"i_long":106.79867,"i_lat":-6.144674,"station_name":"Angke","time":4,"transit":false},{"is_transit":true,"time":9,"station_name":"Kampung Bandan","i_lat":-6.132549,"line":0,"distance":4102,"i_long":106.826365,"station_id":"KPB","transit":false},{"time":3,"i_long":106.812439,"transit":true,"station_id":"JAKK","is_transit":true,"line":0,"distance":1364,"i_lat":-6.137569,"station_name":"Jakarta Kota"},{"is_transit":false,"station_name":"Jayakarta","i_long":106.820901,"time":4,"distance":1264,"transit":false,"line":7,"i_lat":-6.141205,"station_id":"JAY"},{"station_name":"Manggabesar","is_transit":false,"time":2,"i_long":106.82482,"i_lat":-6.149769,"line":2,"distance":1080,"station_id":"MGB","transit":false},{"distance":906,"i_lat":-6.160725,"i_long":106.827103,"line":2,"station_id":"SW","station_name":"Sawah Besar","is_transit":false,"transit":false,"time":2},{"line":2,"station_name":"Juanda","i_lat":-6.166716,"i_long":106.828284,"is_transit":false,"time":2,"distance":1149,"transit":false,"station_id":"JUA"},{"is_transit":false,"distance":2015,"time":4,"transit":false,"line":2,"station_name":"Gondangdia","i_long":106.832183,"i_lat":-6.186295,"station_id":"GDD"},{"is_transit":false,"transit":false,"time":3,"station_name":"Cikini","i_long":106.840169,"station_id":"CKI","i_lat":-6.198556,"line":0,"distance":1750},{"station_id":"MRI","station_name":"Manggarai","time":4,"distance":1590,"is_transit":true,"line":0,"transit":true,"i_lat":-6.209883,"i_long":106.84912},{"station_id":"SUD","distance":3186,"time":4,"i_lat":-6.202263,"transit":false,"i_long":106.822649,"station_name":"Sudirman","line":1,"is_transit":false},{"distance":280,"station_name":"Sudirman Baru","line":1,"i_long":106.819881,"transit":false,"i_lat":-6.201433,"station_id":"SUDB","is_transit":false,"time":1}],[{"time":0,"is_transit":false,"i_lat":-6.166068,"station_name":"Kalideres","line":5,"station_id":"KDS","i_long":106.701612,"distance":0,"transit":false},{"transit":false,"time":3,"station_id":"RW","distance":2504,"is_transit":false,"station_name":"Rawa Buaya","i_long":106.723064,"i_lat":-6.162758,"line":5},{"i_long":106.737035,"station_id":"BOI","line":0,"is_transit":false,"station_name":"Bojongindah","distance":1152,"i_lat":-6.159876,"time":4,"transit":false},{"time":2,"transit":false,"station_name":"Taman Kota","distance":2334,"line":5,"is_transit":false,"i_lat":-6.1587309999999995,"i_long":106.756522,"station_id":"TKO"},{"distance":1614,"is_transit":false,"i_long":106.771379,"station_id":"PSG","i_lat":-6.161433,"line":5,"time":2,"transit":false,"station_name":"Pesing"},{"transit":false,"i_lat":-6.162021,"station_id":"GGL","is_transit":false,"distance":2036,"i_long":106.788277,"line":5,"time":2,"station_name":"Grogol"},{"station_id":"DU","distance":1700,"time":3,"station_name":"Duri","transit":true,"is_transit":true,"i_lat":-6.155215,"i_long":106.800832,"line":1},{"station_id":"AK","i_long":106.79867,"line":0,"is_transit":false,"time":4,"station_name":"Angke","distance":1230,"transit":false,"i_lat":-6.144674},{"station_id":"KPB","line":0,"station_name":"Kampung Bandan","time":9,"transit":true,"i_long":106.826365,"is_transit":true,"distance":4102,"i_lat":-6.132549},{"transit":false,"station_id":"RJW","station_name":"Rajawali","is_transit":false,"distance":1444,"i_lat":-6.14505,"i_long":106.836569,"time":3,"line":11},{"station_name":"Kemayoran","i_lat":-6.161728,"transit":false,"station_id":"KMO","i_long":106.839204,"is_transit":false,"distance":1901,"line":11,"time":5},{"station_name":"Pasar Senen","station_id":"PSE","time":4,"transit":false,"line":11,"i_long":106.84368,"distance":1436,"is_transit":false,"i_lat":-6.174784},{"line":11,"transit":false,"station_name":"Gang Sentiong","time":8,"i_long":106.850107,"station_id":"GST","is_transit":false,"distance":1567,"i_lat":-6.185975},{"i_long":106.855437,"line":11,"i_lat":-6.193792,"is_transit":false,"time":1,"distance":973,"transit":false,"station_name":"Kramat","station_id":"KMT"},{"distance":1829,"transit":false,"i_lat":-6.209188,"station_id":"POK","line":11,"i_long":106.861737,"is_transit":false,"time":2,"station_name":"Pondok Jati"},{"i_long":106.86807400000001,"time":9,"transit":true,"line":0,"station_id":"JNG","distance":1236,"i_lat":-6.215091,"is_transit":true,"station_name":"Jatinegara"},{"is_transit":false,"line":1,"station_name":"Matraman","time":2,"distance":1377,"i_lat":-6.212485,"i_long":106.858896,"transit":false,"station_id":"MTR"},{"transit":false,"line":0,"is_transit":true,"station_id":"MRI","distance":1275,"i_lat":-6.209883,"i_long":106.84912,"time":2,"station_name":"Manggarai"},{"station_name":"Sudirman","transit":false,"line":1,"time":4,"station_id":"SUD","distance":3186,"i_lat":-6.202263,"is_transit":false,"i_long":106.822649},{"station_name":"Sudirman Baru","distance":280,"transit":false,"i_lat":-6.201433,"line":1,"is_transit":false,"station_id":"SUDB","time":1,"i_long":106.819881}]]}