{"data":[[{"i_lat":-6.166068,"distance":0,"line":5,"station_id":"KDS","i_long":106.701612,"station_name":"Kalideres","is_transit":false,"time":0,"transit":false},{"transit":false,"station_name":"Rawa Buaya","is_transit":false,"i_lat":-6.162758,"line":5,"distance":2504,"station_id":"RW","i_long":106.723064,"time":3},{"i_lat":-6.159876,"station_id":"BOI","time":4,"distance":1152,"i_long":106.737035,"station_name":"Bojongindah","is_transit":false,"transit":false,"line":5},{"i_long":106.756522,"is_transit":false,"time":2,"transit":false,"station_name":"Taman Kota","i_lat":-6.1587309999999995,"line":5,"distance":2334,"station_id":"TKO"},{"transit":false,"i_long":106.771379,"station_name":"Pesing","station_id":"PSG","distance":1614,"i_lat":-6.161433,"is_transit":false,"line":5,"time":2},{"station_id":"GGL","station_name":"Grogol","time":2,"transit":false,"distance":2036,"i_lat":-6.162021,"i_long":106.788277,"line":5,"is_transit":false}]]}