{"data":[[{"i_lat":-6.166068,"distance":0,"i_long":106.701612,"time":0,"station_name":"Kalideres","is_transit":false,"station_id":"KDS","line":5,"transit":false},{"station_id":"RW","is_transit":false,"time":3,"station_name":"Rawa Buaya","transit":false,"distance":2504,"i_lat":-6.162758,"line":5,"i_long":106.723064},{"i_lat":-6.159876,"i_long":106.737035,"line":5,"time":4,"is_transit":false,"distance":1152,"transit":false,"station_id":"BOI","station_name":"Bojongindah"},{"station_name":"Taman Kota","station_id":"TKO","i_long":106.756522,"distance":2334,"line":5,"i_lat":-6.1587309999999995,"time":2,"is_transit":false,"transit":false},{"station_id":"PSG","is_transit":false,"i_long":106.771379,"transit":false,"time":2,"distance":1614,"station_name":"Pesing","i_lat":-6.161433,"line":5},{"station_name":"Grogol","distance":2036,"line":5,"i_long":106.788277,"station_id":"GRG","transit":false,"i_lat":-6.162021,"is_transit":false,"time":2},{"time":3,"distance":1700,"line":1,"station_name":"Duri","is_transit":true,"transit":true,"i_long":106.800832,"station_id":"DU","i_lat":-6.155215},{"station_name":"Angke","transit":false,"i_lat":-6.144674,"distance":1230,"line":1,"station_id":"AK","is_transit":false,"i_long":106.79867,"time":4},{"distance":4102,"station_id":"KPB","line":4,"transit":false,"time":9,"i_lat":-6.132549,"station_name":"Kampung Bandan","i_long":106.826365,"is_transit":false}],[{"distance":0,"time":0,"station_id":"KDS","station_name":"Kalideres","transit":false,"line":5,"i_long":106.701612,"i_lat":-6.166068,"is_transit":false},{"transit":false,"is_transit":false,"i_long":106.723064,"time":3,"distance":2504,"station_id":"RW","station_name":"Rawa Buaya","line":5,"i_lat":-6.162758},{"time":4,"is_transit":false,"distance":1152,"i_long":106.737035,"line":5,"station_name":"Bojongindah","transit":false,"i_lat":-6.159876,"station_id":"BOI"},{"transit":false,"i_lat":-6.1587309999999995,"station_name":"Taman Kota","time":2,"is_transit":false,"distance":2334,"line":5,"i_long":106.756522,"station_id":"TKO"},{"time":2,"distance":1614,"is_transit":false,"transit":false,"line":5,"i_lat":-6.161433,"station_id":"PSG","station_name":"Pesing","i_long":106.771379},{"distance":2036,"is_transit":false,"station_id":"GRG","time":2,"transit":false,"i_long":106.788277,"station_name":"Grogol","line":5,"i_lat":-6.162021},{"i_long":106.800832,"time":3,"line":1,"i_lat":-6.155215,"station_name":"Duri","distance":1700,"is_transit":true,"station_id":"DU","transit":true},{"station_id":"THB","transit":false,"station_name":"Tanah Abang","is_transit":false,"i_long":106.811091,"line":1,"i_lat":-6.185545,"time":8,"distance":3632},{"transit":false,"station_id":"KAT","distance":2029,"station_name":"Karet","time":5,"i_lat":-6.20132,"is_transit":false,"i_long":106.816351,"line":1},{"time":1,"is_transit":false,"line":1,"station_id":"SUDB","transit":false,"i_lat":-6.201433,"station_name":"Sudirman Baru","distance":471,"i_long":106.819881},{"distance":280,"line":1,"i_lat":-6.202263,"station_id":"SUD","is_transit":false,"station_name":"Sudirman","i_long":106.822649,"time":1,"transit":false},{"i_long":106.84912,"i_lat":-6.209883,"is_transit":true,"distance":3186,"line":2,"station_id":"MRI","station_name":"Manggarai","transit":true,"time":4},{"station_id":"CKI","station_name":"Cikini","distance":1590,"i_lat":-6.198556,"i_long":106.840169,"is_transit":false,"time":4,"transit":false,"line":2},{"is_transit":false,"line":2,"i_lat":-6.186295,"time":3,"transit":false,"station_name":"Gondangdia","distance":1750,"station_id":"GDD","i_long":106.832183},{"is_transit":false,"transit":false,"i_lat":-6.166716,"distance":2015,"station_id":"JUA","station_name":"Juanda","time":4,"i_long":106.828284,"line":2},{"i_lat":-6.160725,"station_name":"Sawah Besar","station_id":"SW","distance":1149,"i_long":106.827103,"is_transit":false,"transit":false,"line":2,"time":2},{"i_long":106.82482,"line":2,"station_id":"MGB","i_lat":-6.149769,"time":2,"station_name":"Manggabesar","distance":906,"is_transit":false,"transit":false},{"is_transit":false,"time":2,"i_lat":-6.141205,"i_long":106.820901,"transit":false,"station_id":"JAY","station_name":"Jayakarta","distance":1080,"line":2},{"transit":true,"i_lat":-6.137569,"line":2,"station_name":"Jakarta Kota","station_id":"JAKK","distance":1264,"is_transit":true,"i_long":106.812439,"time":4},{"time":3,"distance":1364,"station_name":"Kampung Bandan","station_id":"KPB","transit":false,"i_lat":-6.132549,"is_transit":false,"line":4,"i_long":106.826365}],[{"time":0,"line":5,"is_transit":false,"station_name":"Kalideres","station_id":"KDS","i_long":106.701612,"i_lat":-6.166068,"distance":0,"transit":false},{"distance":2504,"station_id":"RW","station_name":"Rawa Buaya","transit":false,"i_long":106.723064,"i_lat":-6.162758,"time":3,"is_transit":false,"line":5},{"station_id":"BOI","line":5,"transit":false,"i_long":106.737035,"is_transit":false,"station_name":"Bojongindah","time":4,"distance":1152,"i_lat":-6.159876},{"time":2,"station_id":"TKO","i_lat":-6.1587309999999995,"distance":2334,"i_long":106.756522,"line":5,"transit":false,"is_transit":false,"station_name":"Taman Kota"},{"is_transit":false,"time":2,"transit":false,"line":5,"i_lat":-6.161433,"station_name":"Pesing","i_long":106.771379,"distance":1614,"station_id":"PSG"},{"distance":2036,"i_lat":-6.162021,"transit":false,"time":2,"is_transit":false,"station_id":"GRG","i_long":106.788277,"station_name":"Grogol","line":5},{"distance":1700,"is_transit":true,"time":3,"line":1,"i_lat":-6.155215,"station_id":"DU","i_long":106.800832,"station_name":"Duri","transit":true},{"transit":false,"time":8,"station_id":"THB","is_transit":false,"station_name":"Tanah Abang","i_lat":-6.185545,"distance":3632,"i_long":106.811091,"line":1},{"time":5,"i_lat":-6.20132,"i_long":106.816351,"is_transit":false,"transit":false,"station_id":"KAT","line":1,"distance":2029,"station_name":"Karet"},{"time":1,"distance":471,"is_transit":false,"i_lat":-6.201433,"transit":false,"station_name":"Sudirman Baru","station_id":"SUDB","i_long":106.819881,"line":1},{"distance":280,"i_lat":-6.202263,"station_name":"Sudirman","is_transit":false,"i_long":106.822649,"line":1,"time":1,"transit":false,"station_id":"SUD"},{"i_lat":-6.209883,"station_name":"Manggarai","time":4,"i_long":106.84912,"distance":3186,"station_id":"MRI","is_transit":false,"transit":false,"line":2},{"transit":false,"distance":1275,"line":1,"station_name":"Matraman","time":2,"is_transit":false,"station_id":"MTR","i_lat":-6.212485,"i_long":106.858896},{"distance":1377,"transit":true,"station_name":"Jatinegara","station_id":"JNG","i_long":106.86807400000001,"is_transit":true,"i_lat":-6.215091,"line":1,"time":8},{"time":2,"transit":false,"distance":1236,"station_name":"Pondok Jati","i_long":106.861737,"i_lat":-6.209188,"is_transit":false,"station_id":"POK","line":11},{"line":11,"station_name":"Kramat","distance":1829,"transit":false,"station_id":"KMT","is_transit":false,"i_long":106.855437,"i_lat":-6.193792,"time":2},{"i_long":106.850107,"station_name":"Gang Sentiong","i_lat":-6.185975,"time":1,"station_id":"GST","transit":false,"line":11,"distance":973,"is_transit":false},{"transit":false,"time":8,"line":11,"i_lat":-6.174784,"i_long":106.84368,"distance":1567,"station_id":"PSE","station_name":"Pasar Senen","is_transit":false},{"i_lat":-6.161728,"station_name":"Kemayoran","station_id":"KMO","i_long":106.839204,"time":4,"transit":false,"distance":1436,"is_transit":false,"line":11},{"i_lat":-6.14505,"station_name":"Rajawali","i_long":106.836569,"line":11,"is_transit":false,"distance":1901,"time":5,"transit":false,"station_id":"RJW"},{"transit":false,"i_long":106.826365,"is_transit":false,"distance":1444,"time":3,"i_lat":-6.132549,"station_id":"KPB","line":4,"station_name":"Kampung Bandan"}]]}