{"data":[[{"distance":0,"line":5,"time":0,"station_id":"KDS","i_long":106.701612,"is_transit":false,"station_name":"Kalideres","transit":false,"i_lat":-6.166068},{"station_name":"Rawa Buaya","transit":false,"is_transit":false,"time":3,"i_lat":-6.162758,"line":5,"i_long":106.723064,"distance":2504,"station_id":"RW"},{"distance":1152,"station_name":"Bojongindah","time":4,"is_transit":false,"station_id":"BOI","i_lat":-6.159876,"transit":false,"i_long":106.737035,"line":5},{"station_id":"TKO","distance":2334,"time":2,"transit":false,"i_long":106.756522,"line":5,"i_lat":-6.1587309999999995,"station_name":"Taman Kota","is_transit":false},{"line":5,"is_transit":false,"i_long":106.771379,"distance":1614,"station_id":"PSG","time":2,"i_lat":-6.161433,"transit":false,"station_name":"Pesing"},{"distance":2036,"station_id":"GGL","transit":false,"station_name":"Grogol","time":2,"i_long":106.788277,"i_lat":-6.162021,"is_transit":false,"line":5},{"i_long":106.800832,"line":1,"station_id":"DU","transit":true,"i_lat":-6.155215,"is_transit":true,"time":3,"station_name":"Duri","distance":1700},{"i_lat":-6.185545,"i_long":106.811091,"station_name":"Tanah Abang","line":1,"station_id":"THB","distance":3632,"time":8,"is_transit":true,"transit":true},{"i_lat":-6.207404,"line":6,"is_transit":false,"i_long":106.79689,"distance":3191,"station_id":"PLM","time":6,"transit":false,"station_name":"Palmerah"},{"distance":3737,"station_id":"KBY","time":7,"transit":false,"station_name":"Kebayoran","i_lat":-6.237242,"is_transit":false,"line":6,"i_long":106.780334}],[{"distance":0,"is_transit":false,"time":0,"i_long":106.701612,"line":5,"i_lat":-6.166068,"station_id":"KDS","transit":false,"station_name":"Kalideres"},{"station_id":"RW","time":3,"i_lat":-6.162758,"is_transit":false,"line":5,"distance":2504,"i_long":106.723064,"station_name":"Rawa Buaya","transit":false},{"time":4,"distance":1152,"is_transit":false,"station_name":"Bojongindah","transit":false,"i_lat":-6.159876,"i_long":106.737035,"line":5,"station_id":"BOI"},{"time":2,"i_lat":-6.1587309999999995,"is_transit":false,"transit":false,"i_long":106.756522,"station_id":"TKO","station_name":"Taman Kota","distance":2334,"line":5},{"transit":false,"station_id":"PSG","station_name":"Pesing","i_lat":-6.161433,"time":2,"is_transit":false,"distance":1614,"i_long":106.771379,"line":5},{"station_name":"Grogol","time":2,"line":5,"transit":false,"i_long":106.788277,"i_lat":-6.162021,"distance":2036,"station_id":"GGL","is_transit":false},{"line":1,"distance":1700,"station_name":"Duri","transit":true,"i_lat":-6.155215,"i_long":106.800832,"time":3,"is_transit":true,"station_id":"DU"},{"is_transit":false,"station_id":"AK","station_name":"Angke","time":4,"transit":false,"distance":1230,"i_lat":-6.144674,"i_long":106.79867,"line":1},{"i_long":106.826365,"station_name":"Kampung Bandan","line":4,"i_lat":-6.132549,"station_id":"KPB","transit":true,"distance":4102,"is_transit":true,"time":9},{"i_long":106.812439,"distance":1364,"station_id":"JAKK","time":3,"is_transit":true,"transit":true,"i_lat":-6.137569,"station_name":"Jakarta Kota","line":2},{"line":2,"station_name":"Jayakarta","distance":1264,"is_transit":false,"station_id":"JAY","time":4,"i_lat":-6.141205,"i_long":106.820901,"transit":false},{"time":2,"is_transit":false,"station_id":"MGB","station_name":"Manggabesar","distance":1080,"i_long":106.82482,"transit":false,"i_lat":-6.149769,"line":2},{"transit":false,"i_long":106.827103,"time":2,"line":2,"is_transit":false,"station_id":"SW","distance":906,"station_name":"Sawah Besar","i_lat":-6.160725},{"time":2,"transit":false,"i_long":106.828284,"station_name":"Juanda","line":2,"i_lat":-6.166716,"is_transit":false,"distance":1149,"station_id":"JUA"},{"i_lat":-6.186295,"transit":false,"station_id":"GDD","line":2,"is_transit":false,"station_name":"Gondangdia","time":4,"i_long":106.832183,"distance":2015},{"is_transit":false,"station_id":"CKI","transit":false,"distance":1750,"station_name":"Cikini","line":2,"i_long":106.840169,"time":3,"i_lat":-6.198556},{"i_long":106.84912,"is_transit":true,"station_name":"Manggarai","transit":true,"distance":1590,"station_id":"MRI","line":2,"time":4,"i_lat":-6.209883},{"distance":3186,"is_transit":false,"station_id":"SUD","line":1,"time":4,"station_name":"Sudirman","transit":false,"i_lat":-6.202263,"i_long":106.822649},{"line":1,"station_id":"SUDB","station_name":"Sudirman Baru","is_transit":false,"transit":false,"distance":280,"time":1,"i_lat":-6.201433,"i_long":106.819881},{"i_lat":-6.20132,"time":1,"station_id":"KAT","transit":false,"distance":471,"is_transit":false,"i_long":106.816351,"line":1,"station_name":"Karet"},{"distance":2029,"line":1,"time":5,"station_name":"Tanah Abang","station_id":"THB","i_lat":-6.185545,"i_long":106.811091,"transit":true,"is_transit":true},{"transit":false,"station_id":"PLM","is_transit":false,"station_name":"Palmerah","i_lat":-6.207404,"line":6,"distance":3191,"i_long":106.79689,"time":6},{"station_name":"Kebayoran","station_id":"KBY","transit":false,"i_long":106.780334,"line":6,"distance":3737,"time":7,"is_transit":false,"i_lat":-6.237242}],[{"station_id":"KDS","is_transit":false,"station_name":"Kalideres","i_lat":-6.166068,"i_long":106.701612,"line":5,"distance":0,"transit":false,"time":0},{"transit":false,"i_lat":-6.162758,"line":5,"i_long":106.723064,"distance":2504,"station_name":"Rawa Buaya","station_id":"RW","time":3,"is_transit":false},{"i_lat":-6.159876,"line":5,"station_name":"Bojongindah","station_id":"BOI","time":4,"distance":1152,"i_long":106.737035,"transit":false,"is_transit":false},{"is_transit":false,"time":2,"distance":2334,"transit":false,"line":5,"station_id":"TKO","station_name":"Taman Kota","i_lat":-6.1587309999999995,"i_long":106.756522},{"transit":false,"time":2,"is_transit":false,"i_lat":-6.161433,"line":5,"distance":1614,"station_name":"Pesing","i_long":106.771379,"station_id":"PSG"},{"line":5,"station_id":"GGL","time":2,"transit":false,"i_lat":-6.162021,"distance":2036,"station_name":"Grogol","i_long":106.788277,"is_transit":false},{"transit":true,"time":3,"line":1,"distance":1700,"station_id":"DU","i_long":106.800832,"station_name":"Duri","i_lat":-6.155215,"is_transit":true},{"line":1,"time":4,"transit":false,"station_id":"AK","i_lat":-6.144674,"station_name":"Angke","distance":1230,"is_transit":false,"i_long":106.79867},{"station_name":"Kampung Bandan","time":9,"is_transit":true,"i_lat":-6.132549,"distance":4102,"station_id":"KPB","transit":true,"i_long":106.826365,"line":4},{"line":11,"time":3,"distance":1444,"station_id":"RJW","is_transit":false,"i_lat":-6.14505,"i_long":106.836569,"transit":false,"station_name":"Rajawali"},{"station_id":"KMO","transit":false,"station_name":"Kemayoran","time":5,"i_lat":-6.161728,"distance":1901,"line":11,"i_long":106.839204,"is_transit":false},{"time":4,"transit":false,"distance":1436,"station_name":"Pasar Senen","i_long":106.84368,"line":11,"station_id":"PSE","i_lat":-6.174784,"is_transit":false},{"line":11,"transit":false,"i_long":106.850107,"station_name":"Gang Sentiong","station_id":"GST","time":8,"distance":1567,"is_transit":false,"i_lat":-6.185975},{"station_id":"KMT","time":1,"line":11,"station_name":"Kramat","transit":false,"i_long":106.855437,"is_transit":false,"i_lat":-6.193792,"distance":973},{"i_long":106.861737,"time":2,"station_name":"Pondok Jati","station_id":"POK","transit":false,"distance":1829,"line":11,"is_transit":false,"i_lat":-6.209188},{"i_long":106.86807400000001,"i_lat":-6.215091,"line":1,"transit":true,"station_id":"JNG","is_transit":true,"station_name":"Jatinegara","distance":1236,"time":9},{"distance":1377,"station_name":"Matraman","time":2,"station_id":"MTR","transit":false,"i_lat":-6.212485,"i_long":106.858896,"is_transit":false,"line":1},{"time":2,"station_name":"Manggarai","i_long":106.84912,"station_id":"MRI","i_lat":-6.209883,"transit":false,"distance":1275,"is_transit":false,"line":2},{"is_transit":false,"station_name":"Sudirman","i_lat":-6.202263,"time":4,"distance":3186,"station_id":"SUD","i_long":106.822649,"transit":false,"line":1},{"line":1,"time":1,"transit":false,"i_lat":-6.201433,"station_name":"Sudirman Baru","distance":280,"station_id":"SUDB","i_long":106.819881,"is_transit":false},{"station_id":"KAT","distance":471,"i_long":106.816351,"station_name":"Karet","is_transit":false,"transit":false,"i_lat":-6.20132,"time":1,"line":1},{"i_lat":-6.185545,"time":5,"transit":true,"line":1,"distance":2029,"i_long":106.811091,"is_transit":true,"station_id":"THB","station_name":"Tanah Abang"},{"line":6,"i_long":106.79689,"time":6,"transit":false,"station_id":"PLM","distance":3191,"station_name":"Palmerah","is_transit":false,"i_lat":-6.207404},{"distance":3737,"is_transit":false,"station_name":"Kebayoran","line":6,"station_id":"KBY","transit":false,"time":7,"i_lat":-6.237242,"i_long":106.780334}]]}