{"data":[[{"station_name":"Kalideres","i_lat":-6.166068,"line":5,"is_transit":false,"i_long":106.701612,"transit":false,"station_id":"KDS","time":0,"distance":0},{"distance":2504,"station_name":"Rawa Buaya","time":3,"transit":false,"is_transit":false,"i_long":106.723064,"line":5,"station_id":"RW","i_lat":-6.162758},{"station_name":"Bojongindah","line":5,"distance":1152,"time":4,"i_lat":-6.159876,"i_long":106.737035,"station_id":"BOI","is_transit":false,"transit":false},{"station_name":"Taman Kota","time":2,"is_transit":false,"i_lat":-6.1587309999999995,"transit":false,"i_long":106.756522,"line":5,"distance":2334,"station_id":"TKO"},{"distance":1614,"station_name":"Pesing","is_transit":false,"station_id":"PSG","line":5,"time":2,"transit":false,"i_lat":-6.161433,"i_long":106.771379},{"line":5,"station_name":"Grogol","station_id":"GGL","time":2,"transit":false,"i_lat":-6.162021,"i_long":106.788277,"is_transit":false,"distance":2036},{"line":1,"station_name":"Duri","is_transit":true,"time":3,"transit":true,"station_id":"DU","distance":1700,"i_lat":-6.155215,"i_long":106.800832},{"i_lat":-6.185545,"i_long":106.811091,"transit":true,"station_id":"THB","distance":3632,"time":8,"station_name":"Tanah Abang","line":1,"is_transit":true},{"is_transit":false,"line":6,"distance":3191,"station_id":"PLM","station_name":"Palmerah","i_lat":-6.207404,"transit":false,"time":6,"i_long":106.79689},{"i_long":106.780334,"station_id":"KBY","line":6,"distance":3737,"transit":false,"station_name":"Kebayoran","time":7,"is_transit":false,"i_lat":-6.237242},{"i_long":106.74273,"station_id":"PDJ","station_name":"Pondokranji","line":6,"i_lat":-6.276362,"is_transit":false,"distance":6218,"transit":false,"time":8},{"i_lat":-6.288927,"distance":2179,"i_long":106.728916,"line":6,"station_name":"Jurangmangu","transit":false,"is_transit":false,"station_id":"JMU","time":3},{"station_name":"Sudimara","is_transit":false,"station_id":"SDM","line":6,"transit":false,"time":4,"distance":1994,"i_lat":-6.296963,"i_long":106.712277},{"is_transit":false,"line":6,"time":6,"station_id":"RU","distance":4566,"i_long":106.675475,"transit":false,"station_name":"Rawa Buntu","i_lat":-6.314823},{"transit":false,"line":6,"i_long":106.66566,"station_id":"SRP","distance":2413,"station_name":"Serpong","is_transit":false,"time":4,"i_lat":-6.319871},{"time":4,"i_lat":-6.32484,"is_transit":false,"station_name":"Cisauk","i_long":106.640411,"line":3,"distance":1784,"station_id":"CSK","transit":false},{"line":3,"time":4,"i_long":106.617853,"station_id":"CC","transit":false,"is_transit":false,"i_lat":-6.329547,"distance":2519,"station_name":"Cicayur"},{"distance":5968,"i_long":106.568863,"i_lat":-6.3441410000000005,"station_name":"Parung Panjang","line":6,"is_transit":false,"time":8,"station_id":"PRP","transit":false},{"transit":false,"station_id":"CJT","line":3,"distance":7025,"i_long":106.508482,"station_name":"Cilejit","i_lat":-6.354349,"is_transit":false,"time":9},{"i_lat":-6.338021,"line":0,"station_id":"DAR","station_name":"Daru","time":6,"i_long":106.491338,"distance":2675,"transit":false,"is_transit":false},{"time":5,"station_name":"Tenjo","distance":3902,"i_lat":-6.327251,"transit":false,"i_long":106.460812,"is_transit":false,"line":6,"station_id":"TEJ"},{"time":5,"station_name":"Tigaraksa","transit":false,"line":6,"station_id":"TGS","distance":2974,"i_long":106.425991,"i_lat":-6.328533,"is_transit":false},{"station_name":"Cikoya","station_id":"CKY","is_transit":false,"time":3,"distance":2651,"i_lat":-6.33561,"i_long":106.411216,"line":3,"transit":false},{"i_lat":-6.332307,"station_id":"MJ","time":4,"station_name":"Maja","distance":1853,"i_long":106.394373,"line":6,"transit":false,"is_transit":false}],[{"station_name":"Kalideres","distance":0,"line":5,"i_long":106.701612,"i_lat":-6.166068,"is_transit":false,"transit":false,"station_id":"KDS","time":0},{"i_lat":-6.162758,"i_long":106.723064,"line":5,"station_name":"Rawa Buaya","is_transit":false,"transit":false,"time":3,"distance":2504,"station_id":"RW"},{"distance":1152,"i_long":106.737035,"line":5,"time":4,"transit":false,"i_lat":-6.159876,"station_name":"Bojongindah","is_transit":false,"station_id":"BOI"},{"transit":false,"i_long":106.756522,"distance":2334,"i_lat":-6.1587309999999995,"is_transit":false,"line":5,"time":2,"station_name":"Taman Kota","station_id":"TKO"},{"time":2,"i_lat":-6.161433,"is_transit":false,"i_long":106.771379,"distance":1614,"transit":false,"station_name":"Pesing","line":5,"station_id":"PSG"},{"station_id":"GGL","i_lat":-6.162021,"line":5,"i_long":106.788277,"station_name":"Grogol","is_transit":false,"time":2,"distance":2036,"transit":false},{"i_long":106.800832,"station_id":"DU","distance":1700,"i_lat":-6.155215,"line":1,"transit":true,"time":3,"is_transit":true,"station_name":"Duri"},{"line":1,"distance":1230,"station_id":"AK","i_long":106.79867,"i_lat":-6.144674,"station_name":"Angke","is_transit":false,"transit":false,"time":4},{"i_long":106.826365,"station_name":"Kampung Bandan","distance":4102,"is_transit":true,"time":9,"transit":true,"i_lat":-6.132549,"line":4,"station_id":"KPB"},{"station_id":"JAKK","i_lat":-6.137569,"transit":true,"line":2,"station_name":"Jakarta Kota","time":3,"i_long":106.812439,"distance":1364,"is_transit":true},{"is_transit":false,"i_long":106.820901,"i_lat":-6.141205,"time":4,"station_name":"Jayakarta","distance":1264,"transit":false,"station_id":"JAY","line":2},{"station_name":"Manggabesar","i_long":106.82482,"line":2,"transit":false,"is_transit":false,"station_id":"MGB","time":2,"distance":1080,"i_lat":-6.149769},{"station_id":"SW","transit":false,"station_name":"Sawah Besar","is_transit":false,"i_lat":-6.160725,"line":2,"i_long":106.827103,"distance":906,"time":2},{"transit":false,"line":2,"is_transit":false,"station_id":"JUA","i_lat":-6.166716,"station_name":"Juanda","time":2,"distance":1149,"i_long":106.828284},{"transit":false,"is_transit":false,"i_long":106.832183,"station_id":"GDD","distance":2015,"station_name":"Gondangdia","i_lat":-6.186295,"time":4,"line":2},{"i_long":106.840169,"i_lat":-6.198556,"station_name":"Cikini","transit":false,"station_id":"CKI","line":2,"time":3,"distance":1750,"is_transit":false},{"station_name":"Manggarai","line":2,"is_transit":true,"transit":true,"i_lat":-6.209883,"i_long":106.84912,"station_id":"MRI","time":4,"distance":1590},{"i_long":106.822649,"time":4,"station_name":"Sudirman","station_id":"SUD","is_transit":false,"distance":3186,"transit":false,"i_lat":-6.202263,"line":1},{"transit":false,"time":1,"station_id":"SUDB","i_long":106.819881,"line":1,"i_lat":-6.201433,"distance":280,"station_name":"Sudirman Baru","is_transit":false},{"i_long":106.816351,"station_name":"Karet","line":1,"is_transit":false,"i_lat":-6.20132,"station_id":"KAT","transit":false,"distance":471,"time":1},{"i_lat":-6.185545,"time":5,"station_name":"Tanah Abang","transit":true,"line":1,"i_long":106.811091,"is_transit":true,"distance":2029,"station_id":"THB"},{"time":6,"station_id":"PLM","transit":false,"station_name":"Palmerah","is_transit":false,"i_long":106.79689,"line":6,"distance":3191,"i_lat":-6.207404},{"i_long":106.780334,"distance":3737,"is_transit":false,"station_id":"KBY","transit":false,"i_lat":-6.237242,"station_name":"Kebayoran","time":7,"line":6},{"is_transit":false,"time":8,"i_long":106.74273,"distance":6218,"i_lat":-6.276362,"line":6,"transit":false,"station_name":"Pondokranji","station_id":"PDJ"},{"transit":false,"is_transit":false,"i_lat":-6.288927,"station_name":"Jurangmangu","line":6,"station_id":"JMU","i_long":106.728916,"time":3,"distance":2179},{"distance":1994,"i_lat":-6.296963,"transit":false,"i_long":106.712277,"line":6,"station_name":"Sudimara","time":4,"station_id":"SDM","is_transit":false},{"transit":false,"station_name":"Rawa Buntu","station_id":"RU","i_lat":-6.314823,"i_long":106.675475,"is_transit":false,"time":6,"distance":4566,"line":6},{"is_transit":false,"station_id":"SRP","i_long":106.66566,"time":4,"distance":2413,"line":6,"i_lat":-6.319871,"station_name":"Serpong","transit":false},{"distance":1784,"i_lat":-6.32484,"i_long":106.640411,"transit":false,"station_name":"Cisauk","time":4,"line":3,"station_id":"CSK","is_transit":false},{"distance":2519,"i_lat":-6.329547,"line":3,"is_transit":false,"station_name":"Cicayur","station_id":"CC","time":4,"i_long":106.617853,"transit":false},{"time":8,"station_name":"Parung Panjang","station_id":"PRP","distance":5968,"line":6,"i_long":106.568863,"transit":false,"is_transit":false,"i_lat":-6.3441410000000005},{"station_id":"CJT","is_transit":false,"line":3,"time":9,"i_lat":-6.354349,"distance":7025,"transit":false,"i_long":106.508482,"station_name":"Cilejit"},{"line":0,"transit":false,"is_transit":false,"station_name":"Daru","station_id":"DAR","time":6,"distance":2675,"i_long":106.491338,"i_lat":-6.338021},{"line":6,"transit":false,"time":5,"distance":3902,"station_id":"TEJ","station_name":"Tenjo","i_lat":-6.327251,"i_long":106.460812,"is_transit":false},{"i_long":106.425991,"station_name":"Tigaraksa","is_transit":false,"i_lat":-6.328533,"distance":2974,"time":5,"transit":false,"station_id":"TGS","line":6},{"station_name":"Cikoya","distance":2651,"transit":false,"station_id":"CKY","i_lat":-6.33561,"line":3,"is_transit":false,"i_long":106.411216,"time":3},{"transit":false,"station_name":"Maja","time":4,"i_lat":-6.332307,"station_id":"MJ","i_long":106.394373,"distance":1853,"line":6,"is_transit":false}],[{"station_id":"KDS","is_transit":false,"i_lat":-6.166068,"distance":0,"time":0,"station_name":"Kalideres","transit":false,"i_long":106.701612,"line":5},{"is_transit":false,"i_lat":-6.162758,"line":5,"station_id":"RW","i_long":106.723064,"transit":false,"station_name":"Rawa Buaya","distance":2504,"time":3},{"time":4,"station_name":"Bojongindah","is_transit":false,"station_id":"BOI","i_lat":-6.159876,"transit":false,"line":5,"i_long":106.737035,"distance":1152},{"distance":2334,"time":2,"station_id":"TKO","is_transit":false,"i_lat":-6.1587309999999995,"i_long":106.756522,"line":5,"transit":false,"station_name":"Taman Kota"},{"transit":false,"time":2,"station_name":"Pesing","i_long":106.771379,"station_id":"PSG","distance":1614,"is_transit":false,"line":5,"i_lat":-6.161433},{"is_transit":false,"station_id":"GGL","i_lat":-6.162021,"distance":2036,"line":5,"transit":false,"time":2,"station_name":"Grogol","i_long":106.788277},{"line":1,"transit":true,"station_name":"Duri","is_transit":true,"i_long":106.800832,"distance":1700,"time":3,"i_lat":-6.155215,"station_id":"DU"},{"station_id":"AK","is_transit":false,"transit":false,"distance":1230,"i_lat":-6.144674,"line":1,"i_long":106.79867,"station_name":"Angke","time":4},{"distance":4102,"line":4,"time":9,"i_lat":-6.132549,"i_long":106.826365,"station_name":"Kampung Bandan","station_id":"KPB","is_transit":true,"transit":true},{"time":3,"distance":1444,"line":11,"station_id":"RJW","i_lat":-6.14505,"i_long":106.836569,"transit":false,"station_name":"Rajawali","is_transit":false},{"time":5,"line":11,"station_id":"KMO","is_transit":false,"transit":false,"i_long":106.839204,"station_name":"Kemayoran","distance":1901,"i_lat":-6.161728},{"is_transit":false,"transit":false,"station_name":"Pasar Senen","station_id":"PSE","i_lat":-6.174784,"time":4,"i_long":106.84368,"distance":1436,"line":11},{"line":11,"station_id":"GST","transit":false,"i_lat":-6.185975,"distance":1567,"station_name":"Gang Sentiong","time":8,"is_transit":false,"i_long":106.850107},{"i_lat":-6.193792,"station_name":"Kramat","transit":false,"station_id":"KMT","is_transit":false,"time":1,"line":11,"distance":973,"i_long":106.855437},{"i_lat":-6.209188,"transit":false,"station_id":"POK","distance":1829,"i_long":106.861737,"is_transit":false,"time":2,"station_name":"Pondok Jati","line":11},{"time":9,"distance":1236,"is_transit":true,"i_lat":-6.215091,"station_name":"Jatinegara","i_long":106.86807400000001,"station_id":"JNG","transit":true,"line":1},{"transit":false,"is_transit":false,"distance":1377,"station_id":"MTR","station_name":"Matraman","i_long":106.858896,"i_lat":-6.212485,"time":2,"line":1},{"i_long":106.84912,"time":2,"i_lat":-6.209883,"distance":1275,"station_id":"MRI","station_name":"Manggarai","line":2,"is_transit":false,"transit":false},{"i_long":106.822649,"transit":false,"is_transit":false,"station_name":"Sudirman","station_id":"SUD","line":1,"distance":3186,"i_lat":-6.202263,"time":4},{"transit":false,"distance":280,"is_transit":false,"i_lat":-6.201433,"station_id":"SUDB","i_long":106.819881,"station_name":"Sudirman Baru","time":1,"line":1},{"i_lat":-6.20132,"station_id":"KAT","station_name":"Karet","is_transit":false,"time":1,"transit":false,"i_long":106.816351,"line":1,"distance":471},{"i_lat":-6.185545,"station_id":"THB","station_name":"Tanah Abang","transit":true,"is_transit":true,"distance":2029,"i_long":106.811091,"time":5,"line":1},{"line":6,"distance":3191,"i_long":106.79689,"time":6,"transit":false,"station_name":"Palmerah","station_id":"PLM","is_transit":false,"i_lat":-6.207404},{"time":7,"distance":3737,"i_long":106.780334,"transit":false,"station_id":"KBY","line":6,"i_lat":-6.237242,"is_transit":false,"station_name":"Kebayoran"},{"line":6,"transit":false,"station_id":"PDJ","station_name":"Pondokranji","distance":6218,"is_transit":false,"i_lat":-6.276362,"i_long":106.74273,"time":8},{"station_name":"Jurangmangu","transit":false,"i_long":106.728916,"station_id":"JMU","time":3,"distance":2179,"is_transit":false,"i_lat":-6.288927,"line":6},{"station_name":"Sudimara","line":6,"is_transit":false,"transit":false,"time":4,"station_id":"SDM","i_lat":-6.296963,"distance":1994,"i_long":106.712277},{"i_long":106.675475,"distance":4566,"i_lat":-6.314823,"time":6,"station_id":"RU","station_name":"Rawa Buntu","line":6,"transit":false,"is_transit":false},{"transit":false,"station_name":"Serpong","station_id":"SRP","distance":2413,"is_transit":false,"i_long":106.66566,"line":6,"time":4,"i_lat":-6.319871},{"distance":1784,"station_id":"CSK","time":4,"transit":false,"i_long":106.640411,"line":3,"i_lat":-6.32484,"is_transit":false,"station_name":"Cisauk"},{"station_name":"Cicayur","is_transit":false,"i_lat":-6.329547,"i_long":106.617853,"transit":false,"time":4,"distance":2519,"station_id":"CC","line":3},{"i_long":106.568863,"line":6,"station_name":"Parung Panjang","is_transit":false,"station_id":"PRP","transit":false,"distance":5968,"i_lat":-6.3441410000000005,"time":8},{"is_transit":false,"i_long":106.508482,"station_id":"CJT","transit":false,"station_name":"Cilejit","distance":7025,"time":9,"i_lat":-6.354349,"line":3},{"station_name":"Daru","i_lat":-6.338021,"station_id":"DAR","time":6,"line":0,"i_long":106.491338,"distance":2675,"is_transit":false,"transit":false},{"i_long":106.460812,"i_lat":-6.327251,"transit":false,"time":5,"line":6,"station_name":"Tenjo","is_transit":false,"station_id":"TEJ","distance":3902},{"transit":false,"i_lat":-6.328533,"distance":2974,"station_id":"TGS","time":5,"line":6,"station_name":"Tigaraksa","i_long":106.425991,"is_transit":false},{"time":3,"is_transit":false,"distance":2651,"i_long":106.411216,"station_name":"Cikoya","line":3,"i_lat":-6.33561,"station_id":"CKY","transit":false},{"transit":false,"i_long":106.394373,"station_name":"Maja","station_id":"MJ","is_transit":false,"line":6,"time":4,"i_lat":-6.332307,"distance":1853}]]}