{"data":[[{"i_long":106.701612,"i_lat":-6.166068,"station_id":"KDS","time":0,"station_name":"Kalideres","line":5,"distance":0,"is_transit":false,"transit":false},{"distance":2504,"i_lat":-6.162758,"is_transit":false,"time":3,"station_id":"RW","i_long":106.723064,"transit":false,"line":5,"station_name":"Rawa Buaya"},{"i_long":106.737035,"distance":1152,"is_transit":false,"time":4,"i_lat":-6.159876,"station_name":"Bojongindah","transit":false,"line":0,"station_id":"BOI"},{"line":5,"station_id":"TKO","time":2,"distance":2334,"transit":false,"i_lat":-6.1587309999999995,"station_name":"Taman Kota","i_long":106.756522,"is_transit":false},{"distance":1614,"time":2,"station_id":"PSG","station_name":"Pesing","i_lat":-6.161433,"transit":false,"is_transit":false,"i_long":106.771379,"line":5},{"distance":2036,"i_long":106.788277,"is_transit":false,"transit":false,"time":2,"station_name":"Grogol","i_lat":-6.162021,"station_id":"GGL","line":5},{"time":3,"line":1,"i_long":106.800832,"i_lat":-6.155215,"transit":true,"station_name":"Duri","station_id":"DU","is_transit":true,"distance":1700},{"transit":true,"is_transit":true,"i_lat":-6.185545,"distance":3632,"i_long":106.811091,"station_name":"Tanah Abang","station_id":"THB","time":8,"line":1},{"station_name":"Palmerah","distance":3191,"transit":false,"i_lat":-6.207404,"station_id":"PLM","is_transit":false,"line":6,"i_long":106.79689,"time":6},{"is_transit":false,"transit":false,"i_long":106.780334,"distance":3737,"i_lat":-6.237242,"station_id":"KBY","line":6,"time":7,"station_name":"Kebayoran"},{"line":6,"transit":false,"station_name":"Pondokranji","i_lat":-6.276362,"time":8,"distance":6218,"is_transit":false,"i_long":106.74273,"station_id":"PDJ"},{"is_transit":false,"distance":2179,"line":6,"station_id":"JMU","transit":false,"i_long":106.728916,"station_name":"Jurangmangu","i_lat":-6.288927,"time":3},{"distance":1994,"i_long":106.712277,"station_name":"Sudimara","i_lat":-6.296963,"station_id":"SDM","line":6,"is_transit":false,"time":4,"transit":false},{"is_transit":false,"station_name":"Rawa Buntu","distance":4566,"transit":false,"i_lat":-6.314823,"station_id":"RU","line":6,"i_long":106.675475,"time":6},{"station_id":"SRP","time":4,"station_name":"Serpong","line":6,"distance":2413,"transit":false,"i_lat":-6.319871,"i_long":106.66566,"is_transit":false},{"station_id":"CSK","transit":false,"i_long":106.640411,"station_name":"Cisauk","time":4,"i_lat":-6.32484,"is_transit":false,"distance":1784,"line":0},{"station_id":"CC","station_name":"Cicayur","time":4,"i_lat":-6.329547,"i_long":106.617853,"transit":false,"distance":2519,"line":0,"is_transit":false},{"station_name":"Parung Panjang","time":8,"transit":false,"line":6,"distance":5968,"station_id":"PRP","i_long":106.568863,"is_transit":false,"i_lat":-6.3441410000000005},{"line":0,"transit":false,"station_name":"Cilejit","i_long":106.508482,"time":9,"distance":7025,"station_id":"CJT","is_transit":false,"i_lat":-6.354349},{"transit":false,"i_lat":-6.338021,"distance":2675,"station_name":"Daru","time":6,"line":0,"station_id":"DAR","is_transit":false,"i_long":106.491338},{"time":5,"is_transit":false,"distance":3902,"station_name":"Tenjo","i_long":106.460812,"i_lat":-6.327251,"station_id":"TEJ","transit":false,"line":6},{"station_name":"Tigaraksa","i_lat":-6.328533,"distance":2974,"is_transit":false,"station_id":"TGS","i_long":106.425991,"line":6,"time":5,"transit":false},{"time":3,"station_id":"CKY","distance":2651,"i_lat":-6.33561,"line":0,"transit":false,"is_transit":false,"i_long":106.411216,"station_name":"Cikoya"},{"station_id":"MJ","distance":1853,"line":6,"time":4,"station_name":"Maja","transit":false,"i_lat":-6.332307,"i_long":106.394373,"is_transit":false}],[{"is_transit":false,"transit":false,"station_id":"KDS","time":0,"distance":0,"i_long":106.701612,"i_lat":-6.166068,"line":5,"station_name":"Kalideres"},{"station_name":"Rawa Buaya","line":5,"i_lat":-6.162758,"distance":2504,"i_long":106.723064,"station_id":"RW","transit":false,"is_transit":false,"time":3},{"is_transit":false,"distance":1152,"line":0,"station_id":"BOI","transit":false,"time":4,"station_name":"Bojongindah","i_lat":-6.159876,"i_long":106.737035},{"line":5,"transit":false,"station_id":"TKO","time":2,"station_name":"Taman Kota","i_long":106.756522,"is_transit":false,"distance":2334,"i_lat":-6.1587309999999995},{"time":2,"i_lat":-6.161433,"distance":1614,"i_long":106.771379,"transit":false,"station_name":"Pesing","station_id":"PSG","is_transit":false,"line":5},{"transit":false,"station_id":"GGL","line":5,"distance":2036,"i_lat":-6.162021,"station_name":"Grogol","i_long":106.788277,"time":2,"is_transit":false},{"station_id":"DU","line":1,"i_lat":-6.155215,"is_transit":true,"station_name":"Duri","distance":1700,"transit":true,"time":3,"i_long":106.800832},{"distance":1230,"line":0,"time":4,"station_id":"AK","i_long":106.79867,"i_lat":-6.144674,"is_transit":false,"transit":false,"station_name":"Angke"},{"is_transit":true,"transit":false,"time":9,"distance":4102,"i_lat":-6.132549,"line":0,"station_name":"Kampung Bandan","station_id":"KPB","i_long":106.826365},{"time":3,"transit":true,"i_long":106.812439,"station_id":"JAKK","is_transit":true,"distance":1364,"line":0,"station_name":"Jakarta Kota","i_lat":-6.137569},{"station_name":"Jayakarta","is_transit":false,"transit":false,"line":7,"distance":1264,"time":4,"station_id":"JAY","i_lat":-6.141205,"i_long":106.820901},{"line":2,"station_id":"MGB","distance":1080,"is_transit":false,"i_long":106.82482,"i_lat":-6.149769,"station_name":"Manggabesar","transit":false,"time":2},{"time":2,"i_long":106.827103,"transit":false,"distance":906,"station_name":"Sawah Besar","station_id":"SW","i_lat":-6.160725,"is_transit":false,"line":2},{"transit":false,"i_long":106.828284,"is_transit":false,"station_id":"JUA","line":2,"time":2,"station_name":"Juanda","i_lat":-6.166716,"distance":1149},{"station_id":"GDD","time":4,"i_lat":-6.186295,"line":2,"i_long":106.832183,"is_transit":false,"distance":2015,"transit":false,"station_name":"Gondangdia"},{"time":3,"station_name":"Cikini","i_lat":-6.198556,"distance":1750,"is_transit":false,"line":0,"station_id":"CKI","transit":false,"i_long":106.840169},{"line":0,"time":4,"distance":1590,"i_lat":-6.209883,"is_transit":true,"station_name":"Manggarai","transit":true,"station_id":"MRI","i_long":106.84912},{"distance":3186,"transit":false,"station_name":"Sudirman","i_long":106.822649,"line":1,"station_id":"SUD","time":4,"i_lat":-6.202263,"is_transit":false},{"i_long":106.819881,"time":1,"line":1,"station_id":"SUDB","station_name":"Sudirman Baru","transit":false,"i_lat":-6.201433,"is_transit":false,"distance":280},{"station_id":"KAT","is_transit":false,"transit":false,"line":1,"i_long":106.816351,"station_name":"Karet","distance":471,"time":1,"i_lat":-6.20132},{"i_long":106.811091,"station_name":"Tanah Abang","time":5,"line":1,"distance":2029,"i_lat":-6.185545,"is_transit":true,"station_id":"THB","transit":true},{"time":6,"i_lat":-6.207404,"distance":3191,"station_name":"Palmerah","line":6,"station_id":"PLM","i_long":106.79689,"transit":false,"is_transit":false},{"transit":false,"station_id":"KBY","time":7,"is_transit":false,"station_name":"Kebayoran","i_long":106.780334,"distance":3737,"i_lat":-6.237242,"line":6},{"transit":false,"i_lat":-6.276362,"line":6,"i_long":106.74273,"distance":6218,"station_id":"PDJ","is_transit":false,"station_name":"Pondokranji","time":8},{"transit":false,"station_name":"Jurangmangu","time":3,"i_long":106.728916,"is_transit":false,"station_id":"JMU","line":6,"distance":2179,"i_lat":-6.288927},{"distance":1994,"station_id":"SDM","is_transit":false,"station_name":"Sudimara","transit":false,"i_lat":-6.296963,"i_long":106.712277,"time":4,"line":6},{"transit":false,"i_long":106.675475,"i_lat":-6.314823,"station_name":"Rawa Buntu","station_id":"RU","time":6,"distance":4566,"line":6,"is_transit":false},{"transit":false,"distance":2413,"station_name":"Serpong","is_transit":false,"i_long":106.66566,"time":4,"line":6,"i_lat":-6.319871,"station_id":"SRP"},{"is_transit":false,"time":4,"i_long":106.640411,"line":0,"station_name":"Cisauk","station_id":"CSK","distance":1784,"i_lat":-6.32484,"transit":false},{"station_name":"Cicayur","i_long":106.617853,"distance":2519,"transit":false,"station_id":"CC","is_transit":false,"time":4,"i_lat":-6.329547,"line":0},{"time":8,"transit":false,"is_transit":false,"distance":5968,"i_lat":-6.3441410000000005,"i_long":106.568863,"station_name":"Parung Panjang","line":6,"station_id":"PRP"},{"i_lat":-6.354349,"line":0,"transit":false,"i_long":106.508482,"is_transit":false,"station_id":"CJT","station_name":"Cilejit","time":9,"distance":7025},{"i_long":106.491338,"time":6,"i_lat":-6.338021,"is_transit":false,"distance":2675,"transit":false,"station_name":"Daru","station_id":"DAR","line":0},{"is_transit":false,"transit":false,"distance":3902,"station_name":"Tenjo","line":6,"station_id":"TEJ","time":5,"i_lat":-6.327251,"i_long":106.460812},{"is_transit":false,"distance":2974,"station_name":"Tigaraksa","station_id":"TGS","time":5,"transit":false,"i_long":106.425991,"line":6,"i_lat":-6.328533},{"transit":false,"time":3,"is_transit":false,"station_name":"Cikoya","i_lat":-6.33561,"i_long":106.411216,"line":0,"distance":2651,"station_id":"CKY"},{"is_transit":false,"station_name":"Maja","station_id":"MJ","transit":false,"i_lat":-6.332307,"time":4,"distance":1853,"line":6,"i_long":106.394373}],[{"time":0,"is_transit":false,"station_name":"Kalideres","station_id":"KDS","i_lat":-6.166068,"transit":false,"line":5,"i_long":106.701612,"distance":0},{"i_long":106.723064,"line":5,"i_lat":-6.162758,"transit":false,"is_transit":false,"station_id":"RW","time":3,"distance":2504,"station_name":"Rawa Buaya"},{"i_lat":-6.159876,"distance":1152,"line":0,"transit":false,"i_long":106.737035,"station_id":"BOI","is_transit":false,"time":4,"station_name":"Bojongindah"},{"station_name":"Taman Kota","time":2,"distance":2334,"station_id":"TKO","is_transit":false,"transit":false,"i_long":106.756522,"line":5,"i_lat":-6.1587309999999995},{"line":5,"distance":1614,"transit":false,"station_id":"PSG","station_name":"Pesing","i_long":106.771379,"is_transit":false,"i_lat":-6.161433,"time":2},{"station_id":"GGL","time":2,"distance":2036,"i_lat":-6.162021,"is_transit":false,"transit":false,"i_long":106.788277,"station_name":"Grogol","line":5},{"transit":true,"station_name":"Duri","i_lat":-6.155215,"station_id":"DU","distance":1700,"time":3,"line":1,"i_long":106.800832,"is_transit":true},{"is_transit":false,"transit":false,"distance":1230,"station_id":"AK","i_lat":-6.144674,"station_name":"Angke","line":0,"time":4,"i_long":106.79867},{"is_transit":true,"i_long":106.826365,"time":9,"transit":true,"station_name":"Kampung Bandan","i_lat":-6.132549,"distance":4102,"station_id":"KPB","line":0},{"time":3,"i_long":106.836569,"line":11,"station_name":"Rajawali","i_lat":-6.14505,"is_transit":false,"distance":1444,"station_id":"RJW","transit":false},{"i_long":106.839204,"is_transit":false,"transit":false,"station_id":"KMO","time":5,"station_name":"Kemayoran","line":11,"distance":1901,"i_lat":-6.161728},{"is_transit":false,"time":4,"distance":1436,"line":11,"station_name":"Pasar Senen","transit":false,"station_id":"PSE","i_lat":-6.174784,"i_long":106.84368},{"transit":false,"distance":1567,"is_transit":false,"station_name":"Gang Sentiong","line":11,"time":8,"i_lat":-6.185975,"station_id":"GST","i_long":106.850107},{"time":1,"transit":false,"distance":973,"station_id":"KMT","i_long":106.855437,"is_transit":false,"i_lat":-6.193792,"station_name":"Kramat","line":11},{"i_lat":-6.209188,"line":11,"station_id":"POK","station_name":"Pondok Jati","i_long":106.861737,"is_transit":false,"transit":false,"time":2,"distance":1829},{"line":0,"time":9,"transit":true,"station_name":"Jatinegara","is_transit":true,"distance":1236,"i_long":106.86807400000001,"station_id":"JNG","i_lat":-6.215091},{"line":1,"station_id":"MTR","transit":false,"i_lat":-6.212485,"distance":1377,"i_long":106.858896,"is_transit":false,"station_name":"Matraman","time":2},{"transit":false,"line":0,"is_transit":true,"time":2,"station_name":"Manggarai","i_lat":-6.209883,"i_long":106.84912,"station_id":"MRI","distance":1275},{"i_long":106.822649,"line":1,"station_name":"Sudirman","is_transit":false,"time":4,"distance":3186,"i_lat":-6.202263,"transit":false,"station_id":"SUD"},{"line":1,"time":1,"is_transit":false,"station_name":"Sudirman Baru","station_id":"SUDB","i_lat":-6.201433,"transit":false,"distance":280,"i_long":106.819881},{"is_transit":false,"transit":false,"station_name":"Karet","i_lat":-6.20132,"distance":471,"station_id":"KAT","i_long":106.816351,"line":1,"time":1},{"i_long":106.811091,"line":1,"station_id":"THB","distance":2029,"time":5,"i_lat":-6.185545,"station_name":"Tanah Abang","transit":true,"is_transit":true},{"station_name":"Palmerah","transit":false,"i_lat":-6.207404,"time":6,"distance":3191,"station_id":"PLM","line":6,"i_long":106.79689,"is_transit":false},{"i_long":106.780334,"distance":3737,"i_lat":-6.237242,"line":6,"is_transit":false,"station_name":"Kebayoran","transit":false,"time":7,"station_id":"KBY"},{"line":6,"i_long":106.74273,"distance":6218,"station_id":"PDJ","time":8,"station_name":"Pondokranji","i_lat":-6.276362,"is_transit":false,"transit":false},{"i_lat":-6.288927,"i_long":106.728916,"distance":2179,"time":3,"station_name":"Jurangmangu","is_transit":false,"station_id":"JMU","line":6,"transit":false},{"is_transit":false,"line":6,"transit":false,"time":4,"station_name":"Sudimara","i_long":106.712277,"distance":1994,"i_lat":-6.296963,"station_id":"SDM"},{"station_name":"Rawa Buntu","i_long":106.675475,"station_id":"RU","distance":4566,"i_lat":-6.314823,"line":6,"transit":false,"is_transit":false,"time":6},{"line":6,"station_id":"SRP","i_lat":-6.319871,"station_name":"Serpong","i_long":106.66566,"is_transit":false,"time":4,"transit":false,"distance":2413},{"station_id":"CSK","time":4,"distance":1784,"transit":false,"is_transit":false,"i_long":106.640411,"station_name":"Cisauk","line":0,"i_lat":-6.32484},{"transit":false,"time":4,"i_lat":-6.329547,"i_long":106.617853,"is_transit":false,"distance":2519,"station_id":"CC","line":0,"station_name":"Cicayur"},{"is_transit":false,"transit":false,"station_id":"PRP","time":8,"distance":5968,"station_name":"Parung Panjang","i_lat":-6.3441410000000005,"i_long":106.568863,"line":6},{"i_long":106.508482,"distance":7025,"i_lat":-6.354349,"station_id":"CJT","transit":false,"station_name":"Cilejit","is_transit":false,"time":9,"line":0},{"time":6,"transit":false,"line":0,"station_name":"Daru","distance":2675,"i_lat":-6.338021,"station_id":"DAR","is_transit":false,"i_long":106.491338},{"i_long":106.460812,"is_transit":false,"station_id":"TEJ","time":5,"distance":3902,"transit":false,"station_name":"Tenjo","line":6,"i_lat":-6.327251},{"i_lat":-6.328533,"station_id":"TGS","i_long":106.425991,"is_transit":false,"line":6,"time":5,"distance":2974,"transit":false,"station_name":"Tigaraksa"},{"i_long":106.411216,"time":3,"distance":2651,"station_id":"CKY","i_lat":-6.33561,"station_name":"Cikoya","transit":false,"line":0,"is_transit":false},{"transit":false,"distance":1853,"is_transit":false,"line":6,"i_lat":-6.332307,"station_name":"Maja","time":4,"i_long":106.394373,"station_id":"MJ"}]]}