{"data":[[{"transit":false,"line":5,"time":0,"is_transit":false,"station_name":"Kalideres","station_id":"KDS","i_lat":-6.166068,"distance":0,"i_long":106.701612},{"i_lat":-6.162758,"i_long":106.723064,"distance":2504,"time":3,"is_transit":false,"station_name":"Rawa Buaya","station_id":"RW","line":5,"transit":false},{"i_lat":-6.159876,"station_id":"BOI","line":0,"time":4,"distance":1152,"is_transit":false,"i_long":106.737035,"station_name":"Bojongindah","transit":false},{"is_transit":false,"station_id":"TKO","transit":false,"station_name":"Taman Kota","line":5,"time":2,"i_lat":-6.1587309999999995,"distance":2334,"i_long":106.756522},{"is_transit":false,"transit":false,"station_id":"PSG","i_lat":-6.161433,"line":5,"station_name":"Pesing","time":2,"i_long":106.771379,"distance":1614},{"line":5,"is_transit":false,"distance":2036,"station_name":"Grogol","i_lat":-6.162021,"i_long":106.788277,"time":2,"station_id":"GGL","transit":false},{"i_lat":-6.155215,"distance":1700,"station_name":"Duri","station_id":"DU","transit":true,"is_transit":true,"line":1,"i_long":106.800832,"time":3},{"distance":3632,"is_transit":true,"transit":true,"station_name":"Tanah Abang","i_long":106.811091,"station_id":"THB","line":1,"i_lat":-6.185545,"time":8},{"time":6,"station_name":"Palmerah","i_lat":-6.207404,"i_long":106.79689,"line":6,"distance":3191,"station_id":"PLM","transit":false,"is_transit":false},{"station_name":"Kebayoran","i_long":106.780334,"i_lat":-6.237242,"line":6,"transit":false,"distance":3737,"time":7,"is_transit":false,"station_id":"KBY"},{"transit":false,"station_id":"PDJ","i_lat":-6.276362,"is_transit":false,"time":8,"i_long":106.74273,"distance":6218,"station_name":"Pondokranji","line":6},{"station_name":"Jurangmangu","is_transit":false,"i_lat":-6.288927,"distance":2179,"i_long":106.728916,"time":3,"station_id":"JMU","line":6,"transit":false},{"line":6,"is_transit":false,"station_name":"Sudimara","i_lat":-6.296963,"transit":false,"station_id":"SDM","distance":1994,"time":4,"i_long":106.712277},{"is_transit":false,"i_lat":-6.314823,"distance":4566,"i_long":106.675475,"station_name":"Rawa Buntu","station_id":"RU","transit":false,"time":6,"line":6},{"is_transit":false,"distance":2413,"station_id":"SRP","i_long":106.66566,"i_lat":-6.319871,"transit":false,"line":6,"time":4,"station_name":"Serpong"},{"distance":1784,"i_long":106.640411,"i_lat":-6.32484,"is_transit":false,"line":0,"station_name":"Cisauk","time":4,"transit":false,"station_id":"CSK"},{"station_id":"CC","station_name":"Cicayur","distance":2519,"time":4,"is_transit":false,"i_lat":-6.329547,"i_long":106.617853,"transit":false,"line":0},{"line":6,"station_name":"Parung Panjang","distance":5968,"station_id":"PRP","i_lat":-6.3441410000000005,"i_long":106.568863,"time":8,"transit":false,"is_transit":false},{"distance":7025,"is_transit":false,"transit":false,"station_id":"CJT","i_lat":-6.354349,"station_name":"Cilejit","line":0,"time":9,"i_long":106.508482},{"station_name":"Daru","time":6,"i_long":106.491338,"line":0,"distance":2675,"is_transit":false,"station_id":"DAR","i_lat":-6.338021,"transit":false},{"station_name":"Tenjo","transit":false,"distance":3902,"i_lat":-6.327251,"line":6,"station_id":"TEJ","is_transit":false,"i_long":106.460812,"time":5},{"station_name":"Tigaraksa","is_transit":false,"distance":2974,"time":5,"line":6,"i_long":106.425991,"i_lat":-6.328533,"station_id":"TGS","transit":false}],[{"i_long":106.701612,"transit":false,"station_id":"KDS","station_name":"Kalideres","i_lat":-6.166068,"time":0,"line":5,"is_transit":false,"distance":0},{"is_transit":false,"time":3,"distance":2504,"station_id":"RW","station_name":"Rawa Buaya","i_lat":-6.162758,"i_long":106.723064,"transit":false,"line":5},{"distance":1152,"i_long":106.737035,"i_lat":-6.159876,"station_name":"Bojongindah","time":4,"transit":false,"is_transit":false,"line":0,"station_id":"BOI"},{"station_id":"TKO","line":5,"transit":false,"station_name":"Taman Kota","distance":2334,"i_lat":-6.1587309999999995,"i_long":106.756522,"is_transit":false,"time":2},{"i_lat":-6.161433,"station_id":"PSG","is_transit":false,"line":5,"transit":false,"distance":1614,"station_name":"Pesing","i_long":106.771379,"time":2},{"transit":false,"i_long":106.788277,"line":5,"station_id":"GGL","time":2,"i_lat":-6.162021,"station_name":"Grogol","distance":2036,"is_transit":false},{"station_id":"DU","station_name":"Duri","time":3,"i_lat":-6.155215,"line":1,"is_transit":true,"distance":1700,"i_long":106.800832,"transit":true},{"is_transit":false,"station_id":"AK","transit":false,"time":4,"i_lat":-6.144674,"i_long":106.79867,"line":0,"distance":1230,"station_name":"Angke"},{"station_id":"KPB","time":9,"i_long":106.826365,"line":0,"transit":false,"distance":4102,"station_name":"Kampung Bandan","is_transit":true,"i_lat":-6.132549},{"line":0,"is_transit":true,"distance":1364,"i_lat":-6.137569,"time":3,"station_name":"Jakarta Kota","i_long":106.812439,"transit":true,"station_id":"JAKK"},{"transit":false,"i_lat":-6.141205,"line":7,"is_transit":false,"time":4,"i_long":106.820901,"station_name":"Jayakarta","station_id":"JAY","distance":1264},{"is_transit":false,"line":2,"time":2,"station_id":"MGB","transit":false,"distance":1080,"station_name":"Manggabesar","i_lat":-6.149769,"i_long":106.82482},{"i_lat":-6.160725,"line":2,"station_name":"Sawah Besar","time":2,"is_transit":false,"transit":false,"distance":906,"station_id":"SW","i_long":106.827103},{"time":2,"transit":false,"distance":1149,"station_name":"Juanda","is_transit":false,"i_lat":-6.166716,"i_long":106.828284,"station_id":"JUA","line":2},{"is_transit":false,"station_name":"Gondangdia","line":2,"transit":false,"time":4,"station_id":"GDD","i_lat":-6.186295,"distance":2015,"i_long":106.832183},{"station_id":"CKI","station_name":"Cikini","i_lat":-6.198556,"line":0,"transit":false,"distance":1750,"time":3,"is_transit":false,"i_long":106.840169},{"distance":1590,"station_name":"Manggarai","i_long":106.84912,"station_id":"MRI","i_lat":-6.209883,"time":4,"line":0,"is_transit":true,"transit":true},{"time":4,"station_name":"Sudirman","station_id":"SUD","i_lat":-6.202263,"i_long":106.822649,"transit":false,"line":1,"distance":3186,"is_transit":false},{"station_id":"SUDB","i_lat":-6.201433,"station_name":"Sudirman Baru","i_long":106.819881,"time":1,"transit":false,"distance":280,"line":1,"is_transit":false},{"time":1,"station_name":"Karet","i_long":106.816351,"station_id":"KAT","line":1,"i_lat":-6.20132,"is_transit":false,"transit":false,"distance":471},{"distance":2029,"time":5,"station_id":"THB","is_transit":true,"i_long":106.811091,"line":1,"i_lat":-6.185545,"station_name":"Tanah Abang","transit":true},{"station_id":"PLM","i_long":106.79689,"i_lat":-6.207404,"line":6,"station_name":"Palmerah","transit":false,"distance":3191,"time":6,"is_transit":false},{"is_transit":false,"i_long":106.780334,"transit":false,"distance":3737,"line":6,"station_id":"KBY","station_name":"Kebayoran","i_lat":-6.237242,"time":7},{"is_transit":false,"time":8,"station_id":"PDJ","i_long":106.74273,"distance":6218,"transit":false,"station_name":"Pondokranji","i_lat":-6.276362,"line":6},{"i_long":106.728916,"station_name":"Jurangmangu","i_lat":-6.288927,"station_id":"JMU","distance":2179,"transit":false,"line":6,"is_transit":false,"time":3},{"transit":false,"i_lat":-6.296963,"time":4,"i_long":106.712277,"line":6,"is_transit":false,"distance":1994,"station_id":"SDM","station_name":"Sudimara"},{"distance":4566,"i_lat":-6.314823,"i_long":106.675475,"line":6,"time":6,"transit":false,"station_name":"Rawa Buntu","is_transit":false,"station_id":"RU"},{"is_transit":false,"time":4,"transit":false,"station_id":"SRP","line":6,"station_name":"Serpong","i_long":106.66566,"distance":2413,"i_lat":-6.319871},{"distance":1784,"time":4,"is_transit":false,"station_name":"Cisauk","station_id":"CSK","i_long":106.640411,"transit":false,"i_lat":-6.32484,"line":0},{"i_long":106.617853,"station_id":"CC","distance":2519,"station_name":"Cicayur","is_transit":false,"transit":false,"time":4,"i_lat":-6.329547,"line":0},{"line":6,"time":8,"distance":5968,"station_name":"Parung Panjang","i_lat":-6.3441410000000005,"station_id":"PRP","is_transit":false,"transit":false,"i_long":106.568863},{"i_long":106.508482,"station_name":"Cilejit","line":0,"distance":7025,"time":9,"is_transit":false,"station_id":"CJT","i_lat":-6.354349,"transit":false},{"time":6,"station_id":"DAR","line":0,"station_name":"Daru","i_long":106.491338,"i_lat":-6.338021,"distance":2675,"is_transit":false,"transit":false},{"is_transit":false,"line":6,"i_lat":-6.327251,"transit":false,"time":5,"station_id":"TEJ","distance":3902,"station_name":"Tenjo","i_long":106.460812},{"station_name":"Tigaraksa","i_lat":-6.328533,"is_transit":false,"line":6,"station_id":"TGS","time":5,"distance":2974,"transit":false,"i_long":106.425991}],[{"line":5,"station_name":"Kalideres","station_id":"KDS","time":0,"i_long":106.701612,"is_transit":false,"transit":false,"distance":0,"i_lat":-6.166068},{"time":3,"station_id":"RW","is_transit":false,"i_long":106.723064,"transit":false,"distance":2504,"i_lat":-6.162758,"station_name":"Rawa Buaya","line":5},{"line":0,"station_id":"BOI","i_lat":-6.159876,"station_name":"Bojongindah","is_transit":false,"distance":1152,"transit":false,"time":4,"i_long":106.737035},{"time":2,"station_id":"TKO","station_name":"Taman Kota","i_lat":-6.1587309999999995,"transit":false,"i_long":106.756522,"line":5,"distance":2334,"is_transit":false},{"distance":1614,"time":2,"station_id":"PSG","station_name":"Pesing","i_lat":-6.161433,"is_transit":false,"transit":false,"i_long":106.771379,"line":5},{"station_name":"Grogol","station_id":"GGL","is_transit":false,"i_lat":-6.162021,"i_long":106.788277,"transit":false,"line":5,"distance":2036,"time":2},{"time":3,"station_id":"DU","station_name":"Duri","i_long":106.800832,"line":1,"transit":true,"i_lat":-6.155215,"distance":1700,"is_transit":true},{"is_transit":false,"station_id":"AK","station_name":"Angke","transit":false,"line":0,"distance":1230,"i_lat":-6.144674,"i_long":106.79867,"time":4},{"station_id":"KPB","is_transit":true,"station_name":"Kampung Bandan","distance":4102,"i_long":106.826365,"transit":true,"i_lat":-6.132549,"line":0,"time":9},{"station_name":"Rajawali","distance":1444,"time":3,"station_id":"RJW","is_transit":false,"i_lat":-6.14505,"i_long":106.836569,"line":11,"transit":false},{"is_transit":false,"time":5,"station_id":"KMO","i_long":106.839204,"distance":1901,"station_name":"Kemayoran","line":11,"transit":false,"i_lat":-6.161728},{"station_id":"PSE","is_transit":false,"distance":1436,"transit":false,"i_lat":-6.174784,"station_name":"Pasar Senen","i_long":106.84368,"line":11,"time":4},{"station_name":"Gang Sentiong","time":8,"distance":1567,"transit":false,"station_id":"GST","i_lat":-6.185975,"is_transit":false,"i_long":106.850107,"line":11},{"distance":973,"transit":false,"station_name":"Kramat","i_lat":-6.193792,"i_long":106.855437,"line":11,"station_id":"KMT","time":1,"is_transit":false},{"transit":false,"distance":1829,"i_long":106.861737,"line":11,"time":2,"station_id":"POK","station_name":"Pondok Jati","i_lat":-6.209188,"is_transit":false},{"station_id":"JNG","i_lat":-6.215091,"time":9,"distance":1236,"is_transit":true,"station_name":"Jatinegara","transit":true,"line":0,"i_long":106.86807400000001},{"is_transit":false,"distance":1377,"station_name":"Matraman","i_lat":-6.212485,"i_long":106.858896,"time":2,"line":1,"station_id":"MTR","transit":false},{"distance":1275,"is_transit":true,"line":0,"station_name":"Manggarai","i_lat":-6.209883,"station_id":"MRI","i_long":106.84912,"transit":false,"time":2},{"time":4,"is_transit":false,"station_id":"SUD","i_lat":-6.202263,"distance":3186,"transit":false,"i_long":106.822649,"station_name":"Sudirman","line":1},{"distance":280,"i_lat":-6.201433,"i_long":106.819881,"is_transit":false,"station_name":"Sudirman Baru","transit":false,"line":1,"time":1,"station_id":"SUDB"},{"distance":471,"is_transit":false,"station_id":"KAT","i_lat":-6.20132,"line":1,"transit":false,"time":1,"station_name":"Karet","i_long":106.816351},{"distance":2029,"time":5,"station_name":"Tanah Abang","station_id":"THB","transit":true,"i_lat":-6.185545,"i_long":106.811091,"is_transit":true,"line":1},{"line":6,"distance":3191,"time":6,"station_id":"PLM","i_lat":-6.207404,"i_long":106.79689,"station_name":"Palmerah","is_transit":false,"transit":false},{"station_name":"Kebayoran","is_transit":false,"i_long":106.780334,"time":7,"i_lat":-6.237242,"line":6,"transit":false,"distance":3737,"station_id":"KBY"},{"distance":6218,"transit":false,"i_long":106.74273,"station_name":"Pondokranji","i_lat":-6.276362,"line":6,"station_id":"PDJ","time":8,"is_transit":false},{"time":3,"is_transit":false,"transit":false,"station_name":"Jurangmangu","station_id":"JMU","i_lat":-6.288927,"line":6,"distance":2179,"i_long":106.728916},{"time":4,"i_lat":-6.296963,"is_transit":false,"line":6,"distance":1994,"i_long":106.712277,"station_id":"SDM","station_name":"Sudimara","transit":false},{"station_name":"Rawa Buntu","i_long":106.675475,"is_transit":false,"time":6,"station_id":"RU","line":6,"distance":4566,"transit":false,"i_lat":-6.314823},{"time":4,"station_name":"Serpong","transit":false,"distance":2413,"line":6,"station_id":"SRP","i_long":106.66566,"is_transit":false,"i_lat":-6.319871},{"i_lat":-6.32484,"is_transit":false,"time":4,"station_id":"CSK","i_long":106.640411,"distance":1784,"transit":false,"line":0,"station_name":"Cisauk"},{"transit":false,"line":0,"time":4,"station_id":"CC","station_name":"Cicayur","i_lat":-6.329547,"i_long":106.617853,"is_transit":false,"distance":2519},{"station_id":"PRP","line":6,"time":8,"transit":false,"distance":5968,"is_transit":false,"station_name":"Parung Panjang","i_long":106.568863,"i_lat":-6.3441410000000005},{"station_id":"CJT","time":9,"transit":false,"i_lat":-6.354349,"i_long":106.508482,"line":0,"station_name":"Cilejit","distance":7025,"is_transit":false},{"distance":2675,"station_id":"DAR","line":0,"station_name":"Daru","i_lat":-6.338021,"is_transit":false,"i_long":106.491338,"transit":false,"time":6},{"is_transit":false,"distance":3902,"time":5,"transit":false,"station_id":"TEJ","station_name":"Tenjo","i_long":106.460812,"i_lat":-6.327251,"line":6},{"line":6,"distance":2974,"is_transit":false,"i_lat":-6.328533,"time":5,"transit":false,"station_id":"TGS","station_name":"Tigaraksa","i_long":106.425991}]]}