{"data":[[{"time":0,"station_id":"KDS","station_name":"Kalideres","is_transit":false,"transit":false,"i_lat":-6.166068,"i_long":106.701612,"distance":0,"line":5},{"distance":2504,"time":3,"transit":false,"i_lat":-6.162758,"i_long":106.723064,"line":5,"station_id":"RW","is_transit":false,"station_name":"Rawa Buaya"},{"line":5,"distance":1152,"station_id":"BOI","time":4,"station_name":"Bojongindah","transit":false,"is_transit":false,"i_lat":-6.159876,"i_long":106.737035},{"station_id":"TKO","transit":false,"i_lat":-6.1587309999999995,"i_long":106.756522,"line":5,"distance":2334,"time":2,"station_name":"Taman Kota","is_transit":false},{"station_name":"Pesing","i_lat":-6.161433,"time":2,"transit":false,"is_transit":false,"distance":1614,"station_id":"PSG","i_long":106.771379,"line":5},{"i_long":106.788277,"distance":2036,"transit":false,"line":5,"station_id":"GRG","i_lat":-6.162021,"is_transit":false,"station_name":"Grogol","time":2},{"station_name":"Duri","transit":true,"i_long":106.800832,"is_transit":true,"line":1,"i_lat":-6.155215,"distance":1700,"time":3,"station_id":"DU"},{"transit":true,"i_long":106.811091,"distance":3632,"line":1,"station_id":"THB","i_lat":-6.185545,"station_name":"Tanah Abang","time":8,"is_transit":true},{"distance":3191,"station_id":"PLM","time":6,"line":6,"is_transit":false,"station_name":"Palmerah","transit":false,"i_lat":-6.207404,"i_long":106.79689},{"i_lat":-6.237242,"station_id":"KBY","distance":3737,"time":7,"line":6,"i_long":106.780334,"transit":false,"station_name":"Kebayoran","is_transit":false}],[{"is_transit":false,"line":5,"distance":0,"transit":false,"time":0,"station_id":"KDS","station_name":"Kalideres","i_long":106.701612,"i_lat":-6.166068},{"time":3,"station_id":"RW","station_name":"Rawa Buaya","is_transit":false,"i_lat":-6.162758,"transit":false,"i_long":106.723064,"line":5,"distance":2504},{"i_lat":-6.159876,"time":4,"is_transit":false,"i_long":106.737035,"station_name":"Bojongindah","distance":1152,"transit":false,"line":5,"station_id":"BOI"},{"distance":2334,"time":2,"is_transit":false,"station_id":"TKO","i_lat":-6.1587309999999995,"line":5,"transit":false,"i_long":106.756522,"station_name":"Taman Kota"},{"time":2,"station_id":"PSG","station_name":"Pesing","transit":false,"line":5,"is_transit":false,"distance":1614,"i_lat":-6.161433,"i_long":106.771379},{"distance":2036,"station_name":"Grogol","transit":false,"is_transit":false,"i_long":106.788277,"line":5,"time":2,"station_id":"GRG","i_lat":-6.162021},{"station_id":"DU","time":3,"line":1,"station_name":"Duri","distance":1700,"i_lat":-6.155215,"transit":true,"is_transit":true,"i_long":106.800832},{"i_long":106.79867,"line":1,"i_lat":-6.144674,"time":4,"station_name":"Angke","transit":false,"is_transit":false,"distance":1230,"station_id":"AK"},{"distance":4102,"station_id":"KPB","transit":true,"i_lat":-6.132549,"i_long":106.826365,"is_transit":true,"line":4,"station_name":"Kampung Bandan","time":9},{"station_name":"Jakarta Kota","transit":true,"i_long":106.812439,"distance":1364,"station_id":"JAKK","i_lat":-6.137569,"time":3,"line":2,"is_transit":true},{"distance":1264,"i_lat":-6.141205,"i_long":106.820901,"station_name":"Jayakarta","station_id":"JAY","time":4,"transit":false,"line":2,"is_transit":false},{"station_name":"Manggabesar","station_id":"MGB","i_lat":-6.149769,"time":2,"transit":false,"line":2,"is_transit":false,"distance":1080,"i_long":106.82482},{"transit":false,"distance":906,"is_transit":false,"i_long":106.827103,"station_name":"Sawah Besar","time":2,"i_lat":-6.160725,"line":2,"station_id":"SW"},{"station_id":"JUA","time":2,"is_transit":false,"distance":1149,"transit":false,"i_long":106.828284,"station_name":"Juanda","i_lat":-6.166716,"line":2},{"time":4,"distance":2015,"is_transit":false,"i_long":106.832183,"line":2,"i_lat":-6.186295,"transit":false,"station_id":"GDD","station_name":"Gondangdia"},{"i_long":106.840169,"line":2,"is_transit":false,"time":3,"i_lat":-6.198556,"station_name":"Cikini","transit":false,"station_id":"CKI","distance":1750},{"time":4,"station_name":"Manggarai","i_long":106.84912,"is_transit":true,"i_lat":-6.209883,"line":2,"distance":1590,"station_id":"MRI","transit":true},{"i_long":106.822649,"time":4,"distance":3186,"is_transit":false,"station_id":"SUD","transit":false,"station_name":"Sudirman","line":1,"i_lat":-6.202263},{"transit":false,"time":1,"station_name":"Sudirman Baru","distance":280,"station_id":"SUDB","i_long":106.819881,"i_lat":-6.201433,"line":1,"is_transit":false},{"is_transit":false,"station_id":"KAT","distance":471,"line":1,"time":1,"i_lat":-6.20132,"transit":false,"i_long":106.816351,"station_name":"Karet"},{"i_long":106.811091,"station_id":"THB","line":1,"station_name":"Tanah Abang","distance":2029,"time":5,"i_lat":-6.185545,"transit":true,"is_transit":true},{"is_transit":false,"transit":false,"line":6,"station_name":"Palmerah","i_lat":-6.207404,"time":6,"distance":3191,"station_id":"PLM","i_long":106.79689},{"time":7,"line":6,"station_name":"Kebayoran","distance":3737,"transit":false,"i_lat":-6.237242,"i_long":106.780334,"is_transit":false,"station_id":"KBY"}],[{"station_id":"KDS","i_lat":-6.166068,"transit":false,"station_name":"Kalideres","time":0,"i_long":106.701612,"distance":0,"line":5,"is_transit":false},{"i_long":106.723064,"distance":2504,"transit":false,"is_transit":false,"station_name":"Rawa Buaya","line":5,"time":3,"station_id":"RW","i_lat":-6.162758},{"is_transit":false,"i_long":106.737035,"station_name":"Bojongindah","transit":false,"line":5,"time":4,"station_id":"BOI","distance":1152,"i_lat":-6.159876},{"station_name":"Taman Kota","distance":2334,"time":2,"is_transit":false,"station_id":"TKO","transit":false,"i_lat":-6.1587309999999995,"i_long":106.756522,"line":5},{"is_transit":false,"i_lat":-6.161433,"transit":false,"time":2,"distance":1614,"line":5,"station_id":"PSG","station_name":"Pesing","i_long":106.771379},{"station_id":"GRG","i_long":106.788277,"line":5,"transit":false,"is_transit":false,"station_name":"Grogol","i_lat":-6.162021,"distance":2036,"time":2},{"station_id":"DU","distance":1700,"station_name":"Duri","is_transit":true,"time":3,"i_lat":-6.155215,"line":1,"transit":true,"i_long":106.800832},{"station_name":"Angke","line":1,"i_long":106.79867,"station_id":"AK","transit":false,"i_lat":-6.144674,"time":4,"distance":1230,"is_transit":false},{"is_transit":true,"time":9,"i_long":106.826365,"line":4,"station_name":"Kampung Bandan","distance":4102,"station_id":"KPB","transit":true,"i_lat":-6.132549},{"station_id":"RJW","i_lat":-6.14505,"is_transit":false,"station_name":"Rajawali","transit":false,"i_long":106.836569,"line":11,"distance":1444,"time":3},{"time":5,"distance":1901,"is_transit":false,"transit":false,"station_id":"KMO","i_lat":-6.161728,"i_long":106.839204,"line":11,"station_name":"Kemayoran"},{"time":4,"i_long":106.84368,"transit":false,"station_name":"Pasar Senen","i_lat":-6.174784,"station_id":"PSE","distance":1436,"is_transit":false,"line":11},{"station_id":"GST","time":8,"distance":1567,"i_long":106.850107,"line":11,"station_name":"Gang Sentiong","i_lat":-6.185975,"transit":false,"is_transit":false},{"station_name":"Kramat","is_transit":false,"line":11,"time":1,"station_id":"KMT","i_long":106.855437,"i_lat":-6.193792,"distance":973,"transit":false},{"i_lat":-6.209188,"is_transit":false,"station_id":"POK","time":2,"station_name":"Pondok Jati","transit":false,"distance":1829,"i_long":106.861737,"line":11},{"i_long":106.86807400000001,"distance":1236,"i_lat":-6.215091,"station_name":"Jatinegara","line":1,"is_transit":true,"transit":true,"time":9,"station_id":"JNG"},{"station_name":"Matraman","is_transit":false,"station_id":"MTR","time":2,"transit":false,"line":1,"i_long":106.858896,"distance":1377,"i_lat":-6.212485},{"line":2,"transit":false,"is_transit":false,"distance":1275,"i_long":106.84912,"time":2,"station_id":"MRI","i_lat":-6.209883,"station_name":"Manggarai"},{"station_name":"Sudirman","is_transit":false,"i_lat":-6.202263,"line":1,"transit":false,"i_long":106.822649,"time":4,"station_id":"SUD","distance":3186},{"line":1,"transit":false,"station_name":"Sudirman Baru","station_id":"SUDB","is_transit":false,"distance":280,"i_long":106.819881,"time":1,"i_lat":-6.201433},{"station_id":"KAT","time":1,"i_lat":-6.20132,"line":1,"is_transit":false,"station_name":"Karet","i_long":106.816351,"transit":false,"distance":471},{"time":5,"distance":2029,"i_lat":-6.185545,"i_long":106.811091,"transit":true,"line":1,"is_transit":true,"station_id":"THB","station_name":"Tanah Abang"},{"line":6,"time":6,"i_lat":-6.207404,"station_name":"Palmerah","is_transit":false,"distance":3191,"station_id":"PLM","i_long":106.79689,"transit":false},{"station_name":"Kebayoran","transit":false,"line":6,"distance":3737,"i_lat":-6.237242,"is_transit":false,"station_id":"KBY","time":7,"i_long":106.780334}]]}