{"data":[[{"station_id":"KDS","i_lat":-6.166068,"is_transit":false,"i_long":106.701612,"distance":0,"station_name":"Kalideres","transit":false,"time":0,"line":5},{"time":3,"i_long":106.723064,"line":5,"is_transit":false,"station_id":"RW","station_name":"Rawa Buaya","distance":2504,"i_lat":-6.162758,"transit":false},{"is_transit":false,"i_long":106.737035,"line":5,"i_lat":-6.159876,"time":4,"station_id":"BOI","distance":1152,"station_name":"Bojongindah","transit":false},{"station_id":"TKO","time":2,"transit":false,"is_transit":false,"station_name":"Taman Kota","i_long":106.756522,"line":5,"i_lat":-6.1587309999999995,"distance":2334},{"line":5,"time":2,"station_name":"Pesing","is_transit":false,"distance":1614,"i_long":106.771379,"station_id":"PSG","transit":false,"i_lat":-6.161433},{"station_name":"Grogol","is_transit":false,"station_id":"GGL","time":2,"i_lat":-6.162021,"line":5,"transit":false,"i_long":106.788277,"distance":2036},{"station_name":"Duri","line":1,"time":3,"station_id":"DU","is_transit":true,"distance":1700,"transit":true,"i_long":106.800832,"i_lat":-6.155215},{"station_name":"Tanah Abang","i_lat":-6.185545,"time":8,"i_long":106.811091,"station_id":"THB","line":1,"distance":3632,"transit":true,"is_transit":true},{"i_lat":-6.207404,"line":6,"station_id":"PLM","time":6,"station_name":"Palmerah","is_transit":false,"distance":3191,"transit":false,"i_long":106.79689},{"station_name":"Kebayoran","time":7,"transit":false,"is_transit":false,"station_id":"KBY","i_lat":-6.237242,"i_long":106.780334,"line":6,"distance":3737},{"line":6,"i_lat":-6.276362,"distance":6218,"time":8,"i_long":106.74273,"station_name":"Pondokranji","is_transit":false,"station_id":"PDJ","transit":false},{"is_transit":false,"line":6,"i_lat":-6.288927,"station_name":"Jurangmangu","distance":2179,"time":3,"transit":false,"i_long":106.728916,"station_id":"JMU"},{"station_id":"SDM","i_long":106.712277,"is_transit":false,"i_lat":-6.296963,"line":6,"distance":1994,"transit":false,"station_name":"Sudimara","time":4},{"line":6,"time":6,"is_transit":false,"station_id":"RU","distance":4566,"i_long":106.675475,"i_lat":-6.314823,"station_name":"Rawa Buntu","transit":false},{"transit":false,"distance":2413,"time":4,"i_long":106.66566,"station_id":"SRP","line":6,"station_name":"Serpong","i_lat":-6.319871,"is_transit":false},{"is_transit":false,"time":4,"distance":1784,"i_lat":-6.32484,"station_id":"CSK","i_long":106.640411,"station_name":"Cisauk","transit":false,"line":3},{"station_name":"Cicayur","i_long":106.617853,"i_lat":-6.329547,"distance":2519,"line":3,"time":4,"station_id":"CC","is_transit":false,"transit":false},{"time":8,"station_id":"PRP","transit":false,"station_name":"Parung Panjang","i_lat":-6.3441410000000005,"is_transit":false,"line":6,"i_long":106.568863,"distance":5968},{"station_name":"Cilejit","station_id":"CJT","is_transit":false,"distance":7025,"transit":false,"i_lat":-6.354349,"time":9,"i_long":106.508482,"line":3},{"is_transit":false,"i_lat":-6.338021,"time":6,"distance":2675,"line":0,"transit":false,"i_long":106.491338,"station_id":"DAR","station_name":"Daru"},{"is_transit":false,"transit":false,"i_long":106.460812,"distance":3902,"station_name":"Tenjo","station_id":"TEJ","i_lat":-6.327251,"line":6,"time":5},{"distance":2974,"line":6,"time":5,"station_id":"TGS","i_long":106.425991,"transit":false,"i_lat":-6.328533,"is_transit":false,"station_name":"Tigaraksa"}],[{"is_transit":false,"station_name":"Kalideres","station_id":"KDS","distance":0,"transit":false,"i_lat":-6.166068,"line":5,"time":0,"i_long":106.701612},{"time":3,"transit":false,"i_long":106.723064,"is_transit":false,"station_id":"RW","distance":2504,"line":5,"i_lat":-6.162758,"station_name":"Rawa Buaya"},{"i_lat":-6.159876,"distance":1152,"transit":false,"i_long":106.737035,"line":5,"time":4,"station_name":"Bojongindah","is_transit":false,"station_id":"BOI"},{"station_id":"TKO","station_name":"Taman Kota","transit":false,"is_transit":false,"i_lat":-6.1587309999999995,"distance":2334,"time":2,"i_long":106.756522,"line":5},{"i_long":106.771379,"is_transit":false,"distance":1614,"transit":false,"station_id":"PSG","time":2,"i_lat":-6.161433,"line":5,"station_name":"Pesing"},{"is_transit":false,"distance":2036,"transit":false,"time":2,"station_id":"GGL","station_name":"Grogol","i_lat":-6.162021,"i_long":106.788277,"line":5},{"i_long":106.800832,"is_transit":true,"line":1,"time":3,"station_name":"Duri","transit":true,"station_id":"DU","i_lat":-6.155215,"distance":1700},{"distance":1230,"line":1,"i_lat":-6.144674,"station_name":"Angke","station_id":"AK","time":4,"transit":false,"is_transit":false,"i_long":106.79867},{"is_transit":true,"i_long":106.826365,"time":9,"transit":true,"distance":4102,"i_lat":-6.132549,"line":4,"station_name":"Kampung Bandan","station_id":"KPB"},{"time":3,"transit":true,"station_id":"JAKK","station_name":"Jakarta Kota","line":2,"i_long":106.812439,"distance":1364,"is_transit":true,"i_lat":-6.137569},{"is_transit":false,"line":2,"i_long":106.820901,"transit":false,"station_name":"Jayakarta","distance":1264,"i_lat":-6.141205,"station_id":"JAY","time":4},{"time":2,"station_id":"MGB","i_lat":-6.149769,"distance":1080,"station_name":"Manggabesar","transit":false,"i_long":106.82482,"line":2,"is_transit":false},{"station_id":"SW","is_transit":false,"i_long":106.827103,"time":2,"distance":906,"transit":false,"i_lat":-6.160725,"station_name":"Sawah Besar","line":2},{"line":2,"distance":1149,"is_transit":false,"station_name":"Juanda","i_long":106.828284,"i_lat":-6.166716,"station_id":"JUA","time":2,"transit":false},{"time":4,"station_name":"Gondangdia","i_long":106.832183,"transit":false,"line":2,"distance":2015,"is_transit":false,"station_id":"GDD","i_lat":-6.186295},{"time":3,"transit":false,"i_lat":-6.198556,"distance":1750,"station_name":"Cikini","line":2,"station_id":"CKI","is_transit":false,"i_long":106.840169},{"station_id":"MRI","transit":true,"is_transit":true,"station_name":"Manggarai","i_long":106.84912,"line":2,"i_lat":-6.209883,"time":4,"distance":1590},{"i_lat":-6.202263,"i_long":106.822649,"station_id":"SUD","distance":3186,"line":1,"is_transit":false,"transit":false,"time":4,"station_name":"Sudirman"},{"is_transit":false,"station_id":"SUDB","i_long":106.819881,"time":1,"i_lat":-6.201433,"distance":280,"transit":false,"station_name":"Sudirman Baru","line":1},{"transit":false,"station_name":"Karet","is_transit":false,"station_id":"KAT","distance":471,"i_lat":-6.20132,"i_long":106.816351,"time":1,"line":1},{"i_long":106.811091,"station_name":"Tanah Abang","line":1,"time":5,"is_transit":true,"i_lat":-6.185545,"station_id":"THB","transit":true,"distance":2029},{"is_transit":false,"transit":false,"i_long":106.79689,"station_name":"Palmerah","i_lat":-6.207404,"distance":3191,"line":6,"time":6,"station_id":"PLM"},{"is_transit":false,"line":6,"station_name":"Kebayoran","i_lat":-6.237242,"time":7,"distance":3737,"i_long":106.780334,"transit":false,"station_id":"KBY"},{"transit":false,"station_id":"PDJ","is_transit":false,"station_name":"Pondokranji","i_long":106.74273,"line":6,"time":8,"i_lat":-6.276362,"distance":6218},{"distance":2179,"line":6,"is_transit":false,"i_lat":-6.288927,"station_id":"JMU","transit":false,"time":3,"station_name":"Jurangmangu","i_long":106.728916},{"is_transit":false,"time":4,"distance":1994,"station_name":"Sudimara","line":6,"station_id":"SDM","transit":false,"i_lat":-6.296963,"i_long":106.712277},{"distance":4566,"station_id":"RU","station_name":"Rawa Buntu","i_lat":-6.314823,"line":6,"is_transit":false,"transit":false,"i_long":106.675475,"time":6},{"is_transit":false,"i_lat":-6.319871,"line":6,"time":4,"station_name":"Serpong","transit":false,"i_long":106.66566,"station_id":"SRP","distance":2413},{"transit":false,"time":4,"station_name":"Cisauk","i_lat":-6.32484,"line":3,"station_id":"CSK","i_long":106.640411,"is_transit":false,"distance":1784},{"transit":false,"i_long":106.617853,"is_transit":false,"time":4,"station_name":"Cicayur","station_id":"CC","distance":2519,"i_lat":-6.329547,"line":3},{"distance":5968,"station_name":"Parung Panjang","time":8,"is_transit":false,"i_long":106.568863,"transit":false,"i_lat":-6.3441410000000005,"line":6,"station_id":"PRP"},{"station_name":"Cilejit","i_lat":-6.354349,"i_long":106.508482,"station_id":"CJT","distance":7025,"transit":false,"is_transit":false,"line":3,"time":9},{"line":0,"station_name":"Daru","is_transit":false,"distance":2675,"i_lat":-6.338021,"i_long":106.491338,"transit":false,"station_id":"DAR","time":6},{"is_transit":false,"station_id":"TEJ","i_long":106.460812,"transit":false,"i_lat":-6.327251,"line":6,"distance":3902,"station_name":"Tenjo","time":5},{"line":6,"distance":2974,"is_transit":false,"transit":false,"i_long":106.425991,"time":5,"station_id":"TGS","station_name":"Tigaraksa","i_lat":-6.328533}],[{"distance":0,"station_id":"KDS","transit":false,"i_lat":-6.166068,"station_name":"Kalideres","i_long":106.701612,"line":5,"time":0,"is_transit":false},{"station_name":"Rawa Buaya","transit":false,"station_id":"RW","i_long":106.723064,"line":5,"time":3,"distance":2504,"i_lat":-6.162758,"is_transit":false},{"station_name":"Bojongindah","i_long":106.737035,"transit":false,"is_transit":false,"line":5,"time":4,"station_id":"BOI","distance":1152,"i_lat":-6.159876},{"distance":2334,"i_lat":-6.1587309999999995,"time":2,"line":5,"station_id":"TKO","is_transit":false,"station_name":"Taman Kota","transit":false,"i_long":106.756522},{"transit":false,"time":2,"i_lat":-6.161433,"station_name":"Pesing","i_long":106.771379,"distance":1614,"station_id":"PSG","is_transit":false,"line":5},{"i_long":106.788277,"station_id":"GGL","distance":2036,"transit":false,"time":2,"station_name":"Grogol","line":5,"is_transit":false,"i_lat":-6.162021},{"station_id":"DU","distance":1700,"is_transit":true,"transit":true,"i_lat":-6.155215,"i_long":106.800832,"line":1,"station_name":"Duri","time":3},{"station_id":"AK","distance":1230,"i_long":106.79867,"i_lat":-6.144674,"time":4,"line":1,"is_transit":false,"station_name":"Angke","transit":false},{"is_transit":true,"transit":true,"time":9,"i_long":106.826365,"distance":4102,"line":4,"station_id":"KPB","station_name":"Kampung Bandan","i_lat":-6.132549},{"i_long":106.836569,"line":11,"transit":false,"station_name":"Rajawali","time":3,"distance":1444,"i_lat":-6.14505,"is_transit":false,"station_id":"RJW"},{"station_id":"KMO","i_long":106.839204,"is_transit":false,"station_name":"Kemayoran","distance":1901,"time":5,"line":11,"i_lat":-6.161728,"transit":false},{"station_name":"Pasar Senen","is_transit":false,"distance":1436,"line":11,"i_long":106.84368,"time":4,"transit":false,"i_lat":-6.174784,"station_id":"PSE"},{"i_long":106.850107,"transit":false,"is_transit":false,"distance":1567,"station_name":"Gang Sentiong","i_lat":-6.185975,"time":8,"station_id":"GST","line":11},{"line":11,"i_lat":-6.193792,"is_transit":false,"time":1,"distance":973,"transit":false,"station_name":"Kramat","station_id":"KMT","i_long":106.855437},{"time":2,"transit":false,"line":11,"is_transit":false,"i_long":106.861737,"station_id":"POK","distance":1829,"i_lat":-6.209188,"station_name":"Pondok Jati"},{"station_id":"JNG","i_lat":-6.215091,"time":9,"station_name":"Jatinegara","is_transit":true,"distance":1236,"transit":true,"line":1,"i_long":106.86807400000001},{"station_name":"Matraman","time":2,"transit":false,"is_transit":false,"distance":1377,"line":1,"station_id":"MTR","i_long":106.858896,"i_lat":-6.212485},{"station_id":"MRI","time":2,"is_transit":false,"i_lat":-6.209883,"distance":1275,"transit":false,"station_name":"Manggarai","line":2,"i_long":106.84912},{"i_lat":-6.202263,"transit":false,"is_transit":false,"time":4,"station_name":"Sudirman","distance":3186,"line":1,"i_long":106.822649,"station_id":"SUD"},{"i_lat":-6.201433,"line":1,"is_transit":false,"time":1,"distance":280,"i_long":106.819881,"transit":false,"station_name":"Sudirman Baru","station_id":"SUDB"},{"is_transit":false,"station_name":"Karet","line":1,"time":1,"distance":471,"i_lat":-6.20132,"transit":false,"i_long":106.816351,"station_id":"KAT"},{"time":5,"station_id":"THB","i_lat":-6.185545,"is_transit":true,"i_long":106.811091,"line":1,"transit":true,"distance":2029,"station_name":"Tanah Abang"},{"station_name":"Palmerah","line":6,"station_id":"PLM","i_long":106.79689,"time":6,"i_lat":-6.207404,"distance":3191,"is_transit":false,"transit":false},{"distance":3737,"i_long":106.780334,"time":7,"station_id":"KBY","i_lat":-6.237242,"station_name":"Kebayoran","transit":false,"line":6,"is_transit":false},{"station_id":"PDJ","station_name":"Pondokranji","time":8,"transit":false,"i_long":106.74273,"line":6,"distance":6218,"is_transit":false,"i_lat":-6.276362},{"is_transit":false,"time":3,"station_id":"JMU","i_lat":-6.288927,"station_name":"Jurangmangu","transit":false,"i_long":106.728916,"line":6,"distance":2179},{"station_name":"Sudimara","line":6,"transit":false,"distance":1994,"station_id":"SDM","is_transit":false,"time":4,"i_long":106.712277,"i_lat":-6.296963},{"transit":false,"i_long":106.675475,"is_transit":false,"station_id":"RU","time":6,"station_name":"Rawa Buntu","i_lat":-6.314823,"line":6,"distance":4566},{"station_id":"SRP","transit":false,"i_long":106.66566,"line":6,"i_lat":-6.319871,"distance":2413,"time":4,"is_transit":false,"station_name":"Serpong"},{"i_long":106.640411,"time":4,"transit":false,"is_transit":false,"station_name":"Cisauk","i_lat":-6.32484,"distance":1784,"station_id":"CSK","line":3},{"distance":2519,"station_id":"CC","is_transit":false,"i_long":106.617853,"time":4,"transit":false,"i_lat":-6.329547,"station_name":"Cicayur","line":3},{"distance":5968,"transit":false,"line":6,"time":8,"is_transit":false,"i_long":106.568863,"station_name":"Parung Panjang","station_id":"PRP","i_lat":-6.3441410000000005},{"station_name":"Cilejit","transit":false,"i_lat":-6.354349,"time":9,"station_id":"CJT","i_long":106.508482,"distance":7025,"line":3,"is_transit":false},{"i_long":106.491338,"station_id":"DAR","distance":2675,"line":0,"i_lat":-6.338021,"station_name":"Daru","is_transit":false,"time":6,"transit":false},{"is_transit":false,"i_lat":-6.327251,"time":5,"i_long":106.460812,"transit":false,"line":6,"station_id":"TEJ","distance":3902,"station_name":"Tenjo"},{"transit":false,"station_id":"TGS","is_transit":false,"i_lat":-6.328533,"time":5,"distance":2974,"i_long":106.425991,"station_name":"Tigaraksa","line":6}]]}