{"data":[[{"i_lat":-6.166068,"i_long":106.701612,"station_id":"KDS","station_name":"Kalideres","line":5,"time":0,"is_transit":false,"distance":0,"transit":false},{"is_transit":false,"station_name":"Rawa Buaya","transit":false,"i_lat":-6.162758,"station_id":"RW","i_long":106.723064,"line":5,"time":3,"distance":2504},{"distance":1152,"i_lat":-6.159876,"i_long":106.737035,"line":0,"station_id":"BOI","time":4,"transit":false,"is_transit":false,"station_name":"Bojongindah"},{"is_transit":false,"time":2,"station_name":"Taman Kota","transit":false,"station_id":"TKO","distance":2334,"i_lat":-6.1587309999999995,"i_long":106.756522,"line":5},{"station_id":"PSG","transit":false,"time":2,"station_name":"Pesing","i_lat":-6.161433,"i_long":106.771379,"line":5,"distance":1614,"is_transit":false},{"distance":2036,"i_lat":-6.162021,"station_id":"GGL","transit":false,"i_long":106.788277,"time":2,"line":5,"station_name":"Grogol","is_transit":false},{"transit":true,"line":1,"station_id":"DU","station_name":"Duri","i_long":106.800832,"i_lat":-6.155215,"time":3,"is_transit":true,"distance":1700},{"i_long":106.79867,"time":4,"line":0,"station_id":"AK","distance":1230,"is_transit":false,"transit":false,"station_name":"Angke","i_lat":-6.144674}],[{"is_transit":false,"i_lat":-6.166068,"station_name":"Kalideres","station_id":"KDS","time":0,"transit":false,"i_long":106.701612,"line":5,"distance":0},{"i_lat":-6.162758,"is_transit":false,"i_long":106.723064,"station_name":"Rawa Buaya","time":3,"distance":2504,"station_id":"RW","transit":false,"line":5},{"time":4,"line":0,"station_name":"Bojongindah","transit":false,"is_transit":false,"station_id":"BOI","distance":1152,"i_long":106.737035,"i_lat":-6.159876},{"distance":2334,"i_long":106.756522,"station_id":"TKO","line":5,"station_name":"Taman Kota","is_transit":false,"time":2,"i_lat":-6.1587309999999995,"transit":false},{"station_name":"Pesing","distance":1614,"time":2,"line":5,"transit":false,"station_id":"PSG","is_transit":false,"i_lat":-6.161433,"i_long":106.771379},{"i_long":106.788277,"station_id":"GGL","is_transit":false,"distance":2036,"transit":false,"line":5,"time":2,"i_lat":-6.162021,"station_name":"Grogol"},{"is_transit":true,"distance":1700,"station_id":"DU","transit":true,"station_name":"Duri","i_long":106.800832,"i_lat":-6.155215,"line":1,"time":3},{"time":8,"i_lat":-6.185545,"distance":3632,"is_transit":true,"line":1,"i_long":106.811091,"station_id":"THB","station_name":"Tanah Abang","transit":false},{"i_lat":-6.20132,"station_id":"KAT","is_transit":false,"i_long":106.816351,"time":5,"transit":false,"distance":2029,"line":1,"station_name":"Karet"},{"i_lat":-6.201433,"transit":false,"distance":471,"station_name":"Sudirman Baru","time":1,"i_long":106.819881,"line":1,"is_transit":false,"station_id":"SUDB"},{"line":1,"station_id":"SUD","i_lat":-6.202263,"i_long":106.822649,"station_name":"Sudirman","is_transit":false,"time":1,"distance":280,"transit":false},{"is_transit":true,"i_long":106.84912,"distance":3186,"station_id":"MRI","transit":true,"station_name":"Manggarai","line":0,"time":4,"i_lat":-6.209883},{"time":4,"station_name":"Cikini","transit":false,"i_lat":-6.198556,"i_long":106.840169,"distance":1590,"is_transit":false,"line":0,"station_id":"CKI"},{"distance":1750,"i_long":106.832183,"i_lat":-6.186295,"transit":false,"line":2,"station_name":"Gondangdia","time":3,"is_transit":false,"station_id":"GDD"},{"station_name":"Juanda","time":4,"line":2,"i_long":106.828284,"station_id":"JUA","distance":2015,"transit":false,"i_lat":-6.166716,"is_transit":false},{"line":2,"time":2,"station_name":"Sawah Besar","i_lat":-6.160725,"is_transit":false,"station_id":"SW","distance":1149,"transit":false,"i_long":106.827103},{"is_transit":false,"transit":false,"i_lat":-6.149769,"line":2,"i_long":106.82482,"station_name":"Manggabesar","station_id":"MGB","time":2,"distance":906},{"station_name":"Jayakarta","is_transit":false,"distance":1080,"transit":false,"i_lat":-6.141205,"station_id":"JAY","i_long":106.820901,"time":2,"line":7},{"station_id":"JAKK","distance":1264,"i_lat":-6.137569,"transit":true,"is_transit":true,"i_long":106.812439,"station_name":"Jakarta Kota","line":0,"time":4},{"transit":false,"time":3,"distance":1364,"i_lat":-6.132549,"i_long":106.826365,"station_name":"Kampung Bandan","station_id":"KPB","is_transit":true,"line":0},{"station_name":"Angke","station_id":"AK","i_lat":-6.144674,"is_transit":false,"distance":4102,"transit":false,"i_long":106.79867,"line":0,"time":9}],[{"is_transit":false,"distance":0,"station_name":"Kalideres","line":5,"i_long":106.701612,"station_id":"KDS","transit":false,"time":0,"i_lat":-6.166068},{"time":3,"distance":2504,"station_id":"RW","i_long":106.723064,"station_name":"Rawa Buaya","line":5,"transit":false,"is_transit":false,"i_lat":-6.162758},{"is_transit":false,"distance":1152,"transit":false,"i_lat":-6.159876,"time":4,"line":0,"i_long":106.737035,"station_id":"BOI","station_name":"Bojongindah"},{"time":2,"station_name":"Taman Kota","distance":2334,"transit":false,"line":5,"i_long":106.756522,"i_lat":-6.1587309999999995,"station_id":"TKO","is_transit":false},{"transit":false,"time":2,"i_long":106.771379,"station_name":"Pesing","distance":1614,"station_id":"PSG","i_lat":-6.161433,"is_transit":false,"line":5},{"distance":2036,"transit":false,"is_transit":false,"time":2,"line":5,"station_id":"GGL","i_long":106.788277,"station_name":"Grogol","i_lat":-6.162021},{"station_id":"DU","i_lat":-6.155215,"i_long":106.800832,"transit":true,"line":1,"distance":1700,"is_transit":true,"station_name":"Duri","time":3},{"station_name":"Tanah Abang","station_id":"THB","is_transit":true,"time":8,"line":1,"i_long":106.811091,"distance":3632,"transit":false,"i_lat":-6.185545},{"i_lat":-6.20132,"i_long":106.816351,"line":1,"time":5,"distance":2029,"is_transit":false,"transit":false,"station_id":"KAT","station_name":"Karet"},{"station_id":"SUDB","i_lat":-6.201433,"line":1,"station_name":"Sudirman Baru","is_transit":false,"time":1,"distance":471,"transit":false,"i_long":106.819881},{"i_lat":-6.202263,"station_id":"SUD","is_transit":false,"line":1,"i_long":106.822649,"distance":280,"station_name":"Sudirman","time":1,"transit":false},{"is_transit":true,"distance":3186,"transit":false,"i_lat":-6.209883,"time":4,"i_long":106.84912,"line":0,"station_id":"MRI","station_name":"Manggarai"},{"line":1,"time":2,"station_name":"Matraman","distance":1275,"is_transit":false,"i_long":106.858896,"station_id":"MTR","transit":false,"i_lat":-6.212485},{"is_transit":true,"i_long":106.86807400000001,"distance":1377,"station_id":"JNG","station_name":"Jatinegara","time":8,"i_lat":-6.215091,"transit":true,"line":0},{"time":2,"i_long":106.861737,"station_name":"Pondok Jati","i_lat":-6.209188,"station_id":"POK","distance":1236,"is_transit":false,"transit":false,"line":11},{"line":11,"station_name":"Kramat","station_id":"KMT","is_transit":false,"distance":1829,"transit":false,"i_lat":-6.193792,"time":2,"i_long":106.855437},{"distance":973,"i_lat":-6.185975,"is_transit":false,"time":1,"station_name":"Gang Sentiong","transit":false,"i_long":106.850107,"line":11,"station_id":"GST"},{"station_name":"Pasar Senen","is_transit":false,"distance":1567,"line":11,"i_long":106.84368,"transit":false,"station_id":"PSE","i_lat":-6.174784,"time":8},{"i_lat":-6.161728,"station_id":"KMO","station_name":"Kemayoran","i_long":106.839204,"time":4,"line":11,"distance":1436,"is_transit":false,"transit":false},{"station_name":"Rajawali","is_transit":false,"time":5,"i_lat":-6.14505,"station_id":"RJW","i_long":106.836569,"distance":1901,"transit":false,"line":11},{"is_transit":true,"time":3,"i_lat":-6.132549,"distance":1444,"i_long":106.826365,"line":0,"station_id":"KPB","station_name":"Kampung Bandan","transit":true},{"line":0,"station_id":"AK","is_transit":false,"distance":4102,"i_long":106.79867,"i_lat":-6.144674,"station_name":"Angke","time":9,"transit":false}]]}