{"data":[[{"line":5,"time":0,"is_transit":false,"station_name":"Kalideres","station_id":"KDS","transit":false,"i_lat":-6.166068,"distance":0,"i_long":106.701612},{"station_name":"Rawa Buaya","i_long":106.723064,"is_transit":false,"station_id":"RW","distance":2504,"transit":false,"line":5,"time":3,"i_lat":-6.162758},{"i_long":106.737035,"station_name":"Bojongindah","distance":1152,"station_id":"BOI","line":5,"time":4,"is_transit":false,"i_lat":-6.159876,"transit":false},{"distance":2334,"station_id":"TKO","station_name":"Taman Kota","time":2,"is_transit":false,"transit":false,"i_lat":-6.1587309999999995,"line":5,"i_long":106.756522},{"line":5,"station_name":"Pesing","is_transit":false,"transit":false,"station_id":"PSG","time":2,"distance":1614,"i_lat":-6.161433,"i_long":106.771379},{"i_long":106.788277,"distance":2036,"transit":false,"i_lat":-6.162021,"line":5,"station_name":"Grogol","is_transit":false,"time":2,"station_id":"GGL"},{"distance":1700,"line":1,"station_id":"DU","time":3,"transit":true,"i_lat":-6.155215,"station_name":"Duri","is_transit":true,"i_long":106.800832},{"line":1,"station_id":"THB","transit":true,"station_name":"Tanah Abang","i_lat":-6.185545,"time":8,"distance":3632,"is_transit":true,"i_long":106.811091},{"time":6,"i_long":106.79689,"line":6,"distance":3191,"station_name":"Palmerah","is_transit":false,"station_id":"PLM","transit":false,"i_lat":-6.207404},{"station_name":"Kebayoran","transit":false,"distance":3737,"i_lat":-6.237242,"line":6,"is_transit":false,"station_id":"KBY","i_long":106.780334,"time":7},{"station_name":"Pondokranji","line":6,"station_id":"PDJ","time":8,"is_transit":false,"i_long":106.74273,"i_lat":-6.276362,"distance":6218,"transit":false},{"station_id":"JMU","is_transit":false,"line":6,"distance":2179,"time":3,"transit":false,"i_long":106.728916,"station_name":"Jurangmangu","i_lat":-6.288927},{"is_transit":false,"i_lat":-6.296963,"time":4,"station_name":"Sudimara","transit":false,"line":6,"distance":1994,"i_long":106.712277,"station_id":"SDM"},{"distance":4566,"station_id":"RU","i_long":106.675475,"station_name":"Rawa Buntu","line":6,"transit":false,"time":6,"is_transit":false,"i_lat":-6.314823},{"i_lat":-6.319871,"time":4,"transit":false,"station_id":"SRP","is_transit":false,"line":6,"station_name":"Serpong","i_long":106.66566,"distance":2413},{"i_lat":-6.32484,"time":4,"line":3,"is_transit":false,"transit":false,"distance":1784,"station_id":"CSK","station_name":"Cisauk","i_long":106.640411},{"is_transit":false,"station_id":"CC","time":4,"distance":2519,"station_name":"Cicayur","transit":false,"i_long":106.617853,"i_lat":-6.329547,"line":3}],[{"is_transit":false,"line":5,"station_id":"KDS","i_lat":-6.166068,"station_name":"Kalideres","transit":false,"time":0,"distance":0,"i_long":106.701612},{"time":3,"distance":2504,"station_name":"Rawa Buaya","i_long":106.723064,"line":5,"i_lat":-6.162758,"is_transit":false,"transit":false,"station_id":"RW"},{"is_transit":false,"i_long":106.737035,"station_name":"Bojongindah","line":5,"station_id":"BOI","i_lat":-6.159876,"distance":1152,"transit":false,"time":4},{"transit":false,"is_transit":false,"station_id":"TKO","station_name":"Taman Kota","distance":2334,"i_lat":-6.1587309999999995,"i_long":106.756522,"line":5,"time":2},{"station_name":"Pesing","time":2,"is_transit":false,"distance":1614,"transit":false,"i_lat":-6.161433,"i_long":106.771379,"line":5,"station_id":"PSG"},{"distance":2036,"i_long":106.788277,"line":5,"is_transit":false,"time":2,"station_name":"Grogol","station_id":"GGL","transit":false,"i_lat":-6.162021},{"distance":1700,"transit":true,"station_name":"Duri","i_lat":-6.155215,"i_long":106.800832,"is_transit":true,"line":1,"station_id":"DU","time":3},{"time":4,"line":1,"station_id":"AK","station_name":"Angke","i_lat":-6.144674,"i_long":106.79867,"transit":false,"distance":1230,"is_transit":false},{"i_lat":-6.132549,"time":9,"distance":4102,"i_long":106.826365,"is_transit":true,"transit":true,"station_name":"Kampung Bandan","station_id":"KPB","line":4},{"line":2,"station_id":"JAKK","distance":1364,"transit":true,"station_name":"Jakarta Kota","i_lat":-6.137569,"is_transit":true,"i_long":106.812439,"time":3},{"is_transit":false,"station_name":"Jayakarta","line":2,"transit":false,"station_id":"JAY","i_long":106.820901,"i_lat":-6.141205,"time":4,"distance":1264},{"distance":1080,"line":2,"i_lat":-6.149769,"transit":false,"is_transit":false,"station_id":"MGB","time":2,"i_long":106.82482,"station_name":"Manggabesar"},{"distance":906,"transit":false,"station_id":"SW","time":2,"station_name":"Sawah Besar","line":2,"is_transit":false,"i_lat":-6.160725,"i_long":106.827103},{"station_name":"Juanda","i_long":106.828284,"time":2,"station_id":"JUA","is_transit":false,"i_lat":-6.166716,"line":2,"distance":1149,"transit":false},{"station_name":"Gondangdia","station_id":"GDD","i_lat":-6.186295,"i_long":106.832183,"transit":false,"line":2,"time":4,"distance":2015,"is_transit":false},{"line":2,"station_name":"Cikini","i_long":106.840169,"station_id":"CKI","distance":1750,"time":3,"transit":false,"i_lat":-6.198556,"is_transit":false},{"station_name":"Manggarai","time":4,"i_lat":-6.209883,"line":2,"is_transit":true,"i_long":106.84912,"distance":1590,"transit":true,"station_id":"MRI"},{"station_name":"Sudirman","i_long":106.822649,"i_lat":-6.202263,"time":4,"line":1,"distance":3186,"is_transit":false,"station_id":"SUD","transit":false},{"i_long":106.819881,"is_transit":false,"line":1,"distance":280,"station_id":"SUDB","transit":false,"time":1,"i_lat":-6.201433,"station_name":"Sudirman Baru"},{"station_name":"Karet","station_id":"KAT","transit":false,"i_long":106.816351,"distance":471,"is_transit":false,"i_lat":-6.20132,"line":1,"time":1},{"i_lat":-6.185545,"station_id":"THB","station_name":"Tanah Abang","i_long":106.811091,"transit":true,"is_transit":true,"line":1,"time":5,"distance":2029},{"i_lat":-6.207404,"is_transit":false,"station_name":"Palmerah","time":6,"station_id":"PLM","distance":3191,"transit":false,"line":6,"i_long":106.79689},{"i_lat":-6.237242,"station_name":"Kebayoran","time":7,"i_long":106.780334,"transit":false,"distance":3737,"is_transit":false,"station_id":"KBY","line":6},{"i_long":106.74273,"i_lat":-6.276362,"station_id":"PDJ","station_name":"Pondokranji","transit":false,"distance":6218,"line":6,"is_transit":false,"time":8},{"i_lat":-6.288927,"time":3,"transit":false,"station_id":"JMU","is_transit":false,"distance":2179,"i_long":106.728916,"line":6,"station_name":"Jurangmangu"},{"line":6,"time":4,"station_name":"Sudimara","distance":1994,"transit":false,"is_transit":false,"station_id":"SDM","i_long":106.712277,"i_lat":-6.296963},{"station_id":"RU","i_long":106.675475,"distance":4566,"i_lat":-6.314823,"line":6,"station_name":"Rawa Buntu","is_transit":false,"transit":false,"time":6},{"transit":false,"station_name":"Serpong","is_transit":false,"distance":2413,"station_id":"SRP","line":6,"i_long":106.66566,"time":4,"i_lat":-6.319871},{"station_name":"Cisauk","distance":1784,"is_transit":false,"time":4,"transit":false,"station_id":"CSK","i_lat":-6.32484,"i_long":106.640411,"line":3},{"transit":false,"is_transit":false,"station_id":"CC","time":4,"i_lat":-6.329547,"distance":2519,"station_name":"Cicayur","i_long":106.617853,"line":3}],[{"time":0,"i_lat":-6.166068,"transit":false,"is_transit":false,"line":5,"station_name":"Kalideres","distance":0,"station_id":"KDS","i_long":106.701612},{"transit":false,"station_name":"Rawa Buaya","distance":2504,"line":5,"i_lat":-6.162758,"is_transit":false,"station_id":"RW","time":3,"i_long":106.723064},{"distance":1152,"time":4,"station_id":"BOI","i_lat":-6.159876,"i_long":106.737035,"is_transit":false,"line":5,"station_name":"Bojongindah","transit":false},{"time":2,"transit":false,"i_long":106.756522,"is_transit":false,"line":5,"i_lat":-6.1587309999999995,"station_id":"TKO","distance":2334,"station_name":"Taman Kota"},{"transit":false,"is_transit":false,"station_name":"Pesing","i_lat":-6.161433,"station_id":"PSG","time":2,"distance":1614,"line":5,"i_long":106.771379},{"transit":false,"time":2,"i_long":106.788277,"line":5,"is_transit":false,"station_id":"GGL","i_lat":-6.162021,"station_name":"Grogol","distance":2036},{"distance":1700,"station_id":"DU","transit":true,"i_long":106.800832,"i_lat":-6.155215,"is_transit":true,"station_name":"Duri","line":1,"time":3},{"time":4,"transit":false,"line":1,"station_name":"Angke","is_transit":false,"station_id":"AK","i_long":106.79867,"i_lat":-6.144674,"distance":1230},{"station_id":"KPB","station_name":"Kampung Bandan","is_transit":true,"i_lat":-6.132549,"i_long":106.826365,"line":4,"transit":true,"time":9,"distance":4102},{"time":3,"i_lat":-6.14505,"station_id":"RJW","transit":false,"i_long":106.836569,"line":11,"station_name":"Rajawali","distance":1444,"is_transit":false},{"time":5,"i_long":106.839204,"station_id":"KMO","station_name":"Kemayoran","line":11,"i_lat":-6.161728,"is_transit":false,"distance":1901,"transit":false},{"station_id":"PSE","i_long":106.84368,"transit":false,"i_lat":-6.174784,"line":11,"time":4,"station_name":"Pasar Senen","distance":1436,"is_transit":false},{"i_lat":-6.185975,"time":8,"distance":1567,"line":11,"station_id":"GST","transit":false,"is_transit":false,"i_long":106.850107,"station_name":"Gang Sentiong"},{"time":1,"transit":false,"is_transit":false,"line":11,"station_id":"KMT","distance":973,"station_name":"Kramat","i_lat":-6.193792,"i_long":106.855437},{"distance":1829,"line":11,"time":2,"i_lat":-6.209188,"i_long":106.861737,"station_name":"Pondok Jati","transit":false,"is_transit":false,"station_id":"POK"},{"transit":true,"i_lat":-6.215091,"i_long":106.86807400000001,"station_id":"JNG","is_transit":true,"distance":1236,"station_name":"Jatinegara","line":1,"time":9},{"station_name":"Matraman","i_long":106.858896,"line":1,"is_transit":false,"station_id":"MTR","transit":false,"i_lat":-6.212485,"time":2,"distance":1377},{"station_name":"Manggarai","i_long":106.84912,"is_transit":false,"distance":1275,"station_id":"MRI","time":2,"transit":false,"i_lat":-6.209883,"line":2},{"station_name":"Sudirman","line":1,"station_id":"SUD","distance":3186,"is_transit":false,"i_lat":-6.202263,"time":4,"i_long":106.822649,"transit":false},{"is_transit":false,"distance":280,"transit":false,"i_long":106.819881,"time":1,"line":1,"station_id":"SUDB","i_lat":-6.201433,"station_name":"Sudirman Baru"},{"time":1,"transit":false,"i_long":106.816351,"station_name":"Karet","distance":471,"station_id":"KAT","line":1,"is_transit":false,"i_lat":-6.20132},{"is_transit":true,"time":5,"distance":2029,"i_long":106.811091,"transit":true,"station_name":"Tanah Abang","station_id":"THB","i_lat":-6.185545,"line":1},{"i_lat":-6.207404,"station_id":"PLM","time":6,"distance":3191,"transit":false,"line":6,"station_name":"Palmerah","i_long":106.79689,"is_transit":false},{"transit":false,"i_lat":-6.237242,"i_long":106.780334,"is_transit":false,"station_id":"KBY","line":6,"station_name":"Kebayoran","time":7,"distance":3737},{"station_id":"PDJ","i_long":106.74273,"line":6,"is_transit":false,"station_name":"Pondokranji","distance":6218,"transit":false,"time":8,"i_lat":-6.276362},{"i_lat":-6.288927,"line":6,"is_transit":false,"distance":2179,"transit":false,"station_id":"JMU","i_long":106.728916,"time":3,"station_name":"Jurangmangu"},{"is_transit":false,"station_name":"Sudimara","distance":1994,"i_long":106.712277,"i_lat":-6.296963,"station_id":"SDM","line":6,"time":4,"transit":false},{"time":6,"is_transit":false,"i_long":106.675475,"i_lat":-6.314823,"transit":false,"distance":4566,"station_id":"RU","line":6,"station_name":"Rawa Buntu"},{"i_lat":-6.319871,"i_long":106.66566,"station_name":"Serpong","transit":false,"distance":2413,"is_transit":false,"line":6,"station_id":"SRP","time":4},{"transit":false,"time":4,"line":3,"i_long":106.640411,"is_transit":false,"station_name":"Cisauk","station_id":"CSK","i_lat":-6.32484,"distance":1784},{"distance":2519,"station_name":"Cicayur","i_lat":-6.329547,"transit":false,"line":3,"time":4,"i_long":106.617853,"is_transit":false,"station_id":"CC"}]]}