{"data":[[{"distance":0,"i_lat":-6.166068,"line":5,"time":0,"station_id":"KDS","transit":false,"station_name":"Kalideres","i_long":106.701612,"is_transit":false},{"transit":false,"station_name":"Rawa Buaya","distance":2504,"time":3,"i_lat":-6.162758,"i_long":106.723064,"is_transit":false,"line":5,"station_id":"RW"},{"line":5,"i_lat":-6.159876,"transit":false,"time":4,"station_id":"BOI","is_transit":false,"i_long":106.737035,"station_name":"Bojongindah","distance":1152},{"is_transit":false,"station_id":"TKO","station_name":"Taman Kota","transit":false,"i_lat":-6.1587309999999995,"i_long":106.756522,"time":2,"line":5,"distance":2334},{"is_transit":false,"time":2,"transit":false,"station_id":"PSG","i_long":106.771379,"distance":1614,"i_lat":-6.161433,"line":5,"station_name":"Pesing"}]]}