{"data":[[{"is_transit":false,"time":0,"i_long":106.701612,"station_id":"KDS","line":5,"transit":false,"station_name":"Kalideres","distance":0,"i_lat":-6.166068},{"line":5,"station_name":"Rawa Buaya","station_id":"RW","time":3,"distance":2504,"transit":false,"i_lat":-6.162758,"i_long":106.723064,"is_transit":false},{"station_name":"Bojongindah","time":4,"i_lat":-6.159876,"i_long":106.737035,"line":5,"transit":false,"distance":1152,"is_transit":false,"station_id":"BOI"},{"is_transit":false,"time":2,"transit":false,"i_lat":-6.1587309999999995,"station_id":"TKO","distance":2334,"line":5,"i_long":106.756522,"station_name":"Taman Kota"},{"station_id":"PSG","i_lat":-6.161433,"time":2,"line":5,"distance":1614,"i_long":106.771379,"is_transit":false,"station_name":"Pesing","transit":false},{"distance":2036,"is_transit":false,"transit":false,"i_lat":-6.162021,"time":2,"station_id":"GGL","station_name":"Grogol","i_long":106.788277,"line":5},{"station_id":"DU","station_name":"Duri","time":3,"i_long":106.800832,"line":1,"transit":true,"is_transit":true,"distance":1700,"i_lat":-6.155215},{"time":8,"station_id":"THB","is_transit":true,"transit":true,"i_long":106.811091,"i_lat":-6.185545,"station_name":"Tanah Abang","line":1,"distance":3632},{"transit":false,"station_name":"Palmerah","station_id":"PLM","time":6,"distance":3191,"i_long":106.79689,"i_lat":-6.207404,"is_transit":false,"line":6},{"transit":false,"station_id":"KBY","station_name":"Kebayoran","distance":3737,"i_lat":-6.237242,"line":6,"i_long":106.780334,"is_transit":false,"time":7}],[{"distance":0,"i_long":106.701612,"time":0,"is_transit":false,"station_name":"Kalideres","transit":false,"i_lat":-6.166068,"station_id":"KDS","line":5},{"station_id":"RW","is_transit":false,"time":3,"station_name":"Rawa Buaya","distance":2504,"i_lat":-6.162758,"i_long":106.723064,"line":5,"transit":false},{"station_name":"Bojongindah","is_transit":false,"distance":1152,"transit":false,"i_lat":-6.159876,"i_long":106.737035,"station_id":"BOI","line":5,"time":4},{"transit":false,"i_lat":-6.1587309999999995,"line":5,"station_id":"TKO","is_transit":false,"station_name":"Taman Kota","time":2,"distance":2334,"i_long":106.756522},{"i_long":106.771379,"is_transit":false,"transit":false,"station_id":"PSG","time":2,"i_lat":-6.161433,"line":5,"distance":1614,"station_name":"Pesing"},{"is_transit":false,"i_lat":-6.162021,"time":2,"line":5,"transit":false,"station_name":"Grogol","distance":2036,"station_id":"GGL","i_long":106.788277},{"is_transit":true,"i_lat":-6.155215,"station_name":"Duri","line":1,"i_long":106.800832,"station_id":"DU","distance":1700,"time":3,"transit":true},{"transit":false,"is_transit":false,"line":1,"station_name":"Angke","station_id":"AK","i_lat":-6.144674,"i_long":106.79867,"distance":1230,"time":4},{"i_lat":-6.132549,"station_name":"Kampung Bandan","time":9,"line":4,"i_long":106.826365,"station_id":"KPB","is_transit":true,"transit":true,"distance":4102},{"station_name":"Jakarta Kota","i_long":106.812439,"distance":1364,"line":2,"i_lat":-6.137569,"station_id":"JAKK","is_transit":true,"time":3,"transit":true},{"time":4,"i_long":106.820901,"line":2,"i_lat":-6.141205,"station_id":"JAY","is_transit":false,"transit":false,"distance":1264,"station_name":"Jayakarta"},{"time":2,"is_transit":false,"distance":1080,"station_id":"MGB","i_lat":-6.149769,"line":2,"station_name":"Manggabesar","transit":false,"i_long":106.82482},{"transit":false,"time":2,"distance":906,"i_lat":-6.160725,"station_id":"SW","station_name":"Sawah Besar","is_transit":false,"line":2,"i_long":106.827103},{"line":2,"time":2,"distance":1149,"station_id":"JUA","transit":false,"i_lat":-6.166716,"is_transit":false,"station_name":"Juanda","i_long":106.828284},{"line":2,"i_lat":-6.186295,"station_name":"Gondangdia","is_transit":false,"transit":false,"station_id":"GDD","time":4,"distance":2015,"i_long":106.832183},{"is_transit":false,"time":3,"transit":false,"station_name":"Cikini","i_long":106.840169,"line":2,"station_id":"CKI","i_lat":-6.198556,"distance":1750},{"transit":true,"station_name":"Manggarai","line":2,"distance":1590,"time":4,"is_transit":true,"i_lat":-6.209883,"station_id":"MRI","i_long":106.84912},{"station_id":"SUD","distance":3186,"transit":false,"time":4,"i_lat":-6.202263,"line":1,"i_long":106.822649,"is_transit":false,"station_name":"Sudirman"},{"i_long":106.819881,"transit":false,"distance":280,"is_transit":false,"time":1,"station_id":"SUDB","i_lat":-6.201433,"line":1,"station_name":"Sudirman Baru"},{"i_long":106.816351,"is_transit":false,"distance":471,"line":1,"transit":false,"station_name":"Karet","time":1,"station_id":"KAT","i_lat":-6.20132},{"station_name":"Tanah Abang","i_long":106.811091,"distance":2029,"is_transit":true,"transit":true,"time":5,"line":1,"station_id":"THB","i_lat":-6.185545},{"i_long":106.79689,"line":6,"station_id":"PLM","station_name":"Palmerah","time":6,"i_lat":-6.207404,"transit":false,"distance":3191,"is_transit":false},{"station_id":"KBY","station_name":"Kebayoran","distance":3737,"i_lat":-6.237242,"is_transit":false,"transit":false,"line":6,"time":7,"i_long":106.780334}],[{"is_transit":false,"transit":false,"station_name":"Kalideres","i_long":106.701612,"line":5,"i_lat":-6.166068,"distance":0,"time":0,"station_id":"KDS"},{"distance":2504,"station_id":"RW","i_lat":-6.162758,"is_transit":false,"i_long":106.723064,"line":5,"transit":false,"time":3,"station_name":"Rawa Buaya"},{"line":5,"station_id":"BOI","is_transit":false,"station_name":"Bojongindah","time":4,"i_lat":-6.159876,"i_long":106.737035,"distance":1152,"transit":false},{"i_long":106.756522,"transit":false,"i_lat":-6.1587309999999995,"station_id":"TKO","line":5,"time":2,"distance":2334,"station_name":"Taman Kota","is_transit":false},{"is_transit":false,"i_lat":-6.161433,"i_long":106.771379,"station_id":"PSG","transit":false,"line":5,"time":2,"distance":1614,"station_name":"Pesing"},{"distance":2036,"time":2,"station_name":"Grogol","i_lat":-6.162021,"transit":false,"i_long":106.788277,"station_id":"GGL","line":5,"is_transit":false},{"line":1,"time":3,"station_name":"Duri","i_lat":-6.155215,"transit":true,"station_id":"DU","is_transit":true,"i_long":106.800832,"distance":1700},{"station_id":"AK","distance":1230,"station_name":"Angke","transit":false,"i_long":106.79867,"line":1,"time":4,"is_transit":false,"i_lat":-6.144674},{"station_id":"KPB","i_long":106.826365,"line":4,"distance":4102,"time":9,"transit":true,"station_name":"Kampung Bandan","is_transit":true,"i_lat":-6.132549},{"i_lat":-6.14505,"time":3,"distance":1444,"line":11,"transit":false,"i_long":106.836569,"station_name":"Rajawali","station_id":"RJW","is_transit":false},{"station_name":"Kemayoran","i_long":106.839204,"line":11,"i_lat":-6.161728,"is_transit":false,"transit":false,"distance":1901,"station_id":"KMO","time":5},{"i_long":106.84368,"is_transit":false,"line":11,"station_id":"PSE","distance":1436,"station_name":"Pasar Senen","i_lat":-6.174784,"transit":false,"time":4},{"station_id":"GST","time":8,"distance":1567,"transit":false,"station_name":"Gang Sentiong","is_transit":false,"i_lat":-6.185975,"i_long":106.850107,"line":11},{"line":11,"i_lat":-6.193792,"station_name":"Kramat","distance":973,"is_transit":false,"time":1,"transit":false,"station_id":"KMT","i_long":106.855437},{"is_transit":false,"station_name":"Pondok Jati","time":2,"station_id":"POK","i_long":106.861737,"line":11,"i_lat":-6.209188,"distance":1829,"transit":false},{"time":9,"station_id":"JNG","i_long":106.86807400000001,"line":1,"is_transit":true,"distance":1236,"station_name":"Jatinegara","i_lat":-6.215091,"transit":true},{"station_name":"Matraman","transit":false,"line":1,"station_id":"MTR","time":2,"distance":1377,"i_long":106.858896,"i_lat":-6.212485,"is_transit":false},{"station_id":"MRI","is_transit":false,"distance":1275,"station_name":"Manggarai","transit":false,"time":2,"i_lat":-6.209883,"i_long":106.84912,"line":2},{"is_transit":false,"station_id":"SUD","i_lat":-6.202263,"time":4,"i_long":106.822649,"line":1,"transit":false,"distance":3186,"station_name":"Sudirman"},{"station_id":"SUDB","time":1,"i_long":106.819881,"transit":false,"station_name":"Sudirman Baru","distance":280,"line":1,"i_lat":-6.201433,"is_transit":false},{"distance":471,"station_id":"KAT","line":1,"i_lat":-6.20132,"i_long":106.816351,"transit":false,"is_transit":false,"time":1,"station_name":"Karet"},{"transit":true,"i_long":106.811091,"line":1,"station_id":"THB","is_transit":true,"time":5,"distance":2029,"i_lat":-6.185545,"station_name":"Tanah Abang"},{"i_long":106.79689,"distance":3191,"line":6,"station_id":"PLM","is_transit":false,"time":6,"transit":false,"i_lat":-6.207404,"station_name":"Palmerah"},{"line":6,"station_name":"Kebayoran","i_lat":-6.237242,"distance":3737,"station_id":"KBY","time":7,"is_transit":false,"i_long":106.780334,"transit":false}]]}