{"data":[[{"line":5,"time":0,"is_transit":false,"station_name":"Kalideres","transit":false,"i_lat":-6.166068,"station_id":"KDS","distance":0,"i_long":106.701612},{"line":5,"i_long":106.723064,"transit":false,"distance":2504,"is_transit":false,"time":3,"station_name":"Rawa Buaya","station_id":"RW","i_lat":-6.162758},{"distance":1152,"transit":false,"i_lat":-6.159876,"station_name":"Bojongindah","station_id":"BOI","line":0,"i_long":106.737035,"is_transit":false,"time":4},{"transit":false,"line":5,"i_long":106.756522,"i_lat":-6.1587309999999995,"distance":2334,"station_name":"Taman Kota","station_id":"TKO","time":2,"is_transit":false},{"time":2,"is_transit":false,"station_id":"PSG","i_lat":-6.161433,"i_long":106.771379,"transit":false,"distance":1614,"line":5,"station_name":"Pesing"},{"i_lat":-6.162021,"time":2,"station_id":"GGL","transit":false,"i_long":106.788277,"is_transit":false,"station_name":"Grogol","distance":2036,"line":5},{"station_id":"DU","is_transit":true,"line":1,"station_name":"Duri","time":3,"distance":1700,"transit":true,"i_lat":-6.155215,"i_long":106.800832},{"is_transit":false,"time":4,"station_name":"Angke","i_lat":-6.144674,"distance":1230,"station_id":"AK","line":0,"transit":false,"i_long":106.79867},{"is_transit":true,"transit":false,"i_lat":-6.132549,"station_name":"Kampung Bandan","time":9,"line":0,"distance":4102,"i_long":106.826365,"station_id":"KPB"},{"i_long":106.812439,"time":3,"is_transit":true,"line":0,"i_lat":-6.137569,"distance":1364,"station_id":"JAKK","transit":true,"station_name":"Jakarta Kota"},{"station_id":"JAY","i_lat":-6.141205,"distance":1264,"station_name":"Jayakarta","line":7,"is_transit":false,"i_long":106.820901,"time":4,"transit":false},{"transit":false,"i_lat":-6.149769,"station_id":"MGB","time":2,"is_transit":false,"station_name":"Manggabesar","line":2,"i_long":106.82482,"distance":1080},{"i_lat":-6.160725,"line":2,"station_name":"Sawah Besar","distance":906,"station_id":"SW","time":2,"transit":false,"i_long":106.827103,"is_transit":false}],[{"transit":false,"is_transit":false,"time":0,"i_long":106.701612,"i_lat":-6.166068,"distance":0,"line":5,"station_id":"KDS","station_name":"Kalideres"},{"transit":false,"time":3,"i_long":106.723064,"station_name":"Rawa Buaya","i_lat":-6.162758,"line":5,"distance":2504,"is_transit":false,"station_id":"RW"},{"station_id":"BOI","is_transit":false,"i_lat":-6.159876,"line":0,"time":4,"distance":1152,"i_long":106.737035,"transit":false,"station_name":"Bojongindah"},{"station_id":"TKO","i_lat":-6.1587309999999995,"i_long":106.756522,"is_transit":false,"distance":2334,"transit":false,"station_name":"Taman Kota","time":2,"line":5},{"station_name":"Pesing","transit":false,"i_lat":-6.161433,"is_transit":false,"i_long":106.771379,"line":5,"distance":1614,"station_id":"PSG","time":2},{"line":5,"station_id":"GGL","time":2,"station_name":"Grogol","transit":false,"is_transit":false,"distance":2036,"i_lat":-6.162021,"i_long":106.788277},{"station_name":"Duri","i_long":106.800832,"is_transit":true,"i_lat":-6.155215,"time":3,"line":1,"station_id":"DU","transit":true,"distance":1700},{"line":1,"station_id":"THB","time":8,"distance":3632,"i_long":106.811091,"is_transit":true,"transit":false,"i_lat":-6.185545,"station_name":"Tanah Abang"},{"is_transit":false,"distance":2029,"i_lat":-6.20132,"transit":false,"line":1,"station_id":"KAT","i_long":106.816351,"station_name":"Karet","time":5},{"station_id":"SUDB","is_transit":false,"distance":471,"i_long":106.819881,"i_lat":-6.201433,"time":1,"line":1,"station_name":"Sudirman Baru","transit":false},{"distance":280,"is_transit":false,"line":1,"time":1,"station_id":"SUD","transit":false,"i_lat":-6.202263,"station_name":"Sudirman","i_long":106.822649},{"time":4,"station_name":"Manggarai","distance":3186,"transit":true,"i_long":106.84912,"i_lat":-6.209883,"is_transit":true,"station_id":"MRI","line":0},{"i_lat":-6.198556,"station_name":"Cikini","time":4,"transit":false,"distance":1590,"line":0,"is_transit":false,"station_id":"CKI","i_long":106.840169},{"is_transit":false,"line":2,"distance":1750,"i_lat":-6.186295,"i_long":106.832183,"station_id":"GDD","station_name":"Gondangdia","transit":false,"time":3},{"time":4,"distance":2015,"line":2,"i_lat":-6.166716,"i_long":106.828284,"station_id":"JUA","transit":false,"is_transit":false,"station_name":"Juanda"},{"station_id":"SW","i_lat":-6.160725,"time":2,"transit":false,"is_transit":false,"station_name":"Sawah Besar","i_long":106.827103,"line":2,"distance":1149}],[{"i_lat":-6.166068,"distance":0,"i_long":106.701612,"is_transit":false,"line":5,"transit":false,"time":0,"station_id":"KDS","station_name":"Kalideres"},{"station_id":"RW","is_transit":false,"line":5,"time":3,"distance":2504,"i_lat":-6.162758,"station_name":"Rawa Buaya","transit":false,"i_long":106.723064},{"is_transit":false,"station_id":"BOI","station_name":"Bojongindah","i_lat":-6.159876,"i_long":106.737035,"transit":false,"line":0,"distance":1152,"time":4},{"is_transit":false,"distance":2334,"transit":false,"line":5,"station_name":"Taman Kota","time":2,"i_lat":-6.1587309999999995,"station_id":"TKO","i_long":106.756522},{"i_lat":-6.161433,"distance":1614,"station_id":"PSG","is_transit":false,"i_long":106.771379,"station_name":"Pesing","time":2,"transit":false,"line":5},{"i_lat":-6.162021,"line":5,"time":2,"station_id":"GGL","transit":false,"distance":2036,"i_long":106.788277,"is_transit":false,"station_name":"Grogol"},{"i_long":106.800832,"station_id":"DU","time":3,"station_name":"Duri","transit":true,"distance":1700,"i_lat":-6.155215,"line":1,"is_transit":true},{"station_name":"Angke","i_lat":-6.144674,"is_transit":false,"transit":false,"i_long":106.79867,"line":0,"station_id":"AK","distance":1230,"time":4},{"time":9,"distance":4102,"is_transit":true,"station_name":"Kampung Bandan","line":0,"station_id":"KPB","i_lat":-6.132549,"transit":true,"i_long":106.826365},{"i_long":106.836569,"line":11,"is_transit":false,"distance":1444,"i_lat":-6.14505,"time":3,"station_id":"RJW","station_name":"Rajawali","transit":false},{"station_id":"KMO","station_name":"Kemayoran","i_lat":-6.161728,"distance":1901,"line":11,"i_long":106.839204,"time":5,"transit":false,"is_transit":false},{"line":11,"transit":false,"time":4,"i_lat":-6.174784,"is_transit":false,"station_id":"PSE","i_long":106.84368,"station_name":"Pasar Senen","distance":1436},{"is_transit":false,"transit":false,"station_name":"Gang Sentiong","line":11,"i_long":106.850107,"station_id":"GST","time":8,"i_lat":-6.185975,"distance":1567},{"station_id":"KMT","is_transit":false,"transit":false,"time":1,"i_long":106.855437,"station_name":"Kramat","distance":973,"line":11,"i_lat":-6.193792},{"i_long":106.861737,"distance":1829,"line":11,"station_name":"Pondok Jati","transit":false,"time":2,"station_id":"POK","i_lat":-6.209188,"is_transit":false},{"station_name":"Jatinegara","line":0,"i_long":106.86807400000001,"i_lat":-6.215091,"distance":1236,"station_id":"JNG","time":9,"is_transit":true,"transit":true},{"i_lat":-6.212485,"i_long":106.858896,"is_transit":false,"station_name":"Matraman","station_id":"MTR","line":1,"time":2,"transit":false,"distance":1377},{"station_id":"MRI","time":2,"distance":1275,"transit":true,"is_transit":true,"station_name":"Manggarai","i_lat":-6.209883,"i_long":106.84912,"line":0},{"transit":false,"station_name":"Cikini","is_transit":false,"line":0,"station_id":"CKI","i_lat":-6.198556,"time":4,"distance":1590,"i_long":106.840169},{"is_transit":false,"i_lat":-6.186295,"line":2,"distance":1750,"station_name":"Gondangdia","transit":false,"station_id":"GDD","i_long":106.832183,"time":3},{"transit":false,"station_id":"JUA","i_long":106.828284,"is_transit":false,"line":2,"time":4,"station_name":"Juanda","distance":2015,"i_lat":-6.166716},{"station_name":"Sawah Besar","i_lat":-6.160725,"station_id":"SW","i_long":106.827103,"distance":1149,"transit":false,"is_transit":false,"line":2,"time":2}],[{"station_id":"KDS","time":0,"i_lat":-6.166068,"is_transit":false,"line":5,"station_name":"Kalideres","transit":false,"i_long":106.701612,"distance":0},{"line":5,"time":3,"distance":2504,"i_lat":-6.162758,"i_long":106.723064,"is_transit":false,"station_name":"Rawa Buaya","transit":false,"station_id":"RW"},{"distance":1152,"time":4,"i_lat":-6.159876,"i_long":106.737035,"transit":false,"line":0,"station_id":"BOI","is_transit":false,"station_name":"Bojongindah"},{"is_transit":false,"station_id":"TKO","i_long":106.756522,"station_name":"Taman Kota","distance":2334,"transit":false,"i_lat":-6.1587309999999995,"line":5,"time":2},{"station_id":"PSG","is_transit":false,"time":2,"station_name":"Pesing","distance":1614,"transit":false,"i_lat":-6.161433,"i_long":106.771379,"line":5},{"line":5,"station_name":"Grogol","distance":2036,"time":2,"is_transit":false,"transit":false,"station_id":"GGL","i_lat":-6.162021,"i_long":106.788277},{"station_id":"DU","station_name":"Duri","i_lat":-6.155215,"time":3,"is_transit":true,"distance":1700,"transit":true,"line":1,"i_long":106.800832},{"line":1,"time":8,"station_name":"Tanah Abang","station_id":"THB","is_transit":true,"transit":false,"i_lat":-6.185545,"i_long":106.811091,"distance":3632},{"station_name":"Karet","i_lat":-6.20132,"transit":false,"is_transit":false,"i_long":106.816351,"time":5,"line":1,"station_id":"KAT","distance":2029},{"station_name":"Sudirman Baru","distance":471,"is_transit":false,"transit":false,"station_id":"SUDB","time":1,"line":1,"i_long":106.819881,"i_lat":-6.201433},{"i_long":106.822649,"time":1,"station_id":"SUD","is_transit":false,"distance":280,"transit":false,"i_lat":-6.202263,"line":1,"station_name":"Sudirman"},{"i_long":106.84912,"time":4,"distance":3186,"is_transit":true,"station_name":"Manggarai","line":0,"transit":false,"i_lat":-6.209883,"station_id":"MRI"},{"transit":false,"i_long":106.858896,"time":2,"distance":1275,"is_transit":false,"station_id":"MTR","station_name":"Matraman","i_lat":-6.212485,"line":1},{"is_transit":true,"time":8,"station_name":"Jatinegara","i_lat":-6.215091,"i_long":106.86807400000001,"transit":true,"distance":1377,"line":0,"station_id":"JNG"},{"line":11,"i_lat":-6.209188,"i_long":106.861737,"time":2,"station_id":"POK","station_name":"Pondok Jati","distance":1236,"is_transit":false,"transit":false},{"station_id":"KMT","time":2,"is_transit":false,"i_long":106.855437,"distance":1829,"transit":false,"line":11,"station_name":"Kramat","i_lat":-6.193792},{"time":1,"station_name":"Gang Sentiong","i_long":106.850107,"station_id":"GST","is_transit":false,"transit":false,"i_lat":-6.185975,"line":11,"distance":973},{"time":8,"i_lat":-6.174784,"transit":false,"line":11,"distance":1567,"i_long":106.84368,"is_transit":false,"station_name":"Pasar Senen","station_id":"PSE"},{"is_transit":false,"distance":1436,"line":11,"time":4,"station_name":"Kemayoran","station_id":"KMO","i_lat":-6.161728,"i_long":106.839204,"transit":false},{"is_transit":false,"line":11,"time":5,"station_name":"Rajawali","distance":1901,"transit":false,"i_lat":-6.14505,"i_long":106.836569,"station_id":"RJW"},{"station_name":"Kampung Bandan","distance":1444,"i_lat":-6.132549,"is_transit":true,"transit":true,"i_long":106.826365,"line":0,"time":3,"station_id":"KPB"},{"station_id":"JAKK","is_transit":true,"transit":true,"distance":1364,"i_lat":-6.137569,"line":0,"i_long":106.812439,"station_name":"Jakarta Kota","time":3},{"transit":false,"station_id":"JAY","time":4,"is_transit":false,"distance":1264,"i_lat":-6.141205,"i_long":106.820901,"line":7,"station_name":"Jayakarta"},{"line":2,"i_lat":-6.149769,"transit":false,"i_long":106.82482,"station_id":"MGB","distance":1080,"is_transit":false,"time":2,"station_name":"Manggabesar"},{"distance":906,"station_name":"Sawah Besar","is_transit":false,"station_id":"SW","i_lat":-6.160725,"i_long":106.827103,"line":2,"time":2,"transit":false}]]}