{"data":[[{"time":0,"i_long":106.701612,"distance":0,"line":5,"transit":false,"is_transit":false,"station_id":"KDS","i_lat":-6.166068,"station_name":"Kalideres"},{"transit":false,"line":5,"time":3,"distance":2504,"station_id":"RW","i_long":106.723064,"station_name":"Rawa Buaya","i_lat":-6.162758,"is_transit":false},{"time":4,"station_id":"BOI","transit":false,"is_transit":false,"station_name":"Bojongindah","i_long":106.737035,"line":5,"distance":1152,"i_lat":-6.159876},{"i_long":106.756522,"i_lat":-6.1587309999999995,"line":5,"station_name":"Taman Kota","time":2,"station_id":"TKO","is_transit":false,"distance":2334,"transit":false},{"time":2,"station_id":"PSG","station_name":"Pesing","i_long":106.771379,"line":5,"is_transit":false,"i_lat":-6.161433,"distance":1614,"transit":false},{"i_long":106.788277,"distance":2036,"time":2,"transit":false,"station_name":"Grogol","i_lat":-6.162021,"line":5,"station_id":"GRG","is_transit":false},{"i_lat":-6.155215,"time":3,"line":1,"i_long":106.800832,"is_transit":true,"transit":true,"station_id":"DU","station_name":"Duri","distance":1700},{"i_lat":-6.185545,"transit":false,"distance":3632,"is_transit":false,"time":8,"station_name":"Tanah Abang","station_id":"THB","i_long":106.811091,"line":1},{"time":5,"i_lat":-6.20132,"line":1,"i_long":106.816351,"distance":2029,"station_name":"Karet","station_id":"KAT","is_transit":false,"transit":false},{"i_long":106.819881,"station_id":"SUDB","is_transit":false,"line":1,"distance":471,"transit":false,"i_lat":-6.201433,"station_name":"Sudirman Baru","time":1},{"station_name":"Sudirman","i_lat":-6.202263,"transit":false,"line":1,"time":1,"distance":280,"i_long":106.822649,"is_transit":false,"station_id":"SUD"},{"line":2,"station_name":"Manggarai","time":4,"distance":3186,"i_lat":-6.209883,"station_id":"MRI","transit":false,"is_transit":false,"i_long":106.84912},{"station_id":"MTR","i_long":106.858896,"time":2,"station_name":"Matraman","line":1,"transit":false,"i_lat":-6.212485,"distance":1275,"is_transit":false},{"distance":1377,"i_long":106.86807400000001,"station_id":"JNG","time":8,"is_transit":false,"station_name":"Jatinegara","i_lat":-6.215091,"line":1,"transit":false},{"transit":false,"time":3,"distance":3395,"i_lat":-6.2135,"i_long":106.899548,"is_transit":false,"line":1,"station_name":"Klender","station_id":"KLD"}],[{"is_transit":false,"line":5,"station_id":"KDS","station_name":"Kalideres","transit":false,"i_long":106.701612,"distance":0,"i_lat":-6.166068,"time":0},{"distance":2504,"i_long":106.723064,"line":5,"station_name":"Rawa Buaya","i_lat":-6.162758,"station_id":"RW","time":3,"is_transit":false,"transit":false},{"station_name":"Bojongindah","transit":false,"i_lat":-6.159876,"time":4,"station_id":"BOI","i_long":106.737035,"line":5,"distance":1152,"is_transit":false},{"time":2,"is_transit":false,"station_id":"TKO","transit":false,"i_lat":-6.1587309999999995,"station_name":"Taman Kota","line":5,"i_long":106.756522,"distance":2334},{"i_long":106.771379,"station_id":"PSG","distance":1614,"is_transit":false,"transit":false,"line":5,"time":2,"station_name":"Pesing","i_lat":-6.161433},{"station_id":"GRG","transit":false,"station_name":"Grogol","is_transit":false,"time":2,"i_lat":-6.162021,"line":5,"i_long":106.788277,"distance":2036},{"i_long":106.800832,"line":1,"station_name":"Duri","i_lat":-6.155215,"station_id":"DU","transit":true,"distance":1700,"time":3,"is_transit":true},{"station_name":"Angke","time":4,"transit":false,"i_lat":-6.144674,"station_id":"AK","line":1,"is_transit":false,"distance":1230,"i_long":106.79867},{"time":9,"i_lat":-6.132549,"station_id":"KPB","station_name":"Kampung Bandan","is_transit":true,"distance":4102,"transit":true,"i_long":106.826365,"line":4},{"station_name":"Rajawali","i_lat":-6.14505,"is_transit":false,"line":11,"transit":false,"distance":1444,"station_id":"RJW","i_long":106.836569,"time":3},{"is_transit":false,"line":11,"i_long":106.839204,"station_name":"Kemayoran","transit":false,"i_lat":-6.161728,"station_id":"KMO","time":5,"distance":1901},{"i_long":106.84368,"is_transit":false,"line":11,"distance":1436,"station_id":"PSE","station_name":"Pasar Senen","i_lat":-6.174784,"time":4,"transit":false},{"station_id":"GST","line":11,"time":8,"transit":false,"distance":1567,"station_name":"Gang Sentiong","i_lat":-6.185975,"i_long":106.850107,"is_transit":false},{"time":1,"station_name":"Kramat","transit":false,"i_long":106.855437,"distance":973,"is_transit":false,"i_lat":-6.193792,"line":11,"station_id":"KMT"},{"i_long":106.861737,"is_transit":false,"distance":1829,"station_id":"POK","i_lat":-6.209188,"line":11,"transit":false,"time":2,"station_name":"Pondok Jati"},{"is_transit":true,"time":9,"distance":1236,"station_name":"Jatinegara","i_lat":-6.215091,"i_long":106.86807400000001,"line":1,"transit":true,"station_id":"JNG"},{"line":1,"distance":3395,"transit":false,"i_lat":-6.2135,"time":3,"i_long":106.899548,"station_name":"Klender","is_transit":false,"station_id":"KLD"}],[{"distance":0,"transit":false,"line":5,"is_transit":false,"i_lat":-6.166068,"station_name":"Kalideres","time":0,"i_long":106.701612,"station_id":"KDS"},{"station_name":"Rawa Buaya","station_id":"RW","is_transit":false,"time":3,"transit":false,"i_lat":-6.162758,"distance":2504,"i_long":106.723064,"line":5},{"is_transit":false,"station_id":"BOI","i_long":106.737035,"distance":1152,"line":5,"station_name":"Bojongindah","time":4,"transit":false,"i_lat":-6.159876},{"i_lat":-6.1587309999999995,"i_long":106.756522,"distance":2334,"line":5,"station_id":"TKO","transit":false,"station_name":"Taman Kota","is_transit":false,"time":2},{"distance":1614,"is_transit":false,"time":2,"i_lat":-6.161433,"line":5,"transit":false,"station_id":"PSG","i_long":106.771379,"station_name":"Pesing"},{"is_transit":false,"distance":2036,"station_id":"GRG","i_lat":-6.162021,"time":2,"line":5,"station_name":"Grogol","i_long":106.788277,"transit":false},{"transit":true,"station_id":"DU","i_lat":-6.155215,"line":1,"i_long":106.800832,"distance":1700,"time":3,"is_transit":true,"station_name":"Duri"},{"station_name":"Angke","station_id":"AK","time":4,"transit":false,"line":1,"i_long":106.79867,"i_lat":-6.144674,"distance":1230,"is_transit":false},{"i_lat":-6.132549,"station_name":"Kampung Bandan","transit":true,"distance":4102,"time":9,"i_long":106.826365,"line":4,"is_transit":true,"station_id":"KPB"},{"line":2,"i_lat":-6.137569,"distance":1364,"time":3,"is_transit":true,"i_long":106.812439,"station_id":"JAKK","station_name":"Jakarta Kota","transit":true},{"transit":false,"station_name":"Jayakarta","line":2,"i_lat":-6.141205,"time":4,"distance":1264,"is_transit":false,"i_long":106.820901,"station_id":"JAY"},{"time":2,"station_name":"Manggabesar","i_long":106.82482,"line":2,"i_lat":-6.149769,"distance":1080,"is_transit":false,"station_id":"MGB","transit":false},{"line":2,"is_transit":false,"transit":false,"i_lat":-6.160725,"station_id":"SW","i_long":106.827103,"time":2,"distance":906,"station_name":"Sawah Besar"},{"transit":false,"station_id":"JUA","station_name":"Juanda","time":2,"line":2,"distance":1149,"is_transit":false,"i_lat":-6.166716,"i_long":106.828284},{"line":2,"transit":false,"distance":2015,"station_name":"Gondangdia","station_id":"GDD","i_lat":-6.186295,"i_long":106.832183,"time":4,"is_transit":false},{"i_lat":-6.198556,"i_long":106.840169,"station_name":"Cikini","station_id":"CKI","line":2,"time":3,"distance":1750,"is_transit":false,"transit":false},{"i_lat":-6.209883,"is_transit":true,"i_long":106.84912,"time":4,"distance":1590,"station_name":"Manggarai","transit":true,"station_id":"MRI","line":2},{"i_long":106.858896,"transit":false,"i_lat":-6.212485,"station_name":"Matraman","line":1,"station_id":"MTR","distance":1275,"is_transit":false,"time":2},{"i_long":106.86807400000001,"i_lat":-6.215091,"station_name":"Jatinegara","is_transit":false,"time":8,"station_id":"JNG","distance":1377,"line":1,"transit":false},{"time":3,"transit":false,"is_transit":false,"station_id":"KLD","i_lat":-6.2135,"station_name":"Klender","distance":3395,"i_long":106.899548,"line":1}],[{"station_name":"Kalideres","i_lat":-6.166068,"is_transit":false,"line":5,"time":0,"distance":0,"station_id":"KDS","i_long":106.701612,"transit":false},{"i_long":106.723064,"transit":false,"station_name":"Rawa Buaya","time":3,"is_transit":false,"station_id":"RW","line":5,"distance":2504,"i_lat":-6.162758},{"transit":false,"is_transit":false,"time":4,"distance":1152,"i_lat":-6.159876,"i_long":106.737035,"line":5,"station_id":"BOI","station_name":"Bojongindah"},{"time":2,"station_id":"TKO","is_transit":false,"station_name":"Taman Kota","distance":2334,"transit":false,"i_lat":-6.1587309999999995,"i_long":106.756522,"line":5},{"time":2,"i_lat":-6.161433,"distance":1614,"station_name":"Pesing","i_long":106.771379,"line":5,"transit":false,"is_transit":false,"station_id":"PSG"},{"transit":false,"station_name":"Grogol","distance":2036,"is_transit":false,"station_id":"GRG","i_lat":-6.162021,"time":2,"i_long":106.788277,"line":5},{"line":1,"station_id":"DU","i_lat":-6.155215,"station_name":"Duri","i_long":106.800832,"transit":true,"time":3,"distance":1700,"is_transit":true},{"is_transit":false,"time":8,"station_name":"Tanah Abang","transit":false,"i_long":106.811091,"line":1,"station_id":"THB","i_lat":-6.185545,"distance":3632},{"line":1,"time":5,"i_lat":-6.20132,"station_id":"KAT","i_long":106.816351,"distance":2029,"is_transit":false,"transit":false,"station_name":"Karet"},{"time":1,"is_transit":false,"i_lat":-6.201433,"distance":471,"line":1,"station_id":"SUDB","transit":false,"station_name":"Sudirman Baru","i_long":106.819881},{"line":1,"time":1,"station_name":"Sudirman","i_lat":-6.202263,"i_long":106.822649,"distance":280,"transit":false,"station_id":"SUD","is_transit":false},{"i_lat":-6.209883,"station_name":"Manggarai","distance":3186,"station_id":"MRI","time":4,"transit":true,"line":2,"is_transit":true,"i_long":106.84912},{"i_long":106.840169,"distance":1590,"is_transit":false,"station_id":"CKI","transit":false,"i_lat":-6.198556,"station_name":"Cikini","line":2,"time":4},{"is_transit":false,"station_name":"Gondangdia","station_id":"GDD","distance":1750,"i_long":106.832183,"transit":false,"time":3,"i_lat":-6.186295,"line":2},{"station_id":"JUA","transit":false,"line":2,"time":4,"i_lat":-6.166716,"distance":2015,"i_long":106.828284,"station_name":"Juanda","is_transit":false},{"station_id":"SW","time":2,"transit":false,"is_transit":false,"distance":1149,"station_name":"Sawah Besar","i_lat":-6.160725,"i_long":106.827103,"line":2},{"line":2,"station_name":"Manggabesar","time":2,"distance":906,"transit":false,"i_lat":-6.149769,"i_long":106.82482,"station_id":"MGB","is_transit":false},{"line":2,"distance":1080,"i_lat":-6.141205,"is_transit":false,"time":2,"station_name":"Jayakarta","transit":false,"station_id":"JAY","i_long":106.820901},{"i_lat":-6.137569,"station_id":"JAKK","transit":true,"i_long":106.812439,"distance":1264,"line":2,"time":4,"station_name":"Jakarta Kota","is_transit":true},{"transit":true,"station_name":"Kampung Bandan","line":4,"time":3,"is_transit":true,"station_id":"KPB","distance":1364,"i_long":106.826365,"i_lat":-6.132549},{"distance":1444,"station_id":"RJW","i_lat":-6.14505,"line":11,"station_name":"Rajawali","is_transit":false,"i_long":106.836569,"transit":false,"time":3},{"time":5,"distance":1901,"transit":false,"i_lat":-6.161728,"station_id":"KMO","line":11,"is_transit":false,"station_name":"Kemayoran","i_long":106.839204},{"line":11,"station_id":"PSE","i_long":106.84368,"time":4,"transit":false,"distance":1436,"station_name":"Pasar Senen","i_lat":-6.174784,"is_transit":false},{"station_id":"GST","time":8,"station_name":"Gang Sentiong","i_lat":-6.185975,"transit":false,"line":11,"distance":1567,"i_long":106.850107,"is_transit":false},{"i_lat":-6.193792,"station_name":"Kramat","station_id":"KMT","line":11,"is_transit":false,"transit":false,"i_long":106.855437,"distance":973,"time":1},{"is_transit":false,"station_name":"Pondok Jati","distance":1829,"line":11,"time":2,"i_lat":-6.209188,"transit":false,"i_long":106.861737,"station_id":"POK"},{"transit":true,"is_transit":true,"distance":1236,"station_id":"JNG","station_name":"Jatinegara","i_lat":-6.215091,"i_long":106.86807400000001,"time":9,"line":1},{"i_long":106.899548,"i_lat":-6.2135,"line":1,"station_name":"Klender","station_id":"KLD","time":3,"is_transit":false,"transit":false,"distance":3395}]]}