{"data":[[{"transit":false,"is_transit":false,"time":0,"i_lat":-6.166068,"line":5,"i_long":106.701612,"station_name":"Kalideres","station_id":"KDS","distance":0},{"distance":2504,"station_name":"Rawa Buaya","i_lat":-6.162758,"line":5,"station_id":"RW","i_long":106.723064,"transit":false,"time":3,"is_transit":false},{"i_long":106.737035,"i_lat":-6.159876,"station_id":"BOI","transit":false,"is_transit":false,"time":4,"line":0,"distance":1152,"station_name":"Bojongindah"},{"time":2,"distance":2334,"station_name":"Taman Kota","i_lat":-6.1587309999999995,"station_id":"TKO","transit":false,"is_transit":false,"i_long":106.756522,"line":5},{"is_transit":false,"i_long":106.771379,"station_name":"Pesing","time":2,"i_lat":-6.161433,"distance":1614,"station_id":"PSG","transit":false,"line":5},{"station_id":"GGL","time":2,"station_name":"Grogol","transit":false,"is_transit":false,"i_lat":-6.162021,"line":5,"i_long":106.788277,"distance":2036},{"line":1,"i_lat":-6.155215,"distance":1700,"transit":true,"station_id":"DU","station_name":"Duri","i_long":106.800832,"is_transit":true,"time":3},{"station_name":"Tanah Abang","transit":false,"i_long":106.811091,"i_lat":-6.185545,"station_id":"THB","is_transit":true,"time":8,"distance":3632,"line":1},{"transit":false,"time":5,"station_name":"Karet","is_transit":false,"i_lat":-6.20132,"i_long":106.816351,"line":1,"station_id":"KAT","distance":2029},{"station_id":"SUDB","distance":471,"line":1,"is_transit":false,"i_lat":-6.201433,"station_name":"Sudirman Baru","time":1,"i_long":106.819881,"transit":false},{"distance":280,"i_long":106.822649,"station_id":"SUD","i_lat":-6.202263,"transit":false,"station_name":"Sudirman","is_transit":false,"line":1,"time":1},{"time":4,"distance":3186,"i_long":106.84912,"line":0,"i_lat":-6.209883,"station_id":"MRI","station_name":"Manggarai","is_transit":true,"transit":true},{"i_long":106.857948,"station_name":"Tebet","line":2,"time":4,"transit":false,"is_transit":false,"i_lat":-6.226659,"station_id":"TEB","distance":2610},{"distance":1230,"station_name":"Cawang","transit":false,"i_lat":-6.242512,"i_long":106.856607,"time":2,"line":0,"is_transit":false,"station_id":"CW"},{"transit":false,"time":3,"line":0,"station_id":"DRN","distance":1546,"is_transit":false,"station_name":"Duren Kalibata","i_lat":-6.255332,"i_long":106.85449},{"line":2,"is_transit":false,"station_id":"PSMB","transit":false,"i_long":106.851577,"time":2,"station_name":"Pasar Minggu Baru","distance":824,"i_lat":-6.263214},{"station_name":"Pasar Minggu","distance":2380,"i_lat":-6.2842400000000005,"is_transit":false,"time":2,"transit":false,"i_long":106.843999,"line":2,"station_id":"PSM"},{"is_transit":false,"distance":2820,"station_id":"TNT","line":2,"time":4,"transit":false,"i_lat":-6.3080680000000005,"i_long":106.838896,"station_name":"Tanjung Barat"},{"is_transit":false,"line":2,"station_name":"Lenteng Agung","i_long":106.832616,"time":3,"transit":false,"station_id":"LNA","distance":2671,"i_lat":-6.330363},{"time":2,"i_long":106.834175,"transit":false,"station_name":"Univ. Pancasila","is_transit":false,"line":2,"station_id":"UP","distance":1029,"i_lat":-6.339291},{"line":2,"transit":false,"i_long":106.831474,"is_transit":false,"distance":2264,"i_lat":-6.360749,"station_id":"UI","station_name":"Univ. Indonesia","time":3},{"station_name":"Pondok Cina","distance":1109,"transit":false,"i_long":106.831114,"line":2,"i_lat":-6.369073,"is_transit":false,"station_id":"POC","time":2},{"station_name":"Depokbaru","station_id":"DPB","is_transit":false,"time":4,"transit":false,"line":0,"i_lat":-6.391065,"i_long":106.819451,"distance":2727},{"is_transit":false,"time":3,"i_lat":-6.405256,"station_name":"Depok","distance":1584,"line":0,"i_long":106.816926,"station_id":"DP","transit":false},{"i_long":106.800298,"distance":5084,"is_transit":true,"time":6,"line":1,"station_name":"Citayam","transit":false,"i_lat":-6.448811,"station_id":"CTA"},{"is_transit":false,"distance":5197,"i_long":106.792719,"time":5,"line":0,"station_id":"BJD","station_name":"Bojonggede","transit":false,"i_lat":-6.493243},{"distance":4331,"station_name":"Cilebut","is_transit":false,"station_id":"CLT","time":5,"i_lat":-6.530544,"transit":false,"i_long":106.800016,"line":0},{"station_name":"Bogor","transit":false,"is_transit":true,"distance":7514,"station_id":"BOO","i_lat":-6.594596,"i_long":106.790574,"time":9,"line":1}],[{"i_long":106.701612,"time":0,"line":5,"is_transit":false,"i_lat":-6.166068,"distance":0,"transit":false,"station_name":"Kalideres","station_id":"KDS"},{"is_transit":false,"line":5,"station_id":"RW","transit":false,"time":3,"station_name":"Rawa Buaya","i_lat":-6.162758,"i_long":106.723064,"distance":2504},{"i_long":106.737035,"is_transit":false,"station_name":"Bojongindah","time":4,"line":0,"transit":false,"station_id":"BOI","distance":1152,"i_lat":-6.159876},{"distance":2334,"is_transit":false,"line":5,"station_name":"Taman Kota","station_id":"TKO","time":2,"i_lat":-6.1587309999999995,"transit":false,"i_long":106.756522},{"is_transit":false,"station_id":"PSG","time":2,"i_lat":-6.161433,"distance":1614,"transit":false,"i_long":106.771379,"station_name":"Pesing","line":5},{"i_long":106.788277,"time":2,"distance":2036,"transit":false,"is_transit":false,"line":5,"station_id":"GGL","i_lat":-6.162021,"station_name":"Grogol"},{"time":3,"station_id":"DU","transit":true,"is_transit":true,"i_lat":-6.155215,"i_long":106.800832,"distance":1700,"line":1,"station_name":"Duri"},{"station_id":"AK","time":4,"distance":1230,"transit":false,"station_name":"Angke","is_transit":false,"line":0,"i_lat":-6.144674,"i_long":106.79867},{"is_transit":true,"station_id":"KPB","i_long":106.826365,"time":9,"transit":false,"station_name":"Kampung Bandan","line":0,"i_lat":-6.132549,"distance":4102},{"transit":true,"distance":1364,"station_id":"JAKK","i_lat":-6.137569,"is_transit":true,"i_long":106.812439,"time":3,"line":0,"station_name":"Jakarta Kota"},{"station_id":"JAY","station_name":"Jayakarta","time":4,"i_lat":-6.141205,"i_long":106.820901,"is_transit":false,"line":7,"transit":false,"distance":1264},{"station_name":"Manggabesar","station_id":"MGB","line":2,"i_long":106.82482,"i_lat":-6.149769,"distance":1080,"time":2,"is_transit":false,"transit":false},{"i_lat":-6.160725,"station_name":"Sawah Besar","is_transit":false,"i_long":106.827103,"station_id":"SW","time":2,"distance":906,"line":2,"transit":false},{"i_long":106.828284,"is_transit":false,"station_name":"Juanda","i_lat":-6.166716,"distance":1149,"line":2,"time":2,"transit":false,"station_id":"JUA"},{"is_transit":false,"station_id":"GDD","distance":2015,"station_name":"Gondangdia","line":2,"i_lat":-6.186295,"i_long":106.832183,"transit":false,"time":4},{"station_name":"Cikini","line":0,"distance":1750,"transit":false,"i_long":106.840169,"time":3,"i_lat":-6.198556,"station_id":"CKI","is_transit":false},{"line":0,"i_lat":-6.209883,"i_long":106.84912,"is_transit":true,"time":4,"distance":1590,"transit":true,"station_name":"Manggarai","station_id":"MRI"},{"transit":false,"line":2,"time":4,"distance":2610,"i_long":106.857948,"i_lat":-6.226659,"station_name":"Tebet","station_id":"TEB","is_transit":false},{"is_transit":false,"station_id":"CW","transit":false,"i_lat":-6.242512,"time":2,"station_name":"Cawang","line":0,"i_long":106.856607,"distance":1230},{"station_name":"Duren Kalibata","is_transit":false,"i_lat":-6.255332,"transit":false,"distance":1546,"station_id":"DRN","line":0,"i_long":106.85449,"time":3},{"station_id":"PSMB","station_name":"Pasar Minggu Baru","transit":false,"i_lat":-6.263214,"i_long":106.851577,"time":2,"line":2,"is_transit":false,"distance":824},{"station_id":"PSM","transit":false,"i_long":106.843999,"is_transit":false,"distance":2380,"i_lat":-6.2842400000000005,"line":2,"time":2,"station_name":"Pasar Minggu"},{"transit":false,"is_transit":false,"i_lat":-6.3080680000000005,"station_id":"TNT","i_long":106.838896,"line":2,"time":4,"station_name":"Tanjung Barat","distance":2820},{"i_long":106.832616,"transit":false,"station_name":"Lenteng Agung","is_transit":false,"time":3,"distance":2671,"i_lat":-6.330363,"station_id":"LNA","line":2},{"is_transit":false,"time":2,"line":2,"station_name":"Univ. Pancasila","i_lat":-6.339291,"station_id":"UP","i_long":106.834175,"distance":1029,"transit":false},{"transit":false,"i_long":106.831474,"line":2,"time":3,"station_name":"Univ. Indonesia","station_id":"UI","i_lat":-6.360749,"distance":2264,"is_transit":false},{"station_id":"POC","distance":1109,"line":2,"time":2,"transit":false,"i_lat":-6.369073,"station_name":"Pondok Cina","is_transit":false,"i_long":106.831114},{"station_id":"DPB","is_transit":false,"station_name":"Depokbaru","time":4,"distance":2727,"i_long":106.819451,"transit":false,"line":0,"i_lat":-6.391065},{"line":0,"i_long":106.816926,"transit":false,"station_name":"Depok","distance":1584,"i_lat":-6.405256,"time":3,"is_transit":false,"station_id":"DP"},{"distance":5084,"station_id":"CTA","i_lat":-6.448811,"is_transit":true,"time":6,"i_long":106.800298,"transit":false,"line":1,"station_name":"Citayam"},{"is_transit":false,"i_lat":-6.493243,"time":5,"i_long":106.792719,"line":0,"station_name":"Bojonggede","distance":5197,"station_id":"BJD","transit":false},{"is_transit":false,"i_lat":-6.530544,"i_long":106.800016,"line":0,"station_id":"CLT","distance":4331,"time":5,"transit":false,"station_name":"Cilebut"},{"distance":7514,"i_lat":-6.594596,"line":1,"i_long":106.790574,"is_transit":true,"station_id":"BOO","station_name":"Bogor","time":9,"transit":false}],[{"station_name":"Kalideres","i_lat":-6.166068,"line":5,"i_long":106.701612,"station_id":"KDS","transit":false,"is_transit":false,"distance":0,"time":0},{"station_id":"RW","is_transit":false,"time":3,"transit":false,"station_name":"Rawa Buaya","distance":2504,"i_lat":-6.162758,"line":5,"i_long":106.723064},{"i_lat":-6.159876,"i_long":106.737035,"is_transit":false,"line":0,"station_name":"Bojongindah","station_id":"BOI","time":4,"transit":false,"distance":1152},{"time":2,"is_transit":false,"transit":false,"station_id":"TKO","i_lat":-6.1587309999999995,"i_long":106.756522,"station_name":"Taman Kota","distance":2334,"line":5},{"i_long":106.771379,"distance":1614,"is_transit":false,"station_name":"Pesing","line":5,"station_id":"PSG","i_lat":-6.161433,"time":2,"transit":false},{"time":2,"i_lat":-6.162021,"station_name":"Grogol","is_transit":false,"i_long":106.788277,"station_id":"GGL","line":5,"transit":false,"distance":2036},{"line":1,"time":3,"i_lat":-6.155215,"distance":1700,"transit":true,"i_long":106.800832,"is_transit":true,"station_name":"Duri","station_id":"DU"},{"time":4,"transit":false,"distance":1230,"i_long":106.79867,"station_id":"AK","station_name":"Angke","is_transit":false,"line":0,"i_lat":-6.144674},{"time":9,"i_lat":-6.132549,"i_long":106.826365,"station_id":"KPB","line":0,"distance":4102,"transit":true,"is_transit":true,"station_name":"Kampung Bandan"},{"station_id":"RJW","station_name":"Rajawali","i_long":106.836569,"is_transit":false,"line":11,"i_lat":-6.14505,"time":3,"transit":false,"distance":1444},{"i_lat":-6.161728,"is_transit":false,"transit":false,"station_id":"KMO","station_name":"Kemayoran","time":5,"distance":1901,"line":11,"i_long":106.839204},{"transit":false,"station_id":"PSE","i_lat":-6.174784,"time":4,"is_transit":false,"distance":1436,"line":11,"station_name":"Pasar Senen","i_long":106.84368},{"i_lat":-6.185975,"line":11,"i_long":106.850107,"station_id":"GST","transit":false,"station_name":"Gang Sentiong","is_transit":false,"time":8,"distance":1567},{"station_name":"Kramat","is_transit":false,"time":1,"transit":false,"i_long":106.855437,"station_id":"KMT","distance":973,"i_lat":-6.193792,"line":11},{"station_id":"POK","line":11,"distance":1829,"i_lat":-6.209188,"is_transit":false,"station_name":"Pondok Jati","transit":false,"time":2,"i_long":106.861737},{"station_id":"JNG","station_name":"Jatinegara","i_long":106.86807400000001,"time":9,"is_transit":true,"distance":1236,"i_lat":-6.215091,"transit":true,"line":0},{"i_long":106.858896,"station_name":"Matraman","is_transit":false,"line":1,"distance":1377,"time":2,"station_id":"MTR","transit":false,"i_lat":-6.212485},{"time":2,"i_lat":-6.209883,"distance":1275,"is_transit":true,"station_id":"MRI","station_name":"Manggarai","transit":true,"line":0,"i_long":106.84912},{"is_transit":false,"transit":false,"station_name":"Tebet","line":2,"i_long":106.857948,"i_lat":-6.226659,"time":4,"distance":2610,"station_id":"TEB"},{"line":0,"station_name":"Cawang","is_transit":false,"time":2,"station_id":"CW","distance":1230,"i_long":106.856607,"transit":false,"i_lat":-6.242512},{"station_name":"Duren Kalibata","i_long":106.85449,"is_transit":false,"distance":1546,"station_id":"DRN","i_lat":-6.255332,"transit":false,"time":3,"line":0},{"time":2,"station_id":"PSMB","i_lat":-6.263214,"line":2,"station_name":"Pasar Minggu Baru","i_long":106.851577,"transit":false,"distance":824,"is_transit":false},{"station_name":"Pasar Minggu","distance":2380,"i_lat":-6.2842400000000005,"transit":false,"station_id":"PSM","i_long":106.843999,"time":2,"line":2,"is_transit":false},{"line":2,"i_lat":-6.3080680000000005,"is_transit":false,"time":4,"station_name":"Tanjung Barat","distance":2820,"transit":false,"i_long":106.838896,"station_id":"TNT"},{"is_transit":false,"transit":false,"i_long":106.832616,"time":3,"i_lat":-6.330363,"station_name":"Lenteng Agung","line":2,"station_id":"LNA","distance":2671},{"time":2,"i_long":106.834175,"transit":false,"station_id":"UP","line":2,"i_lat":-6.339291,"distance":1029,"is_transit":false,"station_name":"Univ. Pancasila"},{"line":2,"station_name":"Univ. Indonesia","i_lat":-6.360749,"is_transit":false,"time":3,"station_id":"UI","distance":2264,"i_long":106.831474,"transit":false},{"i_long":106.831114,"time":2,"transit":false,"i_lat":-6.369073,"line":2,"station_name":"Pondok Cina","is_transit":false,"station_id":"POC","distance":1109},{"station_id":"DPB","transit":false,"line":0,"station_name":"Depokbaru","i_lat":-6.391065,"i_long":106.819451,"is_transit":false,"time":4,"distance":2727},{"distance":1584,"i_long":106.816926,"station_name":"Depok","transit":false,"i_lat":-6.405256,"time":3,"line":0,"is_transit":false,"station_id":"DP"},{"station_id":"CTA","time":6,"i_lat":-6.448811,"station_name":"Citayam","transit":false,"i_long":106.800298,"line":1,"distance":5084,"is_transit":true},{"distance":5197,"station_name":"Bojonggede","time":5,"is_transit":false,"station_id":"BJD","transit":false,"i_lat":-6.493243,"i_long":106.792719,"line":0},{"station_name":"Cilebut","i_long":106.800016,"is_transit":false,"i_lat":-6.530544,"line":0,"time":5,"transit":false,"distance":4331,"station_id":"CLT"},{"i_lat":-6.594596,"time":9,"station_name":"Bogor","line":1,"is_transit":true,"station_id":"BOO","distance":7514,"transit":false,"i_long":106.790574}]]}