{"data":[[{"transit":false,"station_id":"KDS","station_name":"Kalideres","line":5,"i_lat":-6.166068,"time":0,"distance":0,"i_long":106.701612,"is_transit":false},{"time":3,"i_long":106.723064,"line":5,"is_transit":false,"transit":false,"distance":2504,"station_id":"RW","station_name":"Rawa Buaya","i_lat":-6.162758},{"distance":1152,"i_lat":-6.159876,"transit":false,"line":5,"time":4,"is_transit":false,"station_name":"Bojongindah","i_long":106.737035,"station_id":"BOI"},{"i_lat":-6.1587309999999995,"time":2,"is_transit":false,"i_long":106.756522,"station_name":"Taman Kota","transit":false,"line":5,"station_id":"TKO","distance":2334},{"station_id":"PSG","station_name":"Pesing","i_long":106.771379,"distance":1614,"transit":false,"i_lat":-6.161433,"line":5,"time":2,"is_transit":false},{"station_name":"Grogol","is_transit":false,"i_lat":-6.162021,"distance":2036,"i_long":106.788277,"line":5,"station_id":"GRG","transit":false,"time":2},{"is_transit":true,"line":1,"time":3,"distance":1700,"station_name":"Duri","i_long":106.800832,"station_id":"DU","transit":true,"i_lat":-6.155215},{"station_name":"Tanah Abang","transit":false,"i_long":106.811091,"time":8,"line":1,"station_id":"THB","i_lat":-6.185545,"distance":3632,"is_transit":false},{"is_transit":false,"station_id":"KAT","station_name":"Karet","i_long":106.816351,"transit":false,"distance":2029,"line":1,"time":5,"i_lat":-6.20132},{"station_id":"SUDB","line":1,"distance":471,"transit":false,"is_transit":false,"station_name":"Sudirman Baru","i_long":106.819881,"i_lat":-6.201433,"time":1},{"is_transit":false,"distance":280,"line":1,"time":1,"transit":false,"i_long":106.822649,"station_name":"Sudirman","i_lat":-6.202263,"station_id":"SUD"},{"is_transit":true,"line":2,"time":4,"station_name":"Manggarai","station_id":"MRI","transit":true,"i_lat":-6.209883,"i_long":106.84912,"distance":3186},{"i_long":106.857948,"distance":2610,"i_lat":-6.226659,"line":2,"is_transit":false,"time":4,"station_name":"Tebet","station_id":"TEB","transit":false},{"line":2,"station_id":"CW","distance":1230,"time":2,"station_name":"Cawang","i_long":106.856607,"is_transit":false,"transit":false,"i_lat":-6.242512},{"line":2,"station_name":"Duren Kalibata","distance":1546,"is_transit":false,"transit":false,"station_id":"DRN","i_long":106.85449,"time":3,"i_lat":-6.255332},{"station_id":"PSMB","station_name":"Pasar Minggu Baru","transit":false,"i_long":106.851577,"distance":824,"line":2,"is_transit":false,"i_lat":-6.263214,"time":2},{"station_name":"Pasar Minggu","is_transit":false,"time":2,"distance":2380,"transit":false,"station_id":"PSM","i_lat":-6.2842400000000005,"i_long":106.843999,"line":2},{"time":4,"i_lat":-6.3080680000000005,"station_name":"Tanjung Barat","station_id":"TNT","line":2,"i_long":106.838896,"distance":2820,"is_transit":false,"transit":false},{"transit":false,"i_long":106.832616,"time":3,"distance":2671,"station_id":"LNA","station_name":"Lenteng Agung","line":2,"is_transit":false,"i_lat":-6.330363},{"time":2,"transit":false,"station_id":"UP","line":2,"station_name":"Univ. Pancasila","is_transit":false,"distance":1029,"i_lat":-6.339291,"i_long":106.834175}],[{"i_lat":-6.166068,"time":0,"station_name":"Kalideres","station_id":"KDS","line":5,"is_transit":false,"distance":0,"transit":false,"i_long":106.701612},{"station_id":"RW","distance":2504,"is_transit":false,"i_lat":-6.162758,"line":5,"time":3,"station_name":"Rawa Buaya","i_long":106.723064,"transit":false},{"time":4,"distance":1152,"is_transit":false,"transit":false,"line":5,"station_id":"BOI","station_name":"Bojongindah","i_long":106.737035,"i_lat":-6.159876},{"line":5,"station_id":"TKO","i_long":106.756522,"time":2,"distance":2334,"i_lat":-6.1587309999999995,"transit":false,"is_transit":false,"station_name":"Taman Kota"},{"station_id":"PSG","i_long":106.771379,"time":2,"transit":false,"i_lat":-6.161433,"line":5,"distance":1614,"station_name":"Pesing","is_transit":false},{"station_id":"GRG","transit":false,"time":2,"i_long":106.788277,"line":5,"distance":2036,"station_name":"Grogol","i_lat":-6.162021,"is_transit":false},{"distance":1700,"transit":true,"i_long":106.800832,"line":1,"station_name":"Duri","i_lat":-6.155215,"time":3,"is_transit":true,"station_id":"DU"},{"distance":1230,"station_id":"AK","i_lat":-6.144674,"i_long":106.79867,"station_name":"Angke","is_transit":false,"transit":false,"time":4,"line":1},{"transit":true,"line":4,"time":9,"distance":4102,"is_transit":true,"station_name":"Kampung Bandan","i_lat":-6.132549,"station_id":"KPB","i_long":106.826365},{"time":3,"is_transit":true,"station_name":"Jakarta Kota","i_lat":-6.137569,"line":2,"i_long":106.812439,"station_id":"JAKK","distance":1364,"transit":true},{"distance":1264,"transit":false,"is_transit":false,"time":4,"station_name":"Jayakarta","i_long":106.820901,"line":2,"station_id":"JAY","i_lat":-6.141205},{"distance":1080,"i_long":106.82482,"time":2,"is_transit":false,"transit":false,"station_id":"MGB","line":2,"i_lat":-6.149769,"station_name":"Manggabesar"},{"i_long":106.827103,"distance":906,"line":2,"time":2,"station_name":"Sawah Besar","station_id":"SW","i_lat":-6.160725,"transit":false,"is_transit":false},{"is_transit":false,"distance":1149,"i_long":106.828284,"station_id":"JUA","i_lat":-6.166716,"station_name":"Juanda","line":2,"transit":false,"time":2},{"is_transit":false,"station_id":"GDD","distance":2015,"i_lat":-6.186295,"line":2,"station_name":"Gondangdia","i_long":106.832183,"time":4,"transit":false},{"distance":1750,"is_transit":false,"station_id":"CKI","i_lat":-6.198556,"station_name":"Cikini","time":3,"transit":false,"i_long":106.840169,"line":2},{"station_name":"Manggarai","i_lat":-6.209883,"transit":false,"station_id":"MRI","line":2,"time":4,"distance":1590,"i_long":106.84912,"is_transit":false},{"transit":false,"distance":2610,"station_name":"Tebet","station_id":"TEB","is_transit":false,"i_lat":-6.226659,"i_long":106.857948,"line":2,"time":4},{"is_transit":false,"time":2,"i_long":106.856607,"distance":1230,"station_id":"CW","station_name":"Cawang","transit":false,"line":2,"i_lat":-6.242512},{"transit":false,"station_id":"DRN","time":3,"i_long":106.85449,"distance":1546,"line":2,"i_lat":-6.255332,"is_transit":false,"station_name":"Duren Kalibata"},{"distance":824,"is_transit":false,"station_name":"Pasar Minggu Baru","i_long":106.851577,"line":2,"transit":false,"station_id":"PSMB","time":2,"i_lat":-6.263214},{"distance":2380,"i_lat":-6.2842400000000005,"line":2,"transit":false,"time":2,"is_transit":false,"i_long":106.843999,"station_name":"Pasar Minggu","station_id":"PSM"},{"station_id":"TNT","is_transit":false,"station_name":"Tanjung Barat","line":2,"i_long":106.838896,"distance":2820,"i_lat":-6.3080680000000005,"transit":false,"time":4},{"distance":2671,"line":2,"station_name":"Lenteng Agung","station_id":"LNA","time":3,"i_long":106.832616,"transit":false,"is_transit":false,"i_lat":-6.330363},{"i_lat":-6.339291,"station_id":"UP","line":2,"distance":1029,"time":2,"i_long":106.834175,"transit":false,"station_name":"Univ. Pancasila","is_transit":false}],[{"line":5,"station_id":"KDS","time":0,"distance":0,"is_transit":false,"transit":false,"station_name":"Kalideres","i_lat":-6.166068,"i_long":106.701612},{"i_lat":-6.162758,"time":3,"distance":2504,"station_id":"RW","is_transit":false,"line":5,"station_name":"Rawa Buaya","transit":false,"i_long":106.723064},{"distance":1152,"transit":false,"i_long":106.737035,"time":4,"station_id":"BOI","station_name":"Bojongindah","is_transit":false,"line":5,"i_lat":-6.159876},{"station_name":"Taman Kota","time":2,"line":5,"distance":2334,"station_id":"TKO","i_long":106.756522,"i_lat":-6.1587309999999995,"is_transit":false,"transit":false},{"station_name":"Pesing","time":2,"distance":1614,"station_id":"PSG","line":5,"i_lat":-6.161433,"i_long":106.771379,"transit":false,"is_transit":false},{"distance":2036,"transit":false,"i_long":106.788277,"is_transit":false,"station_name":"Grogol","i_lat":-6.162021,"line":5,"time":2,"station_id":"GRG"},{"i_long":106.800832,"is_transit":true,"transit":true,"distance":1700,"line":1,"i_lat":-6.155215,"station_name":"Duri","station_id":"DU","time":3},{"i_long":106.79867,"station_name":"Angke","is_transit":false,"i_lat":-6.144674,"transit":false,"time":4,"line":1,"distance":1230,"station_id":"AK"},{"line":4,"is_transit":true,"station_name":"Kampung Bandan","station_id":"KPB","i_long":106.826365,"i_lat":-6.132549,"distance":4102,"time":9,"transit":true},{"distance":1444,"station_id":"RJW","is_transit":false,"i_long":106.836569,"transit":false,"time":3,"i_lat":-6.14505,"station_name":"Rajawali","line":11},{"is_transit":false,"i_lat":-6.161728,"i_long":106.839204,"station_name":"Kemayoran","transit":false,"station_id":"KMO","distance":1901,"time":5,"line":11},{"line":11,"i_long":106.84368,"station_name":"Pasar Senen","is_transit":false,"i_lat":-6.174784,"time":4,"station_id":"PSE","transit":false,"distance":1436},{"transit":false,"distance":1567,"time":8,"i_long":106.850107,"line":11,"station_name":"Gang Sentiong","is_transit":false,"i_lat":-6.185975,"station_id":"GST"},{"i_lat":-6.193792,"i_long":106.855437,"is_transit":false,"transit":false,"distance":973,"station_name":"Kramat","line":11,"station_id":"KMT","time":1},{"distance":1829,"is_transit":false,"i_lat":-6.209188,"i_long":106.861737,"transit":false,"time":2,"station_name":"Pondok Jati","station_id":"POK","line":11},{"distance":1236,"line":1,"station_name":"Jatinegara","i_long":106.86807400000001,"station_id":"JNG","transit":true,"is_transit":true,"i_lat":-6.215091,"time":9},{"distance":1377,"i_long":106.858896,"station_name":"Matraman","transit":false,"i_lat":-6.212485,"line":1,"time":2,"station_id":"MTR","is_transit":false},{"line":2,"station_name":"Manggarai","is_transit":true,"i_long":106.84912,"i_lat":-6.209883,"transit":true,"distance":1275,"station_id":"MRI","time":2},{"transit":false,"i_lat":-6.226659,"station_name":"Tebet","distance":2610,"station_id":"TEB","time":4,"is_transit":false,"line":2,"i_long":106.857948},{"station_id":"CW","time":2,"is_transit":false,"i_long":106.856607,"i_lat":-6.242512,"line":2,"station_name":"Cawang","transit":false,"distance":1230},{"distance":1546,"time":3,"transit":false,"station_id":"DRN","i_lat":-6.255332,"station_name":"Duren Kalibata","is_transit":false,"line":2,"i_long":106.85449},{"i_lat":-6.263214,"station_id":"PSMB","transit":false,"i_long":106.851577,"line":2,"time":2,"station_name":"Pasar Minggu Baru","distance":824,"is_transit":false},{"station_name":"Pasar Minggu","distance":2380,"transit":false,"is_transit":false,"i_lat":-6.2842400000000005,"time":2,"station_id":"PSM","i_long":106.843999,"line":2},{"distance":2820,"i_long":106.838896,"transit":false,"time":4,"i_lat":-6.3080680000000005,"is_transit":false,"station_name":"Tanjung Barat","line":2,"station_id":"TNT"},{"station_id":"LNA","i_long":106.832616,"station_name":"Lenteng Agung","time":3,"transit":false,"distance":2671,"line":2,"is_transit":false,"i_lat":-6.330363},{"line":2,"station_id":"UP","i_lat":-6.339291,"station_name":"Univ. Pancasila","transit":false,"is_transit":false,"i_long":106.834175,"time":2,"distance":1029}]]}