{"data":[[{"is_transit":false,"distance":0,"line":5,"time":0,"i_long":106.701612,"transit":false,"station_name":"Kalideres","station_id":"KDS","i_lat":-6.166068},{"i_lat":-6.162758,"station_name":"Rawa Buaya","transit":false,"distance":2504,"station_id":"RW","is_transit":false,"i_long":106.723064,"line":5,"time":3},{"line":5,"is_transit":false,"time":4,"station_name":"Bojongindah","distance":1152,"transit":false,"i_lat":-6.159876,"i_long":106.737035,"station_id":"BOI"},{"line":5,"is_transit":false,"i_lat":-6.1587309999999995,"time":2,"distance":2334,"transit":false,"i_long":106.756522,"station_name":"Taman Kota","station_id":"TKO"},{"line":5,"i_long":106.771379,"is_transit":false,"transit":false,"distance":1614,"i_lat":-6.161433,"time":2,"station_name":"Pesing","station_id":"PSG"},{"time":2,"transit":false,"station_name":"Grogol","i_long":106.788277,"line":5,"distance":2036,"i_lat":-6.162021,"station_id":"GGL","is_transit":false},{"transit":true,"i_long":106.800832,"is_transit":true,"distance":1700,"line":1,"i_lat":-6.155215,"station_name":"Duri","station_id":"DU","time":3},{"station_name":"Tanah Abang","station_id":"THB","distance":3632,"transit":false,"time":8,"is_transit":false,"line":1,"i_long":106.811091,"i_lat":-6.185545},{"station_name":"Karet","i_lat":-6.20132,"is_transit":false,"station_id":"KAT","line":1,"i_long":106.816351,"time":5,"distance":2029,"transit":false},{"station_name":"Sudirman Baru","transit":false,"distance":471,"line":1,"i_long":106.819881,"is_transit":false,"time":1,"i_lat":-6.201433,"station_id":"SUDB"},{"distance":280,"station_id":"SUD","i_long":106.822649,"line":1,"station_name":"Sudirman","i_lat":-6.202263,"is_transit":false,"transit":false,"time":1}],[{"line":5,"station_name":"Kalideres","i_long":106.701612,"time":0,"transit":false,"is_transit":false,"i_lat":-6.166068,"distance":0,"station_id":"KDS"},{"distance":2504,"time":3,"transit":false,"line":5,"i_lat":-6.162758,"station_name":"Rawa Buaya","i_long":106.723064,"is_transit":false,"station_id":"RW"},{"time":4,"transit":false,"is_transit":false,"distance":1152,"i_lat":-6.159876,"station_id":"BOI","i_long":106.737035,"station_name":"Bojongindah","line":5},{"time":2,"i_long":106.756522,"line":5,"i_lat":-6.1587309999999995,"transit":false,"station_name":"Taman Kota","is_transit":false,"distance":2334,"station_id":"TKO"},{"station_name":"Pesing","time":2,"i_long":106.771379,"is_transit":false,"station_id":"PSG","distance":1614,"i_lat":-6.161433,"transit":false,"line":5},{"line":5,"station_name":"Grogol","is_transit":false,"i_long":106.788277,"i_lat":-6.162021,"time":2,"distance":2036,"station_id":"GGL","transit":false},{"i_lat":-6.155215,"line":1,"station_id":"DU","time":3,"i_long":106.800832,"distance":1700,"station_name":"Duri","transit":true,"is_transit":true},{"i_long":106.79867,"time":4,"distance":1230,"station_id":"AK","transit":false,"is_transit":false,"station_name":"Angke","i_lat":-6.144674,"line":1},{"distance":4102,"station_name":"Kampung Bandan","time":9,"transit":true,"station_id":"KPB","line":4,"i_lat":-6.132549,"i_long":106.826365,"is_transit":true},{"is_transit":true,"station_id":"JAKK","i_long":106.812439,"line":2,"transit":true,"station_name":"Jakarta Kota","time":3,"distance":1364,"i_lat":-6.137569},{"is_transit":false,"transit":false,"i_long":106.820901,"station_id":"JAY","line":2,"distance":1264,"i_lat":-6.141205,"time":4,"station_name":"Jayakarta"},{"distance":1080,"line":2,"station_id":"MGB","station_name":"Manggabesar","i_long":106.82482,"i_lat":-6.149769,"is_transit":false,"time":2,"transit":false},{"time":2,"station_id":"SW","transit":false,"station_name":"Sawah Besar","i_lat":-6.160725,"is_transit":false,"line":2,"i_long":106.827103,"distance":906},{"station_name":"Juanda","station_id":"JUA","is_transit":false,"distance":1149,"transit":false,"i_lat":-6.166716,"time":2,"i_long":106.828284,"line":2},{"is_transit":false,"i_lat":-6.186295,"time":4,"distance":2015,"line":2,"transit":false,"i_long":106.832183,"station_id":"GDD","station_name":"Gondangdia"},{"is_transit":false,"transit":false,"i_long":106.840169,"distance":1750,"station_name":"Cikini","station_id":"CKI","i_lat":-6.198556,"line":2,"time":3},{"distance":1590,"line":2,"time":4,"station_id":"MRI","i_long":106.84912,"transit":true,"i_lat":-6.209883,"is_transit":true,"station_name":"Manggarai"},{"distance":3186,"time":4,"station_name":"Sudirman","i_long":106.822649,"is_transit":false,"station_id":"SUD","i_lat":-6.202263,"transit":false,"line":1}],[{"i_long":106.701612,"time":0,"distance":0,"i_lat":-6.166068,"line":5,"station_id":"KDS","is_transit":false,"transit":false,"station_name":"Kalideres"},{"time":3,"transit":false,"distance":2504,"station_name":"Rawa Buaya","i_lat":-6.162758,"station_id":"RW","i_long":106.723064,"line":5,"is_transit":false},{"is_transit":false,"station_id":"BOI","line":5,"station_name":"Bojongindah","transit":false,"i_lat":-6.159876,"i_long":106.737035,"time":4,"distance":1152},{"i_long":106.756522,"line":5,"station_name":"Taman Kota","time":2,"i_lat":-6.1587309999999995,"station_id":"TKO","distance":2334,"is_transit":false,"transit":false},{"i_lat":-6.161433,"time":2,"i_long":106.771379,"distance":1614,"station_id":"PSG","station_name":"Pesing","line":5,"transit":false,"is_transit":false},{"station_id":"GGL","line":5,"i_long":106.788277,"transit":false,"station_name":"Grogol","time":2,"i_lat":-6.162021,"is_transit":false,"distance":2036},{"line":1,"station_name":"Duri","time":3,"transit":true,"i_lat":-6.155215,"i_long":106.800832,"station_id":"DU","distance":1700,"is_transit":true},{"station_id":"AK","i_lat":-6.144674,"distance":1230,"station_name":"Angke","line":1,"time":4,"transit":false,"i_long":106.79867,"is_transit":false},{"is_transit":true,"i_long":106.826365,"distance":4102,"i_lat":-6.132549,"time":9,"station_name":"Kampung Bandan","transit":true,"line":4,"station_id":"KPB"},{"is_transit":false,"line":11,"i_long":106.836569,"time":3,"station_id":"RJW","distance":1444,"i_lat":-6.14505,"station_name":"Rajawali","transit":false},{"transit":false,"station_name":"Kemayoran","is_transit":false,"time":5,"station_id":"KMO","i_lat":-6.161728,"distance":1901,"i_long":106.839204,"line":11},{"i_lat":-6.174784,"i_long":106.84368,"transit":false,"station_name":"Pasar Senen","station_id":"PSE","is_transit":false,"line":11,"distance":1436,"time":4},{"station_id":"GST","transit":false,"time":8,"station_name":"Gang Sentiong","distance":1567,"is_transit":false,"line":11,"i_long":106.850107,"i_lat":-6.185975},{"transit":false,"station_id":"KMT","i_lat":-6.193792,"i_long":106.855437,"is_transit":false,"station_name":"Kramat","time":1,"line":11,"distance":973},{"i_long":106.861737,"is_transit":false,"station_name":"Pondok Jati","line":11,"distance":1829,"station_id":"POK","time":2,"transit":false,"i_lat":-6.209188},{"i_long":106.86807400000001,"is_transit":true,"station_name":"Jatinegara","station_id":"JNG","line":1,"i_lat":-6.215091,"time":9,"distance":1236,"transit":true},{"i_lat":-6.212485,"i_long":106.858896,"station_id":"MTR","distance":1377,"line":1,"is_transit":false,"transit":false,"time":2,"station_name":"Matraman"},{"line":2,"i_lat":-6.209883,"is_transit":false,"time":2,"station_id":"MRI","station_name":"Manggarai","distance":1275,"transit":false,"i_long":106.84912},{"distance":3186,"station_id":"SUD","i_long":106.822649,"line":1,"time":4,"is_transit":false,"station_name":"Sudirman","i_lat":-6.202263,"transit":false}]]}