{"data":[[{"distance":0,"time":0,"transit":false,"station_id":"KDS","is_transit":false,"i_lat":-6.166068,"line":5,"station_name":"Kalideres","i_long":106.701612},{"transit":false,"station_name":"Rawa Buaya","line":5,"i_lat":-6.162758,"time":3,"is_transit":false,"distance":2504,"i_long":106.723064,"station_id":"RW"},{"is_transit":false,"distance":1152,"line":5,"i_lat":-6.159876,"station_id":"BOI","station_name":"Bojongindah","time":4,"transit":false,"i_long":106.737035},{"i_lat":-6.1587309999999995,"distance":2334,"time":2,"transit":false,"station_name":"Taman Kota","station_id":"TKO","line":5,"is_transit":false,"i_long":106.756522},{"station_id":"PSG","is_transit":false,"i_lat":-6.161433,"distance":1614,"transit":false,"time":2,"i_long":106.771379,"line":5,"station_name":"Pesing"},{"line":5,"distance":2036,"transit":false,"station_name":"Grogol","is_transit":false,"i_lat":-6.162021,"station_id":"GGL","i_long":106.788277,"time":2},{"station_name":"Duri","time":3,"station_id":"DU","transit":true,"distance":1700,"line":1,"i_long":106.800832,"is_transit":true,"i_lat":-6.155215},{"distance":3632,"station_name":"Tanah Abang","transit":false,"station_id":"THB","time":8,"i_long":106.811091,"i_lat":-6.185545,"is_transit":false,"line":1},{"i_long":106.816351,"i_lat":-6.20132,"station_id":"KAT","line":1,"transit":false,"is_transit":false,"station_name":"Karet","distance":2029,"time":5},{"transit":false,"distance":471,"i_lat":-6.201433,"line":1,"i_long":106.819881,"is_transit":false,"time":1,"station_name":"Sudirman Baru","station_id":"SUDB"}],[{"transit":false,"time":0,"station_id":"KDS","is_transit":false,"distance":0,"i_long":106.701612,"line":5,"station_name":"Kalideres","i_lat":-6.166068},{"transit":false,"distance":2504,"line":5,"station_name":"Rawa Buaya","i_long":106.723064,"i_lat":-6.162758,"station_id":"RW","is_transit":false,"time":3},{"line":5,"station_name":"Bojongindah","i_lat":-6.159876,"transit":false,"time":4,"is_transit":false,"distance":1152,"i_long":106.737035,"station_id":"BOI"},{"i_lat":-6.1587309999999995,"line":5,"is_transit":false,"distance":2334,"i_long":106.756522,"transit":false,"time":2,"station_name":"Taman Kota","station_id":"TKO"},{"distance":1614,"i_long":106.771379,"is_transit":false,"transit":false,"station_name":"Pesing","i_lat":-6.161433,"station_id":"PSG","line":5,"time":2},{"station_id":"GGL","is_transit":false,"transit":false,"line":5,"i_long":106.788277,"i_lat":-6.162021,"station_name":"Grogol","distance":2036,"time":2},{"station_name":"Duri","line":1,"is_transit":true,"distance":1700,"station_id":"DU","transit":true,"time":3,"i_long":106.800832,"i_lat":-6.155215},{"time":4,"station_name":"Angke","transit":false,"is_transit":false,"i_lat":-6.144674,"distance":1230,"i_long":106.79867,"line":1,"station_id":"AK"},{"is_transit":true,"station_name":"Kampung Bandan","station_id":"KPB","i_lat":-6.132549,"i_long":106.826365,"transit":true,"time":9,"distance":4102,"line":4},{"station_id":"JAKK","time":3,"distance":1364,"station_name":"Jakarta Kota","is_transit":true,"i_long":106.812439,"transit":true,"line":2,"i_lat":-6.137569},{"time":4,"station_id":"JAY","i_long":106.820901,"line":2,"station_name":"Jayakarta","transit":false,"distance":1264,"i_lat":-6.141205,"is_transit":false},{"i_lat":-6.149769,"station_id":"MGB","time":2,"station_name":"Manggabesar","is_transit":false,"transit":false,"distance":1080,"i_long":106.82482,"line":2},{"time":2,"is_transit":false,"i_lat":-6.160725,"distance":906,"station_name":"Sawah Besar","station_id":"SW","transit":false,"line":2,"i_long":106.827103},{"distance":1149,"station_name":"Juanda","time":2,"transit":false,"station_id":"JUA","i_lat":-6.166716,"line":2,"i_long":106.828284,"is_transit":false},{"i_lat":-6.186295,"transit":false,"station_name":"Gondangdia","line":2,"time":4,"i_long":106.832183,"is_transit":false,"distance":2015,"station_id":"GDD"},{"time":3,"distance":1750,"i_long":106.840169,"i_lat":-6.198556,"transit":false,"station_name":"Cikini","station_id":"CKI","is_transit":false,"line":2},{"station_id":"MRI","line":2,"time":4,"transit":true,"i_long":106.84912,"distance":1590,"station_name":"Manggarai","is_transit":true,"i_lat":-6.209883},{"i_lat":-6.202263,"time":4,"i_long":106.822649,"line":1,"station_id":"SUD","distance":3186,"transit":false,"station_name":"Sudirman","is_transit":false},{"station_name":"Sudirman Baru","line":1,"distance":280,"station_id":"SUDB","transit":false,"is_transit":false,"time":1,"i_long":106.819881,"i_lat":-6.201433}],[{"station_id":"KDS","is_transit":false,"i_lat":-6.166068,"line":5,"i_long":106.701612,"distance":0,"station_name":"Kalideres","time":0,"transit":false},{"transit":false,"is_transit":false,"i_lat":-6.162758,"station_name":"Rawa Buaya","station_id":"RW","distance":2504,"time":3,"i_long":106.723064,"line":5},{"i_lat":-6.159876,"station_id":"BOI","station_name":"Bojongindah","is_transit":false,"time":4,"transit":false,"i_long":106.737035,"line":5,"distance":1152},{"i_lat":-6.1587309999999995,"station_id":"TKO","station_name":"Taman Kota","transit":false,"is_transit":false,"distance":2334,"i_long":106.756522,"time":2,"line":5},{"line":5,"distance":1614,"i_long":106.771379,"time":2,"transit":false,"station_name":"Pesing","station_id":"PSG","is_transit":false,"i_lat":-6.161433},{"time":2,"distance":2036,"i_long":106.788277,"transit":false,"station_id":"GGL","line":5,"i_lat":-6.162021,"is_transit":false,"station_name":"Grogol"},{"line":1,"transit":true,"station_id":"DU","station_name":"Duri","distance":1700,"is_transit":true,"i_lat":-6.155215,"i_long":106.800832,"time":3},{"station_name":"Angke","transit":false,"i_long":106.79867,"station_id":"AK","time":4,"distance":1230,"is_transit":false,"i_lat":-6.144674,"line":1},{"station_name":"Kampung Bandan","line":4,"is_transit":true,"transit":true,"time":9,"station_id":"KPB","i_lat":-6.132549,"distance":4102,"i_long":106.826365},{"i_long":106.836569,"distance":1444,"i_lat":-6.14505,"time":3,"station_id":"RJW","station_name":"Rajawali","line":11,"transit":false,"is_transit":false},{"transit":false,"station_name":"Kemayoran","station_id":"KMO","distance":1901,"is_transit":false,"i_long":106.839204,"line":11,"time":5,"i_lat":-6.161728},{"distance":1436,"station_id":"PSE","time":4,"transit":false,"i_long":106.84368,"line":11,"i_lat":-6.174784,"is_transit":false,"station_name":"Pasar Senen"},{"station_name":"Gang Sentiong","is_transit":false,"i_lat":-6.185975,"i_long":106.850107,"transit":false,"time":8,"distance":1567,"station_id":"GST","line":11},{"i_long":106.855437,"line":11,"station_name":"Kramat","is_transit":false,"station_id":"KMT","transit":false,"distance":973,"i_lat":-6.193792,"time":1},{"is_transit":false,"i_long":106.861737,"station_id":"POK","transit":false,"station_name":"Pondok Jati","distance":1829,"time":2,"i_lat":-6.209188,"line":11},{"transit":true,"distance":1236,"station_id":"JNG","station_name":"Jatinegara","is_transit":true,"time":9,"i_lat":-6.215091,"i_long":106.86807400000001,"line":1},{"station_name":"Matraman","is_transit":false,"time":2,"transit":false,"distance":1377,"station_id":"MTR","i_lat":-6.212485,"i_long":106.858896,"line":1},{"i_long":106.84912,"distance":1275,"station_id":"MRI","station_name":"Manggarai","line":2,"time":2,"is_transit":false,"i_lat":-6.209883,"transit":false},{"station_name":"Sudirman","distance":3186,"station_id":"SUD","i_lat":-6.202263,"line":1,"is_transit":false,"i_long":106.822649,"transit":false,"time":4},{"distance":280,"transit":false,"is_transit":false,"i_long":106.819881,"line":1,"time":1,"station_name":"Sudirman Baru","station_id":"SUDB","i_lat":-6.201433}]]}