{"data":[[{"station_id":"KDS","is_transit":false,"distance":0,"i_long":106.701612,"time":0,"line":5,"transit":false,"station_name":"Kalideres","i_lat":-6.166068},{"i_long":106.723064,"distance":2504,"station_name":"Rawa Buaya","i_lat":-6.162758,"is_transit":false,"station_id":"RW","time":3,"line":5,"transit":false},{"station_id":"BOI","transit":false,"distance":1152,"i_lat":-6.159876,"i_long":106.737035,"line":5,"station_name":"Bojongindah","time":4,"is_transit":false},{"line":5,"station_name":"Taman Kota","is_transit":false,"i_long":106.756522,"transit":false,"i_lat":-6.1587309999999995,"distance":2334,"station_id":"TKO","time":2},{"i_long":106.771379,"station_name":"Pesing","station_id":"PSG","transit":false,"distance":1614,"i_lat":-6.161433,"is_transit":false,"line":5,"time":2},{"distance":2036,"transit":false,"is_transit":false,"line":5,"station_name":"Grogol","time":2,"i_lat":-6.162021,"station_id":"GGL","i_long":106.788277},{"i_lat":-6.155215,"line":1,"is_transit":true,"station_name":"Duri","i_long":106.800832,"transit":true,"station_id":"DU","time":3,"distance":1700},{"distance":3632,"time":8,"i_lat":-6.185545,"station_id":"THB","transit":true,"station_name":"Tanah Abang","is_transit":true,"i_long":106.811091,"line":1},{"time":6,"station_name":"Palmerah","transit":false,"i_lat":-6.207404,"line":6,"station_id":"PLM","distance":3191,"is_transit":false,"i_long":106.79689},{"station_name":"Kebayoran","station_id":"KBY","is_transit":false,"distance":3737,"i_long":106.780334,"i_lat":-6.237242,"transit":false,"time":7,"line":6},{"i_lat":-6.276362,"line":6,"transit":false,"station_id":"PDJ","is_transit":false,"time":8,"i_long":106.74273,"station_name":"Pondokranji","distance":6218},{"distance":2179,"transit":false,"line":6,"i_lat":-6.288927,"time":3,"station_name":"Jurangmangu","i_long":106.728916,"station_id":"JMU","is_transit":false},{"is_transit":false,"transit":false,"i_long":106.712277,"i_lat":-6.296963,"time":4,"distance":1994,"station_name":"Sudimara","station_id":"SDM","line":6},{"transit":false,"is_transit":false,"i_long":106.675475,"station_name":"Rawa Buntu","station_id":"RU","i_lat":-6.314823,"line":6,"distance":4566,"time":6},{"i_lat":-6.319871,"station_name":"Serpong","transit":false,"time":4,"line":6,"is_transit":false,"station_id":"SRP","i_long":106.66566,"distance":2413},{"station_name":"Cisauk","i_lat":-6.32484,"transit":false,"i_long":106.640411,"time":4,"is_transit":false,"distance":1784,"line":3,"station_id":"CSK"},{"transit":false,"time":4,"i_long":106.617853,"line":3,"is_transit":false,"i_lat":-6.329547,"station_name":"Cicayur","distance":2519,"station_id":"CC"}],[{"transit":false,"station_name":"Kalideres","time":0,"distance":0,"is_transit":false,"station_id":"KDS","i_lat":-6.166068,"i_long":106.701612,"line":5},{"time":3,"distance":2504,"i_lat":-6.162758,"station_name":"Rawa Buaya","station_id":"RW","transit":false,"i_long":106.723064,"line":5,"is_transit":false},{"is_transit":false,"time":4,"transit":false,"distance":1152,"station_id":"BOI","i_lat":-6.159876,"line":5,"i_long":106.737035,"station_name":"Bojongindah"},{"time":2,"distance":2334,"i_long":106.756522,"transit":false,"station_name":"Taman Kota","line":5,"is_transit":false,"i_lat":-6.1587309999999995,"station_id":"TKO"},{"i_lat":-6.161433,"station_name":"Pesing","is_transit":false,"transit":false,"station_id":"PSG","time":2,"line":5,"distance":1614,"i_long":106.771379},{"i_lat":-6.162021,"station_name":"Grogol","time":2,"i_long":106.788277,"is_transit":false,"station_id":"GGL","transit":false,"line":5,"distance":2036},{"time":3,"transit":true,"line":1,"distance":1700,"station_id":"DU","i_lat":-6.155215,"station_name":"Duri","is_transit":true,"i_long":106.800832},{"time":4,"i_lat":-6.144674,"transit":false,"distance":1230,"is_transit":false,"i_long":106.79867,"line":1,"station_id":"AK","station_name":"Angke"},{"station_id":"KPB","distance":4102,"i_lat":-6.132549,"is_transit":true,"transit":true,"line":4,"station_name":"Kampung Bandan","time":9,"i_long":106.826365},{"i_lat":-6.137569,"is_transit":true,"line":2,"time":3,"distance":1364,"station_name":"Jakarta Kota","station_id":"JAKK","transit":true,"i_long":106.812439},{"is_transit":false,"distance":1264,"transit":false,"i_long":106.820901,"line":2,"i_lat":-6.141205,"station_id":"JAY","time":4,"station_name":"Jayakarta"},{"distance":1080,"station_id":"MGB","time":2,"is_transit":false,"i_lat":-6.149769,"transit":false,"i_long":106.82482,"station_name":"Manggabesar","line":2},{"station_id":"SW","station_name":"Sawah Besar","transit":false,"i_lat":-6.160725,"time":2,"i_long":106.827103,"distance":906,"line":2,"is_transit":false},{"i_lat":-6.166716,"time":2,"i_long":106.828284,"station_name":"Juanda","station_id":"JUA","is_transit":false,"transit":false,"line":2,"distance":1149},{"station_id":"GDD","is_transit":false,"i_lat":-6.186295,"line":2,"transit":false,"station_name":"Gondangdia","time":4,"distance":2015,"i_long":106.832183},{"is_transit":false,"i_lat":-6.198556,"station_id":"CKI","station_name":"Cikini","time":3,"distance":1750,"i_long":106.840169,"transit":false,"line":2},{"i_long":106.84912,"i_lat":-6.209883,"distance":1590,"station_name":"Manggarai","time":4,"station_id":"MRI","line":2,"transit":true,"is_transit":true},{"station_id":"SUD","transit":false,"station_name":"Sudirman","time":4,"distance":3186,"line":1,"is_transit":false,"i_lat":-6.202263,"i_long":106.822649},{"distance":280,"i_lat":-6.201433,"i_long":106.819881,"time":1,"is_transit":false,"transit":false,"line":1,"station_id":"SUDB","station_name":"Sudirman Baru"},{"transit":false,"is_transit":false,"i_lat":-6.20132,"distance":471,"i_long":106.816351,"station_name":"Karet","time":1,"line":1,"station_id":"KAT"},{"transit":true,"i_long":106.811091,"station_name":"Tanah Abang","distance":2029,"time":5,"is_transit":true,"line":1,"i_lat":-6.185545,"station_id":"THB"},{"station_id":"PLM","is_transit":false,"time":6,"i_lat":-6.207404,"station_name":"Palmerah","distance":3191,"i_long":106.79689,"line":6,"transit":false},{"i_lat":-6.237242,"time":7,"i_long":106.780334,"transit":false,"is_transit":false,"distance":3737,"line":6,"station_name":"Kebayoran","station_id":"KBY"},{"transit":false,"distance":6218,"line":6,"is_transit":false,"time":8,"station_name":"Pondokranji","i_lat":-6.276362,"station_id":"PDJ","i_long":106.74273},{"station_id":"JMU","time":3,"is_transit":false,"i_long":106.728916,"transit":false,"line":6,"station_name":"Jurangmangu","i_lat":-6.288927,"distance":2179},{"time":4,"distance":1994,"station_name":"Sudimara","i_lat":-6.296963,"i_long":106.712277,"line":6,"transit":false,"station_id":"SDM","is_transit":false},{"time":6,"transit":false,"distance":4566,"station_id":"RU","is_transit":false,"i_long":106.675475,"line":6,"i_lat":-6.314823,"station_name":"Rawa Buntu"},{"time":4,"distance":2413,"station_id":"SRP","i_lat":-6.319871,"i_long":106.66566,"is_transit":false,"transit":false,"line":6,"station_name":"Serpong"},{"distance":1784,"transit":false,"time":4,"is_transit":false,"station_name":"Cisauk","i_lat":-6.32484,"i_long":106.640411,"line":3,"station_id":"CSK"},{"i_lat":-6.329547,"line":3,"transit":false,"station_name":"Cicayur","is_transit":false,"time":4,"distance":2519,"station_id":"CC","i_long":106.617853}],[{"time":0,"line":5,"station_id":"KDS","is_transit":false,"station_name":"Kalideres","distance":0,"transit":false,"i_long":106.701612,"i_lat":-6.166068},{"transit":false,"distance":2504,"line":5,"station_id":"RW","i_long":106.723064,"i_lat":-6.162758,"time":3,"station_name":"Rawa Buaya","is_transit":false},{"line":5,"distance":1152,"time":4,"is_transit":false,"i_long":106.737035,"station_id":"BOI","transit":false,"station_name":"Bojongindah","i_lat":-6.159876},{"station_name":"Taman Kota","distance":2334,"is_transit":false,"i_lat":-6.1587309999999995,"i_long":106.756522,"station_id":"TKO","line":5,"transit":false,"time":2},{"transit":false,"time":2,"i_lat":-6.161433,"station_id":"PSG","distance":1614,"i_long":106.771379,"line":5,"is_transit":false,"station_name":"Pesing"},{"distance":2036,"i_lat":-6.162021,"i_long":106.788277,"line":5,"station_name":"Grogol","station_id":"GGL","time":2,"transit":false,"is_transit":false},{"transit":true,"i_lat":-6.155215,"time":3,"station_name":"Duri","i_long":106.800832,"station_id":"DU","is_transit":true,"line":1,"distance":1700},{"station_id":"AK","station_name":"Angke","i_long":106.79867,"transit":false,"time":4,"line":1,"i_lat":-6.144674,"is_transit":false,"distance":1230},{"station_name":"Kampung Bandan","time":9,"distance":4102,"i_lat":-6.132549,"is_transit":true,"i_long":106.826365,"line":4,"station_id":"KPB","transit":true},{"line":11,"is_transit":false,"station_name":"Rajawali","i_long":106.836569,"transit":false,"i_lat":-6.14505,"station_id":"RJW","time":3,"distance":1444},{"station_name":"Kemayoran","is_transit":false,"i_long":106.839204,"station_id":"KMO","i_lat":-6.161728,"transit":false,"line":11,"time":5,"distance":1901},{"line":11,"is_transit":false,"i_lat":-6.174784,"station_name":"Pasar Senen","station_id":"PSE","transit":false,"i_long":106.84368,"distance":1436,"time":4},{"station_id":"GST","transit":false,"time":8,"i_lat":-6.185975,"station_name":"Gang Sentiong","is_transit":false,"distance":1567,"line":11,"i_long":106.850107},{"station_id":"KMT","is_transit":false,"transit":false,"i_lat":-6.193792,"line":11,"station_name":"Kramat","time":1,"i_long":106.855437,"distance":973},{"i_long":106.861737,"station_name":"Pondok Jati","is_transit":false,"time":2,"i_lat":-6.209188,"station_id":"POK","line":11,"distance":1829,"transit":false},{"i_long":106.86807400000001,"station_name":"Jatinegara","distance":1236,"is_transit":true,"time":9,"line":1,"station_id":"JNG","i_lat":-6.215091,"transit":true},{"is_transit":false,"time":2,"i_lat":-6.212485,"line":1,"i_long":106.858896,"station_name":"Matraman","distance":1377,"station_id":"MTR","transit":false},{"distance":1275,"is_transit":false,"station_id":"MRI","line":2,"transit":false,"station_name":"Manggarai","time":2,"i_long":106.84912,"i_lat":-6.209883},{"distance":3186,"station_name":"Sudirman","i_lat":-6.202263,"i_long":106.822649,"line":1,"time":4,"station_id":"SUD","is_transit":false,"transit":false},{"time":1,"station_name":"Sudirman Baru","i_long":106.819881,"station_id":"SUDB","is_transit":false,"distance":280,"i_lat":-6.201433,"transit":false,"line":1},{"station_id":"KAT","transit":false,"line":1,"station_name":"Karet","distance":471,"time":1,"i_lat":-6.20132,"i_long":106.816351,"is_transit":false},{"station_id":"THB","i_long":106.811091,"transit":true,"distance":2029,"line":1,"time":5,"i_lat":-6.185545,"station_name":"Tanah Abang","is_transit":true},{"i_long":106.79689,"i_lat":-6.207404,"line":6,"is_transit":false,"time":6,"station_name":"Palmerah","distance":3191,"transit":false,"station_id":"PLM"},{"is_transit":false,"transit":false,"distance":3737,"line":6,"i_lat":-6.237242,"station_id":"KBY","station_name":"Kebayoran","i_long":106.780334,"time":7},{"distance":6218,"i_lat":-6.276362,"i_long":106.74273,"line":6,"station_name":"Pondokranji","transit":false,"is_transit":false,"time":8,"station_id":"PDJ"},{"time":3,"station_name":"Jurangmangu","line":6,"i_long":106.728916,"station_id":"JMU","transit":false,"distance":2179,"i_lat":-6.288927,"is_transit":false},{"transit":false,"time":4,"is_transit":false,"i_lat":-6.296963,"station_id":"SDM","distance":1994,"line":6,"i_long":106.712277,"station_name":"Sudimara"},{"transit":false,"station_name":"Rawa Buntu","i_long":106.675475,"distance":4566,"time":6,"station_id":"RU","i_lat":-6.314823,"is_transit":false,"line":6},{"time":4,"i_long":106.66566,"distance":2413,"i_lat":-6.319871,"transit":false,"line":6,"station_name":"Serpong","is_transit":false,"station_id":"SRP"},{"line":3,"transit":false,"station_name":"Cisauk","is_transit":false,"distance":1784,"time":4,"i_long":106.640411,"station_id":"CSK","i_lat":-6.32484},{"i_long":106.617853,"time":4,"distance":2519,"transit":false,"line":3,"is_transit":false,"station_name":"Cicayur","i_lat":-6.329547,"station_id":"CC"}]]}