{"data":[[{"station_name":"Kalideres","station_id":"KDS","transit":false,"i_lat":-6.166068,"time":0,"distance":0,"is_transit":false,"i_long":106.701612,"line":5},{"station_name":"Rawa Buaya","time":3,"station_id":"RW","transit":false,"distance":2504,"i_lat":-6.162758,"line":5,"is_transit":false,"i_long":106.723064},{"i_long":106.737035,"distance":1152,"i_lat":-6.159876,"time":4,"transit":false,"is_transit":false,"station_id":"BOI","station_name":"Bojongindah","line":5},{"line":5,"i_lat":-6.1587309999999995,"is_transit":false,"transit":false,"station_name":"Taman Kota","i_long":106.756522,"distance":2334,"time":2,"station_id":"TKO"},{"transit":false,"station_name":"Pesing","distance":1614,"time":2,"i_lat":-6.161433,"station_id":"PSG","is_transit":false,"i_long":106.771379,"line":5},{"is_transit":false,"station_id":"GGL","line":5,"distance":2036,"station_name":"Grogol","time":2,"i_lat":-6.162021,"transit":false,"i_long":106.788277},{"is_transit":true,"distance":1700,"transit":true,"i_lat":-6.155215,"time":3,"station_name":"Duri","i_long":106.800832,"station_id":"DU","line":1},{"i_lat":-6.185545,"i_long":106.811091,"line":1,"transit":false,"is_transit":false,"station_id":"THB","time":8,"distance":3632,"station_name":"Tanah Abang"},{"is_transit":false,"transit":false,"distance":2029,"i_lat":-6.20132,"i_long":106.816351,"station_name":"Karet","line":1,"station_id":"KAT","time":5},{"transit":false,"distance":471,"is_transit":false,"i_lat":-6.201433,"station_id":"SUDB","i_long":106.819881,"line":1,"time":1,"station_name":"Sudirman Baru"},{"transit":false,"i_lat":-6.202263,"time":1,"i_long":106.822649,"is_transit":false,"station_id":"SUD","line":1,"station_name":"Sudirman","distance":280},{"distance":3186,"i_lat":-6.209883,"station_id":"MRI","time":4,"is_transit":false,"i_long":106.84912,"station_name":"Manggarai","transit":false,"line":2}],[{"station_name":"Kalideres","i_lat":-6.166068,"i_long":106.701612,"transit":false,"time":0,"station_id":"KDS","is_transit":false,"distance":0,"line":5},{"i_lat":-6.162758,"station_id":"RW","transit":false,"time":3,"station_name":"Rawa Buaya","distance":2504,"i_long":106.723064,"is_transit":false,"line":5},{"is_transit":false,"distance":1152,"station_name":"Bojongindah","line":5,"i_long":106.737035,"i_lat":-6.159876,"transit":false,"station_id":"BOI","time":4},{"i_lat":-6.1587309999999995,"station_name":"Taman Kota","is_transit":false,"line":5,"station_id":"TKO","transit":false,"distance":2334,"i_long":106.756522,"time":2},{"station_id":"PSG","station_name":"Pesing","i_long":106.771379,"distance":1614,"transit":false,"is_transit":false,"line":5,"i_lat":-6.161433,"time":2},{"distance":2036,"transit":false,"line":5,"station_name":"Grogol","is_transit":false,"i_long":106.788277,"time":2,"i_lat":-6.162021,"station_id":"GGL"},{"i_lat":-6.155215,"line":1,"transit":true,"is_transit":true,"station_name":"Duri","i_long":106.800832,"distance":1700,"time":3,"station_id":"DU"},{"i_long":106.79867,"time":4,"distance":1230,"line":1,"station_name":"Angke","i_lat":-6.144674,"is_transit":false,"transit":false,"station_id":"AK"},{"line":4,"station_id":"KPB","distance":4102,"station_name":"Kampung Bandan","transit":true,"i_lat":-6.132549,"is_transit":true,"time":9,"i_long":106.826365},{"is_transit":true,"distance":1364,"station_id":"JAKK","i_lat":-6.137569,"station_name":"Jakarta Kota","line":2,"transit":true,"i_long":106.812439,"time":3},{"station_name":"Jayakarta","i_long":106.820901,"transit":false,"time":4,"station_id":"JAY","i_lat":-6.141205,"line":2,"is_transit":false,"distance":1264},{"transit":false,"time":2,"line":2,"i_lat":-6.149769,"station_name":"Manggabesar","station_id":"MGB","is_transit":false,"distance":1080,"i_long":106.82482},{"i_long":106.827103,"line":2,"time":2,"station_id":"SW","is_transit":false,"transit":false,"i_lat":-6.160725,"station_name":"Sawah Besar","distance":906},{"station_name":"Juanda","distance":1149,"line":2,"i_lat":-6.166716,"station_id":"JUA","is_transit":false,"i_long":106.828284,"transit":false,"time":2},{"i_long":106.832183,"is_transit":false,"station_name":"Gondangdia","line":2,"station_id":"GDD","time":4,"transit":false,"distance":2015,"i_lat":-6.186295},{"line":2,"i_long":106.840169,"time":3,"transit":false,"station_name":"Cikini","distance":1750,"i_lat":-6.198556,"station_id":"CKI","is_transit":false},{"station_name":"Manggarai","time":4,"i_long":106.84912,"line":2,"distance":1590,"station_id":"MRI","is_transit":false,"transit":false,"i_lat":-6.209883}],[{"line":5,"transit":false,"time":0,"i_lat":-6.166068,"station_id":"KDS","is_transit":false,"distance":0,"i_long":106.701612,"station_name":"Kalideres"},{"is_transit":false,"distance":2504,"station_name":"Rawa Buaya","i_long":106.723064,"station_id":"RW","line":5,"i_lat":-6.162758,"time":3,"transit":false},{"i_long":106.737035,"is_transit":false,"distance":1152,"time":4,"station_name":"Bojongindah","station_id":"BOI","i_lat":-6.159876,"line":5,"transit":false},{"transit":false,"station_id":"TKO","time":2,"is_transit":false,"distance":2334,"i_lat":-6.1587309999999995,"i_long":106.756522,"line":5,"station_name":"Taman Kota"},{"line":5,"station_name":"Pesing","i_lat":-6.161433,"i_long":106.771379,"is_transit":false,"distance":1614,"station_id":"PSG","transit":false,"time":2},{"i_lat":-6.162021,"i_long":106.788277,"line":5,"station_name":"Grogol","transit":false,"distance":2036,"is_transit":false,"station_id":"GGL","time":2},{"is_transit":true,"line":1,"i_long":106.800832,"station_name":"Duri","time":3,"distance":1700,"i_lat":-6.155215,"station_id":"DU","transit":true},{"transit":false,"distance":1230,"i_long":106.79867,"time":4,"line":1,"i_lat":-6.144674,"station_name":"Angke","station_id":"AK","is_transit":false},{"station_name":"Kampung Bandan","i_lat":-6.132549,"i_long":106.826365,"transit":true,"time":9,"line":4,"distance":4102,"is_transit":true,"station_id":"KPB"},{"transit":false,"i_lat":-6.14505,"station_id":"RJW","line":11,"is_transit":false,"time":3,"station_name":"Rajawali","distance":1444,"i_long":106.836569},{"station_name":"Kemayoran","distance":1901,"station_id":"KMO","i_lat":-6.161728,"is_transit":false,"transit":false,"time":5,"i_long":106.839204,"line":11},{"line":11,"i_lat":-6.174784,"transit":false,"distance":1436,"station_name":"Pasar Senen","i_long":106.84368,"station_id":"PSE","is_transit":false,"time":4},{"i_long":106.850107,"is_transit":false,"transit":false,"time":8,"station_name":"Gang Sentiong","distance":1567,"i_lat":-6.185975,"station_id":"GST","line":11},{"distance":973,"is_transit":false,"station_id":"KMT","station_name":"Kramat","i_lat":-6.193792,"i_long":106.855437,"time":1,"transit":false,"line":11},{"is_transit":false,"station_id":"POK","i_lat":-6.209188,"time":2,"distance":1829,"i_long":106.861737,"line":11,"transit":false,"station_name":"Pondok Jati"},{"i_lat":-6.215091,"station_id":"JNG","station_name":"Jatinegara","is_transit":true,"i_long":106.86807400000001,"time":9,"line":1,"transit":true,"distance":1236},{"i_lat":-6.212485,"time":2,"distance":1377,"i_long":106.858896,"station_name":"Matraman","line":1,"station_id":"MTR","transit":false,"is_transit":false},{"i_long":106.84912,"line":2,"station_id":"MRI","is_transit":false,"transit":false,"time":2,"station_name":"Manggarai","distance":1275,"i_lat":-6.209883}]]}