{"data":[[{"i_long":106.701612,"is_transit":false,"line":5,"station_name":"Kalideres","i_lat":-6.166068,"distance":0,"station_id":"KDS","transit":false,"time":0},{"station_id":"RW","is_transit":false,"transit":false,"distance":2504,"i_lat":-6.162758,"time":3,"station_name":"Rawa Buaya","i_long":106.723064,"line":5},{"line":5,"distance":1152,"i_long":106.737035,"i_lat":-6.159876,"station_id":"BOI","time":4,"transit":false,"station_name":"Bojongindah","is_transit":false},{"station_name":"Taman Kota","i_long":106.756522,"i_lat":-6.1587309999999995,"transit":false,"line":5,"is_transit":false,"time":2,"station_id":"TKO","distance":2334},{"distance":1614,"is_transit":false,"time":2,"i_lat":-6.161433,"transit":false,"station_name":"Pesing","i_long":106.771379,"station_id":"PSG","line":5},{"time":2,"is_transit":false,"line":5,"distance":2036,"i_lat":-6.162021,"i_long":106.788277,"transit":false,"station_id":"GGL","station_name":"Grogol"},{"line":1,"time":3,"distance":1700,"station_name":"Duri","i_long":106.800832,"i_lat":-6.155215,"station_id":"DU","is_transit":true,"transit":true},{"distance":3632,"is_transit":false,"time":8,"i_lat":-6.185545,"transit":false,"station_name":"Tanah Abang","i_long":106.811091,"station_id":"THB","line":1},{"station_name":"Karet","station_id":"KAT","is_transit":false,"line":1,"i_lat":-6.20132,"i_long":106.816351,"time":5,"distance":2029,"transit":false},{"i_lat":-6.201433,"is_transit":false,"station_name":"Sudirman Baru","transit":false,"i_long":106.819881,"distance":471,"line":1,"station_id":"SUDB","time":1},{"line":1,"time":1,"station_name":"Sudirman","i_long":106.822649,"i_lat":-6.202263,"distance":280,"transit":false,"station_id":"SUD","is_transit":false}],[{"is_transit":false,"distance":0,"station_id":"KDS","line":5,"time":0,"i_lat":-6.166068,"i_long":106.701612,"transit":false,"station_name":"Kalideres"},{"i_lat":-6.162758,"station_name":"Rawa Buaya","line":5,"i_long":106.723064,"station_id":"RW","is_transit":false,"transit":false,"time":3,"distance":2504},{"i_lat":-6.159876,"is_transit":false,"i_long":106.737035,"distance":1152,"station_id":"BOI","transit":false,"station_name":"Bojongindah","time":4,"line":5},{"station_id":"TKO","distance":2334,"time":2,"transit":false,"is_transit":false,"i_lat":-6.1587309999999995,"station_name":"Taman Kota","line":5,"i_long":106.756522},{"i_long":106.771379,"station_name":"Pesing","is_transit":false,"distance":1614,"line":5,"transit":false,"station_id":"PSG","time":2,"i_lat":-6.161433},{"distance":2036,"station_id":"GGL","line":5,"station_name":"Grogol","transit":false,"time":2,"is_transit":false,"i_long":106.788277,"i_lat":-6.162021},{"i_lat":-6.155215,"time":3,"transit":true,"is_transit":true,"i_long":106.800832,"line":1,"distance":1700,"station_name":"Duri","station_id":"DU"},{"i_long":106.79867,"line":1,"station_name":"Angke","is_transit":false,"station_id":"AK","transit":false,"time":4,"distance":1230,"i_lat":-6.144674},{"is_transit":true,"time":9,"i_lat":-6.132549,"station_name":"Kampung Bandan","i_long":106.826365,"transit":true,"distance":4102,"station_id":"KPB","line":4},{"transit":true,"time":3,"i_lat":-6.137569,"i_long":106.812439,"line":2,"distance":1364,"station_id":"JAKK","is_transit":true,"station_name":"Jakarta Kota"},{"distance":1264,"line":2,"i_lat":-6.141205,"station_id":"JAY","i_long":106.820901,"time":4,"is_transit":false,"station_name":"Jayakarta","transit":false},{"distance":1080,"station_name":"Manggabesar","line":2,"i_lat":-6.149769,"station_id":"MGB","i_long":106.82482,"transit":false,"is_transit":false,"time":2},{"transit":false,"distance":906,"station_id":"SW","line":2,"i_long":106.827103,"i_lat":-6.160725,"is_transit":false,"time":2,"station_name":"Sawah Besar"},{"transit":false,"i_lat":-6.166716,"line":2,"i_long":106.828284,"station_id":"JUA","distance":1149,"is_transit":false,"station_name":"Juanda","time":2},{"i_lat":-6.186295,"transit":false,"time":4,"line":2,"station_id":"GDD","station_name":"Gondangdia","i_long":106.832183,"is_transit":false,"distance":2015},{"i_long":106.840169,"line":2,"distance":1750,"is_transit":false,"transit":false,"station_name":"Cikini","station_id":"CKI","time":3,"i_lat":-6.198556},{"line":2,"station_id":"MRI","transit":true,"i_lat":-6.209883,"i_long":106.84912,"is_transit":true,"time":4,"distance":1590,"station_name":"Manggarai"},{"transit":false,"station_name":"Sudirman","time":4,"i_lat":-6.202263,"is_transit":false,"station_id":"SUD","line":1,"i_long":106.822649,"distance":3186}],[{"time":0,"distance":0,"i_lat":-6.166068,"line":5,"i_long":106.701612,"station_id":"KDS","station_name":"Kalideres","transit":false,"is_transit":false},{"station_id":"RW","i_lat":-6.162758,"transit":false,"time":3,"i_long":106.723064,"is_transit":false,"distance":2504,"line":5,"station_name":"Rawa Buaya"},{"station_name":"Bojongindah","time":4,"distance":1152,"transit":false,"station_id":"BOI","i_long":106.737035,"is_transit":false,"i_lat":-6.159876,"line":5},{"is_transit":false,"i_lat":-6.1587309999999995,"transit":false,"station_name":"Taman Kota","station_id":"TKO","time":2,"i_long":106.756522,"line":5,"distance":2334},{"distance":1614,"i_long":106.771379,"i_lat":-6.161433,"station_id":"PSG","transit":false,"station_name":"Pesing","line":5,"is_transit":false,"time":2},{"transit":false,"i_long":106.788277,"station_id":"GGL","is_transit":false,"station_name":"Grogol","time":2,"distance":2036,"line":5,"i_lat":-6.162021},{"time":3,"i_long":106.800832,"transit":true,"station_name":"Duri","station_id":"DU","is_transit":true,"i_lat":-6.155215,"distance":1700,"line":1},{"distance":1230,"i_long":106.79867,"transit":false,"station_name":"Angke","time":4,"line":1,"i_lat":-6.144674,"is_transit":false,"station_id":"AK"},{"transit":true,"line":4,"i_long":106.826365,"is_transit":true,"i_lat":-6.132549,"station_name":"Kampung Bandan","distance":4102,"time":9,"station_id":"KPB"},{"i_lat":-6.14505,"station_name":"Rajawali","time":3,"distance":1444,"is_transit":false,"transit":false,"i_long":106.836569,"line":11,"station_id":"RJW"},{"distance":1901,"station_id":"KMO","line":11,"is_transit":false,"station_name":"Kemayoran","i_lat":-6.161728,"transit":false,"i_long":106.839204,"time":5},{"is_transit":false,"time":4,"transit":false,"i_long":106.84368,"station_id":"PSE","distance":1436,"i_lat":-6.174784,"line":11,"station_name":"Pasar Senen"},{"station_id":"GST","transit":false,"time":8,"i_long":106.850107,"station_name":"Gang Sentiong","is_transit":false,"line":11,"i_lat":-6.185975,"distance":1567},{"distance":973,"i_long":106.855437,"i_lat":-6.193792,"line":11,"station_id":"KMT","transit":false,"station_name":"Kramat","is_transit":false,"time":1},{"i_lat":-6.209188,"time":2,"i_long":106.861737,"line":11,"station_name":"Pondok Jati","transit":false,"is_transit":false,"station_id":"POK","distance":1829},{"station_name":"Jatinegara","distance":1236,"transit":true,"is_transit":true,"i_lat":-6.215091,"i_long":106.86807400000001,"time":9,"station_id":"JNG","line":1},{"transit":false,"i_lat":-6.212485,"is_transit":false,"line":1,"station_id":"MTR","time":2,"station_name":"Matraman","distance":1377,"i_long":106.858896},{"station_id":"MRI","time":2,"i_long":106.84912,"station_name":"Manggarai","distance":1275,"is_transit":false,"line":2,"transit":false,"i_lat":-6.209883},{"station_id":"SUD","distance":3186,"i_long":106.822649,"i_lat":-6.202263,"line":1,"is_transit":false,"time":4,"transit":false,"station_name":"Sudirman"}]]}