{"data":[[{"distance":0,"station_name":"Kalideres","line":5,"time":0,"transit":false,"i_lat":-6.166068,"i_long":106.701612,"station_id":"KDS","is_transit":false},{"station_id":"RW","is_transit":false,"line":5,"time":3,"distance":2504,"station_name":"Rawa Buaya","i_lat":-6.162758,"i_long":106.723064,"transit":false},{"distance":1152,"is_transit":false,"transit":false,"i_lat":-6.159876,"station_name":"Bojongindah","line":5,"time":4,"station_id":"BOI","i_long":106.737035},{"i_long":106.756522,"line":5,"station_id":"TKO","time":2,"station_name":"Taman Kota","is_transit":false,"i_lat":-6.1587309999999995,"distance":2334,"transit":false},{"station_name":"Pesing","is_transit":false,"time":2,"i_lat":-6.161433,"i_long":106.771379,"line":5,"station_id":"PSG","distance":1614,"transit":false},{"is_transit":false,"station_id":"GGL","line":5,"i_long":106.788277,"distance":2036,"time":2,"transit":false,"i_lat":-6.162021,"station_name":"Grogol"},{"i_lat":-6.155215,"i_long":106.800832,"time":3,"station_id":"DU","transit":true,"is_transit":true,"station_name":"Duri","distance":1700,"line":1},{"is_transit":false,"i_lat":-6.185545,"station_id":"THB","station_name":"Tanah Abang","time":8,"distance":3632,"i_long":106.811091,"line":1,"transit":false},{"line":1,"i_long":106.816351,"time":5,"station_name":"Karet","distance":2029,"station_id":"KAT","i_lat":-6.20132,"is_transit":false,"transit":false},{"i_long":106.819881,"time":1,"line":1,"is_transit":false,"station_name":"Sudirman Baru","transit":false,"distance":471,"station_id":"SUDB","i_lat":-6.201433},{"i_long":106.822649,"i_lat":-6.202263,"transit":false,"station_id":"SUD","is_transit":false,"distance":280,"station_name":"Sudirman","line":1,"time":1},{"line":2,"is_transit":true,"distance":3186,"transit":true,"time":4,"station_id":"MRI","station_name":"Manggarai","i_lat":-6.209883,"i_long":106.84912},{"time":4,"distance":2610,"station_id":"TEB","is_transit":false,"transit":false,"i_lat":-6.226659,"i_long":106.857948,"line":2,"station_name":"Tebet"},{"time":2,"is_transit":false,"i_lat":-6.242512,"line":2,"station_id":"CW","station_name":"Cawang","distance":1230,"i_long":106.856607,"transit":false},{"i_lat":-6.255332,"distance":1546,"station_id":"DRN","time":3,"transit":false,"line":2,"is_transit":false,"i_long":106.85449,"station_name":"Duren Kalibata"},{"station_id":"PSMB","distance":824,"is_transit":false,"station_name":"Pasar Minggu Baru","time":2,"i_long":106.851577,"transit":false,"i_lat":-6.263214,"line":2},{"distance":2380,"line":2,"station_id":"PSM","time":2,"transit":false,"i_long":106.843999,"is_transit":false,"i_lat":-6.2842400000000005,"station_name":"Pasar Minggu"},{"is_transit":false,"station_id":"TNT","i_lat":-6.3080680000000005,"i_long":106.838896,"transit":false,"line":2,"station_name":"Tanjung Barat","time":4,"distance":2820},{"station_id":"LNA","i_lat":-6.330363,"transit":false,"station_name":"Lenteng Agung","line":2,"i_long":106.832616,"time":3,"distance":2671,"is_transit":false},{"distance":1029,"is_transit":false,"time":2,"station_id":"UP","line":2,"i_long":106.834175,"transit":false,"station_name":"Univ. Pancasila","i_lat":-6.339291},{"i_lat":-6.360749,"station_name":"Univ. Indonesia","i_long":106.831474,"distance":2264,"is_transit":false,"transit":false,"line":2,"station_id":"UI","time":3},{"is_transit":false,"distance":1109,"time":2,"i_long":106.831114,"transit":false,"i_lat":-6.369073,"line":2,"station_id":"POC","station_name":"Pondok Cina"},{"transit":false,"station_name":"Depokbaru","line":2,"station_id":"DPB","distance":2727,"is_transit":false,"time":4,"i_long":106.819451,"i_lat":-6.391065},{"distance":1584,"transit":false,"station_name":"Depok","line":2,"time":3,"i_long":106.816926,"i_lat":-6.405256,"station_id":"DP","is_transit":false},{"is_transit":false,"transit":false,"station_id":"CTA","line":2,"i_long":106.800298,"i_lat":-6.448811,"station_name":"Citayam","time":6,"distance":5084},{"is_transit":false,"station_name":"Bojonggede","line":2,"i_long":106.792719,"time":5,"station_id":"BJD","i_lat":-6.493243,"transit":false,"distance":5197},{"distance":4331,"transit":false,"i_lat":-6.530544,"station_id":"CLT","i_long":106.800016,"line":2,"time":5,"station_name":"Cilebut","is_transit":false},{"transit":false,"distance":7514,"i_lat":-6.594596,"station_id":"BOO","is_transit":false,"station_name":"Bogor","i_long":106.790574,"line":2,"time":9}],[{"i_lat":-6.166068,"distance":0,"time":0,"transit":false,"station_id":"KDS","is_transit":false,"i_long":106.701612,"station_name":"Kalideres","line":5},{"time":3,"station_id":"RW","transit":false,"i_lat":-6.162758,"station_name":"Rawa Buaya","distance":2504,"is_transit":false,"i_long":106.723064,"line":5},{"is_transit":false,"time":4,"station_id":"BOI","i_lat":-6.159876,"distance":1152,"line":5,"station_name":"Bojongindah","transit":false,"i_long":106.737035},{"is_transit":false,"distance":2334,"line":5,"i_lat":-6.1587309999999995,"station_name":"Taman Kota","station_id":"TKO","transit":false,"i_long":106.756522,"time":2},{"i_lat":-6.161433,"line":5,"i_long":106.771379,"time":2,"transit":false,"distance":1614,"is_transit":false,"station_name":"Pesing","station_id":"PSG"},{"i_lat":-6.162021,"is_transit":false,"station_id":"GGL","i_long":106.788277,"transit":false,"distance":2036,"line":5,"station_name":"Grogol","time":2},{"distance":1700,"i_lat":-6.155215,"time":3,"i_long":106.800832,"transit":true,"station_name":"Duri","line":1,"is_transit":true,"station_id":"DU"},{"transit":false,"distance":1230,"i_lat":-6.144674,"i_long":106.79867,"line":1,"station_name":"Angke","time":4,"is_transit":false,"station_id":"AK"},{"is_transit":true,"i_long":106.826365,"line":4,"station_id":"KPB","transit":true,"distance":4102,"time":9,"station_name":"Kampung Bandan","i_lat":-6.132549},{"is_transit":true,"transit":true,"time":3,"i_lat":-6.137569,"distance":1364,"i_long":106.812439,"station_id":"JAKK","line":2,"station_name":"Jakarta Kota"},{"station_name":"Jayakarta","i_lat":-6.141205,"time":4,"station_id":"JAY","line":2,"i_long":106.820901,"is_transit":false,"distance":1264,"transit":false},{"distance":1080,"time":2,"line":2,"is_transit":false,"i_lat":-6.149769,"station_name":"Manggabesar","transit":false,"i_long":106.82482,"station_id":"MGB"},{"transit":false,"station_name":"Sawah Besar","time":2,"line":2,"station_id":"SW","i_long":106.827103,"i_lat":-6.160725,"distance":906,"is_transit":false},{"i_long":106.828284,"distance":1149,"line":2,"station_id":"JUA","transit":false,"station_name":"Juanda","time":2,"is_transit":false,"i_lat":-6.166716},{"time":4,"i_lat":-6.186295,"line":2,"i_long":106.832183,"distance":2015,"transit":false,"is_transit":false,"station_id":"GDD","station_name":"Gondangdia"},{"transit":false,"time":3,"station_id":"CKI","i_long":106.840169,"line":2,"distance":1750,"station_name":"Cikini","i_lat":-6.198556,"is_transit":false},{"distance":1590,"transit":false,"is_transit":false,"i_long":106.84912,"line":2,"station_id":"MRI","i_lat":-6.209883,"station_name":"Manggarai","time":4},{"i_long":106.857948,"i_lat":-6.226659,"station_name":"Tebet","line":2,"station_id":"TEB","time":4,"transit":false,"is_transit":false,"distance":2610},{"line":2,"station_name":"Cawang","time":2,"distance":1230,"transit":false,"i_long":106.856607,"station_id":"CW","i_lat":-6.242512,"is_transit":false},{"time":3,"station_id":"DRN","station_name":"Duren Kalibata","distance":1546,"i_long":106.85449,"line":2,"i_lat":-6.255332,"is_transit":false,"transit":false},{"transit":false,"distance":824,"time":2,"station_name":"Pasar Minggu Baru","is_transit":false,"station_id":"PSMB","i_lat":-6.263214,"i_long":106.851577,"line":2},{"station_name":"Pasar Minggu","transit":false,"i_lat":-6.2842400000000005,"i_long":106.843999,"time":2,"line":2,"distance":2380,"station_id":"PSM","is_transit":false},{"i_long":106.838896,"is_transit":false,"station_name":"Tanjung Barat","time":4,"transit":false,"i_lat":-6.3080680000000005,"station_id":"TNT","distance":2820,"line":2},{"station_id":"LNA","distance":2671,"i_long":106.832616,"station_name":"Lenteng Agung","i_lat":-6.330363,"line":2,"transit":false,"is_transit":false,"time":3},{"i_long":106.834175,"i_lat":-6.339291,"transit":false,"is_transit":false,"station_id":"UP","distance":1029,"station_name":"Univ. Pancasila","time":2,"line":2},{"time":3,"is_transit":false,"line":2,"station_id":"UI","i_lat":-6.360749,"transit":false,"station_name":"Univ. Indonesia","i_long":106.831474,"distance":2264},{"is_transit":false,"i_long":106.831114,"station_name":"Pondok Cina","line":2,"transit":false,"station_id":"POC","distance":1109,"i_lat":-6.369073,"time":2},{"i_lat":-6.391065,"i_long":106.819451,"time":4,"station_id":"DPB","station_name":"Depokbaru","is_transit":false,"distance":2727,"line":2,"transit":false},{"distance":1584,"transit":false,"i_long":106.816926,"station_id":"DP","station_name":"Depok","i_lat":-6.405256,"line":2,"is_transit":false,"time":3},{"station_id":"CTA","i_long":106.800298,"time":6,"station_name":"Citayam","is_transit":false,"transit":false,"distance":5084,"i_lat":-6.448811,"line":2},{"time":5,"station_name":"Bojonggede","line":2,"i_lat":-6.493243,"station_id":"BJD","transit":false,"i_long":106.792719,"is_transit":false,"distance":5197},{"time":5,"station_id":"CLT","station_name":"Cilebut","i_lat":-6.530544,"is_transit":false,"line":2,"distance":4331,"i_long":106.800016,"transit":false},{"line":2,"is_transit":false,"transit":false,"station_id":"BOO","i_lat":-6.594596,"i_long":106.790574,"station_name":"Bogor","distance":7514,"time":9}],[{"is_transit":false,"distance":0,"station_name":"Kalideres","line":5,"transit":false,"station_id":"KDS","i_long":106.701612,"time":0,"i_lat":-6.166068},{"station_id":"RW","is_transit":false,"i_lat":-6.162758,"i_long":106.723064,"line":5,"time":3,"transit":false,"station_name":"Rawa Buaya","distance":2504},{"i_lat":-6.159876,"i_long":106.737035,"time":4,"distance":1152,"line":5,"is_transit":false,"transit":false,"station_name":"Bojongindah","station_id":"BOI"},{"is_transit":false,"transit":false,"station_name":"Taman Kota","distance":2334,"i_lat":-6.1587309999999995,"station_id":"TKO","i_long":106.756522,"line":5,"time":2},{"distance":1614,"line":5,"time":2,"is_transit":false,"transit":false,"station_id":"PSG","station_name":"Pesing","i_lat":-6.161433,"i_long":106.771379},{"time":2,"station_id":"GGL","transit":false,"i_lat":-6.162021,"i_long":106.788277,"station_name":"Grogol","is_transit":false,"distance":2036,"line":5},{"time":3,"station_name":"Duri","i_long":106.800832,"line":1,"i_lat":-6.155215,"transit":true,"is_transit":true,"station_id":"DU","distance":1700},{"time":4,"station_name":"Angke","line":1,"transit":false,"distance":1230,"station_id":"AK","i_long":106.79867,"is_transit":false,"i_lat":-6.144674},{"station_id":"KPB","time":9,"is_transit":true,"station_name":"Kampung Bandan","line":4,"distance":4102,"transit":true,"i_lat":-6.132549,"i_long":106.826365},{"time":3,"station_id":"RJW","station_name":"Rajawali","i_long":106.836569,"transit":false,"line":11,"is_transit":false,"distance":1444,"i_lat":-6.14505},{"is_transit":false,"line":11,"transit":false,"distance":1901,"i_long":106.839204,"station_name":"Kemayoran","i_lat":-6.161728,"time":5,"station_id":"KMO"},{"time":4,"station_id":"PSE","i_long":106.84368,"station_name":"Pasar Senen","transit":false,"line":11,"i_lat":-6.174784,"is_transit":false,"distance":1436},{"line":11,"station_id":"GST","transit":false,"distance":1567,"time":8,"is_transit":false,"i_lat":-6.185975,"station_name":"Gang Sentiong","i_long":106.850107},{"station_name":"Kramat","distance":973,"i_lat":-6.193792,"i_long":106.855437,"line":11,"is_transit":false,"time":1,"station_id":"KMT","transit":false},{"distance":1829,"time":2,"transit":false,"station_id":"POK","line":11,"station_name":"Pondok Jati","i_lat":-6.209188,"is_transit":false,"i_long":106.861737},{"i_lat":-6.215091,"line":1,"station_id":"JNG","distance":1236,"i_long":106.86807400000001,"transit":true,"time":9,"is_transit":true,"station_name":"Jatinegara"},{"transit":false,"i_long":106.858896,"time":2,"is_transit":false,"station_name":"Matraman","i_lat":-6.212485,"station_id":"MTR","distance":1377,"line":1},{"line":2,"station_name":"Manggarai","i_lat":-6.209883,"transit":true,"station_id":"MRI","time":2,"i_long":106.84912,"is_transit":true,"distance":1275},{"i_lat":-6.226659,"time":4,"station_id":"TEB","station_name":"Tebet","is_transit":false,"distance":2610,"i_long":106.857948,"line":2,"transit":false},{"transit":false,"time":2,"station_id":"CW","distance":1230,"is_transit":false,"station_name":"Cawang","i_lat":-6.242512,"i_long":106.856607,"line":2},{"line":2,"station_name":"Duren Kalibata","i_long":106.85449,"transit":false,"station_id":"DRN","time":3,"distance":1546,"i_lat":-6.255332,"is_transit":false},{"transit":false,"line":2,"is_transit":false,"station_id":"PSMB","distance":824,"i_lat":-6.263214,"station_name":"Pasar Minggu Baru","time":2,"i_long":106.851577},{"station_name":"Pasar Minggu","distance":2380,"i_lat":-6.2842400000000005,"line":2,"is_transit":false,"station_id":"PSM","i_long":106.843999,"time":2,"transit":false},{"time":4,"i_lat":-6.3080680000000005,"distance":2820,"transit":false,"i_long":106.838896,"line":2,"is_transit":false,"station_id":"TNT","station_name":"Tanjung Barat"},{"transit":false,"station_id":"LNA","i_lat":-6.330363,"i_long":106.832616,"distance":2671,"is_transit":false,"station_name":"Lenteng Agung","line":2,"time":3},{"distance":1029,"transit":false,"i_lat":-6.339291,"i_long":106.834175,"line":2,"time":2,"is_transit":false,"station_id":"UP","station_name":"Univ. Pancasila"},{"is_transit":false,"line":2,"transit":false,"i_lat":-6.360749,"station_id":"UI","time":3,"distance":2264,"station_name":"Univ. Indonesia","i_long":106.831474},{"station_name":"Pondok Cina","i_long":106.831114,"distance":1109,"transit":false,"time":2,"is_transit":false,"station_id":"POC","line":2,"i_lat":-6.369073},{"is_transit":false,"line":2,"i_long":106.819451,"i_lat":-6.391065,"transit":false,"station_id":"DPB","station_name":"Depokbaru","distance":2727,"time":4},{"station_id":"DP","station_name":"Depok","time":3,"transit":false,"i_lat":-6.405256,"i_long":106.816926,"line":2,"distance":1584,"is_transit":false},{"time":6,"is_transit":false,"distance":5084,"station_id":"CTA","i_long":106.800298,"line":2,"transit":false,"station_name":"Citayam","i_lat":-6.448811},{"line":2,"is_transit":false,"station_id":"BJD","distance":5197,"transit":false,"station_name":"Bojonggede","time":5,"i_lat":-6.493243,"i_long":106.792719},{"i_long":106.800016,"station_id":"CLT","transit":false,"is_transit":false,"distance":4331,"i_lat":-6.530544,"line":2,"station_name":"Cilebut","time":5},{"i_lat":-6.594596,"is_transit":false,"station_name":"Bogor","i_long":106.790574,"time":9,"distance":7514,"line":2,"station_id":"BOO","transit":false}]]}