{"data":[[{"transit":false,"line":5,"is_transit":false,"distance":0,"i_long":106.701612,"station_id":"KDS","station_name":"Kalideres","time":0,"i_lat":-6.166068},{"station_name":"Rawa Buaya","distance":2504,"i_long":106.723064,"is_transit":false,"line":5,"station_id":"RW","i_lat":-6.162758,"transit":false,"time":3},{"line":5,"distance":1152,"station_name":"Bojongindah","is_transit":false,"i_long":106.737035,"station_id":"BOI","time":4,"transit":false,"i_lat":-6.159876},{"station_name":"Taman Kota","line":5,"station_id":"TKO","distance":2334,"time":2,"i_lat":-6.1587309999999995,"transit":false,"i_long":106.756522,"is_transit":false},{"i_lat":-6.161433,"line":5,"station_id":"PSG","is_transit":false,"distance":1614,"time":2,"i_long":106.771379,"station_name":"Pesing","transit":false},{"time":2,"is_transit":false,"transit":false,"station_id":"GGL","i_long":106.788277,"distance":2036,"line":5,"i_lat":-6.162021,"station_name":"Grogol"}]]}