{"data":[[{"transit":false,"i_lat":-6.166068,"distance":0,"line":5,"is_transit":false,"i_long":106.701612,"station_id":"KDS","time":0,"station_name":"Kalideres"},{"i_lat":-6.162758,"station_id":"RW","station_name":"Rawa Buaya","line":5,"time":3,"i_long":106.723064,"distance":2504,"transit":false,"is_transit":false},{"is_transit":false,"i_lat":-6.159876,"time":4,"station_id":"BOI","transit":false,"distance":1152,"station_name":"Bojongindah","i_long":106.737035,"line":0},{"transit":false,"station_id":"TKO","is_transit":false,"station_name":"Taman Kota","i_lat":-6.1587309999999995,"i_long":106.756522,"line":5,"time":2,"distance":2334},{"is_transit":false,"time":2,"i_lat":-6.161433,"station_id":"PSG","line":5,"distance":1614,"i_long":106.771379,"station_name":"Pesing","transit":false},{"transit":false,"i_lat":-6.162021,"station_id":"GGL","station_name":"Grogol","is_transit":false,"time":2,"i_long":106.788277,"line":5,"distance":2036},{"station_id":"DU","station_name":"Duri","time":3,"i_long":106.800832,"line":1,"transit":true,"distance":1700,"i_lat":-6.155215,"is_transit":true},{"transit":false,"line":0,"time":4,"i_lat":-6.144674,"station_name":"Angke","is_transit":false,"i_long":106.79867,"station_id":"AK","distance":1230},{"distance":4102,"transit":false,"time":9,"station_name":"Kampung Bandan","i_lat":-6.132549,"station_id":"KPB","is_transit":true,"i_long":106.826365,"line":0},{"transit":true,"line":0,"station_name":"Jakarta Kota","is_transit":true,"station_id":"JAKK","i_long":106.812439,"distance":1364,"i_lat":-6.137569,"time":3},{"line":7,"i_lat":-6.141205,"time":4,"station_name":"Jayakarta","distance":1264,"i_long":106.820901,"is_transit":false,"transit":false,"station_id":"JAY"}],[{"station_name":"Kalideres","i_lat":-6.166068,"line":5,"is_transit":false,"transit":false,"time":0,"i_long":106.701612,"distance":0,"station_id":"KDS"},{"station_id":"RW","transit":false,"line":5,"time":3,"station_name":"Rawa Buaya","distance":2504,"is_transit":false,"i_long":106.723064,"i_lat":-6.162758},{"station_id":"BOI","time":4,"distance":1152,"i_lat":-6.159876,"i_long":106.737035,"line":0,"transit":false,"is_transit":false,"station_name":"Bojongindah"},{"station_id":"TKO","line":5,"is_transit":false,"i_lat":-6.1587309999999995,"station_name":"Taman Kota","time":2,"transit":false,"distance":2334,"i_long":106.756522},{"station_name":"Pesing","distance":1614,"station_id":"PSG","time":2,"is_transit":false,"transit":false,"line":5,"i_lat":-6.161433,"i_long":106.771379},{"station_name":"Grogol","transit":false,"i_lat":-6.162021,"i_long":106.788277,"is_transit":false,"time":2,"distance":2036,"station_id":"GGL","line":5},{"time":3,"station_id":"DU","i_long":106.800832,"distance":1700,"transit":true,"i_lat":-6.155215,"station_name":"Duri","line":1,"is_transit":true},{"distance":3632,"station_name":"Tanah Abang","transit":false,"station_id":"THB","i_long":106.811091,"line":1,"i_lat":-6.185545,"is_transit":true,"time":8},{"station_id":"KAT","i_lat":-6.20132,"time":5,"is_transit":false,"transit":false,"station_name":"Karet","i_long":106.816351,"line":1,"distance":2029},{"line":1,"station_name":"Sudirman Baru","station_id":"SUDB","time":1,"i_lat":-6.201433,"distance":471,"i_long":106.819881,"is_transit":false,"transit":false},{"distance":280,"is_transit":false,"station_id":"SUD","i_lat":-6.202263,"time":1,"i_long":106.822649,"line":1,"transit":false,"station_name":"Sudirman"},{"distance":3186,"is_transit":true,"station_name":"Manggarai","station_id":"MRI","line":0,"time":4,"transit":true,"i_long":106.84912,"i_lat":-6.209883},{"time":4,"distance":1590,"transit":false,"line":0,"i_lat":-6.198556,"station_id":"CKI","station_name":"Cikini","i_long":106.840169,"is_transit":false},{"transit":false,"i_lat":-6.186295,"is_transit":false,"time":3,"distance":1750,"station_id":"GDD","station_name":"Gondangdia","i_long":106.832183,"line":2},{"i_lat":-6.166716,"distance":2015,"station_id":"JUA","line":2,"is_transit":false,"station_name":"Juanda","time":4,"i_long":106.828284,"transit":false},{"is_transit":false,"time":2,"station_id":"SW","i_long":106.827103,"transit":false,"station_name":"Sawah Besar","line":2,"distance":1149,"i_lat":-6.160725},{"station_name":"Manggabesar","i_long":106.82482,"line":2,"time":2,"distance":906,"is_transit":false,"station_id":"MGB","transit":false,"i_lat":-6.149769},{"station_id":"JAY","line":7,"distance":1080,"i_long":106.820901,"transit":false,"station_name":"Jayakarta","i_lat":-6.141205,"is_transit":false,"time":2}],[{"i_long":106.701612,"distance":0,"station_name":"Kalideres","station_id":"KDS","line":5,"time":0,"is_transit":false,"i_lat":-6.166068,"transit":false},{"time":3,"is_transit":false,"i_long":106.723064,"station_name":"Rawa Buaya","distance":2504,"station_id":"RW","transit":false,"i_lat":-6.162758,"line":5},{"station_name":"Bojongindah","distance":1152,"i_long":106.737035,"time":4,"line":0,"transit":false,"i_lat":-6.159876,"is_transit":false,"station_id":"BOI"},{"transit":false,"i_lat":-6.1587309999999995,"station_name":"Taman Kota","distance":2334,"i_long":106.756522,"station_id":"TKO","is_transit":false,"line":5,"time":2},{"is_transit":false,"distance":1614,"station_name":"Pesing","i_long":106.771379,"i_lat":-6.161433,"transit":false,"line":5,"time":2,"station_id":"PSG"},{"time":2,"station_name":"Grogol","i_lat":-6.162021,"i_long":106.788277,"transit":false,"station_id":"GGL","is_transit":false,"line":5,"distance":2036},{"station_name":"Duri","station_id":"DU","line":1,"transit":true,"is_transit":true,"time":3,"i_long":106.800832,"distance":1700,"i_lat":-6.155215},{"distance":3632,"line":1,"i_lat":-6.185545,"transit":false,"is_transit":true,"i_long":106.811091,"station_id":"THB","station_name":"Tanah Abang","time":8},{"time":5,"is_transit":false,"distance":2029,"station_id":"KAT","transit":false,"i_lat":-6.20132,"i_long":106.816351,"station_name":"Karet","line":1},{"station_name":"Sudirman Baru","is_transit":false,"transit":false,"time":1,"line":1,"distance":471,"station_id":"SUDB","i_lat":-6.201433,"i_long":106.819881},{"station_name":"Sudirman","i_lat":-6.202263,"distance":280,"is_transit":false,"time":1,"station_id":"SUD","transit":false,"i_long":106.822649,"line":1},{"transit":false,"is_transit":true,"time":4,"line":0,"station_name":"Manggarai","distance":3186,"station_id":"MRI","i_long":106.84912,"i_lat":-6.209883},{"station_name":"Matraman","distance":1275,"i_long":106.858896,"i_lat":-6.212485,"is_transit":false,"transit":false,"time":2,"station_id":"MTR","line":1},{"distance":1377,"line":0,"transit":true,"i_lat":-6.215091,"i_long":106.86807400000001,"time":8,"station_name":"Jatinegara","station_id":"JNG","is_transit":true},{"is_transit":false,"station_id":"POK","i_long":106.861737,"transit":false,"line":11,"i_lat":-6.209188,"time":2,"distance":1236,"station_name":"Pondok Jati"},{"distance":1829,"time":2,"station_name":"Kramat","station_id":"KMT","i_long":106.855437,"line":11,"transit":false,"i_lat":-6.193792,"is_transit":false},{"line":11,"time":1,"is_transit":false,"station_id":"GST","transit":false,"i_lat":-6.185975,"station_name":"Gang Sentiong","i_long":106.850107,"distance":973},{"time":8,"i_long":106.84368,"is_transit":false,"station_name":"Pasar Senen","distance":1567,"line":11,"station_id":"PSE","transit":false,"i_lat":-6.174784},{"i_lat":-6.161728,"distance":1436,"is_transit":false,"station_name":"Kemayoran","station_id":"KMO","transit":false,"i_long":106.839204,"line":11,"time":4},{"is_transit":false,"transit":false,"i_long":106.836569,"distance":1901,"line":11,"time":5,"station_id":"RJW","station_name":"Rajawali","i_lat":-6.14505},{"distance":1444,"time":3,"line":0,"station_name":"Kampung Bandan","i_lat":-6.132549,"station_id":"KPB","is_transit":true,"transit":true,"i_long":106.826365},{"transit":true,"station_name":"Jakarta Kota","distance":1364,"is_transit":true,"i_lat":-6.137569,"time":3,"i_long":106.812439,"line":0,"station_id":"JAKK"},{"i_long":106.820901,"transit":false,"line":7,"time":4,"distance":1264,"is_transit":false,"i_lat":-6.141205,"station_name":"Jayakarta","station_id":"JAY"}],[{"line":5,"transit":false,"distance":0,"i_lat":-6.166068,"time":0,"station_id":"KDS","i_long":106.701612,"is_transit":false,"station_name":"Kalideres"},{"time":3,"station_name":"Rawa Buaya","transit":false,"station_id":"RW","distance":2504,"is_transit":false,"i_lat":-6.162758,"line":5,"i_long":106.723064},{"i_long":106.737035,"station_id":"BOI","line":0,"is_transit":false,"i_lat":-6.159876,"distance":1152,"time":4,"transit":false,"station_name":"Bojongindah"},{"i_long":106.756522,"station_id":"TKO","line":5,"i_lat":-6.1587309999999995,"time":2,"station_name":"Taman Kota","is_transit":false,"distance":2334,"transit":false},{"station_name":"Pesing","station_id":"PSG","i_long":106.771379,"i_lat":-6.161433,"is_transit":false,"time":2,"distance":1614,"line":5,"transit":false},{"is_transit":false,"station_id":"GGL","distance":2036,"time":2,"transit":false,"i_lat":-6.162021,"line":5,"station_name":"Grogol","i_long":106.788277},{"distance":1700,"transit":true,"time":3,"i_long":106.800832,"line":1,"is_transit":true,"i_lat":-6.155215,"station_name":"Duri","station_id":"DU"},{"is_transit":false,"station_id":"AK","i_long":106.79867,"transit":false,"time":4,"line":0,"i_lat":-6.144674,"station_name":"Angke","distance":1230},{"i_long":106.826365,"station_name":"Kampung Bandan","i_lat":-6.132549,"is_transit":true,"time":9,"distance":4102,"line":0,"transit":true,"station_id":"KPB"},{"is_transit":false,"time":3,"i_lat":-6.14505,"station_name":"Rajawali","line":11,"station_id":"RJW","transit":false,"i_long":106.836569,"distance":1444},{"time":5,"station_id":"KMO","transit":false,"station_name":"Kemayoran","distance":1901,"line":11,"i_lat":-6.161728,"is_transit":false,"i_long":106.839204},{"i_lat":-6.174784,"i_long":106.84368,"line":11,"time":4,"station_id":"PSE","transit":false,"is_transit":false,"distance":1436,"station_name":"Pasar Senen"},{"station_id":"GST","station_name":"Gang Sentiong","i_long":106.850107,"transit":false,"i_lat":-6.185975,"is_transit":false,"time":8,"line":11,"distance":1567},{"transit":false,"station_name":"Kramat","line":11,"i_long":106.855437,"i_lat":-6.193792,"station_id":"KMT","time":1,"distance":973,"is_transit":false},{"i_lat":-6.209188,"is_transit":false,"time":2,"station_id":"POK","transit":false,"distance":1829,"station_name":"Pondok Jati","i_long":106.861737,"line":11},{"transit":true,"is_transit":true,"distance":1236,"station_id":"JNG","i_lat":-6.215091,"station_name":"Jatinegara","time":9,"i_long":106.86807400000001,"line":0},{"is_transit":false,"station_name":"Matraman","distance":1377,"station_id":"MTR","i_lat":-6.212485,"i_long":106.858896,"line":1,"transit":false,"time":2},{"i_lat":-6.209883,"line":0,"i_long":106.84912,"station_name":"Manggarai","station_id":"MRI","transit":true,"is_transit":true,"time":2,"distance":1275},{"is_transit":false,"line":0,"station_id":"CKI","i_long":106.840169,"station_name":"Cikini","time":4,"distance":1590,"transit":false,"i_lat":-6.198556},{"time":3,"i_long":106.832183,"distance":1750,"station_id":"GDD","station_name":"Gondangdia","i_lat":-6.186295,"line":2,"transit":false,"is_transit":false},{"i_lat":-6.166716,"is_transit":false,"station_id":"JUA","time":4,"station_name":"Juanda","distance":2015,"i_long":106.828284,"line":2,"transit":false},{"transit":false,"i_lat":-6.160725,"line":2,"i_long":106.827103,"distance":1149,"time":2,"station_id":"SW","station_name":"Sawah Besar","is_transit":false},{"line":2,"time":2,"station_name":"Manggabesar","i_lat":-6.149769,"i_long":106.82482,"station_id":"MGB","is_transit":false,"transit":false,"distance":906},{"station_id":"JAY","i_long":106.820901,"transit":false,"is_transit":false,"i_lat":-6.141205,"line":7,"time":2,"distance":1080,"station_name":"Jayakarta"}]]}