{"data":[[{"is_transit":false,"i_long":106.701612,"station_name":"Kalideres","distance":0,"line":5,"time":0,"station_id":"KDS","transit":false,"i_lat":-6.166068},{"distance":2504,"transit":false,"station_name":"Rawa Buaya","i_lat":-6.162758,"is_transit":false,"station_id":"RW","line":5,"time":3,"i_long":106.723064},{"distance":1152,"station_id":"BOI","station_name":"Bojongindah","i_lat":-6.159876,"transit":false,"is_transit":false,"line":5,"time":4,"i_long":106.737035},{"is_transit":false,"i_long":106.756522,"distance":2334,"time":2,"station_name":"Taman Kota","transit":false,"line":5,"station_id":"TKO","i_lat":-6.1587309999999995},{"time":2,"is_transit":false,"distance":1614,"i_long":106.771379,"transit":false,"line":5,"station_id":"PSG","station_name":"Pesing","i_lat":-6.161433},{"i_lat":-6.162021,"i_long":106.788277,"distance":2036,"time":2,"line":5,"transit":false,"is_transit":false,"station_id":"GGL","station_name":"Grogol"},{"distance":1700,"station_name":"Duri","transit":true,"time":3,"is_transit":true,"i_lat":-6.155215,"i_long":106.800832,"line":1,"station_id":"DU"},{"distance":3632,"transit":true,"i_long":106.811091,"is_transit":true,"time":8,"station_id":"THB","i_lat":-6.185545,"line":1,"station_name":"Tanah Abang"},{"line":6,"distance":3191,"station_id":"PLM","is_transit":false,"i_long":106.79689,"time":6,"transit":false,"i_lat":-6.207404,"station_name":"Palmerah"},{"station_name":"Kebayoran","time":7,"transit":false,"distance":3737,"is_transit":false,"station_id":"KBY","line":6,"i_long":106.780334,"i_lat":-6.237242},{"distance":6218,"transit":false,"time":8,"station_id":"PDJ","i_lat":-6.276362,"i_long":106.74273,"line":6,"station_name":"Pondokranji","is_transit":false},{"distance":2179,"i_long":106.728916,"transit":false,"time":3,"line":6,"i_lat":-6.288927,"station_id":"JMU","is_transit":false,"station_name":"Jurangmangu"},{"time":4,"distance":1994,"line":6,"i_lat":-6.296963,"i_long":106.712277,"is_transit":false,"station_name":"Sudimara","station_id":"SDM","transit":false},{"station_name":"Rawa Buntu","i_lat":-6.314823,"is_transit":false,"distance":4566,"transit":false,"station_id":"RU","time":6,"i_long":106.675475,"line":6},{"time":4,"line":6,"transit":false,"station_id":"SRP","station_name":"Serpong","is_transit":false,"i_lat":-6.319871,"i_long":106.66566,"distance":2413},{"station_id":"CSK","i_long":106.640411,"transit":false,"station_name":"Cisauk","is_transit":false,"time":4,"distance":1784,"i_lat":-6.32484,"line":3},{"distance":2519,"is_transit":false,"i_long":106.617853,"station_name":"Cicayur","i_lat":-6.329547,"transit":false,"line":3,"station_id":"CC","time":4},{"station_name":"Parung Panjang","time":8,"is_transit":false,"transit":false,"station_id":"PRP","i_long":106.568863,"line":6,"i_lat":-6.3441410000000005,"distance":5968},{"time":9,"transit":false,"i_long":106.508482,"station_id":"CJT","line":3,"station_name":"Cilejit","distance":7025,"i_lat":-6.354349,"is_transit":false},{"line":0,"time":6,"transit":false,"station_id":"DAR","station_name":"Daru","distance":2675,"i_long":106.491338,"i_lat":-6.338021,"is_transit":false},{"transit":false,"is_transit":false,"station_name":"Tenjo","distance":3902,"station_id":"TEJ","i_lat":-6.327251,"time":5,"i_long":106.460812,"line":6},{"time":5,"distance":2974,"station_id":"TGS","transit":false,"i_lat":-6.328533,"station_name":"Tigaraksa","i_long":106.425991,"is_transit":false,"line":6},{"i_long":106.411216,"transit":false,"line":3,"is_transit":false,"time":3,"distance":2651,"i_lat":-6.33561,"station_name":"Cikoya","station_id":"CKY"},{"time":4,"i_long":106.394373,"line":6,"is_transit":false,"distance":1853,"transit":false,"i_lat":-6.332307,"station_name":"Maja","station_id":"MJ"}],[{"line":5,"time":0,"i_long":106.701612,"station_name":"Kalideres","i_lat":-6.166068,"distance":0,"is_transit":false,"station_id":"KDS","transit":false},{"is_transit":false,"station_name":"Rawa Buaya","i_lat":-6.162758,"i_long":106.723064,"line":5,"station_id":"RW","time":3,"distance":2504,"transit":false},{"distance":1152,"station_id":"BOI","line":5,"is_transit":false,"time":4,"i_lat":-6.159876,"station_name":"Bojongindah","transit":false,"i_long":106.737035},{"distance":2334,"is_transit":false,"station_name":"Taman Kota","transit":false,"station_id":"TKO","i_long":106.756522,"line":5,"i_lat":-6.1587309999999995,"time":2},{"i_lat":-6.161433,"time":2,"station_id":"PSG","is_transit":false,"line":5,"distance":1614,"transit":false,"station_name":"Pesing","i_long":106.771379},{"transit":false,"is_transit":false,"i_lat":-6.162021,"station_name":"Grogol","line":5,"i_long":106.788277,"station_id":"GGL","distance":2036,"time":2},{"i_long":106.800832,"distance":1700,"is_transit":true,"station_name":"Duri","i_lat":-6.155215,"time":3,"line":1,"transit":true,"station_id":"DU"},{"transit":false,"station_name":"Angke","is_transit":false,"station_id":"AK","line":1,"distance":1230,"time":4,"i_long":106.79867,"i_lat":-6.144674},{"line":4,"station_id":"KPB","is_transit":true,"time":9,"transit":true,"station_name":"Kampung Bandan","i_lat":-6.132549,"i_long":106.826365,"distance":4102},{"is_transit":true,"station_id":"JAKK","i_lat":-6.137569,"line":2,"time":3,"distance":1364,"station_name":"Jakarta Kota","transit":true,"i_long":106.812439},{"is_transit":false,"line":2,"station_id":"JAY","i_long":106.820901,"distance":1264,"i_lat":-6.141205,"transit":false,"station_name":"Jayakarta","time":4},{"transit":false,"is_transit":false,"station_id":"MGB","i_lat":-6.149769,"time":2,"i_long":106.82482,"station_name":"Manggabesar","distance":1080,"line":2},{"station_id":"SW","time":2,"transit":false,"station_name":"Sawah Besar","is_transit":false,"i_lat":-6.160725,"line":2,"i_long":106.827103,"distance":906},{"transit":false,"time":2,"line":2,"station_id":"JUA","is_transit":false,"station_name":"Juanda","i_long":106.828284,"distance":1149,"i_lat":-6.166716},{"station_id":"GDD","transit":false,"time":4,"is_transit":false,"i_long":106.832183,"line":2,"i_lat":-6.186295,"distance":2015,"station_name":"Gondangdia"},{"time":3,"distance":1750,"line":2,"i_lat":-6.198556,"station_name":"Cikini","station_id":"CKI","i_long":106.840169,"transit":false,"is_transit":false},{"line":2,"distance":1590,"transit":true,"is_transit":true,"station_id":"MRI","station_name":"Manggarai","i_lat":-6.209883,"time":4,"i_long":106.84912},{"is_transit":false,"line":1,"station_name":"Sudirman","station_id":"SUD","i_lat":-6.202263,"time":4,"i_long":106.822649,"distance":3186,"transit":false},{"i_long":106.819881,"time":1,"i_lat":-6.201433,"station_id":"SUDB","distance":280,"transit":false,"station_name":"Sudirman Baru","is_transit":false,"line":1},{"time":1,"is_transit":false,"line":1,"i_long":106.816351,"distance":471,"station_name":"Karet","i_lat":-6.20132,"station_id":"KAT","transit":false},{"i_long":106.811091,"distance":2029,"i_lat":-6.185545,"time":5,"station_id":"THB","transit":true,"is_transit":true,"station_name":"Tanah Abang","line":1},{"station_name":"Palmerah","distance":3191,"station_id":"PLM","i_long":106.79689,"is_transit":false,"line":6,"transit":false,"i_lat":-6.207404,"time":6},{"time":7,"station_name":"Kebayoran","distance":3737,"i_lat":-6.237242,"station_id":"KBY","transit":false,"i_long":106.780334,"line":6,"is_transit":false},{"time":8,"i_lat":-6.276362,"station_id":"PDJ","distance":6218,"is_transit":false,"transit":false,"station_name":"Pondokranji","i_long":106.74273,"line":6},{"station_id":"JMU","transit":false,"i_lat":-6.288927,"i_long":106.728916,"distance":2179,"time":3,"station_name":"Jurangmangu","is_transit":false,"line":6},{"station_id":"SDM","distance":1994,"is_transit":false,"transit":false,"line":6,"i_lat":-6.296963,"time":4,"station_name":"Sudimara","i_long":106.712277},{"transit":false,"time":6,"is_transit":false,"i_long":106.675475,"i_lat":-6.314823,"station_id":"RU","line":6,"distance":4566,"station_name":"Rawa Buntu"},{"is_transit":false,"time":4,"transit":false,"line":6,"i_lat":-6.319871,"station_id":"SRP","station_name":"Serpong","distance":2413,"i_long":106.66566},{"line":3,"i_lat":-6.32484,"is_transit":false,"distance":1784,"station_id":"CSK","i_long":106.640411,"station_name":"Cisauk","transit":false,"time":4},{"transit":false,"is_transit":false,"i_long":106.617853,"time":4,"station_id":"CC","line":3,"station_name":"Cicayur","distance":2519,"i_lat":-6.329547},{"station_name":"Parung Panjang","station_id":"PRP","i_long":106.568863,"distance":5968,"time":8,"i_lat":-6.3441410000000005,"line":6,"transit":false,"is_transit":false},{"is_transit":false,"station_id":"CJT","station_name":"Cilejit","i_long":106.508482,"transit":false,"distance":7025,"time":9,"i_lat":-6.354349,"line":3},{"station_id":"DAR","i_lat":-6.338021,"i_long":106.491338,"distance":2675,"time":6,"transit":false,"line":0,"station_name":"Daru","is_transit":false},{"time":5,"transit":false,"is_transit":false,"line":6,"distance":3902,"i_long":106.460812,"station_name":"Tenjo","station_id":"TEJ","i_lat":-6.327251},{"distance":2974,"i_long":106.425991,"i_lat":-6.328533,"is_transit":false,"station_name":"Tigaraksa","transit":false,"station_id":"TGS","time":5,"line":6},{"distance":2651,"transit":false,"station_id":"CKY","is_transit":false,"station_name":"Cikoya","time":3,"i_lat":-6.33561,"i_long":106.411216,"line":3},{"station_name":"Maja","i_long":106.394373,"transit":false,"distance":1853,"time":4,"i_lat":-6.332307,"station_id":"MJ","line":6,"is_transit":false}],[{"is_transit":false,"transit":false,"i_lat":-6.166068,"station_name":"Kalideres","i_long":106.701612,"line":5,"time":0,"station_id":"KDS","distance":0},{"transit":false,"station_name":"Rawa Buaya","i_lat":-6.162758,"line":5,"distance":2504,"i_long":106.723064,"station_id":"RW","time":3,"is_transit":false},{"is_transit":false,"time":4,"transit":false,"station_id":"BOI","line":5,"i_lat":-6.159876,"station_name":"Bojongindah","distance":1152,"i_long":106.737035},{"i_long":106.756522,"time":2,"transit":false,"line":5,"is_transit":false,"i_lat":-6.1587309999999995,"station_id":"TKO","station_name":"Taman Kota","distance":2334},{"is_transit":false,"time":2,"station_name":"Pesing","station_id":"PSG","i_lat":-6.161433,"i_long":106.771379,"line":5,"transit":false,"distance":1614},{"station_id":"GGL","distance":2036,"is_transit":false,"station_name":"Grogol","time":2,"transit":false,"i_long":106.788277,"line":5,"i_lat":-6.162021},{"transit":true,"station_id":"DU","distance":1700,"is_transit":true,"line":1,"i_lat":-6.155215,"i_long":106.800832,"station_name":"Duri","time":3},{"station_id":"AK","is_transit":false,"i_long":106.79867,"transit":false,"time":4,"i_lat":-6.144674,"line":1,"station_name":"Angke","distance":1230},{"is_transit":true,"i_long":106.826365,"line":4,"time":9,"station_id":"KPB","i_lat":-6.132549,"station_name":"Kampung Bandan","transit":true,"distance":4102},{"i_lat":-6.14505,"transit":false,"distance":1444,"station_name":"Rajawali","time":3,"i_long":106.836569,"line":11,"station_id":"RJW","is_transit":false},{"line":11,"distance":1901,"time":5,"transit":false,"station_id":"KMO","is_transit":false,"station_name":"Kemayoran","i_lat":-6.161728,"i_long":106.839204},{"station_name":"Pasar Senen","line":11,"is_transit":false,"time":4,"transit":false,"distance":1436,"station_id":"PSE","i_lat":-6.174784,"i_long":106.84368},{"time":8,"transit":false,"is_transit":false,"station_name":"Gang Sentiong","i_long":106.850107,"line":11,"i_lat":-6.185975,"distance":1567,"station_id":"GST"},{"time":1,"transit":false,"i_long":106.855437,"line":11,"distance":973,"station_id":"KMT","is_transit":false,"station_name":"Kramat","i_lat":-6.193792},{"i_lat":-6.209188,"transit":false,"is_transit":false,"time":2,"station_name":"Pondok Jati","distance":1829,"i_long":106.861737,"line":11,"station_id":"POK"},{"station_id":"JNG","transit":true,"i_lat":-6.215091,"i_long":106.86807400000001,"line":1,"is_transit":true,"station_name":"Jatinegara","time":9,"distance":1236},{"i_long":106.858896,"station_id":"MTR","distance":1377,"line":1,"is_transit":false,"transit":false,"station_name":"Matraman","time":2,"i_lat":-6.212485},{"is_transit":false,"time":2,"i_lat":-6.209883,"transit":false,"distance":1275,"station_id":"MRI","station_name":"Manggarai","i_long":106.84912,"line":2},{"distance":3186,"line":1,"station_id":"SUD","is_transit":false,"station_name":"Sudirman","i_lat":-6.202263,"i_long":106.822649,"time":4,"transit":false},{"time":1,"station_name":"Sudirman Baru","distance":280,"line":1,"station_id":"SUDB","i_lat":-6.201433,"i_long":106.819881,"is_transit":false,"transit":false},{"station_id":"KAT","i_lat":-6.20132,"i_long":106.816351,"line":1,"transit":false,"distance":471,"time":1,"station_name":"Karet","is_transit":false},{"line":1,"station_name":"Tanah Abang","distance":2029,"time":5,"transit":true,"i_lat":-6.185545,"station_id":"THB","is_transit":true,"i_long":106.811091},{"station_id":"PLM","i_lat":-6.207404,"transit":false,"i_long":106.79689,"station_name":"Palmerah","distance":3191,"time":6,"line":6,"is_transit":false},{"is_transit":false,"station_id":"KBY","distance":3737,"i_long":106.780334,"line":6,"transit":false,"station_name":"Kebayoran","i_lat":-6.237242,"time":7},{"time":8,"distance":6218,"is_transit":false,"i_long":106.74273,"station_id":"PDJ","station_name":"Pondokranji","line":6,"transit":false,"i_lat":-6.276362},{"i_long":106.728916,"transit":false,"line":6,"station_name":"Jurangmangu","i_lat":-6.288927,"is_transit":false,"distance":2179,"station_id":"JMU","time":3},{"transit":false,"i_long":106.712277,"distance":1994,"station_name":"Sudimara","station_id":"SDM","i_lat":-6.296963,"time":4,"is_transit":false,"line":6},{"is_transit":false,"line":6,"station_id":"RU","transit":false,"time":6,"i_lat":-6.314823,"distance":4566,"i_long":106.675475,"station_name":"Rawa Buntu"},{"station_name":"Serpong","i_lat":-6.319871,"transit":false,"i_long":106.66566,"station_id":"SRP","distance":2413,"time":4,"line":6,"is_transit":false},{"i_long":106.640411,"i_lat":-6.32484,"station_name":"Cisauk","station_id":"CSK","line":3,"distance":1784,"time":4,"transit":false,"is_transit":false},{"is_transit":false,"time":4,"transit":false,"i_lat":-6.329547,"distance":2519,"i_long":106.617853,"line":3,"station_id":"CC","station_name":"Cicayur"},{"station_name":"Parung Panjang","distance":5968,"i_long":106.568863,"i_lat":-6.3441410000000005,"time":8,"line":6,"station_id":"PRP","is_transit":false,"transit":false},{"line":3,"distance":7025,"transit":false,"station_id":"CJT","i_long":106.508482,"is_transit":false,"time":9,"station_name":"Cilejit","i_lat":-6.354349},{"transit":false,"is_transit":false,"i_lat":-6.338021,"distance":2675,"time":6,"line":0,"i_long":106.491338,"station_id":"DAR","station_name":"Daru"},{"time":5,"transit":false,"distance":3902,"i_lat":-6.327251,"i_long":106.460812,"line":6,"is_transit":false,"station_name":"Tenjo","station_id":"TEJ"},{"station_name":"Tigaraksa","is_transit":false,"station_id":"TGS","time":5,"transit":false,"i_lat":-6.328533,"line":6,"distance":2974,"i_long":106.425991},{"distance":2651,"i_lat":-6.33561,"station_id":"CKY","time":3,"i_long":106.411216,"line":3,"transit":false,"station_name":"Cikoya","is_transit":false},{"transit":false,"station_name":"Maja","station_id":"MJ","i_lat":-6.332307,"time":4,"is_transit":false,"i_long":106.394373,"distance":1853,"line":6}]]}