{"data":[[{"time":0,"transit":false,"distance":0,"station_id":"KDS","i_long":106.701612,"i_lat":-6.166068,"station_name":"Kalideres","is_transit":false,"line":5},{"line":5,"time":3,"is_transit":false,"transit":false,"station_id":"RW","station_name":"Rawa Buaya","distance":2504,"i_lat":-6.162758,"i_long":106.723064},{"time":4,"station_name":"Bojongindah","i_lat":-6.159876,"line":5,"distance":1152,"station_id":"BOI","is_transit":false,"transit":false,"i_long":106.737035},{"i_lat":-6.1587309999999995,"time":2,"is_transit":false,"line":5,"i_long":106.756522,"distance":2334,"transit":false,"station_id":"TKO","station_name":"Taman Kota"},{"time":2,"i_lat":-6.161433,"station_name":"Pesing","is_transit":false,"transit":false,"i_long":106.771379,"distance":1614,"station_id":"PSG","line":5},{"transit":false,"station_name":"Grogol","line":5,"station_id":"GRG","is_transit":false,"distance":2036,"i_long":106.788277,"time":2,"i_lat":-6.162021},{"is_transit":true,"i_long":106.800832,"line":1,"transit":true,"i_lat":-6.155215,"station_name":"Duri","time":3,"distance":1700,"station_id":"DU"},{"line":1,"is_transit":false,"i_long":106.79867,"station_name":"Angke","transit":false,"station_id":"AK","distance":1230,"i_lat":-6.144674,"time":4},{"distance":4102,"time":9,"is_transit":true,"i_lat":-6.132549,"station_id":"KPB","station_name":"Kampung Bandan","i_long":106.826365,"line":4,"transit":true},{"i_lat":-6.14505,"line":11,"time":3,"i_long":106.836569,"distance":1444,"station_id":"RJW","is_transit":false,"station_name":"Rajawali","transit":false},{"station_name":"Kemayoran","line":11,"station_id":"KMO","distance":1901,"i_lat":-6.161728,"time":5,"i_long":106.839204,"transit":false,"is_transit":false},{"transit":false,"is_transit":false,"distance":1436,"station_id":"PSE","i_lat":-6.174784,"time":4,"line":11,"station_name":"Pasar Senen","i_long":106.84368},{"is_transit":false,"distance":1567,"line":11,"station_id":"GST","i_long":106.850107,"time":8,"station_name":"Gang Sentiong","transit":false,"i_lat":-6.185975},{"is_transit":false,"i_long":106.855437,"line":11,"station_name":"Kramat","station_id":"KMT","transit":false,"time":1,"i_lat":-6.193792,"distance":973},{"i_long":106.861737,"is_transit":false,"transit":false,"line":11,"distance":1829,"time":2,"station_id":"POK","station_name":"Pondok Jati","i_lat":-6.209188}],[{"i_lat":-6.166068,"station_name":"Kalideres","distance":0,"line":5,"station_id":"KDS","i_long":106.701612,"time":0,"is_transit":false,"transit":false},{"i_lat":-6.162758,"line":5,"station_id":"RW","i_long":106.723064,"is_transit":false,"distance":2504,"time":3,"station_name":"Rawa Buaya","transit":false},{"line":5,"time":4,"distance":1152,"i_long":106.737035,"station_id":"BOI","station_name":"Bojongindah","is_transit":false,"transit":false,"i_lat":-6.159876},{"i_lat":-6.1587309999999995,"station_id":"TKO","time":2,"line":5,"distance":2334,"i_long":106.756522,"station_name":"Taman Kota","is_transit":false,"transit":false},{"line":5,"distance":1614,"time":2,"station_id":"PSG","station_name":"Pesing","transit":false,"i_long":106.771379,"is_transit":false,"i_lat":-6.161433},{"distance":2036,"station_name":"Grogol","station_id":"GRG","i_long":106.788277,"is_transit":false,"line":5,"time":2,"i_lat":-6.162021,"transit":false},{"station_name":"Duri","i_long":106.800832,"line":1,"is_transit":true,"station_id":"DU","transit":true,"i_lat":-6.155215,"time":3,"distance":1700},{"transit":false,"station_id":"THB","i_lat":-6.185545,"is_transit":false,"time":8,"distance":3632,"i_long":106.811091,"station_name":"Tanah Abang","line":1},{"station_name":"Karet","is_transit":false,"transit":false,"time":5,"line":1,"distance":2029,"i_long":106.816351,"i_lat":-6.20132,"station_id":"KAT"},{"i_lat":-6.201433,"station_name":"Sudirman Baru","is_transit":false,"i_long":106.819881,"time":1,"distance":471,"line":1,"station_id":"SUDB","transit":false},{"station_name":"Sudirman","is_transit":false,"transit":false,"line":1,"time":1,"distance":280,"i_lat":-6.202263,"i_long":106.822649,"station_id":"SUD"},{"station_id":"MRI","is_transit":false,"i_lat":-6.209883,"distance":3186,"time":4,"station_name":"Manggarai","transit":false,"i_long":106.84912,"line":2},{"distance":1275,"station_name":"Matraman","is_transit":false,"i_long":106.858896,"transit":false,"station_id":"MTR","time":2,"i_lat":-6.212485,"line":1},{"line":1,"time":8,"distance":1377,"i_lat":-6.215091,"station_id":"JNG","station_name":"Jatinegara","i_long":106.86807400000001,"transit":true,"is_transit":true},{"i_long":106.861737,"station_id":"POK","distance":1236,"line":11,"i_lat":-6.209188,"station_name":"Pondok Jati","is_transit":false,"transit":false,"time":2}],[{"station_id":"KDS","station_name":"Kalideres","distance":0,"line":5,"time":0,"is_transit":false,"i_lat":-6.166068,"transit":false,"i_long":106.701612},{"time":3,"line":5,"transit":false,"distance":2504,"station_id":"RW","i_long":106.723064,"station_name":"Rawa Buaya","i_lat":-6.162758,"is_transit":false},{"station_id":"BOI","i_lat":-6.159876,"time":4,"transit":false,"line":5,"i_long":106.737035,"is_transit":false,"station_name":"Bojongindah","distance":1152},{"station_name":"Taman Kota","transit":false,"distance":2334,"is_transit":false,"i_long":106.756522,"i_lat":-6.1587309999999995,"line":5,"time":2,"station_id":"TKO"},{"i_long":106.771379,"is_transit":false,"distance":1614,"station_id":"PSG","i_lat":-6.161433,"station_name":"Pesing","time":2,"transit":false,"line":5},{"station_id":"GRG","i_long":106.788277,"line":5,"station_name":"Grogol","is_transit":false,"time":2,"transit":false,"i_lat":-6.162021,"distance":2036},{"transit":true,"station_id":"DU","distance":1700,"station_name":"Duri","is_transit":true,"time":3,"i_long":106.800832,"line":1,"i_lat":-6.155215},{"time":4,"i_long":106.79867,"transit":false,"station_name":"Angke","line":1,"station_id":"AK","is_transit":false,"distance":1230,"i_lat":-6.144674},{"distance":4102,"station_name":"Kampung Bandan","i_long":106.826365,"station_id":"KPB","i_lat":-6.132549,"transit":true,"line":4,"time":9,"is_transit":true},{"station_id":"JAKK","time":3,"distance":1364,"station_name":"Jakarta Kota","is_transit":true,"transit":true,"i_long":106.812439,"i_lat":-6.137569,"line":2},{"line":2,"station_id":"JAY","i_lat":-6.141205,"i_long":106.820901,"station_name":"Jayakarta","is_transit":false,"distance":1264,"transit":false,"time":4},{"line":2,"transit":false,"station_id":"MGB","time":2,"distance":1080,"station_name":"Manggabesar","is_transit":false,"i_lat":-6.149769,"i_long":106.82482},{"station_id":"SW","i_lat":-6.160725,"time":2,"distance":906,"transit":false,"station_name":"Sawah Besar","is_transit":false,"i_long":106.827103,"line":2},{"time":2,"transit":false,"i_lat":-6.166716,"is_transit":false,"line":2,"distance":1149,"station_id":"JUA","i_long":106.828284,"station_name":"Juanda"},{"i_long":106.832183,"line":2,"time":4,"transit":false,"is_transit":false,"station_id":"GDD","i_lat":-6.186295,"distance":2015,"station_name":"Gondangdia"},{"station_name":"Cikini","i_long":106.840169,"station_id":"CKI","time":3,"i_lat":-6.198556,"line":2,"is_transit":false,"distance":1750,"transit":false},{"is_transit":true,"i_lat":-6.209883,"station_name":"Manggarai","transit":true,"time":4,"line":2,"i_long":106.84912,"station_id":"MRI","distance":1590},{"transit":false,"station_name":"Matraman","distance":1275,"i_long":106.858896,"is_transit":false,"i_lat":-6.212485,"line":1,"station_id":"MTR","time":2},{"line":1,"i_long":106.86807400000001,"time":8,"transit":true,"i_lat":-6.215091,"station_name":"Jatinegara","is_transit":true,"station_id":"JNG","distance":1377},{"is_transit":false,"line":11,"station_name":"Pondok Jati","station_id":"POK","i_lat":-6.209188,"i_long":106.861737,"distance":1236,"time":2,"transit":false}],[{"i_long":106.701612,"is_transit":false,"time":0,"distance":0,"station_name":"Kalideres","i_lat":-6.166068,"station_id":"KDS","transit":false,"line":5},{"is_transit":false,"time":3,"distance":2504,"i_lat":-6.162758,"station_id":"RW","i_long":106.723064,"transit":false,"line":5,"station_name":"Rawa Buaya"},{"time":4,"distance":1152,"transit":false,"line":5,"i_lat":-6.159876,"is_transit":false,"station_name":"Bojongindah","station_id":"BOI","i_long":106.737035},{"line":5,"is_transit":false,"i_lat":-6.1587309999999995,"distance":2334,"time":2,"station_id":"TKO","transit":false,"station_name":"Taman Kota","i_long":106.756522},{"distance":1614,"station_id":"PSG","line":5,"i_long":106.771379,"transit":false,"time":2,"i_lat":-6.161433,"is_transit":false,"station_name":"Pesing"},{"station_name":"Grogol","line":5,"is_transit":false,"transit":false,"station_id":"GRG","i_long":106.788277,"distance":2036,"time":2,"i_lat":-6.162021},{"is_transit":true,"i_lat":-6.155215,"time":3,"i_long":106.800832,"station_name":"Duri","line":1,"station_id":"DU","transit":true,"distance":1700},{"station_name":"Tanah Abang","i_lat":-6.185545,"time":8,"i_long":106.811091,"distance":3632,"line":1,"station_id":"THB","transit":false,"is_transit":false},{"station_name":"Karet","is_transit":false,"station_id":"KAT","i_lat":-6.20132,"i_long":106.816351,"distance":2029,"time":5,"transit":false,"line":1},{"is_transit":false,"i_lat":-6.201433,"station_id":"SUDB","distance":471,"i_long":106.819881,"transit":false,"line":1,"time":1,"station_name":"Sudirman Baru"},{"station_id":"SUD","transit":false,"station_name":"Sudirman","i_lat":-6.202263,"i_long":106.822649,"distance":280,"time":1,"is_transit":false,"line":1},{"distance":3186,"i_long":106.84912,"time":4,"transit":true,"station_name":"Manggarai","station_id":"MRI","i_lat":-6.209883,"line":2,"is_transit":true},{"transit":false,"distance":1590,"i_lat":-6.198556,"station_id":"CKI","i_long":106.840169,"line":2,"time":4,"is_transit":false,"station_name":"Cikini"},{"line":2,"distance":1750,"station_name":"Gondangdia","station_id":"GDD","i_long":106.832183,"time":3,"is_transit":false,"transit":false,"i_lat":-6.186295},{"line":2,"time":4,"distance":2015,"station_name":"Juanda","i_long":106.828284,"is_transit":false,"station_id":"JUA","transit":false,"i_lat":-6.166716},{"i_long":106.827103,"station_name":"Sawah Besar","is_transit":false,"transit":false,"time":2,"distance":1149,"line":2,"station_id":"SW","i_lat":-6.160725},{"transit":false,"station_name":"Manggabesar","line":2,"station_id":"MGB","i_long":106.82482,"i_lat":-6.149769,"time":2,"distance":906,"is_transit":false},{"i_lat":-6.141205,"is_transit":false,"i_long":106.820901,"distance":1080,"line":2,"station_id":"JAY","station_name":"Jayakarta","time":2,"transit":false},{"transit":true,"station_id":"JAKK","is_transit":true,"distance":1264,"i_lat":-6.137569,"line":2,"station_name":"Jakarta Kota","i_long":106.812439,"time":4},{"time":3,"station_name":"Kampung Bandan","distance":1364,"i_lat":-6.132549,"i_long":106.826365,"transit":true,"line":4,"station_id":"KPB","is_transit":true},{"station_name":"Rajawali","station_id":"RJW","i_lat":-6.14505,"i_long":106.836569,"transit":false,"time":3,"line":11,"is_transit":false,"distance":1444},{"station_id":"KMO","i_lat":-6.161728,"station_name":"Kemayoran","i_long":106.839204,"is_transit":false,"line":11,"time":5,"distance":1901,"transit":false},{"time":4,"station_name":"Pasar Senen","i_lat":-6.174784,"line":11,"transit":false,"station_id":"PSE","is_transit":false,"distance":1436,"i_long":106.84368},{"is_transit":false,"line":11,"station_id":"GST","time":8,"distance":1567,"station_name":"Gang Sentiong","i_lat":-6.185975,"transit":false,"i_long":106.850107},{"station_id":"KMT","i_lat":-6.193792,"distance":973,"i_long":106.855437,"line":11,"station_name":"Kramat","is_transit":false,"time":1,"transit":false},{"i_long":106.861737,"distance":1829,"is_transit":false,"station_name":"Pondok Jati","i_lat":-6.209188,"line":11,"station_id":"POK","transit":false,"time":2}]]}