{"data":[[{"time":0,"distance":0,"i_lat":-6.166068,"station_name":"Kalideres","transit":false,"line":5,"station_id":"KDS","i_long":106.701612,"is_transit":false},{"line":5,"station_name":"Rawa Buaya","i_lat":-6.162758,"station_id":"RW","i_long":106.723064,"is_transit":false,"time":3,"distance":2504,"transit":false},{"station_id":"BOI","i_lat":-6.159876,"time":4,"distance":1152,"i_long":106.737035,"transit":false,"is_transit":false,"line":0,"station_name":"Bojongindah"},{"is_transit":false,"distance":2334,"i_lat":-6.1587309999999995,"i_long":106.756522,"station_id":"TKO","time":2,"station_name":"Taman Kota","transit":false,"line":5},{"is_transit":false,"distance":1614,"station_id":"PSG","i_lat":-6.161433,"transit":false,"station_name":"Pesing","i_long":106.771379,"time":2,"line":5},{"is_transit":false,"station_id":"GGL","time":2,"station_name":"Grogol","i_long":106.788277,"i_lat":-6.162021,"distance":2036,"transit":false,"line":5},{"station_id":"DU","is_transit":true,"i_long":106.800832,"station_name":"Duri","time":3,"distance":1700,"transit":true,"line":1,"i_lat":-6.155215},{"is_transit":true,"i_long":106.811091,"line":1,"time":8,"station_name":"Tanah Abang","transit":false,"distance":3632,"i_lat":-6.185545,"station_id":"THB"},{"i_lat":-6.20132,"i_long":106.816351,"distance":2029,"station_id":"KAT","line":1,"is_transit":false,"time":5,"station_name":"Karet","transit":false},{"line":1,"is_transit":false,"station_id":"SUDB","time":1,"distance":471,"transit":false,"i_lat":-6.201433,"i_long":106.819881,"station_name":"Sudirman Baru"},{"station_name":"Sudirman","transit":false,"i_lat":-6.202263,"time":1,"distance":280,"i_long":106.822649,"station_id":"SUD","is_transit":false,"line":1},{"distance":3186,"i_long":106.84912,"line":0,"station_id":"MRI","is_transit":true,"station_name":"Manggarai","i_lat":-6.209883,"transit":true,"time":4},{"is_transit":false,"i_lat":-6.226659,"distance":2610,"station_name":"Tebet","transit":false,"time":4,"station_id":"TEB","line":2,"i_long":106.857948},{"station_id":"CW","is_transit":false,"station_name":"Cawang","transit":false,"line":0,"distance":1230,"i_lat":-6.242512,"i_long":106.856607,"time":2},{"time":3,"line":0,"transit":false,"station_name":"Duren Kalibata","i_lat":-6.255332,"distance":1546,"is_transit":false,"i_long":106.85449,"station_id":"DRN"},{"distance":824,"is_transit":false,"station_id":"PSMB","i_lat":-6.263214,"line":2,"station_name":"Pasar Minggu Baru","i_long":106.851577,"time":2,"transit":false},{"i_lat":-6.2842400000000005,"line":2,"distance":2380,"station_name":"Pasar Minggu","i_long":106.843999,"station_id":"PSM","is_transit":false,"time":2,"transit":false},{"station_id":"TNT","distance":2820,"transit":false,"i_lat":-6.3080680000000005,"time":4,"station_name":"Tanjung Barat","is_transit":false,"line":2,"i_long":106.838896},{"is_transit":false,"station_name":"Lenteng Agung","distance":2671,"i_long":106.832616,"transit":false,"station_id":"LNA","line":2,"i_lat":-6.330363,"time":3},{"is_transit":false,"i_lat":-6.339291,"i_long":106.834175,"station_id":"UP","station_name":"Univ. Pancasila","line":2,"distance":1029,"transit":false,"time":2}],[{"distance":0,"station_name":"Kalideres","is_transit":false,"i_lat":-6.166068,"station_id":"KDS","line":5,"transit":false,"time":0,"i_long":106.701612},{"is_transit":false,"line":5,"distance":2504,"transit":false,"i_lat":-6.162758,"station_id":"RW","i_long":106.723064,"time":3,"station_name":"Rawa Buaya"},{"is_transit":false,"time":4,"transit":false,"station_id":"BOI","line":0,"station_name":"Bojongindah","i_long":106.737035,"i_lat":-6.159876,"distance":1152},{"i_lat":-6.1587309999999995,"distance":2334,"transit":false,"station_id":"TKO","time":2,"line":5,"is_transit":false,"i_long":106.756522,"station_name":"Taman Kota"},{"distance":1614,"is_transit":false,"line":5,"time":2,"station_name":"Pesing","transit":false,"i_long":106.771379,"station_id":"PSG","i_lat":-6.161433},{"is_transit":false,"time":2,"i_lat":-6.162021,"i_long":106.788277,"station_name":"Grogol","station_id":"GGL","transit":false,"distance":2036,"line":5},{"distance":1700,"transit":true,"station_id":"DU","time":3,"is_transit":true,"i_lat":-6.155215,"line":1,"i_long":106.800832,"station_name":"Duri"},{"line":0,"is_transit":false,"distance":1230,"time":4,"i_lat":-6.144674,"i_long":106.79867,"station_id":"AK","station_name":"Angke","transit":false},{"station_id":"KPB","is_transit":true,"time":9,"i_lat":-6.132549,"i_long":106.826365,"transit":false,"line":0,"distance":4102,"station_name":"Kampung Bandan"},{"line":0,"station_id":"JAKK","time":3,"i_long":106.812439,"transit":true,"distance":1364,"is_transit":true,"station_name":"Jakarta Kota","i_lat":-6.137569},{"station_name":"Jayakarta","transit":false,"i_lat":-6.141205,"line":7,"i_long":106.820901,"station_id":"JAY","time":4,"is_transit":false,"distance":1264},{"station_name":"Manggabesar","distance":1080,"i_lat":-6.149769,"station_id":"MGB","is_transit":false,"time":2,"i_long":106.82482,"line":2,"transit":false},{"is_transit":false,"time":2,"distance":906,"transit":false,"i_lat":-6.160725,"line":2,"station_id":"SW","station_name":"Sawah Besar","i_long":106.827103},{"is_transit":false,"station_id":"JUA","time":2,"line":2,"station_name":"Juanda","i_lat":-6.166716,"distance":1149,"transit":false,"i_long":106.828284},{"i_lat":-6.186295,"i_long":106.832183,"time":4,"distance":2015,"transit":false,"line":2,"is_transit":false,"station_name":"Gondangdia","station_id":"GDD"},{"is_transit":false,"i_lat":-6.198556,"transit":false,"station_id":"CKI","station_name":"Cikini","line":0,"distance":1750,"i_long":106.840169,"time":3},{"time":4,"transit":true,"is_transit":true,"i_lat":-6.209883,"i_long":106.84912,"line":0,"distance":1590,"station_name":"Manggarai","station_id":"MRI"},{"distance":2610,"is_transit":false,"station_name":"Tebet","station_id":"TEB","i_lat":-6.226659,"time":4,"i_long":106.857948,"line":2,"transit":false},{"distance":1230,"line":0,"station_id":"CW","time":2,"station_name":"Cawang","is_transit":false,"transit":false,"i_lat":-6.242512,"i_long":106.856607},{"distance":1546,"is_transit":false,"time":3,"i_long":106.85449,"line":0,"station_name":"Duren Kalibata","station_id":"DRN","transit":false,"i_lat":-6.255332},{"station_name":"Pasar Minggu Baru","i_long":106.851577,"line":2,"is_transit":false,"distance":824,"i_lat":-6.263214,"station_id":"PSMB","transit":false,"time":2},{"transit":false,"line":2,"station_id":"PSM","distance":2380,"time":2,"i_lat":-6.2842400000000005,"station_name":"Pasar Minggu","i_long":106.843999,"is_transit":false},{"time":4,"is_transit":false,"i_lat":-6.3080680000000005,"station_id":"TNT","station_name":"Tanjung Barat","transit":false,"i_long":106.838896,"line":2,"distance":2820},{"i_long":106.832616,"time":3,"station_name":"Lenteng Agung","transit":false,"i_lat":-6.330363,"line":2,"distance":2671,"station_id":"LNA","is_transit":false},{"distance":1029,"transit":false,"station_id":"UP","i_lat":-6.339291,"i_long":106.834175,"line":2,"station_name":"Univ. Pancasila","is_transit":false,"time":2}],[{"time":0,"i_long":106.701612,"i_lat":-6.166068,"line":5,"station_id":"KDS","is_transit":false,"station_name":"Kalideres","transit":false,"distance":0},{"transit":false,"station_id":"RW","line":5,"station_name":"Rawa Buaya","is_transit":false,"distance":2504,"i_lat":-6.162758,"i_long":106.723064,"time":3},{"transit":false,"distance":1152,"station_id":"BOI","is_transit":false,"i_lat":-6.159876,"line":0,"station_name":"Bojongindah","i_long":106.737035,"time":4},{"transit":false,"distance":2334,"i_long":106.756522,"station_id":"TKO","time":2,"i_lat":-6.1587309999999995,"line":5,"station_name":"Taman Kota","is_transit":false},{"line":5,"station_id":"PSG","time":2,"distance":1614,"station_name":"Pesing","is_transit":false,"i_long":106.771379,"transit":false,"i_lat":-6.161433},{"station_id":"GGL","is_transit":false,"station_name":"Grogol","i_lat":-6.162021,"line":5,"time":2,"distance":2036,"i_long":106.788277,"transit":false},{"is_transit":true,"station_name":"Duri","i_lat":-6.155215,"time":3,"distance":1700,"i_long":106.800832,"line":1,"transit":true,"station_id":"DU"},{"is_transit":false,"line":0,"i_long":106.79867,"distance":1230,"i_lat":-6.144674,"transit":false,"station_id":"AK","time":4,"station_name":"Angke"},{"i_long":106.826365,"station_name":"Kampung Bandan","is_transit":true,"distance":4102,"time":9,"i_lat":-6.132549,"line":0,"transit":true,"station_id":"KPB"},{"station_id":"RJW","time":3,"i_long":106.836569,"i_lat":-6.14505,"is_transit":false,"distance":1444,"station_name":"Rajawali","transit":false,"line":11},{"i_lat":-6.161728,"station_id":"KMO","station_name":"Kemayoran","is_transit":false,"time":5,"transit":false,"i_long":106.839204,"line":11,"distance":1901},{"i_long":106.84368,"distance":1436,"is_transit":false,"transit":false,"time":4,"line":11,"station_id":"PSE","i_lat":-6.174784,"station_name":"Pasar Senen"},{"line":11,"is_transit":false,"transit":false,"i_lat":-6.185975,"time":8,"station_id":"GST","station_name":"Gang Sentiong","i_long":106.850107,"distance":1567},{"i_lat":-6.193792,"i_long":106.855437,"distance":973,"time":1,"station_id":"KMT","station_name":"Kramat","transit":false,"line":11,"is_transit":false},{"line":11,"is_transit":false,"i_long":106.861737,"station_id":"POK","transit":false,"time":2,"distance":1829,"station_name":"Pondok Jati","i_lat":-6.209188},{"transit":true,"station_name":"Jatinegara","i_long":106.86807400000001,"station_id":"JNG","time":9,"distance":1236,"line":0,"i_lat":-6.215091,"is_transit":true},{"transit":false,"distance":1377,"line":1,"i_lat":-6.212485,"station_id":"MTR","i_long":106.858896,"station_name":"Matraman","time":2,"is_transit":false},{"i_lat":-6.209883,"i_long":106.84912,"station_name":"Manggarai","distance":1275,"transit":true,"time":2,"is_transit":true,"station_id":"MRI","line":0},{"time":4,"station_name":"Tebet","is_transit":false,"distance":2610,"i_lat":-6.226659,"transit":false,"station_id":"TEB","line":2,"i_long":106.857948},{"station_name":"Cawang","is_transit":false,"i_lat":-6.242512,"i_long":106.856607,"distance":1230,"transit":false,"time":2,"line":0,"station_id":"CW"},{"line":0,"is_transit":false,"station_id":"DRN","transit":false,"time":3,"i_lat":-6.255332,"distance":1546,"i_long":106.85449,"station_name":"Duren Kalibata"},{"station_id":"PSMB","i_lat":-6.263214,"time":2,"transit":false,"i_long":106.851577,"is_transit":false,"line":2,"distance":824,"station_name":"Pasar Minggu Baru"},{"station_id":"PSM","distance":2380,"station_name":"Pasar Minggu","transit":false,"time":2,"is_transit":false,"i_lat":-6.2842400000000005,"line":2,"i_long":106.843999},{"station_name":"Tanjung Barat","i_lat":-6.3080680000000005,"time":4,"line":2,"is_transit":false,"distance":2820,"i_long":106.838896,"station_id":"TNT","transit":false},{"time":3,"station_id":"LNA","distance":2671,"i_long":106.832616,"transit":false,"is_transit":false,"station_name":"Lenteng Agung","i_lat":-6.330363,"line":2},{"is_transit":false,"station_name":"Univ. Pancasila","transit":false,"i_long":106.834175,"distance":1029,"time":2,"line":2,"station_id":"UP","i_lat":-6.339291}]]}