{"data":[[{"transit":false,"station_name":"Kalideres","distance":0,"i_lat":-6.166068,"is_transit":false,"time":0,"line":5,"station_id":"KDS","i_long":106.701612},{"is_transit":false,"i_lat":-6.162758,"time":3,"i_long":106.723064,"station_id":"RW","distance":2504,"transit":false,"station_name":"Rawa Buaya","line":5},{"transit":false,"station_name":"Bojongindah","is_transit":false,"i_lat":-6.159876,"distance":1152,"station_id":"BOI","time":4,"i_long":106.737035,"line":0},{"is_transit":false,"transit":false,"line":5,"distance":2334,"i_long":106.756522,"station_name":"Taman Kota","station_id":"TKO","time":2,"i_lat":-6.1587309999999995},{"is_transit":false,"time":2,"station_name":"Pesing","i_lat":-6.161433,"station_id":"PSG","distance":1614,"i_long":106.771379,"line":5,"transit":false},{"station_id":"GGL","station_name":"Grogol","time":2,"i_lat":-6.162021,"transit":false,"line":5,"is_transit":false,"distance":2036,"i_long":106.788277},{"i_lat":-6.155215,"is_transit":true,"station_name":"Duri","transit":true,"line":1,"distance":1700,"station_id":"DU","i_long":106.800832,"time":3},{"is_transit":true,"i_long":106.811091,"time":8,"i_lat":-6.185545,"station_id":"THB","station_name":"Tanah Abang","transit":true,"distance":3632,"line":1},{"station_id":"PLM","time":6,"transit":false,"i_long":106.79689,"is_transit":false,"distance":3191,"line":6,"i_lat":-6.207404,"station_name":"Palmerah"},{"station_id":"KBY","distance":3737,"time":7,"i_long":106.780334,"transit":false,"line":6,"station_name":"Kebayoran","i_lat":-6.237242,"is_transit":false},{"transit":false,"station_id":"PDJ","i_lat":-6.276362,"time":8,"distance":6218,"i_long":106.74273,"station_name":"Pondokranji","is_transit":false,"line":6},{"is_transit":false,"i_long":106.728916,"station_id":"JMU","i_lat":-6.288927,"station_name":"Jurangmangu","line":6,"transit":false,"time":3,"distance":2179},{"station_id":"SDM","is_transit":false,"station_name":"Sudimara","transit":false,"i_lat":-6.296963,"i_long":106.712277,"line":6,"time":4,"distance":1994},{"i_long":106.675475,"is_transit":false,"station_id":"RU","line":6,"time":6,"distance":4566,"station_name":"Rawa Buntu","transit":false,"i_lat":-6.314823},{"distance":2413,"transit":false,"station_id":"SRP","i_lat":-6.319871,"i_long":106.66566,"line":6,"is_transit":false,"station_name":"Serpong","time":4},{"i_lat":-6.32484,"time":4,"distance":1784,"station_id":"CSK","station_name":"Cisauk","is_transit":false,"i_long":106.640411,"transit":false,"line":0},{"station_id":"CC","transit":false,"time":4,"i_long":106.617853,"distance":2519,"i_lat":-6.329547,"station_name":"Cicayur","is_transit":false,"line":0},{"station_id":"PRP","time":8,"line":6,"station_name":"Parung Panjang","is_transit":false,"i_lat":-6.3441410000000005,"transit":false,"distance":5968,"i_long":106.568863},{"time":9,"distance":7025,"i_long":106.508482,"line":0,"is_transit":false,"station_name":"Cilejit","transit":false,"i_lat":-6.354349,"station_id":"CJT"},{"i_long":106.491338,"i_lat":-6.338021,"is_transit":false,"station_name":"Daru","distance":2675,"line":0,"transit":false,"station_id":"DAR","time":6},{"is_transit":false,"transit":false,"i_long":106.460812,"i_lat":-6.327251,"station_id":"TEJ","time":5,"station_name":"Tenjo","line":6,"distance":3902},{"distance":2974,"line":6,"transit":false,"is_transit":false,"i_long":106.425991,"i_lat":-6.328533,"station_id":"TGS","station_name":"Tigaraksa","time":5},{"station_id":"CKY","transit":false,"i_long":106.411216,"is_transit":false,"line":0,"i_lat":-6.33561,"station_name":"Cikoya","time":3,"distance":2651}],[{"line":5,"is_transit":false,"time":0,"transit":false,"i_long":106.701612,"station_name":"Kalideres","i_lat":-6.166068,"station_id":"KDS","distance":0},{"i_lat":-6.162758,"distance":2504,"i_long":106.723064,"time":3,"station_id":"RW","transit":false,"line":5,"station_name":"Rawa Buaya","is_transit":false},{"station_name":"Bojongindah","distance":1152,"transit":false,"time":4,"i_long":106.737035,"line":0,"is_transit":false,"i_lat":-6.159876,"station_id":"BOI"},{"i_long":106.756522,"station_id":"TKO","distance":2334,"i_lat":-6.1587309999999995,"station_name":"Taman Kota","transit":false,"is_transit":false,"time":2,"line":5},{"line":5,"distance":1614,"station_id":"PSG","i_lat":-6.161433,"station_name":"Pesing","is_transit":false,"transit":false,"time":2,"i_long":106.771379},{"line":5,"is_transit":false,"distance":2036,"i_long":106.788277,"time":2,"station_name":"Grogol","i_lat":-6.162021,"station_id":"GGL","transit":false},{"station_id":"DU","station_name":"Duri","is_transit":true,"time":3,"distance":1700,"transit":true,"i_long":106.800832,"i_lat":-6.155215,"line":1},{"station_name":"Angke","i_lat":-6.144674,"station_id":"AK","line":0,"is_transit":false,"distance":1230,"i_long":106.79867,"time":4,"transit":false},{"transit":false,"line":0,"i_long":106.826365,"is_transit":true,"station_id":"KPB","i_lat":-6.132549,"station_name":"Kampung Bandan","distance":4102,"time":9},{"station_id":"JAKK","transit":true,"i_lat":-6.137569,"is_transit":true,"distance":1364,"line":0,"station_name":"Jakarta Kota","i_long":106.812439,"time":3},{"i_lat":-6.141205,"station_id":"JAY","i_long":106.820901,"station_name":"Jayakarta","distance":1264,"transit":false,"time":4,"is_transit":false,"line":7},{"time":2,"distance":1080,"i_lat":-6.149769,"station_id":"MGB","i_long":106.82482,"station_name":"Manggabesar","transit":false,"is_transit":false,"line":2},{"station_id":"SW","i_lat":-6.160725,"i_long":106.827103,"station_name":"Sawah Besar","is_transit":false,"time":2,"line":2,"distance":906,"transit":false},{"station_name":"Juanda","transit":false,"time":2,"station_id":"JUA","i_lat":-6.166716,"i_long":106.828284,"line":2,"is_transit":false,"distance":1149},{"is_transit":false,"i_lat":-6.186295,"i_long":106.832183,"transit":false,"distance":2015,"line":2,"station_name":"Gondangdia","station_id":"GDD","time":4},{"i_lat":-6.198556,"i_long":106.840169,"station_id":"CKI","station_name":"Cikini","is_transit":false,"time":3,"line":0,"transit":false,"distance":1750},{"transit":true,"i_long":106.84912,"is_transit":true,"time":4,"i_lat":-6.209883,"line":0,"station_name":"Manggarai","distance":1590,"station_id":"MRI"},{"time":4,"i_long":106.822649,"line":1,"distance":3186,"is_transit":false,"station_id":"SUD","transit":false,"station_name":"Sudirman","i_lat":-6.202263},{"i_lat":-6.201433,"station_name":"Sudirman Baru","line":1,"is_transit":false,"distance":280,"i_long":106.819881,"transit":false,"station_id":"SUDB","time":1},{"distance":471,"line":1,"time":1,"i_long":106.816351,"station_name":"Karet","station_id":"KAT","is_transit":false,"transit":false,"i_lat":-6.20132},{"time":5,"transit":true,"distance":2029,"i_lat":-6.185545,"line":1,"is_transit":true,"station_id":"THB","station_name":"Tanah Abang","i_long":106.811091},{"is_transit":false,"distance":3191,"line":6,"time":6,"station_id":"PLM","transit":false,"i_long":106.79689,"i_lat":-6.207404,"station_name":"Palmerah"},{"station_name":"Kebayoran","i_long":106.780334,"i_lat":-6.237242,"line":6,"distance":3737,"station_id":"KBY","transit":false,"is_transit":false,"time":7},{"station_id":"PDJ","time":8,"station_name":"Pondokranji","i_lat":-6.276362,"is_transit":false,"transit":false,"distance":6218,"i_long":106.74273,"line":6},{"is_transit":false,"station_name":"Jurangmangu","i_long":106.728916,"distance":2179,"station_id":"JMU","time":3,"transit":false,"line":6,"i_lat":-6.288927},{"time":4,"line":6,"i_lat":-6.296963,"station_id":"SDM","station_name":"Sudimara","distance":1994,"is_transit":false,"transit":false,"i_long":106.712277},{"is_transit":false,"distance":4566,"i_long":106.675475,"line":6,"i_lat":-6.314823,"time":6,"station_name":"Rawa Buntu","transit":false,"station_id":"RU"},{"station_name":"Serpong","distance":2413,"is_transit":false,"time":4,"line":6,"transit":false,"i_long":106.66566,"station_id":"SRP","i_lat":-6.319871},{"distance":1784,"line":0,"is_transit":false,"i_lat":-6.32484,"station_name":"Cisauk","time":4,"station_id":"CSK","transit":false,"i_long":106.640411},{"is_transit":false,"distance":2519,"transit":false,"i_lat":-6.329547,"station_id":"CC","station_name":"Cicayur","time":4,"i_long":106.617853,"line":0},{"line":6,"i_long":106.568863,"station_id":"PRP","station_name":"Parung Panjang","transit":false,"i_lat":-6.3441410000000005,"is_transit":false,"distance":5968,"time":8},{"station_name":"Cilejit","is_transit":false,"station_id":"CJT","i_long":106.508482,"time":9,"transit":false,"distance":7025,"i_lat":-6.354349,"line":0},{"time":6,"is_transit":false,"line":0,"i_lat":-6.338021,"transit":false,"distance":2675,"station_id":"DAR","i_long":106.491338,"station_name":"Daru"},{"distance":3902,"station_id":"TEJ","line":6,"station_name":"Tenjo","i_lat":-6.327251,"i_long":106.460812,"time":5,"transit":false,"is_transit":false},{"line":6,"i_lat":-6.328533,"is_transit":false,"transit":false,"time":5,"distance":2974,"i_long":106.425991,"station_name":"Tigaraksa","station_id":"TGS"},{"station_name":"Cikoya","time":3,"is_transit":false,"i_lat":-6.33561,"line":0,"station_id":"CKY","distance":2651,"transit":false,"i_long":106.411216}],[{"line":5,"is_transit":false,"time":0,"transit":false,"station_name":"Kalideres","i_lat":-6.166068,"distance":0,"i_long":106.701612,"station_id":"KDS"},{"i_lat":-6.162758,"transit":false,"is_transit":false,"i_long":106.723064,"time":3,"distance":2504,"station_id":"RW","station_name":"Rawa Buaya","line":5},{"line":0,"time":4,"i_lat":-6.159876,"station_id":"BOI","is_transit":false,"distance":1152,"station_name":"Bojongindah","transit":false,"i_long":106.737035},{"i_long":106.756522,"station_name":"Taman Kota","i_lat":-6.1587309999999995,"line":5,"station_id":"TKO","transit":false,"time":2,"is_transit":false,"distance":2334},{"distance":1614,"station_name":"Pesing","transit":false,"station_id":"PSG","line":5,"is_transit":false,"i_long":106.771379,"time":2,"i_lat":-6.161433},{"distance":2036,"i_long":106.788277,"station_id":"GGL","time":2,"is_transit":false,"i_lat":-6.162021,"station_name":"Grogol","transit":false,"line":5},{"transit":true,"time":3,"distance":1700,"station_name":"Duri","i_lat":-6.155215,"is_transit":true,"station_id":"DU","i_long":106.800832,"line":1},{"is_transit":false,"i_long":106.79867,"line":0,"i_lat":-6.144674,"station_name":"Angke","time":4,"transit":false,"distance":1230,"station_id":"AK"},{"distance":4102,"station_name":"Kampung Bandan","line":0,"station_id":"KPB","i_lat":-6.132549,"time":9,"transit":true,"i_long":106.826365,"is_transit":true},{"transit":false,"i_lat":-6.14505,"is_transit":false,"distance":1444,"time":3,"station_name":"Rajawali","line":11,"station_id":"RJW","i_long":106.836569},{"i_lat":-6.161728,"i_long":106.839204,"line":11,"is_transit":false,"distance":1901,"transit":false,"time":5,"station_id":"KMO","station_name":"Kemayoran"},{"line":11,"i_lat":-6.174784,"station_id":"PSE","is_transit":false,"transit":false,"distance":1436,"station_name":"Pasar Senen","time":4,"i_long":106.84368},{"transit":false,"station_id":"GST","i_lat":-6.185975,"is_transit":false,"distance":1567,"i_long":106.850107,"station_name":"Gang Sentiong","time":8,"line":11},{"i_long":106.855437,"time":1,"is_transit":false,"distance":973,"line":11,"station_id":"KMT","station_name":"Kramat","transit":false,"i_lat":-6.193792},{"station_id":"POK","i_long":106.861737,"transit":false,"i_lat":-6.209188,"distance":1829,"line":11,"is_transit":false,"time":2,"station_name":"Pondok Jati"},{"line":0,"time":9,"station_name":"Jatinegara","distance":1236,"is_transit":true,"i_long":106.86807400000001,"i_lat":-6.215091,"station_id":"JNG","transit":true},{"line":1,"transit":false,"distance":1377,"station_id":"MTR","is_transit":false,"station_name":"Matraman","i_lat":-6.212485,"time":2,"i_long":106.858896},{"transit":false,"time":2,"distance":1275,"i_lat":-6.209883,"station_name":"Manggarai","line":0,"is_transit":true,"station_id":"MRI","i_long":106.84912},{"time":4,"distance":3186,"transit":false,"i_lat":-6.202263,"line":1,"is_transit":false,"station_name":"Sudirman","station_id":"SUD","i_long":106.822649},{"is_transit":false,"distance":280,"station_id":"SUDB","line":1,"time":1,"i_lat":-6.201433,"station_name":"Sudirman Baru","i_long":106.819881,"transit":false},{"station_name":"Karet","i_lat":-6.20132,"i_long":106.816351,"line":1,"station_id":"KAT","time":1,"transit":false,"is_transit":false,"distance":471},{"transit":true,"is_transit":true,"time":5,"distance":2029,"station_name":"Tanah Abang","i_lat":-6.185545,"line":1,"station_id":"THB","i_long":106.811091},{"station_name":"Palmerah","distance":3191,"transit":false,"i_long":106.79689,"line":6,"station_id":"PLM","time":6,"is_transit":false,"i_lat":-6.207404},{"transit":false,"line":6,"time":7,"i_long":106.780334,"station_id":"KBY","distance":3737,"i_lat":-6.237242,"is_transit":false,"station_name":"Kebayoran"},{"i_lat":-6.276362,"station_name":"Pondokranji","is_transit":false,"distance":6218,"time":8,"transit":false,"line":6,"station_id":"PDJ","i_long":106.74273},{"transit":false,"line":6,"distance":2179,"station_name":"Jurangmangu","is_transit":false,"station_id":"JMU","i_long":106.728916,"time":3,"i_lat":-6.288927},{"station_name":"Sudimara","station_id":"SDM","distance":1994,"i_lat":-6.296963,"time":4,"transit":false,"line":6,"is_transit":false,"i_long":106.712277},{"station_name":"Rawa Buntu","transit":false,"i_long":106.675475,"station_id":"RU","time":6,"line":6,"i_lat":-6.314823,"is_transit":false,"distance":4566},{"transit":false,"station_name":"Serpong","i_lat":-6.319871,"line":6,"i_long":106.66566,"time":4,"distance":2413,"is_transit":false,"station_id":"SRP"},{"i_lat":-6.32484,"time":4,"is_transit":false,"station_id":"CSK","distance":1784,"station_name":"Cisauk","line":0,"transit":false,"i_long":106.640411},{"i_long":106.617853,"line":0,"station_id":"CC","distance":2519,"station_name":"Cicayur","is_transit":false,"transit":false,"time":4,"i_lat":-6.329547},{"station_id":"PRP","line":6,"station_name":"Parung Panjang","transit":false,"is_transit":false,"time":8,"i_lat":-6.3441410000000005,"distance":5968,"i_long":106.568863},{"i_lat":-6.354349,"station_name":"Cilejit","i_long":106.508482,"is_transit":false,"time":9,"transit":false,"station_id":"CJT","line":0,"distance":7025},{"is_transit":false,"station_name":"Daru","i_long":106.491338,"station_id":"DAR","time":6,"line":0,"i_lat":-6.338021,"distance":2675,"transit":false},{"station_name":"Tenjo","distance":3902,"transit":false,"i_lat":-6.327251,"station_id":"TEJ","i_long":106.460812,"time":5,"line":6,"is_transit":false},{"transit":false,"i_lat":-6.328533,"is_transit":false,"line":6,"time":5,"station_id":"TGS","station_name":"Tigaraksa","distance":2974,"i_long":106.425991},{"line":0,"transit":false,"is_transit":false,"station_id":"CKY","i_long":106.411216,"distance":2651,"i_lat":-6.33561,"station_name":"Cikoya","time":3}]]}