{"data":[[{"time":0,"i_lat":-6.166068,"i_long":106.701612,"station_id":"KDS","station_name":"Kalideres","is_transit":false,"distance":0,"transit":false,"line":5},{"station_name":"Poris","transit":false,"i_lat":-6.169933,"line":5,"distance":2548,"is_transit":false,"i_long":106.679458,"time":3,"station_id":"PI"},{"line":5,"is_transit":false,"time":3,"distance":1834,"station_id":"BPR","transit":false,"station_name":"Batuceper","i_lat":-6.171811,"i_long":106.665036},{"transit":false,"time":3,"line":5,"station_name":"Tanah Tinggi","is_transit":false,"i_lat":-6.17331,"station_id":"TTI","i_long":106.64657,"distance":2028},{"transit":false,"i_long":106.632761,"i_lat":-6.176583,"station_name":"Tangerang","is_transit":false,"station_id":"TNG","line":5,"time":3,"distance":1547}]]}