{"data":[[{"line":5,"station_name":"Kalideres","distance":0,"i_lat":-6.166068,"transit":false,"is_transit":false,"station_id":"KDS","time":0,"i_long":106.701612},{"station_name":"Rawa Buaya","i_lat":-6.162758,"transit":false,"line":5,"is_transit":false,"time":3,"distance":2504,"i_long":106.723064,"station_id":"RW"},{"time":4,"station_name":"Bojongindah","distance":1152,"transit":false,"is_transit":false,"i_long":106.737035,"i_lat":-6.159876,"station_id":"BOI","line":0},{"distance":2334,"station_name":"Taman Kota","i_lat":-6.1587309999999995,"i_long":106.756522,"transit":false,"is_transit":false,"line":5,"time":2,"station_id":"TKO"},{"transit":false,"line":5,"i_lat":-6.161433,"distance":1614,"is_transit":false,"station_id":"PSG","time":2,"station_name":"Pesing","i_long":106.771379},{"i_lat":-6.162021,"distance":2036,"transit":false,"line":5,"time":2,"is_transit":false,"station_name":"Grogol","i_long":106.788277,"station_id":"GGL"},{"transit":true,"is_transit":true,"i_lat":-6.155215,"station_id":"DU","distance":1700,"i_long":106.800832,"station_name":"Duri","time":3,"line":1},{"is_transit":false,"station_id":"AK","time":4,"i_long":106.79867,"station_name":"Angke","transit":false,"distance":1230,"i_lat":-6.144674,"line":0},{"line":0,"station_id":"KPB","transit":false,"is_transit":true,"distance":4102,"station_name":"Kampung Bandan","i_lat":-6.132549,"i_long":106.826365,"time":9}],[{"distance":0,"station_name":"Kalideres","line":5,"i_lat":-6.166068,"station_id":"KDS","i_long":106.701612,"time":0,"transit":false,"is_transit":false},{"i_lat":-6.162758,"i_long":106.723064,"time":3,"transit":false,"is_transit":false,"line":5,"distance":2504,"station_id":"RW","station_name":"Rawa Buaya"},{"station_name":"Bojongindah","line":0,"transit":false,"station_id":"BOI","time":4,"distance":1152,"is_transit":false,"i_lat":-6.159876,"i_long":106.737035},{"station_name":"Taman Kota","station_id":"TKO","is_transit":false,"i_lat":-6.1587309999999995,"i_long":106.756522,"transit":false,"line":5,"distance":2334,"time":2},{"station_id":"PSG","is_transit":false,"transit":false,"time":2,"station_name":"Pesing","i_long":106.771379,"i_lat":-6.161433,"distance":1614,"line":5},{"station_name":"Grogol","transit":false,"is_transit":false,"distance":2036,"station_id":"GGL","line":5,"time":2,"i_lat":-6.162021,"i_long":106.788277},{"distance":1700,"transit":true,"time":3,"i_lat":-6.155215,"is_transit":true,"i_long":106.800832,"line":1,"station_id":"DU","station_name":"Duri"},{"station_id":"THB","distance":3632,"station_name":"Tanah Abang","transit":false,"line":1,"i_long":106.811091,"time":8,"i_lat":-6.185545,"is_transit":true},{"is_transit":false,"i_lat":-6.20132,"time":5,"station_id":"KAT","station_name":"Karet","i_long":106.816351,"line":1,"distance":2029,"transit":false},{"is_transit":false,"station_id":"SUDB","distance":471,"station_name":"Sudirman Baru","transit":false,"i_lat":-6.201433,"time":1,"i_long":106.819881,"line":1},{"time":1,"station_name":"Sudirman","is_transit":false,"i_lat":-6.202263,"distance":280,"station_id":"SUD","transit":false,"i_long":106.822649,"line":1},{"transit":true,"i_long":106.84912,"is_transit":true,"i_lat":-6.209883,"line":0,"station_id":"MRI","station_name":"Manggarai","time":4,"distance":3186},{"station_name":"Cikini","i_lat":-6.198556,"station_id":"CKI","time":4,"distance":1590,"is_transit":false,"transit":false,"line":0,"i_long":106.840169},{"station_name":"Gondangdia","i_long":106.832183,"distance":1750,"station_id":"GDD","is_transit":false,"i_lat":-6.186295,"transit":false,"time":3,"line":2},{"line":2,"station_name":"Juanda","distance":2015,"station_id":"JUA","i_lat":-6.166716,"i_long":106.828284,"transit":false,"time":4,"is_transit":false},{"distance":1149,"transit":false,"is_transit":false,"station_id":"SW","i_lat":-6.160725,"station_name":"Sawah Besar","line":2,"time":2,"i_long":106.827103},{"station_name":"Manggabesar","time":2,"i_long":106.82482,"line":2,"distance":906,"station_id":"MGB","is_transit":false,"i_lat":-6.149769,"transit":false},{"distance":1080,"is_transit":false,"line":7,"station_name":"Jayakarta","station_id":"JAY","i_long":106.820901,"i_lat":-6.141205,"time":2,"transit":false},{"distance":1264,"line":0,"station_name":"Jakarta Kota","i_long":106.812439,"station_id":"JAKK","transit":true,"time":4,"i_lat":-6.137569,"is_transit":true},{"transit":false,"time":3,"i_lat":-6.132549,"station_name":"Kampung Bandan","line":0,"is_transit":true,"station_id":"KPB","distance":1364,"i_long":106.826365}],[{"transit":false,"line":5,"station_name":"Kalideres","time":0,"is_transit":false,"distance":0,"i_lat":-6.166068,"i_long":106.701612,"station_id":"KDS"},{"line":5,"transit":false,"i_long":106.723064,"distance":2504,"i_lat":-6.162758,"station_id":"RW","station_name":"Rawa Buaya","time":3,"is_transit":false},{"line":0,"i_lat":-6.159876,"i_long":106.737035,"station_name":"Bojongindah","is_transit":false,"time":4,"transit":false,"station_id":"BOI","distance":1152},{"station_id":"TKO","distance":2334,"i_lat":-6.1587309999999995,"station_name":"Taman Kota","is_transit":false,"i_long":106.756522,"line":5,"transit":false,"time":2},{"distance":1614,"is_transit":false,"station_id":"PSG","transit":false,"station_name":"Pesing","i_lat":-6.161433,"time":2,"i_long":106.771379,"line":5},{"station_name":"Grogol","is_transit":false,"distance":2036,"i_long":106.788277,"time":2,"station_id":"GGL","line":5,"transit":false,"i_lat":-6.162021},{"i_lat":-6.155215,"station_name":"Duri","time":3,"line":1,"distance":1700,"station_id":"DU","transit":true,"i_long":106.800832,"is_transit":true},{"station_id":"THB","is_transit":true,"station_name":"Tanah Abang","transit":false,"distance":3632,"i_lat":-6.185545,"line":1,"time":8,"i_long":106.811091},{"i_lat":-6.20132,"is_transit":false,"time":5,"i_long":106.816351,"distance":2029,"line":1,"station_name":"Karet","transit":false,"station_id":"KAT"},{"time":1,"is_transit":false,"station_id":"SUDB","i_lat":-6.201433,"transit":false,"distance":471,"station_name":"Sudirman Baru","i_long":106.819881,"line":1},{"i_long":106.822649,"i_lat":-6.202263,"station_id":"SUD","line":1,"is_transit":false,"station_name":"Sudirman","distance":280,"transit":false,"time":1},{"station_name":"Manggarai","time":4,"station_id":"MRI","distance":3186,"line":0,"is_transit":true,"i_long":106.84912,"transit":false,"i_lat":-6.209883},{"is_transit":false,"distance":1275,"i_long":106.858896,"i_lat":-6.212485,"station_id":"MTR","time":2,"line":1,"station_name":"Matraman","transit":false},{"i_long":106.86807400000001,"time":8,"station_name":"Jatinegara","distance":1377,"is_transit":true,"line":0,"station_id":"JNG","transit":true,"i_lat":-6.215091},{"i_lat":-6.209188,"station_id":"POK","transit":false,"i_long":106.861737,"line":11,"is_transit":false,"station_name":"Pondok Jati","time":2,"distance":1236},{"i_lat":-6.193792,"distance":1829,"transit":false,"line":11,"is_transit":false,"station_name":"Kramat","time":2,"station_id":"KMT","i_long":106.855437},{"station_name":"Gang Sentiong","time":1,"station_id":"GST","i_lat":-6.185975,"i_long":106.850107,"transit":false,"line":11,"distance":973,"is_transit":false},{"time":8,"transit":false,"i_long":106.84368,"distance":1567,"i_lat":-6.174784,"station_id":"PSE","station_name":"Pasar Senen","is_transit":false,"line":11},{"is_transit":false,"line":11,"i_lat":-6.161728,"time":4,"distance":1436,"i_long":106.839204,"station_id":"KMO","transit":false,"station_name":"Kemayoran"},{"station_name":"Rajawali","transit":false,"is_transit":false,"time":5,"i_long":106.836569,"line":11,"i_lat":-6.14505,"station_id":"RJW","distance":1901},{"station_id":"KPB","transit":false,"time":3,"distance":1444,"i_lat":-6.132549,"line":0,"is_transit":true,"station_name":"Kampung Bandan","i_long":106.826365}]]}