{"data":[[{"line":5,"time":0,"transit":false,"i_long":106.701612,"distance":0,"station_name":"Kalideres","i_lat":-6.166068,"station_id":"KDS","is_transit":false},{"i_long":106.723064,"line":5,"is_transit":false,"time":3,"transit":false,"station_id":"RW","distance":2504,"i_lat":-6.162758,"station_name":"Rawa Buaya"},{"station_name":"Bojongindah","i_long":106.737035,"i_lat":-6.159876,"time":4,"line":5,"distance":1152,"is_transit":false,"station_id":"BOI","transit":false},{"i_long":106.756522,"is_transit":false,"line":5,"distance":2334,"station_id":"TKO","transit":false,"time":2,"i_lat":-6.1587309999999995,"station_name":"Taman Kota"},{"station_name":"Pesing","station_id":"PSG","transit":false,"i_long":106.771379,"distance":1614,"is_transit":false,"i_lat":-6.161433,"line":5,"time":2},{"i_lat":-6.162021,"station_id":"GGL","station_name":"Grogol","i_long":106.788277,"transit":false,"is_transit":false,"line":5,"time":2,"distance":2036},{"i_lat":-6.155215,"is_transit":true,"station_name":"Duri","time":3,"station_id":"DU","distance":1700,"transit":true,"line":1,"i_long":106.800832},{"i_lat":-6.144674,"station_name":"Angke","time":4,"i_long":106.79867,"transit":false,"distance":1230,"is_transit":false,"station_id":"AK","line":1},{"i_long":106.826365,"i_lat":-6.132549,"station_id":"KPB","station_name":"Kampung Bandan","transit":true,"distance":4102,"line":4,"is_transit":true,"time":9},{"i_lat":-6.137569,"time":3,"transit":true,"station_id":"JAKK","is_transit":true,"distance":1364,"i_long":106.812439,"line":2,"station_name":"Jakarta Kota"},{"line":2,"time":4,"station_name":"Jayakarta","distance":1264,"transit":false,"station_id":"JAY","is_transit":false,"i_long":106.820901,"i_lat":-6.141205}],[{"station_id":"KDS","i_long":106.701612,"distance":0,"i_lat":-6.166068,"line":5,"station_name":"Kalideres","is_transit":false,"transit":false,"time":0},{"transit":false,"station_name":"Rawa Buaya","distance":2504,"station_id":"RW","is_transit":false,"line":5,"i_long":106.723064,"time":3,"i_lat":-6.162758},{"station_name":"Bojongindah","distance":1152,"is_transit":false,"time":4,"transit":false,"station_id":"BOI","i_lat":-6.159876,"i_long":106.737035,"line":5},{"transit":false,"station_id":"TKO","is_transit":false,"time":2,"i_lat":-6.1587309999999995,"distance":2334,"station_name":"Taman Kota","i_long":106.756522,"line":5},{"time":2,"i_lat":-6.161433,"transit":false,"is_transit":false,"line":5,"station_name":"Pesing","distance":1614,"station_id":"PSG","i_long":106.771379},{"transit":false,"distance":2036,"station_name":"Grogol","line":5,"i_lat":-6.162021,"is_transit":false,"station_id":"GGL","time":2,"i_long":106.788277},{"distance":1700,"time":3,"station_id":"DU","i_lat":-6.155215,"i_long":106.800832,"is_transit":true,"line":1,"station_name":"Duri","transit":true},{"time":8,"transit":false,"i_long":106.811091,"is_transit":false,"line":1,"i_lat":-6.185545,"station_id":"THB","distance":3632,"station_name":"Tanah Abang"},{"transit":false,"station_name":"Karet","is_transit":false,"i_lat":-6.20132,"station_id":"KAT","time":5,"distance":2029,"line":1,"i_long":106.816351},{"transit":false,"time":1,"i_long":106.819881,"line":1,"station_id":"SUDB","is_transit":false,"i_lat":-6.201433,"distance":471,"station_name":"Sudirman Baru"},{"distance":280,"station_id":"SUD","transit":false,"i_long":106.822649,"i_lat":-6.202263,"is_transit":false,"station_name":"Sudirman","line":1,"time":1},{"time":4,"transit":true,"line":2,"station_name":"Manggarai","station_id":"MRI","is_transit":true,"i_long":106.84912,"i_lat":-6.209883,"distance":3186},{"station_id":"CKI","station_name":"Cikini","is_transit":false,"i_lat":-6.198556,"i_long":106.840169,"line":2,"transit":false,"time":4,"distance":1590},{"time":3,"i_lat":-6.186295,"station_id":"GDD","transit":false,"i_long":106.832183,"line":2,"station_name":"Gondangdia","distance":1750,"is_transit":false},{"time":4,"i_long":106.828284,"station_id":"JUA","station_name":"Juanda","line":2,"i_lat":-6.166716,"is_transit":false,"distance":2015,"transit":false},{"station_id":"SW","i_long":106.827103,"transit":false,"i_lat":-6.160725,"line":2,"time":2,"distance":1149,"station_name":"Sawah Besar","is_transit":false},{"i_lat":-6.149769,"time":2,"distance":906,"line":2,"station_id":"MGB","transit":false,"is_transit":false,"i_long":106.82482,"station_name":"Manggabesar"},{"time":2,"transit":false,"is_transit":false,"line":2,"station_id":"JAY","distance":1080,"station_name":"Jayakarta","i_lat":-6.141205,"i_long":106.820901}],[{"distance":0,"line":5,"time":0,"i_lat":-6.166068,"i_long":106.701612,"station_name":"Kalideres","transit":false,"is_transit":false,"station_id":"KDS"},{"transit":false,"i_lat":-6.162758,"i_long":106.723064,"station_id":"RW","distance":2504,"is_transit":false,"station_name":"Rawa Buaya","line":5,"time":3},{"station_name":"Bojongindah","i_long":106.737035,"line":5,"is_transit":false,"transit":false,"station_id":"BOI","i_lat":-6.159876,"time":4,"distance":1152},{"distance":2334,"time":2,"is_transit":false,"transit":false,"line":5,"station_name":"Taman Kota","i_lat":-6.1587309999999995,"i_long":106.756522,"station_id":"TKO"},{"line":5,"is_transit":false,"i_lat":-6.161433,"time":2,"distance":1614,"station_name":"Pesing","transit":false,"station_id":"PSG","i_long":106.771379},{"i_lat":-6.162021,"i_long":106.788277,"time":2,"is_transit":false,"transit":false,"distance":2036,"station_name":"Grogol","station_id":"GGL","line":5},{"station_name":"Duri","i_long":106.800832,"is_transit":true,"distance":1700,"transit":true,"time":3,"i_lat":-6.155215,"line":1,"station_id":"DU"},{"distance":3632,"is_transit":false,"i_lat":-6.185545,"station_name":"Tanah Abang","station_id":"THB","i_long":106.811091,"time":8,"transit":false,"line":1},{"transit":false,"station_id":"KAT","i_long":106.816351,"time":5,"is_transit":false,"line":1,"distance":2029,"station_name":"Karet","i_lat":-6.20132},{"is_transit":false,"time":1,"transit":false,"i_long":106.819881,"station_id":"SUDB","i_lat":-6.201433,"line":1,"distance":471,"station_name":"Sudirman Baru"},{"i_lat":-6.202263,"station_id":"SUD","is_transit":false,"transit":false,"i_long":106.822649,"line":1,"time":1,"station_name":"Sudirman","distance":280},{"is_transit":false,"station_id":"MRI","line":2,"time":4,"distance":3186,"transit":false,"station_name":"Manggarai","i_long":106.84912,"i_lat":-6.209883},{"distance":1275,"station_id":"MTR","is_transit":false,"time":2,"station_name":"Matraman","i_long":106.858896,"line":1,"transit":false,"i_lat":-6.212485},{"line":1,"i_long":106.86807400000001,"is_transit":true,"time":8,"distance":1377,"transit":true,"i_lat":-6.215091,"station_name":"Jatinegara","station_id":"JNG"},{"i_lat":-6.209188,"i_long":106.861737,"time":2,"station_name":"Pondok Jati","station_id":"POK","is_transit":false,"distance":1236,"line":11,"transit":false},{"time":2,"station_name":"Kramat","station_id":"KMT","i_lat":-6.193792,"transit":false,"i_long":106.855437,"line":11,"is_transit":false,"distance":1829},{"transit":false,"i_lat":-6.185975,"station_id":"GST","time":1,"distance":973,"is_transit":false,"station_name":"Gang Sentiong","i_long":106.850107,"line":11},{"station_id":"PSE","time":8,"transit":false,"distance":1567,"line":11,"station_name":"Pasar Senen","i_lat":-6.174784,"i_long":106.84368,"is_transit":false},{"station_name":"Kemayoran","is_transit":false,"time":4,"i_lat":-6.161728,"transit":false,"station_id":"KMO","line":11,"distance":1436,"i_long":106.839204},{"is_transit":false,"transit":false,"i_lat":-6.14505,"distance":1901,"line":11,"time":5,"station_id":"RJW","station_name":"Rajawali","i_long":106.836569},{"i_lat":-6.132549,"i_long":106.826365,"line":4,"is_transit":true,"distance":1444,"time":3,"transit":true,"station_name":"Kampung Bandan","station_id":"KPB"},{"is_transit":true,"station_id":"JAKK","transit":true,"station_name":"Jakarta Kota","i_long":106.812439,"line":2,"time":3,"distance":1364,"i_lat":-6.137569},{"station_id":"JAY","line":2,"time":4,"i_lat":-6.141205,"i_long":106.820901,"station_name":"Jayakarta","distance":1264,"transit":false,"is_transit":false}],[{"station_id":"KDS","time":0,"distance":0,"i_long":106.701612,"station_name":"Kalideres","i_lat":-6.166068,"line":5,"transit":false,"is_transit":false},{"station_id":"RW","station_name":"Rawa Buaya","line":5,"is_transit":false,"distance":2504,"transit":false,"time":3,"i_lat":-6.162758,"i_long":106.723064},{"i_lat":-6.159876,"line":5,"station_id":"BOI","transit":false,"distance":1152,"i_long":106.737035,"is_transit":false,"time":4,"station_name":"Bojongindah"},{"station_name":"Taman Kota","is_transit":false,"station_id":"TKO","line":5,"distance":2334,"time":2,"i_long":106.756522,"transit":false,"i_lat":-6.1587309999999995},{"time":2,"is_transit":false,"transit":false,"i_lat":-6.161433,"station_id":"PSG","station_name":"Pesing","i_long":106.771379,"distance":1614,"line":5},{"distance":2036,"i_lat":-6.162021,"line":5,"time":2,"station_id":"GGL","station_name":"Grogol","transit":false,"i_long":106.788277,"is_transit":false},{"i_lat":-6.155215,"line":1,"station_id":"DU","distance":1700,"time":3,"station_name":"Duri","transit":true,"is_transit":true,"i_long":106.800832},{"transit":false,"i_long":106.79867,"line":1,"i_lat":-6.144674,"station_name":"Angke","time":4,"station_id":"AK","is_transit":false,"distance":1230},{"is_transit":true,"time":9,"station_id":"KPB","i_long":106.826365,"line":4,"distance":4102,"transit":true,"i_lat":-6.132549,"station_name":"Kampung Bandan"},{"station_id":"RJW","station_name":"Rajawali","line":11,"i_long":106.836569,"i_lat":-6.14505,"is_transit":false,"distance":1444,"transit":false,"time":3},{"line":11,"i_long":106.839204,"transit":false,"distance":1901,"station_id":"KMO","is_transit":false,"station_name":"Kemayoran","i_lat":-6.161728,"time":5},{"station_name":"Pasar Senen","station_id":"PSE","time":4,"line":11,"i_long":106.84368,"distance":1436,"is_transit":false,"transit":false,"i_lat":-6.174784},{"i_lat":-6.185975,"is_transit":false,"transit":false,"station_id":"GST","time":8,"distance":1567,"line":11,"station_name":"Gang Sentiong","i_long":106.850107},{"station_id":"KMT","station_name":"Kramat","time":1,"transit":false,"i_lat":-6.193792,"i_long":106.855437,"line":11,"is_transit":false,"distance":973},{"i_lat":-6.209188,"transit":false,"distance":1829,"station_id":"POK","time":2,"is_transit":false,"station_name":"Pondok Jati","i_long":106.861737,"line":11},{"distance":1236,"transit":true,"i_long":106.86807400000001,"is_transit":true,"i_lat":-6.215091,"line":1,"station_id":"JNG","time":9,"station_name":"Jatinegara"},{"station_name":"Matraman","i_lat":-6.212485,"transit":false,"station_id":"MTR","i_long":106.858896,"is_transit":false,"time":2,"line":1,"distance":1377},{"time":2,"transit":true,"line":2,"i_long":106.84912,"station_name":"Manggarai","distance":1275,"i_lat":-6.209883,"station_id":"MRI","is_transit":true},{"line":2,"i_lat":-6.198556,"is_transit":false,"time":4,"station_name":"Cikini","i_long":106.840169,"station_id":"CKI","transit":false,"distance":1590},{"i_long":106.832183,"station_id":"GDD","station_name":"Gondangdia","transit":false,"line":2,"is_transit":false,"time":3,"i_lat":-6.186295,"distance":1750},{"is_transit":false,"line":2,"time":4,"distance":2015,"station_id":"JUA","i_lat":-6.166716,"station_name":"Juanda","transit":false,"i_long":106.828284},{"station_id":"SW","station_name":"Sawah Besar","line":2,"is_transit":false,"time":2,"distance":1149,"i_lat":-6.160725,"transit":false,"i_long":106.827103},{"i_long":106.82482,"station_name":"Manggabesar","distance":906,"i_lat":-6.149769,"line":2,"is_transit":false,"transit":false,"time":2,"station_id":"MGB"},{"station_id":"JAY","i_long":106.820901,"line":2,"is_transit":false,"i_lat":-6.141205,"distance":1080,"transit":false,"time":2,"station_name":"Jayakarta"}]]}