{"data":[[{"is_transit":false,"station_id":"KDS","i_long":106.701612,"transit":false,"time":0,"line":5,"distance":0,"station_name":"Kalideres","i_lat":-6.166068},{"i_long":106.723064,"distance":2504,"i_lat":-6.162758,"station_name":"Rawa Buaya","transit":false,"line":5,"station_id":"RW","time":3,"is_transit":false},{"distance":1152,"is_transit":false,"i_long":106.737035,"station_id":"BOI","station_name":"Bojongindah","time":4,"transit":false,"i_lat":-6.159876,"line":5},{"is_transit":false,"i_long":106.756522,"station_id":"TKO","station_name":"Taman Kota","transit":false,"line":5,"i_lat":-6.1587309999999995,"time":2,"distance":2334},{"line":5,"time":2,"distance":1614,"station_name":"Pesing","transit":false,"i_lat":-6.161433,"i_long":106.771379,"is_transit":false,"station_id":"PSG"},{"transit":false,"line":5,"i_lat":-6.162021,"station_id":"GGL","station_name":"Grogol","i_long":106.788277,"distance":2036,"time":2,"is_transit":false}]]}