{"data":[[{"time":0,"station_name":"Kalideres","line":5,"transit":false,"is_transit":false,"i_lat":-6.166068,"distance":0,"station_id":"KDS","i_long":106.701612},{"is_transit":false,"time":3,"station_id":"RW","transit":false,"station_name":"Rawa Buaya","i_long":106.723064,"distance":2504,"line":5,"i_lat":-6.162758},{"is_transit":false,"station_name":"Bojongindah","distance":1152,"transit":false,"time":4,"i_lat":-6.159876,"i_long":106.737035,"station_id":"BOI","line":5},{"time":2,"distance":2334,"transit":false,"station_name":"Taman Kota","line":5,"i_long":106.756522,"station_id":"TKO","is_transit":false,"i_lat":-6.1587309999999995},{"transit":false,"i_lat":-6.161433,"is_transit":false,"line":5,"station_name":"Pesing","station_id":"PSG","distance":1614,"time":2,"i_long":106.771379},{"station_id":"GGL","time":2,"i_lat":-6.162021,"i_long":106.788277,"line":5,"is_transit":false,"distance":2036,"transit":false,"station_name":"Grogol"},{"is_transit":true,"time":3,"station_id":"DU","i_long":106.800832,"i_lat":-6.155215,"distance":1700,"line":1,"station_name":"Duri","transit":true},{"distance":1230,"transit":false,"i_long":106.79867,"i_lat":-6.144674,"is_transit":false,"line":1,"time":4,"station_id":"AK","station_name":"Angke"},{"time":9,"line":4,"station_id":"KPB","station_name":"Kampung Bandan","transit":true,"i_long":106.826365,"i_lat":-6.132549,"is_transit":true,"distance":4102},{"station_id":"RJW","station_name":"Rajawali","is_transit":false,"transit":false,"time":3,"i_lat":-6.14505,"i_long":106.836569,"distance":1444,"line":11},{"time":5,"station_name":"Kemayoran","is_transit":false,"transit":false,"i_lat":-6.161728,"line":11,"distance":1901,"i_long":106.839204,"station_id":"KMO"},{"line":11,"i_lat":-6.174784,"transit":false,"station_id":"PSE","i_long":106.84368,"time":4,"station_name":"Pasar Senen","distance":1436,"is_transit":false},{"transit":false,"time":8,"is_transit":false,"distance":1567,"station_id":"GST","station_name":"Gang Sentiong","i_long":106.850107,"i_lat":-6.185975,"line":11},{"is_transit":false,"time":1,"i_lat":-6.193792,"line":11,"station_name":"Kramat","distance":973,"transit":false,"station_id":"KMT","i_long":106.855437},{"i_lat":-6.209188,"station_id":"POK","station_name":"Pondok Jati","i_long":106.861737,"distance":1829,"is_transit":false,"transit":false,"time":2,"line":11}],[{"transit":false,"line":5,"station_id":"KDS","station_name":"Kalideres","is_transit":false,"time":0,"distance":0,"i_lat":-6.166068,"i_long":106.701612},{"time":3,"station_name":"Rawa Buaya","station_id":"RW","distance":2504,"i_lat":-6.162758,"is_transit":false,"i_long":106.723064,"line":5,"transit":false},{"i_lat":-6.159876,"station_id":"BOI","station_name":"Bojongindah","i_long":106.737035,"is_transit":false,"transit":false,"distance":1152,"time":4,"line":5},{"station_id":"TKO","station_name":"Taman Kota","i_long":106.756522,"time":2,"distance":2334,"is_transit":false,"transit":false,"i_lat":-6.1587309999999995,"line":5},{"transit":false,"station_name":"Pesing","time":2,"i_lat":-6.161433,"i_long":106.771379,"distance":1614,"line":5,"is_transit":false,"station_id":"PSG"},{"station_id":"GGL","time":2,"i_long":106.788277,"i_lat":-6.162021,"distance":2036,"transit":false,"is_transit":false,"station_name":"Grogol","line":5},{"is_transit":true,"distance":1700,"transit":true,"station_name":"Duri","i_long":106.800832,"time":3,"line":1,"i_lat":-6.155215,"station_id":"DU"},{"is_transit":false,"distance":3632,"station_id":"THB","time":8,"station_name":"Tanah Abang","i_lat":-6.185545,"i_long":106.811091,"transit":false,"line":1},{"transit":false,"station_id":"KAT","distance":2029,"time":5,"i_long":106.816351,"is_transit":false,"station_name":"Karet","i_lat":-6.20132,"line":1},{"distance":471,"station_name":"Sudirman Baru","is_transit":false,"time":1,"i_lat":-6.201433,"transit":false,"i_long":106.819881,"station_id":"SUDB","line":1},{"distance":280,"is_transit":false,"station_id":"SUD","station_name":"Sudirman","i_lat":-6.202263,"transit":false,"time":1,"i_long":106.822649,"line":1},{"distance":3186,"station_id":"MRI","transit":false,"i_long":106.84912,"i_lat":-6.209883,"station_name":"Manggarai","is_transit":false,"line":2,"time":4},{"i_long":106.858896,"is_transit":false,"time":2,"distance":1275,"station_id":"MTR","line":1,"station_name":"Matraman","i_lat":-6.212485,"transit":false},{"time":8,"i_lat":-6.215091,"is_transit":true,"line":1,"station_name":"Jatinegara","transit":true,"station_id":"JNG","distance":1377,"i_long":106.86807400000001},{"line":11,"station_name":"Pondok Jati","time":2,"i_lat":-6.209188,"i_long":106.861737,"transit":false,"is_transit":false,"distance":1236,"station_id":"POK"}],[{"i_long":106.701612,"is_transit":false,"i_lat":-6.166068,"line":5,"station_id":"KDS","transit":false,"time":0,"distance":0,"station_name":"Kalideres"},{"transit":false,"distance":2504,"is_transit":false,"i_long":106.723064,"station_id":"RW","i_lat":-6.162758,"time":3,"line":5,"station_name":"Rawa Buaya"},{"time":4,"is_transit":false,"distance":1152,"i_lat":-6.159876,"i_long":106.737035,"station_name":"Bojongindah","station_id":"BOI","line":5,"transit":false},{"time":2,"line":5,"distance":2334,"is_transit":false,"station_id":"TKO","i_lat":-6.1587309999999995,"transit":false,"i_long":106.756522,"station_name":"Taman Kota"},{"i_lat":-6.161433,"is_transit":false,"distance":1614,"station_id":"PSG","time":2,"i_long":106.771379,"station_name":"Pesing","line":5,"transit":false},{"station_id":"GGL","station_name":"Grogol","distance":2036,"time":2,"is_transit":false,"i_lat":-6.162021,"line":5,"transit":false,"i_long":106.788277},{"i_lat":-6.155215,"time":3,"line":1,"station_id":"DU","is_transit":true,"transit":true,"distance":1700,"station_name":"Duri","i_long":106.800832},{"time":4,"i_lat":-6.144674,"station_id":"AK","is_transit":false,"station_name":"Angke","i_long":106.79867,"distance":1230,"line":1,"transit":false},{"is_transit":true,"time":9,"transit":true,"distance":4102,"station_name":"Kampung Bandan","i_lat":-6.132549,"station_id":"KPB","i_long":106.826365,"line":4},{"is_transit":true,"station_id":"JAKK","station_name":"Jakarta Kota","line":2,"i_long":106.812439,"transit":true,"distance":1364,"time":3,"i_lat":-6.137569},{"i_lat":-6.141205,"station_name":"Jayakarta","distance":1264,"line":2,"station_id":"JAY","i_long":106.820901,"is_transit":false,"transit":false,"time":4},{"transit":false,"distance":1080,"time":2,"line":2,"is_transit":false,"i_long":106.82482,"station_id":"MGB","station_name":"Manggabesar","i_lat":-6.149769},{"distance":906,"station_id":"SW","is_transit":false,"transit":false,"time":2,"i_long":106.827103,"i_lat":-6.160725,"station_name":"Sawah Besar","line":2},{"distance":1149,"is_transit":false,"station_id":"JUA","station_name":"Juanda","i_long":106.828284,"transit":false,"time":2,"i_lat":-6.166716,"line":2},{"i_long":106.832183,"distance":2015,"station_id":"GDD","time":4,"is_transit":false,"transit":false,"station_name":"Gondangdia","i_lat":-6.186295,"line":2},{"station_name":"Cikini","i_lat":-6.198556,"transit":false,"is_transit":false,"distance":1750,"station_id":"CKI","time":3,"i_long":106.840169,"line":2},{"i_long":106.84912,"line":2,"time":4,"station_id":"MRI","is_transit":true,"transit":true,"i_lat":-6.209883,"distance":1590,"station_name":"Manggarai"},{"i_long":106.858896,"station_id":"MTR","transit":false,"i_lat":-6.212485,"time":2,"is_transit":false,"distance":1275,"station_name":"Matraman","line":1},{"is_transit":true,"station_id":"JNG","time":8,"distance":1377,"i_lat":-6.215091,"i_long":106.86807400000001,"line":1,"station_name":"Jatinegara","transit":true},{"line":11,"is_transit":false,"time":2,"transit":false,"station_name":"Pondok Jati","distance":1236,"station_id":"POK","i_long":106.861737,"i_lat":-6.209188}],[{"is_transit":false,"i_lat":-6.166068,"time":0,"distance":0,"i_long":106.701612,"transit":false,"station_name":"Kalideres","line":5,"station_id":"KDS"},{"station_name":"Rawa Buaya","is_transit":false,"time":3,"i_long":106.723064,"transit":false,"station_id":"RW","distance":2504,"i_lat":-6.162758,"line":5},{"i_long":106.737035,"line":5,"time":4,"distance":1152,"station_id":"BOI","is_transit":false,"transit":false,"i_lat":-6.159876,"station_name":"Bojongindah"},{"station_id":"TKO","i_lat":-6.1587309999999995,"time":2,"i_long":106.756522,"transit":false,"line":5,"distance":2334,"is_transit":false,"station_name":"Taman Kota"},{"time":2,"station_id":"PSG","station_name":"Pesing","is_transit":false,"distance":1614,"transit":false,"i_lat":-6.161433,"i_long":106.771379,"line":5},{"station_name":"Grogol","line":5,"transit":false,"station_id":"GGL","time":2,"distance":2036,"i_long":106.788277,"is_transit":false,"i_lat":-6.162021},{"i_lat":-6.155215,"station_name":"Duri","station_id":"DU","time":3,"transit":true,"line":1,"i_long":106.800832,"is_transit":true,"distance":1700},{"is_transit":false,"time":8,"line":1,"distance":3632,"i_long":106.811091,"i_lat":-6.185545,"station_id":"THB","station_name":"Tanah Abang","transit":false},{"station_id":"KAT","is_transit":false,"i_lat":-6.20132,"i_long":106.816351,"time":5,"station_name":"Karet","distance":2029,"line":1,"transit":false},{"time":1,"transit":false,"i_long":106.819881,"distance":471,"is_transit":false,"station_name":"Sudirman Baru","station_id":"SUDB","i_lat":-6.201433,"line":1},{"distance":280,"station_id":"SUD","i_long":106.822649,"line":1,"time":1,"transit":false,"station_name":"Sudirman","i_lat":-6.202263,"is_transit":false},{"time":4,"distance":3186,"i_long":106.84912,"transit":true,"is_transit":true,"line":2,"station_id":"MRI","station_name":"Manggarai","i_lat":-6.209883},{"is_transit":false,"i_long":106.840169,"i_lat":-6.198556,"transit":false,"station_name":"Cikini","station_id":"CKI","time":4,"distance":1590,"line":2},{"i_long":106.832183,"transit":false,"time":3,"is_transit":false,"station_id":"GDD","station_name":"Gondangdia","distance":1750,"i_lat":-6.186295,"line":2},{"station_id":"JUA","is_transit":false,"i_lat":-6.166716,"time":4,"line":2,"transit":false,"station_name":"Juanda","i_long":106.828284,"distance":2015},{"distance":1149,"station_name":"Sawah Besar","station_id":"SW","i_lat":-6.160725,"line":2,"is_transit":false,"transit":false,"time":2,"i_long":106.827103},{"station_id":"MGB","time":2,"station_name":"Manggabesar","i_lat":-6.149769,"i_long":106.82482,"is_transit":false,"distance":906,"transit":false,"line":2},{"station_id":"JAY","i_long":106.820901,"distance":1080,"transit":false,"station_name":"Jayakarta","is_transit":false,"i_lat":-6.141205,"line":2,"time":2},{"station_id":"JAKK","is_transit":true,"station_name":"Jakarta Kota","i_lat":-6.137569,"i_long":106.812439,"line":2,"transit":true,"distance":1264,"time":4},{"is_transit":true,"i_long":106.826365,"station_id":"KPB","station_name":"Kampung Bandan","distance":1364,"i_lat":-6.132549,"time":3,"transit":true,"line":4},{"station_name":"Rajawali","transit":false,"distance":1444,"line":11,"is_transit":false,"time":3,"station_id":"RJW","i_long":106.836569,"i_lat":-6.14505},{"i_long":106.839204,"line":11,"distance":1901,"station_name":"Kemayoran","is_transit":false,"time":5,"station_id":"KMO","transit":false,"i_lat":-6.161728},{"station_id":"PSE","distance":1436,"is_transit":false,"transit":false,"time":4,"station_name":"Pasar Senen","i_lat":-6.174784,"line":11,"i_long":106.84368},{"distance":1567,"station_id":"GST","transit":false,"is_transit":false,"i_lat":-6.185975,"time":8,"station_name":"Gang Sentiong","i_long":106.850107,"line":11},{"is_transit":false,"transit":false,"i_long":106.855437,"line":11,"i_lat":-6.193792,"time":1,"distance":973,"station_id":"KMT","station_name":"Kramat"},{"is_transit":false,"station_id":"POK","i_long":106.861737,"transit":false,"i_lat":-6.209188,"line":11,"distance":1829,"station_name":"Pondok Jati","time":2}]]}