{"data":[[{"distance":0,"i_lat":-6.166068,"i_long":106.701612,"station_name":"Kalideres","transit":false,"line":5,"time":0,"station_id":"KDS","is_transit":false},{"station_name":"Rawa Buaya","station_id":"RW","time":3,"transit":false,"i_lat":-6.162758,"i_long":106.723064,"is_transit":false,"distance":2504,"line":5},{"i_lat":-6.159876,"distance":1152,"station_id":"BOI","transit":false,"is_transit":false,"station_name":"Bojongindah","time":4,"i_long":106.737035,"line":5},{"time":2,"line":5,"station_name":"Taman Kota","is_transit":false,"i_long":106.756522,"transit":false,"distance":2334,"i_lat":-6.1587309999999995,"station_id":"TKO"},{"transit":false,"is_transit":false,"time":2,"station_name":"Pesing","station_id":"PSG","distance":1614,"i_lat":-6.161433,"i_long":106.771379,"line":5},{"distance":2036,"time":2,"is_transit":false,"i_long":106.788277,"i_lat":-6.162021,"station_name":"Grogol","transit":false,"line":5,"station_id":"GRG"},{"i_lat":-6.155215,"time":3,"station_name":"Duri","transit":true,"line":1,"i_long":106.800832,"distance":1700,"station_id":"DU","is_transit":true},{"station_id":"THB","line":1,"time":8,"distance":3632,"station_name":"Tanah Abang","i_lat":-6.185545,"is_transit":false,"i_long":106.811091,"transit":false},{"station_id":"KAT","station_name":"Karet","line":1,"is_transit":false,"transit":false,"i_long":106.816351,"distance":2029,"i_lat":-6.20132,"time":5},{"i_lat":-6.201433,"distance":471,"time":1,"transit":false,"line":1,"i_long":106.819881,"station_id":"SUDB","station_name":"Sudirman Baru","is_transit":false}],[{"station_name":"Kalideres","line":5,"station_id":"KDS","i_lat":-6.166068,"is_transit":false,"distance":0,"time":0,"i_long":106.701612,"transit":false},{"time":3,"is_transit":false,"station_name":"Rawa Buaya","line":5,"i_lat":-6.162758,"i_long":106.723064,"distance":2504,"station_id":"RW","transit":false},{"is_transit":false,"distance":1152,"station_name":"Bojongindah","station_id":"BOI","i_long":106.737035,"transit":false,"i_lat":-6.159876,"time":4,"line":5},{"is_transit":false,"time":2,"station_id":"TKO","i_long":106.756522,"station_name":"Taman Kota","transit":false,"i_lat":-6.1587309999999995,"line":5,"distance":2334},{"line":5,"i_long":106.771379,"station_name":"Pesing","i_lat":-6.161433,"distance":1614,"station_id":"PSG","is_transit":false,"time":2,"transit":false},{"station_id":"GRG","distance":2036,"station_name":"Grogol","is_transit":false,"i_long":106.788277,"line":5,"time":2,"transit":false,"i_lat":-6.162021},{"transit":true,"i_long":106.800832,"distance":1700,"is_transit":true,"i_lat":-6.155215,"line":1,"station_id":"DU","station_name":"Duri","time":3},{"time":4,"station_id":"AK","station_name":"Angke","distance":1230,"line":1,"is_transit":false,"i_lat":-6.144674,"i_long":106.79867,"transit":false},{"i_lat":-6.132549,"time":9,"station_id":"KPB","line":4,"station_name":"Kampung Bandan","distance":4102,"transit":true,"i_long":106.826365,"is_transit":true},{"station_id":"JAKK","transit":true,"time":3,"station_name":"Jakarta Kota","i_lat":-6.137569,"line":2,"i_long":106.812439,"distance":1364,"is_transit":true},{"transit":false,"line":2,"station_id":"JAY","time":4,"station_name":"Jayakarta","is_transit":false,"i_lat":-6.141205,"i_long":106.820901,"distance":1264},{"station_name":"Manggabesar","i_lat":-6.149769,"i_long":106.82482,"line":2,"distance":1080,"is_transit":false,"time":2,"station_id":"MGB","transit":false},{"i_lat":-6.160725,"i_long":106.827103,"distance":906,"time":2,"transit":false,"line":2,"station_id":"SW","station_name":"Sawah Besar","is_transit":false},{"time":2,"transit":false,"distance":1149,"i_long":106.828284,"station_id":"JUA","station_name":"Juanda","i_lat":-6.166716,"line":2,"is_transit":false},{"transit":false,"is_transit":false,"station_id":"GDD","distance":2015,"station_name":"Gondangdia","i_long":106.832183,"line":2,"time":4,"i_lat":-6.186295},{"transit":false,"station_name":"Cikini","i_lat":-6.198556,"time":3,"i_long":106.840169,"line":2,"distance":1750,"station_id":"CKI","is_transit":false},{"i_lat":-6.209883,"i_long":106.84912,"is_transit":true,"station_id":"MRI","line":2,"time":4,"distance":1590,"station_name":"Manggarai","transit":true},{"i_long":106.822649,"line":1,"is_transit":false,"time":4,"station_id":"SUD","distance":3186,"i_lat":-6.202263,"transit":false,"station_name":"Sudirman"},{"station_name":"Sudirman Baru","station_id":"SUDB","i_long":106.819881,"transit":false,"time":1,"line":1,"i_lat":-6.201433,"distance":280,"is_transit":false}],[{"line":5,"station_name":"Kalideres","distance":0,"i_lat":-6.166068,"station_id":"KDS","time":0,"i_long":106.701612,"is_transit":false,"transit":false},{"i_long":106.723064,"line":5,"distance":2504,"time":3,"station_id":"RW","i_lat":-6.162758,"is_transit":false,"station_name":"Rawa Buaya","transit":false},{"time":4,"station_id":"BOI","line":5,"is_transit":false,"transit":false,"station_name":"Bojongindah","i_long":106.737035,"distance":1152,"i_lat":-6.159876},{"i_lat":-6.1587309999999995,"time":2,"distance":2334,"station_name":"Taman Kota","is_transit":false,"station_id":"TKO","transit":false,"line":5,"i_long":106.756522},{"is_transit":false,"station_id":"PSG","i_lat":-6.161433,"time":2,"line":5,"transit":false,"i_long":106.771379,"distance":1614,"station_name":"Pesing"},{"is_transit":false,"time":2,"line":5,"transit":false,"station_name":"Grogol","i_lat":-6.162021,"station_id":"GRG","distance":2036,"i_long":106.788277},{"transit":true,"station_name":"Duri","station_id":"DU","i_long":106.800832,"is_transit":true,"i_lat":-6.155215,"line":1,"distance":1700,"time":3},{"station_id":"AK","line":1,"time":4,"is_transit":false,"i_lat":-6.144674,"station_name":"Angke","distance":1230,"transit":false,"i_long":106.79867},{"station_name":"Kampung Bandan","time":9,"is_transit":true,"transit":true,"i_lat":-6.132549,"distance":4102,"line":4,"station_id":"KPB","i_long":106.826365},{"time":3,"distance":1444,"is_transit":false,"transit":false,"station_name":"Rajawali","station_id":"RJW","i_lat":-6.14505,"line":11,"i_long":106.836569},{"line":11,"i_long":106.839204,"station_id":"KMO","time":5,"distance":1901,"station_name":"Kemayoran","transit":false,"is_transit":false,"i_lat":-6.161728},{"line":11,"is_transit":false,"station_id":"PSE","time":4,"distance":1436,"transit":false,"station_name":"Pasar Senen","i_lat":-6.174784,"i_long":106.84368},{"time":8,"line":11,"station_id":"GST","transit":false,"station_name":"Gang Sentiong","i_lat":-6.185975,"distance":1567,"is_transit":false,"i_long":106.850107},{"station_name":"Kramat","distance":973,"line":11,"i_long":106.855437,"time":1,"station_id":"KMT","is_transit":false,"transit":false,"i_lat":-6.193792},{"i_lat":-6.209188,"is_transit":false,"i_long":106.861737,"transit":false,"distance":1829,"station_name":"Pondok Jati","time":2,"station_id":"POK","line":11},{"station_id":"JNG","line":1,"i_lat":-6.215091,"is_transit":true,"station_name":"Jatinegara","time":9,"i_long":106.86807400000001,"distance":1236,"transit":true},{"i_long":106.858896,"distance":1377,"transit":false,"i_lat":-6.212485,"line":1,"station_id":"MTR","time":2,"is_transit":false,"station_name":"Matraman"},{"i_long":106.84912,"line":2,"distance":1275,"i_lat":-6.209883,"is_transit":false,"station_name":"Manggarai","time":2,"station_id":"MRI","transit":false},{"distance":3186,"i_long":106.822649,"time":4,"station_id":"SUD","is_transit":false,"i_lat":-6.202263,"line":1,"transit":false,"station_name":"Sudirman"},{"station_name":"Sudirman Baru","line":1,"distance":280,"station_id":"SUDB","is_transit":false,"i_lat":-6.201433,"time":1,"i_long":106.819881,"transit":false}]]}