{"data":[[{"line":5,"is_transit":false,"distance":0,"i_long":106.701612,"station_name":"Kalideres","i_lat":-6.166068,"time":0,"transit":false,"station_id":"KDS"},{"time":3,"station_name":"Rawa Buaya","is_transit":false,"transit":false,"i_long":106.723064,"i_lat":-6.162758,"distance":2504,"station_id":"RW","line":5},{"is_transit":false,"i_long":106.737035,"station_id":"BOI","time":4,"station_name":"Bojongindah","i_lat":-6.159876,"transit":false,"distance":1152,"line":0},{"station_name":"Taman Kota","is_transit":false,"i_lat":-6.1587309999999995,"transit":false,"time":2,"i_long":106.756522,"distance":2334,"station_id":"TKO","line":5},{"station_id":"PSG","transit":false,"time":2,"distance":1614,"is_transit":false,"station_name":"Pesing","i_long":106.771379,"i_lat":-6.161433,"line":5}]]}