{"data":[[{"i_lat":-6.166068,"line":5,"transit":false,"distance":0,"i_long":106.701612,"station_id":"KDS","is_transit":false,"station_name":"Kalideres","time":0},{"time":3,"i_long":106.723064,"line":5,"is_transit":false,"station_name":"Rawa Buaya","station_id":"RW","i_lat":-6.162758,"distance":2504,"transit":false},{"i_lat":-6.159876,"line":0,"station_name":"Bojongindah","time":4,"is_transit":false,"station_id":"BOI","i_long":106.737035,"distance":1152,"transit":false},{"time":2,"station_name":"Taman Kota","distance":2334,"i_lat":-6.1587309999999995,"is_transit":false,"station_id":"TKO","i_long":106.756522,"transit":false,"line":5},{"line":5,"transit":false,"distance":1614,"i_lat":-6.161433,"station_name":"Pesing","station_id":"PSG","is_transit":false,"i_long":106.771379,"time":2},{"i_long":106.788277,"is_transit":false,"station_id":"GGL","transit":false,"line":5,"i_lat":-6.162021,"time":2,"distance":2036,"station_name":"Grogol"},{"line":1,"i_long":106.800832,"transit":true,"station_name":"Duri","time":3,"i_lat":-6.155215,"is_transit":true,"distance":1700,"station_id":"DU"},{"is_transit":true,"station_name":"Tanah Abang","time":8,"distance":3632,"transit":false,"line":1,"i_lat":-6.185545,"i_long":106.811091,"station_id":"THB"},{"distance":2029,"transit":false,"i_long":106.816351,"line":1,"station_name":"Karet","i_lat":-6.20132,"is_transit":false,"station_id":"KAT","time":5},{"i_lat":-6.201433,"is_transit":false,"transit":false,"station_id":"SUDB","station_name":"Sudirman Baru","line":1,"time":1,"i_long":106.819881,"distance":471},{"i_long":106.822649,"station_name":"Sudirman","transit":false,"distance":280,"station_id":"SUD","line":1,"time":1,"i_lat":-6.202263,"is_transit":false},{"transit":false,"distance":3186,"is_transit":true,"i_long":106.84912,"station_id":"MRI","time":4,"i_lat":-6.209883,"station_name":"Manggarai","line":0}],[{"i_long":106.701612,"transit":false,"station_name":"Kalideres","is_transit":false,"distance":0,"station_id":"KDS","line":5,"time":0,"i_lat":-6.166068},{"i_long":106.723064,"is_transit":false,"station_name":"Rawa Buaya","station_id":"RW","distance":2504,"i_lat":-6.162758,"transit":false,"time":3,"line":5},{"transit":false,"time":4,"i_lat":-6.159876,"is_transit":false,"line":0,"station_name":"Bojongindah","distance":1152,"i_long":106.737035,"station_id":"BOI"},{"time":2,"distance":2334,"i_long":106.756522,"station_id":"TKO","i_lat":-6.1587309999999995,"station_name":"Taman Kota","is_transit":false,"transit":false,"line":5},{"distance":1614,"i_lat":-6.161433,"transit":false,"line":5,"time":2,"station_name":"Pesing","station_id":"PSG","is_transit":false,"i_long":106.771379},{"is_transit":false,"distance":2036,"station_id":"GGL","i_long":106.788277,"station_name":"Grogol","i_lat":-6.162021,"line":5,"transit":false,"time":2},{"station_id":"DU","station_name":"Duri","time":3,"distance":1700,"i_long":106.800832,"line":1,"i_lat":-6.155215,"transit":true,"is_transit":true},{"i_long":106.79867,"transit":false,"station_id":"AK","is_transit":false,"station_name":"Angke","line":0,"time":4,"i_lat":-6.144674,"distance":1230},{"station_name":"Kampung Bandan","distance":4102,"station_id":"KPB","line":0,"i_lat":-6.132549,"is_transit":true,"time":9,"transit":false,"i_long":106.826365},{"line":0,"is_transit":true,"i_long":106.812439,"station_name":"Jakarta Kota","time":3,"distance":1364,"i_lat":-6.137569,"transit":true,"station_id":"JAKK"},{"i_long":106.820901,"time":4,"distance":1264,"station_id":"JAY","transit":false,"i_lat":-6.141205,"line":7,"is_transit":false,"station_name":"Jayakarta"},{"station_name":"Manggabesar","transit":false,"line":2,"time":2,"i_long":106.82482,"distance":1080,"i_lat":-6.149769,"station_id":"MGB","is_transit":false},{"i_lat":-6.160725,"line":2,"time":2,"distance":906,"transit":false,"station_name":"Sawah Besar","station_id":"SW","is_transit":false,"i_long":106.827103},{"i_long":106.828284,"is_transit":false,"transit":false,"time":2,"station_id":"JUA","distance":1149,"i_lat":-6.166716,"station_name":"Juanda","line":2},{"transit":false,"distance":2015,"time":4,"i_long":106.832183,"station_id":"GDD","is_transit":false,"i_lat":-6.186295,"station_name":"Gondangdia","line":2},{"line":0,"transit":false,"station_id":"CKI","time":3,"i_lat":-6.198556,"station_name":"Cikini","i_long":106.840169,"is_transit":false,"distance":1750},{"transit":false,"is_transit":true,"station_id":"MRI","i_long":106.84912,"i_lat":-6.209883,"line":0,"station_name":"Manggarai","time":4,"distance":1590}],[{"line":5,"station_name":"Kalideres","transit":false,"time":0,"distance":0,"station_id":"KDS","is_transit":false,"i_lat":-6.166068,"i_long":106.701612},{"line":5,"station_name":"Rawa Buaya","is_transit":false,"time":3,"i_lat":-6.162758,"distance":2504,"transit":false,"i_long":106.723064,"station_id":"RW"},{"line":0,"station_id":"BOI","station_name":"Bojongindah","time":4,"transit":false,"i_lat":-6.159876,"is_transit":false,"i_long":106.737035,"distance":1152},{"time":2,"distance":2334,"i_long":106.756522,"station_name":"Taman Kota","line":5,"station_id":"TKO","i_lat":-6.1587309999999995,"transit":false,"is_transit":false},{"line":5,"is_transit":false,"distance":1614,"station_id":"PSG","i_lat":-6.161433,"i_long":106.771379,"time":2,"station_name":"Pesing","transit":false},{"station_name":"Grogol","is_transit":false,"station_id":"GGL","transit":false,"i_lat":-6.162021,"time":2,"i_long":106.788277,"distance":2036,"line":5},{"distance":1700,"transit":true,"i_lat":-6.155215,"time":3,"line":1,"i_long":106.800832,"station_id":"DU","station_name":"Duri","is_transit":true},{"station_name":"Angke","station_id":"AK","i_long":106.79867,"transit":false,"time":4,"i_lat":-6.144674,"line":0,"is_transit":false,"distance":1230},{"is_transit":true,"station_id":"KPB","station_name":"Kampung Bandan","distance":4102,"transit":true,"i_lat":-6.132549,"i_long":106.826365,"time":9,"line":0},{"i_lat":-6.14505,"i_long":106.836569,"distance":1444,"line":11,"is_transit":false,"time":3,"station_id":"RJW","station_name":"Rajawali","transit":false},{"i_long":106.839204,"line":11,"transit":false,"distance":1901,"i_lat":-6.161728,"station_name":"Kemayoran","station_id":"KMO","is_transit":false,"time":5},{"distance":1436,"station_name":"Pasar Senen","is_transit":false,"line":11,"time":4,"station_id":"PSE","i_lat":-6.174784,"transit":false,"i_long":106.84368},{"station_id":"GST","station_name":"Gang Sentiong","time":8,"distance":1567,"transit":false,"line":11,"is_transit":false,"i_lat":-6.185975,"i_long":106.850107},{"i_long":106.855437,"station_id":"KMT","station_name":"Kramat","i_lat":-6.193792,"is_transit":false,"distance":973,"time":1,"transit":false,"line":11},{"i_lat":-6.209188,"i_long":106.861737,"line":11,"station_id":"POK","time":2,"is_transit":false,"transit":false,"station_name":"Pondok Jati","distance":1829},{"is_transit":true,"i_lat":-6.215091,"time":9,"transit":true,"line":0,"station_id":"JNG","distance":1236,"station_name":"Jatinegara","i_long":106.86807400000001},{"i_long":106.858896,"line":1,"station_id":"MTR","distance":1377,"is_transit":false,"station_name":"Matraman","i_lat":-6.212485,"time":2,"transit":false},{"i_lat":-6.209883,"distance":1275,"is_transit":true,"station_name":"Manggarai","transit":false,"station_id":"MRI","line":0,"i_long":106.84912,"time":2}]]}