{"data":[[{"time":0,"station_id":"KDS","transit":false,"distance":0,"i_lat":-6.166068,"i_long":106.701612,"station_name":"Kalideres","is_transit":false,"line":5},{"line":5,"distance":2504,"i_long":106.723064,"is_transit":false,"station_id":"RW","station_name":"Rawa Buaya","time":3,"transit":false,"i_lat":-6.162758},{"station_name":"Bojongindah","station_id":"BOI","is_transit":false,"line":5,"time":4,"transit":false,"i_long":106.737035,"distance":1152,"i_lat":-6.159876},{"line":5,"distance":2334,"station_name":"Taman Kota","transit":false,"i_lat":-6.1587309999999995,"is_transit":false,"time":2,"i_long":106.756522,"station_id":"TKO"},{"i_long":106.771379,"station_name":"Pesing","distance":1614,"station_id":"PSG","i_lat":-6.161433,"is_transit":false,"line":5,"time":2,"transit":false},{"is_transit":false,"line":5,"time":2,"distance":2036,"station_name":"Grogol","transit":false,"station_id":"GGL","i_long":106.788277,"i_lat":-6.162021},{"time":3,"i_lat":-6.155215,"distance":1700,"transit":true,"station_name":"Duri","i_long":106.800832,"station_id":"DU","line":1,"is_transit":true},{"is_transit":false,"transit":false,"i_lat":-6.185545,"line":1,"station_name":"Tanah Abang","i_long":106.811091,"time":8,"distance":3632,"station_id":"THB"},{"station_id":"KAT","is_transit":false,"line":1,"transit":false,"time":5,"distance":2029,"i_lat":-6.20132,"i_long":106.816351,"station_name":"Karet"},{"time":1,"transit":false,"i_lat":-6.201433,"station_id":"SUDB","line":1,"distance":471,"is_transit":false,"i_long":106.819881,"station_name":"Sudirman Baru"},{"distance":280,"station_name":"Sudirman","is_transit":false,"station_id":"SUD","i_lat":-6.202263,"line":1,"transit":false,"i_long":106.822649,"time":1},{"distance":3186,"i_lat":-6.209883,"transit":false,"time":4,"is_transit":false,"station_id":"MRI","i_long":106.84912,"line":2,"station_name":"Manggarai"}],[{"time":0,"i_lat":-6.166068,"transit":false,"i_long":106.701612,"is_transit":false,"station_name":"Kalideres","line":5,"distance":0,"station_id":"KDS"},{"is_transit":false,"i_lat":-6.162758,"distance":2504,"station_id":"RW","time":3,"station_name":"Rawa Buaya","transit":false,"i_long":106.723064,"line":5},{"distance":1152,"is_transit":false,"i_lat":-6.159876,"time":4,"i_long":106.737035,"station_id":"BOI","line":5,"station_name":"Bojongindah","transit":false},{"distance":2334,"i_long":106.756522,"time":2,"line":5,"station_id":"TKO","transit":false,"is_transit":false,"i_lat":-6.1587309999999995,"station_name":"Taman Kota"},{"line":5,"distance":1614,"station_id":"PSG","station_name":"Pesing","time":2,"i_lat":-6.161433,"i_long":106.771379,"is_transit":false,"transit":false},{"is_transit":false,"transit":false,"i_long":106.788277,"line":5,"time":2,"station_id":"GGL","i_lat":-6.162021,"distance":2036,"station_name":"Grogol"},{"transit":true,"line":1,"station_id":"DU","time":3,"i_lat":-6.155215,"distance":1700,"is_transit":true,"i_long":106.800832,"station_name":"Duri"},{"i_long":106.79867,"station_id":"AK","is_transit":false,"i_lat":-6.144674,"time":4,"distance":1230,"station_name":"Angke","transit":false,"line":1},{"time":9,"is_transit":true,"distance":4102,"i_lat":-6.132549,"station_id":"KPB","line":4,"station_name":"Kampung Bandan","transit":true,"i_long":106.826365},{"distance":1364,"time":3,"station_name":"Jakarta Kota","station_id":"JAKK","is_transit":true,"i_long":106.812439,"line":2,"transit":true,"i_lat":-6.137569},{"transit":false,"distance":1264,"station_id":"JAY","i_long":106.820901,"station_name":"Jayakarta","line":2,"is_transit":false,"time":4,"i_lat":-6.141205},{"i_long":106.82482,"station_id":"MGB","distance":1080,"station_name":"Manggabesar","line":2,"time":2,"is_transit":false,"transit":false,"i_lat":-6.149769},{"distance":906,"i_long":106.827103,"transit":false,"station_id":"SW","station_name":"Sawah Besar","i_lat":-6.160725,"line":2,"is_transit":false,"time":2},{"i_lat":-6.166716,"station_id":"JUA","transit":false,"line":2,"station_name":"Juanda","i_long":106.828284,"distance":1149,"time":2,"is_transit":false},{"line":2,"station_name":"Gondangdia","time":4,"station_id":"GDD","transit":false,"is_transit":false,"distance":2015,"i_lat":-6.186295,"i_long":106.832183},{"station_name":"Cikini","distance":1750,"is_transit":false,"station_id":"CKI","time":3,"i_lat":-6.198556,"line":2,"transit":false,"i_long":106.840169},{"distance":1590,"i_long":106.84912,"time":4,"transit":false,"i_lat":-6.209883,"station_name":"Manggarai","is_transit":false,"station_id":"MRI","line":2}],[{"transit":false,"i_long":106.701612,"line":5,"i_lat":-6.166068,"is_transit":false,"station_name":"Kalideres","station_id":"KDS","time":0,"distance":0},{"i_long":106.723064,"line":5,"time":3,"is_transit":false,"distance":2504,"i_lat":-6.162758,"station_id":"RW","transit":false,"station_name":"Rawa Buaya"},{"i_long":106.737035,"station_id":"BOI","i_lat":-6.159876,"station_name":"Bojongindah","is_transit":false,"time":4,"distance":1152,"line":5,"transit":false},{"transit":false,"distance":2334,"i_long":106.756522,"is_transit":false,"station_name":"Taman Kota","station_id":"TKO","i_lat":-6.1587309999999995,"line":5,"time":2},{"i_long":106.771379,"station_id":"PSG","distance":1614,"station_name":"Pesing","line":5,"time":2,"transit":false,"is_transit":false,"i_lat":-6.161433},{"transit":false,"i_long":106.788277,"time":2,"i_lat":-6.162021,"station_id":"GGL","line":5,"is_transit":false,"station_name":"Grogol","distance":2036},{"is_transit":true,"time":3,"station_id":"DU","i_long":106.800832,"distance":1700,"station_name":"Duri","i_lat":-6.155215,"line":1,"transit":true},{"time":4,"line":1,"station_name":"Angke","is_transit":false,"station_id":"AK","i_lat":-6.144674,"i_long":106.79867,"distance":1230,"transit":false},{"i_long":106.826365,"distance":4102,"transit":true,"is_transit":true,"station_id":"KPB","i_lat":-6.132549,"time":9,"line":4,"station_name":"Kampung Bandan"},{"station_name":"Rajawali","is_transit":false,"transit":false,"i_lat":-6.14505,"i_long":106.836569,"line":11,"distance":1444,"time":3,"station_id":"RJW"},{"i_lat":-6.161728,"time":5,"is_transit":false,"transit":false,"distance":1901,"station_name":"Kemayoran","station_id":"KMO","i_long":106.839204,"line":11},{"station_name":"Pasar Senen","i_lat":-6.174784,"transit":false,"i_long":106.84368,"distance":1436,"station_id":"PSE","time":4,"is_transit":false,"line":11},{"distance":1567,"is_transit":false,"transit":false,"station_name":"Gang Sentiong","station_id":"GST","i_lat":-6.185975,"i_long":106.850107,"line":11,"time":8},{"transit":false,"i_long":106.855437,"time":1,"distance":973,"station_id":"KMT","line":11,"station_name":"Kramat","i_lat":-6.193792,"is_transit":false},{"time":2,"i_lat":-6.209188,"station_id":"POK","i_long":106.861737,"is_transit":false,"line":11,"station_name":"Pondok Jati","transit":false,"distance":1829},{"is_transit":true,"station_name":"Jatinegara","line":1,"distance":1236,"i_lat":-6.215091,"i_long":106.86807400000001,"station_id":"JNG","time":9,"transit":true},{"station_name":"Matraman","is_transit":false,"distance":1377,"i_lat":-6.212485,"station_id":"MTR","transit":false,"i_long":106.858896,"time":2,"line":1},{"line":2,"station_name":"Manggarai","distance":1275,"is_transit":false,"time":2,"i_lat":-6.209883,"i_long":106.84912,"station_id":"MRI","transit":false}]]}