{"data":[[{"line":5,"time":0,"distance":0,"station_name":"Kalideres","is_transit":false,"transit":false,"station_id":"KDS","i_lat":-6.166068,"i_long":106.701612},{"transit":false,"station_name":"Rawa Buaya","station_id":"RW","is_transit":false,"line":5,"i_long":106.723064,"time":3,"i_lat":-6.162758,"distance":2504},{"i_long":106.737035,"transit":false,"line":5,"is_transit":false,"station_name":"Bojongindah","station_id":"BOI","time":4,"i_lat":-6.159876,"distance":1152},{"is_transit":false,"distance":2334,"i_lat":-6.1587309999999995,"i_long":106.756522,"station_name":"Taman Kota","station_id":"TKO","line":5,"time":2,"transit":false},{"i_long":106.771379,"i_lat":-6.161433,"is_transit":false,"line":5,"station_name":"Pesing","transit":false,"distance":1614,"time":2,"station_id":"PSG"},{"station_name":"Grogol","is_transit":false,"i_lat":-6.162021,"time":2,"station_id":"GGL","transit":false,"distance":2036,"i_long":106.788277,"line":5},{"is_transit":true,"station_name":"Duri","distance":1700,"station_id":"DU","i_lat":-6.155215,"i_long":106.800832,"line":1,"transit":true,"time":3},{"distance":3632,"transit":false,"station_name":"Tanah Abang","i_lat":-6.185545,"time":8,"line":1,"i_long":106.811091,"station_id":"THB","is_transit":false},{"time":5,"line":1,"station_name":"Karet","distance":2029,"transit":false,"is_transit":false,"i_lat":-6.20132,"station_id":"KAT","i_long":106.816351},{"time":1,"station_id":"SUDB","is_transit":false,"transit":false,"i_lat":-6.201433,"i_long":106.819881,"line":1,"station_name":"Sudirman Baru","distance":471},{"transit":false,"station_id":"SUD","is_transit":false,"station_name":"Sudirman","distance":280,"time":1,"i_long":106.822649,"line":1,"i_lat":-6.202263},{"station_id":"MRI","station_name":"Manggarai","i_lat":-6.209883,"i_long":106.84912,"transit":true,"distance":3186,"is_transit":true,"line":2,"time":4},{"i_long":106.857948,"line":2,"is_transit":false,"time":4,"station_name":"Tebet","distance":2610,"transit":false,"station_id":"TEB","i_lat":-6.226659},{"i_lat":-6.242512,"i_long":106.856607,"is_transit":false,"time":2,"distance":1230,"transit":false,"station_id":"CW","line":2,"station_name":"Cawang"},{"i_long":106.85449,"is_transit":false,"station_id":"DRN","time":3,"transit":false,"station_name":"Duren Kalibata","distance":1546,"i_lat":-6.255332,"line":2},{"is_transit":false,"i_lat":-6.263214,"station_id":"PSMB","station_name":"Pasar Minggu Baru","transit":false,"time":2,"distance":824,"i_long":106.851577,"line":2},{"distance":2380,"transit":false,"station_id":"PSM","station_name":"Pasar Minggu","line":2,"time":2,"i_lat":-6.2842400000000005,"is_transit":false,"i_long":106.843999},{"transit":false,"time":4,"i_lat":-6.3080680000000005,"distance":2820,"is_transit":false,"station_name":"Tanjung Barat","line":2,"station_id":"TNT","i_long":106.838896},{"transit":false,"station_id":"LNA","time":3,"distance":2671,"i_lat":-6.330363,"is_transit":false,"i_long":106.832616,"line":2,"station_name":"Lenteng Agung"},{"time":2,"line":2,"i_lat":-6.339291,"transit":false,"station_name":"Univ. Pancasila","station_id":"UP","is_transit":false,"i_long":106.834175,"distance":1029},{"station_id":"UI","distance":2264,"i_long":106.831474,"is_transit":false,"i_lat":-6.360749,"line":2,"transit":false,"station_name":"Univ. Indonesia","time":3},{"station_name":"Pondok Cina","line":2,"time":2,"i_lat":-6.369073,"distance":1109,"station_id":"POC","transit":false,"is_transit":false,"i_long":106.831114},{"station_id":"DPB","i_long":106.819451,"station_name":"Depokbaru","is_transit":false,"line":2,"transit":false,"time":4,"distance":2727,"i_lat":-6.391065},{"time":3,"i_lat":-6.405256,"line":2,"is_transit":false,"i_long":106.816926,"station_name":"Depok","distance":1584,"transit":false,"station_id":"DP"},{"time":6,"i_lat":-6.448811,"transit":false,"i_long":106.800298,"distance":5084,"station_name":"Citayam","is_transit":false,"station_id":"CTA","line":2},{"time":5,"distance":5197,"is_transit":false,"station_name":"Bojonggede","station_id":"BJD","i_lat":-6.493243,"i_long":106.792719,"transit":false,"line":2},{"is_transit":false,"line":2,"time":5,"station_id":"CLT","i_lat":-6.530544,"station_name":"Cilebut","transit":false,"i_long":106.800016,"distance":4331},{"station_name":"Bogor","station_id":"BOO","is_transit":false,"time":9,"i_long":106.790574,"transit":false,"distance":7514,"line":2,"i_lat":-6.594596}],[{"station_id":"KDS","distance":0,"transit":false,"station_name":"Kalideres","time":0,"i_lat":-6.166068,"is_transit":false,"i_long":106.701612,"line":5},{"transit":false,"time":3,"station_name":"Rawa Buaya","is_transit":false,"i_lat":-6.162758,"line":5,"distance":2504,"i_long":106.723064,"station_id":"RW"},{"i_lat":-6.159876,"i_long":106.737035,"station_id":"BOI","is_transit":false,"station_name":"Bojongindah","time":4,"transit":false,"line":5,"distance":1152},{"station_name":"Taman Kota","station_id":"TKO","is_transit":false,"i_lat":-6.1587309999999995,"line":5,"time":2,"transit":false,"i_long":106.756522,"distance":2334},{"distance":1614,"is_transit":false,"time":2,"i_lat":-6.161433,"i_long":106.771379,"line":5,"station_name":"Pesing","transit":false,"station_id":"PSG"},{"i_lat":-6.162021,"i_long":106.788277,"line":5,"transit":false,"station_id":"GGL","is_transit":false,"station_name":"Grogol","time":2,"distance":2036},{"i_lat":-6.155215,"transit":true,"distance":1700,"station_id":"DU","i_long":106.800832,"line":1,"is_transit":true,"time":3,"station_name":"Duri"},{"station_name":"Angke","is_transit":false,"i_lat":-6.144674,"line":1,"transit":false,"i_long":106.79867,"station_id":"AK","time":4,"distance":1230},{"distance":4102,"transit":true,"station_name":"Kampung Bandan","station_id":"KPB","line":4,"i_long":106.826365,"time":9,"i_lat":-6.132549,"is_transit":true},{"is_transit":true,"station_id":"JAKK","transit":true,"station_name":"Jakarta Kota","distance":1364,"i_lat":-6.137569,"line":2,"i_long":106.812439,"time":3},{"is_transit":false,"station_id":"JAY","time":4,"transit":false,"distance":1264,"line":2,"i_long":106.820901,"station_name":"Jayakarta","i_lat":-6.141205},{"is_transit":false,"i_lat":-6.149769,"line":2,"distance":1080,"station_name":"Manggabesar","transit":false,"station_id":"MGB","time":2,"i_long":106.82482},{"transit":false,"time":2,"i_lat":-6.160725,"station_id":"SW","is_transit":false,"distance":906,"i_long":106.827103,"line":2,"station_name":"Sawah Besar"},{"i_lat":-6.166716,"transit":false,"station_id":"JUA","i_long":106.828284,"distance":1149,"station_name":"Juanda","line":2,"is_transit":false,"time":2},{"line":2,"time":4,"station_name":"Gondangdia","station_id":"GDD","is_transit":false,"distance":2015,"i_long":106.832183,"transit":false,"i_lat":-6.186295},{"time":3,"line":2,"station_name":"Cikini","i_lat":-6.198556,"transit":false,"is_transit":false,"station_id":"CKI","i_long":106.840169,"distance":1750},{"is_transit":false,"station_name":"Manggarai","i_long":106.84912,"station_id":"MRI","distance":1590,"line":2,"transit":false,"time":4,"i_lat":-6.209883},{"line":2,"transit":false,"time":4,"i_long":106.857948,"station_id":"TEB","is_transit":false,"station_name":"Tebet","distance":2610,"i_lat":-6.226659},{"is_transit":false,"i_lat":-6.242512,"transit":false,"station_name":"Cawang","station_id":"CW","line":2,"distance":1230,"time":2,"i_long":106.856607},{"distance":1546,"station_name":"Duren Kalibata","is_transit":false,"time":3,"i_lat":-6.255332,"station_id":"DRN","i_long":106.85449,"line":2,"transit":false},{"distance":824,"station_name":"Pasar Minggu Baru","line":2,"transit":false,"i_lat":-6.263214,"time":2,"is_transit":false,"station_id":"PSMB","i_long":106.851577},{"transit":false,"time":2,"i_lat":-6.2842400000000005,"line":2,"is_transit":false,"station_name":"Pasar Minggu","station_id":"PSM","i_long":106.843999,"distance":2380},{"i_lat":-6.3080680000000005,"distance":2820,"i_long":106.838896,"station_name":"Tanjung Barat","station_id":"TNT","line":2,"is_transit":false,"time":4,"transit":false},{"transit":false,"station_id":"LNA","i_lat":-6.330363,"line":2,"is_transit":false,"time":3,"i_long":106.832616,"station_name":"Lenteng Agung","distance":2671},{"is_transit":false,"distance":1029,"transit":false,"station_name":"Univ. Pancasila","i_long":106.834175,"i_lat":-6.339291,"station_id":"UP","time":2,"line":2},{"i_lat":-6.360749,"line":2,"is_transit":false,"i_long":106.831474,"station_id":"UI","transit":false,"station_name":"Univ. Indonesia","time":3,"distance":2264},{"transit":false,"distance":1109,"line":2,"i_lat":-6.369073,"station_id":"POC","station_name":"Pondok Cina","is_transit":false,"time":2,"i_long":106.831114},{"distance":2727,"i_lat":-6.391065,"line":2,"time":4,"i_long":106.819451,"transit":false,"station_id":"DPB","is_transit":false,"station_name":"Depokbaru"},{"line":2,"time":3,"station_name":"Depok","is_transit":false,"transit":false,"distance":1584,"i_lat":-6.405256,"i_long":106.816926,"station_id":"DP"},{"line":2,"is_transit":false,"transit":false,"station_id":"CTA","time":6,"i_lat":-6.448811,"i_long":106.800298,"distance":5084,"station_name":"Citayam"},{"is_transit":false,"station_name":"Bojonggede","transit":false,"distance":5197,"i_lat":-6.493243,"station_id":"BJD","line":2,"i_long":106.792719,"time":5},{"distance":4331,"transit":false,"time":5,"line":2,"i_lat":-6.530544,"i_long":106.800016,"station_id":"CLT","station_name":"Cilebut","is_transit":false},{"time":9,"i_lat":-6.594596,"is_transit":false,"distance":7514,"i_long":106.790574,"line":2,"transit":false,"station_id":"BOO","station_name":"Bogor"}],[{"distance":0,"i_lat":-6.166068,"line":5,"i_long":106.701612,"time":0,"is_transit":false,"station_name":"Kalideres","station_id":"KDS","transit":false},{"i_lat":-6.162758,"is_transit":false,"station_id":"RW","distance":2504,"station_name":"Rawa Buaya","time":3,"line":5,"i_long":106.723064,"transit":false},{"station_name":"Bojongindah","distance":1152,"time":4,"is_transit":false,"i_lat":-6.159876,"i_long":106.737035,"station_id":"BOI","line":5,"transit":false},{"transit":false,"is_transit":false,"time":2,"line":5,"i_long":106.756522,"i_lat":-6.1587309999999995,"distance":2334,"station_id":"TKO","station_name":"Taman Kota"},{"station_name":"Pesing","station_id":"PSG","is_transit":false,"time":2,"line":5,"distance":1614,"i_long":106.771379,"i_lat":-6.161433,"transit":false},{"is_transit":false,"line":5,"i_long":106.788277,"i_lat":-6.162021,"transit":false,"station_name":"Grogol","time":2,"station_id":"GGL","distance":2036},{"i_long":106.800832,"station_name":"Duri","i_lat":-6.155215,"distance":1700,"station_id":"DU","transit":true,"time":3,"line":1,"is_transit":true},{"station_name":"Angke","line":1,"time":4,"distance":1230,"is_transit":false,"transit":false,"i_long":106.79867,"station_id":"AK","i_lat":-6.144674},{"i_lat":-6.132549,"line":4,"station_id":"KPB","is_transit":true,"time":9,"i_long":106.826365,"transit":true,"station_name":"Kampung Bandan","distance":4102},{"is_transit":false,"time":3,"transit":false,"distance":1444,"i_lat":-6.14505,"line":11,"i_long":106.836569,"station_id":"RJW","station_name":"Rajawali"},{"distance":1901,"station_name":"Kemayoran","station_id":"KMO","is_transit":false,"i_lat":-6.161728,"i_long":106.839204,"time":5,"line":11,"transit":false},{"distance":1436,"transit":false,"time":4,"station_id":"PSE","line":11,"i_long":106.84368,"i_lat":-6.174784,"is_transit":false,"station_name":"Pasar Senen"},{"i_long":106.850107,"is_transit":false,"distance":1567,"station_name":"Gang Sentiong","time":8,"station_id":"GST","line":11,"i_lat":-6.185975,"transit":false},{"is_transit":false,"station_id":"KMT","line":11,"i_lat":-6.193792,"transit":false,"station_name":"Kramat","time":1,"distance":973,"i_long":106.855437},{"distance":1829,"i_lat":-6.209188,"station_name":"Pondok Jati","station_id":"POK","is_transit":false,"transit":false,"i_long":106.861737,"line":11,"time":2},{"transit":true,"station_name":"Jatinegara","station_id":"JNG","line":1,"i_long":106.86807400000001,"is_transit":true,"time":9,"distance":1236,"i_lat":-6.215091},{"i_long":106.858896,"time":2,"i_lat":-6.212485,"line":1,"transit":false,"distance":1377,"station_id":"MTR","station_name":"Matraman","is_transit":false},{"i_lat":-6.209883,"is_transit":true,"i_long":106.84912,"station_name":"Manggarai","line":2,"time":2,"distance":1275,"transit":true,"station_id":"MRI"},{"time":4,"station_name":"Tebet","i_lat":-6.226659,"distance":2610,"line":2,"is_transit":false,"station_id":"TEB","transit":false,"i_long":106.857948},{"transit":false,"i_long":106.856607,"station_name":"Cawang","time":2,"line":2,"is_transit":false,"station_id":"CW","distance":1230,"i_lat":-6.242512},{"time":3,"is_transit":false,"station_id":"DRN","line":2,"i_lat":-6.255332,"i_long":106.85449,"transit":false,"distance":1546,"station_name":"Duren Kalibata"},{"is_transit":false,"transit":false,"station_id":"PSMB","line":2,"station_name":"Pasar Minggu Baru","time":2,"i_lat":-6.263214,"i_long":106.851577,"distance":824},{"is_transit":false,"station_id":"PSM","time":2,"line":2,"station_name":"Pasar Minggu","distance":2380,"i_lat":-6.2842400000000005,"i_long":106.843999,"transit":false},{"i_lat":-6.3080680000000005,"line":2,"station_id":"TNT","transit":false,"is_transit":false,"station_name":"Tanjung Barat","time":4,"distance":2820,"i_long":106.838896},{"i_long":106.832616,"station_id":"LNA","line":2,"distance":2671,"station_name":"Lenteng Agung","time":3,"i_lat":-6.330363,"is_transit":false,"transit":false},{"is_transit":false,"station_name":"Univ. Pancasila","i_long":106.834175,"i_lat":-6.339291,"time":2,"line":2,"transit":false,"distance":1029,"station_id":"UP"},{"station_name":"Univ. Indonesia","i_lat":-6.360749,"is_transit":false,"transit":false,"distance":2264,"time":3,"line":2,"i_long":106.831474,"station_id":"UI"},{"time":2,"line":2,"i_long":106.831114,"transit":false,"station_name":"Pondok Cina","is_transit":false,"station_id":"POC","i_lat":-6.369073,"distance":1109},{"i_long":106.819451,"station_name":"Depokbaru","station_id":"DPB","line":2,"transit":false,"distance":2727,"is_transit":false,"i_lat":-6.391065,"time":4},{"i_long":106.816926,"station_name":"Depok","transit":false,"station_id":"DP","distance":1584,"i_lat":-6.405256,"line":2,"time":3,"is_transit":false},{"distance":5084,"is_transit":false,"i_long":106.800298,"time":6,"transit":false,"i_lat":-6.448811,"line":2,"station_name":"Citayam","station_id":"CTA"},{"is_transit":false,"time":5,"line":2,"transit":false,"station_name":"Bojonggede","i_lat":-6.493243,"i_long":106.792719,"station_id":"BJD","distance":5197},{"line":2,"transit":false,"is_transit":false,"distance":4331,"i_lat":-6.530544,"station_name":"Cilebut","time":5,"i_long":106.800016,"station_id":"CLT"},{"is_transit":false,"station_id":"BOO","transit":false,"time":9,"i_lat":-6.594596,"line":2,"station_name":"Bogor","distance":7514,"i_long":106.790574}]]}