{"data":[[{"time":0,"station_name":"Kalideres","line":5,"transit":false,"i_lat":-6.166068,"is_transit":false,"station_id":"KDS","i_long":106.701612,"distance":0},{"i_long":106.723064,"transit":false,"station_name":"Rawa Buaya","line":5,"time":3,"station_id":"RW","distance":2504,"is_transit":false,"i_lat":-6.162758},{"station_id":"BOI","station_name":"Bojongindah","is_transit":false,"time":4,"i_lat":-6.159876,"line":5,"transit":false,"i_long":106.737035,"distance":1152},{"time":2,"station_id":"TKO","station_name":"Taman Kota","distance":2334,"i_long":106.756522,"is_transit":false,"transit":false,"line":5,"i_lat":-6.1587309999999995},{"transit":false,"is_transit":false,"time":2,"station_id":"PSG","distance":1614,"station_name":"Pesing","line":5,"i_long":106.771379,"i_lat":-6.161433},{"is_transit":false,"distance":2036,"i_lat":-6.162021,"station_id":"GGL","station_name":"Grogol","line":5,"transit":false,"time":2,"i_long":106.788277},{"transit":true,"station_id":"DU","distance":1700,"i_lat":-6.155215,"is_transit":true,"time":3,"line":1,"station_name":"Duri","i_long":106.800832},{"i_long":106.79867,"station_name":"Angke","station_id":"AK","line":1,"time":4,"is_transit":false,"i_lat":-6.144674,"transit":false,"distance":1230}],[{"is_transit":false,"transit":false,"i_long":106.701612,"station_name":"Kalideres","line":5,"station_id":"KDS","distance":0,"i_lat":-6.166068,"time":0},{"station_id":"RW","time":3,"transit":false,"i_lat":-6.162758,"station_name":"Rawa Buaya","distance":2504,"is_transit":false,"line":5,"i_long":106.723064},{"line":5,"is_transit":false,"transit":false,"time":4,"i_lat":-6.159876,"i_long":106.737035,"station_name":"Bojongindah","distance":1152,"station_id":"BOI"},{"time":2,"line":5,"is_transit":false,"station_name":"Taman Kota","transit":false,"distance":2334,"i_lat":-6.1587309999999995,"station_id":"TKO","i_long":106.756522},{"transit":false,"station_name":"Pesing","distance":1614,"is_transit":false,"station_id":"PSG","line":5,"i_lat":-6.161433,"time":2,"i_long":106.771379},{"i_lat":-6.162021,"line":5,"i_long":106.788277,"transit":false,"is_transit":false,"time":2,"station_name":"Grogol","station_id":"GGL","distance":2036},{"i_lat":-6.155215,"station_id":"DU","distance":1700,"time":3,"is_transit":true,"station_name":"Duri","transit":true,"i_long":106.800832,"line":1},{"is_transit":false,"i_long":106.811091,"station_name":"Tanah Abang","transit":false,"distance":3632,"line":1,"station_id":"THB","i_lat":-6.185545,"time":8},{"time":5,"distance":2029,"station_name":"Karet","is_transit":false,"transit":false,"i_long":106.816351,"station_id":"KAT","i_lat":-6.20132,"line":1},{"station_id":"SUDB","is_transit":false,"time":1,"transit":false,"i_long":106.819881,"distance":471,"line":1,"i_lat":-6.201433,"station_name":"Sudirman Baru"},{"station_id":"SUD","time":1,"line":1,"is_transit":false,"i_lat":-6.202263,"transit":false,"distance":280,"station_name":"Sudirman","i_long":106.822649},{"line":2,"transit":true,"station_id":"MRI","is_transit":true,"i_long":106.84912,"time":4,"station_name":"Manggarai","i_lat":-6.209883,"distance":3186},{"i_lat":-6.198556,"is_transit":false,"time":4,"station_id":"CKI","i_long":106.840169,"station_name":"Cikini","line":2,"transit":false,"distance":1590},{"is_transit":false,"time":3,"i_long":106.832183,"station_name":"Gondangdia","distance":1750,"station_id":"GDD","i_lat":-6.186295,"line":2,"transit":false},{"station_name":"Juanda","time":4,"line":2,"is_transit":false,"station_id":"JUA","transit":false,"i_long":106.828284,"distance":2015,"i_lat":-6.166716},{"i_long":106.827103,"i_lat":-6.160725,"is_transit":false,"station_id":"SW","station_name":"Sawah Besar","distance":1149,"line":2,"transit":false,"time":2},{"line":2,"station_name":"Manggabesar","i_long":106.82482,"i_lat":-6.149769,"is_transit":false,"station_id":"MGB","time":2,"transit":false,"distance":906},{"station_id":"JAY","line":2,"station_name":"Jayakarta","i_lat":-6.141205,"i_long":106.820901,"transit":false,"distance":1080,"is_transit":false,"time":2},{"distance":1264,"station_name":"Jakarta Kota","is_transit":true,"time":4,"station_id":"JAKK","line":2,"transit":true,"i_lat":-6.137569,"i_long":106.812439},{"distance":1364,"station_id":"KPB","line":4,"time":3,"transit":true,"i_lat":-6.132549,"station_name":"Kampung Bandan","i_long":106.826365,"is_transit":true},{"line":1,"i_long":106.79867,"is_transit":false,"station_id":"AK","transit":false,"distance":4102,"i_lat":-6.144674,"time":9,"station_name":"Angke"}],[{"i_lat":-6.166068,"line":5,"station_id":"KDS","station_name":"Kalideres","is_transit":false,"transit":false,"time":0,"distance":0,"i_long":106.701612},{"distance":2504,"i_long":106.723064,"time":3,"station_id":"RW","is_transit":false,"transit":false,"station_name":"Rawa Buaya","i_lat":-6.162758,"line":5},{"is_transit":false,"time":4,"transit":false,"station_name":"Bojongindah","i_long":106.737035,"distance":1152,"station_id":"BOI","i_lat":-6.159876,"line":5},{"line":5,"transit":false,"is_transit":false,"time":2,"i_long":106.756522,"station_name":"Taman Kota","i_lat":-6.1587309999999995,"distance":2334,"station_id":"TKO"},{"transit":false,"station_name":"Pesing","distance":1614,"i_long":106.771379,"line":5,"is_transit":false,"station_id":"PSG","i_lat":-6.161433,"time":2},{"station_name":"Grogol","is_transit":false,"line":5,"i_lat":-6.162021,"station_id":"GGL","i_long":106.788277,"transit":false,"time":2,"distance":2036},{"station_id":"DU","i_lat":-6.155215,"i_long":106.800832,"is_transit":true,"line":1,"station_name":"Duri","distance":1700,"transit":true,"time":3},{"transit":false,"i_lat":-6.185545,"distance":3632,"is_transit":false,"time":8,"station_name":"Tanah Abang","line":1,"station_id":"THB","i_long":106.811091},{"station_name":"Karet","distance":2029,"i_lat":-6.20132,"i_long":106.816351,"station_id":"KAT","is_transit":false,"line":1,"transit":false,"time":5},{"distance":471,"transit":false,"time":1,"i_long":106.819881,"is_transit":false,"i_lat":-6.201433,"station_id":"SUDB","station_name":"Sudirman Baru","line":1},{"i_long":106.822649,"line":1,"transit":false,"i_lat":-6.202263,"is_transit":false,"time":1,"station_id":"SUD","station_name":"Sudirman","distance":280},{"i_lat":-6.209883,"i_long":106.84912,"is_transit":false,"transit":false,"station_name":"Manggarai","station_id":"MRI","distance":3186,"line":2,"time":4},{"distance":1275,"is_transit":false,"line":1,"time":2,"station_id":"MTR","transit":false,"station_name":"Matraman","i_lat":-6.212485,"i_long":106.858896},{"is_transit":true,"time":8,"i_long":106.86807400000001,"i_lat":-6.215091,"distance":1377,"transit":true,"line":1,"station_name":"Jatinegara","station_id":"JNG"},{"station_name":"Pondok Jati","transit":false,"i_lat":-6.209188,"station_id":"POK","distance":1236,"i_long":106.861737,"is_transit":false,"time":2,"line":11},{"is_transit":false,"distance":1829,"i_long":106.855437,"time":2,"i_lat":-6.193792,"station_id":"KMT","station_name":"Kramat","transit":false,"line":11},{"i_lat":-6.185975,"station_id":"GST","distance":973,"i_long":106.850107,"time":1,"station_name":"Gang Sentiong","is_transit":false,"line":11,"transit":false},{"time":8,"line":11,"is_transit":false,"i_long":106.84368,"distance":1567,"station_id":"PSE","station_name":"Pasar Senen","transit":false,"i_lat":-6.174784},{"line":11,"station_name":"Kemayoran","time":4,"i_long":106.839204,"is_transit":false,"i_lat":-6.161728,"transit":false,"distance":1436,"station_id":"KMO"},{"distance":1901,"line":11,"station_id":"RJW","is_transit":false,"time":5,"i_lat":-6.14505,"i_long":106.836569,"station_name":"Rajawali","transit":false},{"time":3,"station_name":"Kampung Bandan","i_long":106.826365,"station_id":"KPB","transit":true,"line":4,"distance":1444,"i_lat":-6.132549,"is_transit":true},{"is_transit":false,"i_lat":-6.144674,"time":9,"station_name":"Angke","transit":false,"line":1,"station_id":"AK","distance":4102,"i_long":106.79867}]]}