{"data":[[{"line":5,"station_id":"KDS","is_transit":false,"i_lat":-6.166068,"time":0,"i_long":106.701612,"distance":0,"transit":false,"station_name":"Kalideres"},{"i_long":106.723064,"distance":2504,"is_transit":false,"station_id":"RW","time":3,"station_name":"Rawa Buaya","i_lat":-6.162758,"line":5,"transit":false},{"line":5,"station_name":"Bojongindah","distance":1152,"time":4,"transit":false,"station_id":"BOI","is_transit":false,"i_lat":-6.159876,"i_long":106.737035},{"station_name":"Taman Kota","is_transit":false,"distance":2334,"i_lat":-6.1587309999999995,"time":2,"station_id":"TKO","transit":false,"line":5,"i_long":106.756522},{"line":5,"transit":false,"station_name":"Pesing","i_long":106.771379,"station_id":"PSG","distance":1614,"i_lat":-6.161433,"time":2,"is_transit":false},{"station_name":"Grogol","is_transit":false,"transit":false,"station_id":"GGL","time":2,"i_lat":-6.162021,"i_long":106.788277,"line":5,"distance":2036},{"distance":1700,"line":1,"is_transit":true,"station_id":"DU","i_lat":-6.155215,"transit":true,"i_long":106.800832,"time":3,"station_name":"Duri"},{"i_lat":-6.144674,"is_transit":false,"transit":false,"distance":1230,"station_name":"Angke","i_long":106.79867,"time":4,"line":1,"station_id":"AK"},{"time":9,"i_long":106.826365,"transit":true,"station_name":"Kampung Bandan","station_id":"KPB","is_transit":true,"distance":4102,"line":4,"i_lat":-6.132549},{"distance":1444,"i_long":106.836569,"line":11,"station_name":"Rajawali","station_id":"RJW","time":3,"i_lat":-6.14505,"is_transit":false,"transit":false},{"i_lat":-6.161728,"is_transit":false,"station_id":"KMO","transit":false,"distance":1901,"i_long":106.839204,"line":11,"station_name":"Kemayoran","time":5},{"station_name":"Pasar Senen","distance":1436,"time":4,"i_lat":-6.174784,"i_long":106.84368,"station_id":"PSE","transit":false,"is_transit":false,"line":11},{"time":8,"station_id":"GST","i_long":106.850107,"is_transit":false,"line":11,"distance":1567,"station_name":"Gang Sentiong","transit":false,"i_lat":-6.185975},{"i_long":106.855437,"line":11,"is_transit":false,"time":1,"station_id":"KMT","transit":false,"station_name":"Kramat","distance":973,"i_lat":-6.193792},{"time":2,"i_lat":-6.209188,"is_transit":false,"station_name":"Pondok Jati","i_long":106.861737,"transit":false,"line":11,"distance":1829,"station_id":"POK"}],[{"station_id":"KDS","transit":false,"is_transit":false,"time":0,"line":5,"distance":0,"station_name":"Kalideres","i_lat":-6.166068,"i_long":106.701612},{"transit":false,"is_transit":false,"line":5,"i_long":106.723064,"time":3,"station_id":"RW","distance":2504,"i_lat":-6.162758,"station_name":"Rawa Buaya"},{"line":5,"is_transit":false,"distance":1152,"time":4,"station_id":"BOI","i_long":106.737035,"transit":false,"station_name":"Bojongindah","i_lat":-6.159876},{"station_name":"Taman Kota","station_id":"TKO","line":5,"i_lat":-6.1587309999999995,"is_transit":false,"transit":false,"time":2,"i_long":106.756522,"distance":2334},{"line":5,"station_id":"PSG","time":2,"transit":false,"i_lat":-6.161433,"distance":1614,"station_name":"Pesing","is_transit":false,"i_long":106.771379},{"i_long":106.788277,"station_id":"GGL","distance":2036,"transit":false,"line":5,"station_name":"Grogol","time":2,"i_lat":-6.162021,"is_transit":false},{"i_long":106.800832,"station_name":"Duri","station_id":"DU","time":3,"distance":1700,"transit":true,"line":1,"i_lat":-6.155215,"is_transit":true},{"station_name":"Tanah Abang","distance":3632,"i_long":106.811091,"transit":false,"i_lat":-6.185545,"line":1,"is_transit":false,"time":8,"station_id":"THB"},{"i_long":106.816351,"station_name":"Karet","station_id":"KAT","is_transit":false,"transit":false,"time":5,"i_lat":-6.20132,"line":1,"distance":2029},{"line":1,"i_long":106.819881,"distance":471,"transit":false,"i_lat":-6.201433,"is_transit":false,"station_name":"Sudirman Baru","station_id":"SUDB","time":1},{"is_transit":false,"line":1,"i_long":106.822649,"distance":280,"station_name":"Sudirman","time":1,"transit":false,"station_id":"SUD","i_lat":-6.202263},{"station_id":"MRI","transit":false,"i_lat":-6.209883,"i_long":106.84912,"is_transit":false,"time":4,"distance":3186,"station_name":"Manggarai","line":2},{"time":2,"i_lat":-6.212485,"station_name":"Matraman","transit":false,"is_transit":false,"station_id":"MTR","distance":1275,"line":1,"i_long":106.858896},{"station_id":"JNG","line":1,"station_name":"Jatinegara","is_transit":true,"time":8,"i_lat":-6.215091,"transit":true,"distance":1377,"i_long":106.86807400000001},{"time":2,"station_name":"Pondok Jati","distance":1236,"is_transit":false,"i_long":106.861737,"transit":false,"station_id":"POK","line":11,"i_lat":-6.209188}],[{"is_transit":false,"i_lat":-6.166068,"station_name":"Kalideres","station_id":"KDS","time":0,"i_long":106.701612,"distance":0,"transit":false,"line":5},{"transit":false,"is_transit":false,"i_lat":-6.162758,"i_long":106.723064,"distance":2504,"station_id":"RW","station_name":"Rawa Buaya","line":5,"time":3},{"station_name":"Bojongindah","time":4,"i_long":106.737035,"transit":false,"line":5,"station_id":"BOI","is_transit":false,"distance":1152,"i_lat":-6.159876},{"line":5,"is_transit":false,"station_name":"Taman Kota","i_lat":-6.1587309999999995,"distance":2334,"station_id":"TKO","transit":false,"time":2,"i_long":106.756522},{"i_long":106.771379,"station_name":"Pesing","distance":1614,"i_lat":-6.161433,"station_id":"PSG","transit":false,"time":2,"line":5,"is_transit":false},{"station_id":"GGL","station_name":"Grogol","is_transit":false,"time":2,"distance":2036,"i_long":106.788277,"transit":false,"i_lat":-6.162021,"line":5},{"station_id":"DU","is_transit":true,"time":3,"distance":1700,"line":1,"transit":true,"i_long":106.800832,"station_name":"Duri","i_lat":-6.155215},{"distance":1230,"i_long":106.79867,"line":1,"i_lat":-6.144674,"station_name":"Angke","transit":false,"station_id":"AK","time":4,"is_transit":false},{"line":4,"is_transit":true,"station_id":"KPB","transit":true,"i_lat":-6.132549,"time":9,"station_name":"Kampung Bandan","distance":4102,"i_long":106.826365},{"distance":1364,"transit":true,"station_name":"Jakarta Kota","i_long":106.812439,"is_transit":true,"time":3,"line":2,"i_lat":-6.137569,"station_id":"JAKK"},{"distance":1264,"station_id":"JAY","line":2,"transit":false,"station_name":"Jayakarta","i_lat":-6.141205,"i_long":106.820901,"is_transit":false,"time":4},{"is_transit":false,"i_long":106.82482,"line":2,"transit":false,"time":2,"distance":1080,"i_lat":-6.149769,"station_id":"MGB","station_name":"Manggabesar"},{"is_transit":false,"station_id":"SW","transit":false,"time":2,"i_lat":-6.160725,"line":2,"station_name":"Sawah Besar","distance":906,"i_long":106.827103},{"transit":false,"time":2,"i_long":106.828284,"line":2,"i_lat":-6.166716,"is_transit":false,"station_id":"JUA","station_name":"Juanda","distance":1149},{"i_lat":-6.186295,"transit":false,"station_name":"Gondangdia","station_id":"GDD","time":4,"distance":2015,"i_long":106.832183,"is_transit":false,"line":2},{"is_transit":false,"time":3,"i_long":106.840169,"station_name":"Cikini","i_lat":-6.198556,"transit":false,"distance":1750,"line":2,"station_id":"CKI"},{"is_transit":true,"station_id":"MRI","station_name":"Manggarai","distance":1590,"i_long":106.84912,"time":4,"i_lat":-6.209883,"line":2,"transit":true},{"i_lat":-6.212485,"line":1,"distance":1275,"is_transit":false,"i_long":106.858896,"station_name":"Matraman","transit":false,"station_id":"MTR","time":2},{"station_id":"JNG","transit":true,"is_transit":true,"line":1,"time":8,"i_long":106.86807400000001,"distance":1377,"i_lat":-6.215091,"station_name":"Jatinegara"},{"station_name":"Pondok Jati","line":11,"station_id":"POK","time":2,"i_lat":-6.209188,"distance":1236,"i_long":106.861737,"transit":false,"is_transit":false}],[{"i_lat":-6.166068,"i_long":106.701612,"time":0,"line":5,"station_name":"Kalideres","is_transit":false,"transit":false,"station_id":"KDS","distance":0},{"i_long":106.723064,"is_transit":false,"time":3,"line":5,"station_name":"Rawa Buaya","distance":2504,"transit":false,"station_id":"RW","i_lat":-6.162758},{"i_long":106.737035,"station_id":"BOI","is_transit":false,"time":4,"station_name":"Bojongindah","distance":1152,"i_lat":-6.159876,"transit":false,"line":5},{"transit":false,"i_lat":-6.1587309999999995,"is_transit":false,"i_long":106.756522,"station_id":"TKO","distance":2334,"line":5,"station_name":"Taman Kota","time":2},{"time":2,"station_name":"Pesing","transit":false,"station_id":"PSG","is_transit":false,"distance":1614,"i_lat":-6.161433,"line":5,"i_long":106.771379},{"station_id":"GGL","line":5,"station_name":"Grogol","time":2,"distance":2036,"i_long":106.788277,"is_transit":false,"transit":false,"i_lat":-6.162021},{"station_id":"DU","station_name":"Duri","transit":true,"time":3,"is_transit":true,"distance":1700,"i_lat":-6.155215,"line":1,"i_long":106.800832},{"i_long":106.811091,"line":1,"time":8,"i_lat":-6.185545,"distance":3632,"is_transit":false,"station_name":"Tanah Abang","transit":false,"station_id":"THB"},{"station_name":"Karet","station_id":"KAT","i_long":106.816351,"time":5,"is_transit":false,"transit":false,"distance":2029,"line":1,"i_lat":-6.20132},{"distance":471,"i_lat":-6.201433,"station_id":"SUDB","time":1,"i_long":106.819881,"station_name":"Sudirman Baru","is_transit":false,"transit":false,"line":1},{"station_name":"Sudirman","distance":280,"is_transit":false,"i_lat":-6.202263,"i_long":106.822649,"line":1,"station_id":"SUD","transit":false,"time":1},{"i_long":106.84912,"station_name":"Manggarai","time":4,"distance":3186,"transit":true,"line":2,"station_id":"MRI","is_transit":true,"i_lat":-6.209883},{"transit":false,"station_name":"Cikini","station_id":"CKI","time":4,"i_lat":-6.198556,"distance":1590,"i_long":106.840169,"line":2,"is_transit":false},{"time":3,"i_long":106.832183,"is_transit":false,"line":2,"i_lat":-6.186295,"station_id":"GDD","station_name":"Gondangdia","distance":1750,"transit":false},{"distance":2015,"time":4,"line":2,"i_lat":-6.166716,"is_transit":false,"i_long":106.828284,"transit":false,"station_name":"Juanda","station_id":"JUA"},{"time":2,"station_name":"Sawah Besar","is_transit":false,"line":2,"distance":1149,"transit":false,"i_long":106.827103,"i_lat":-6.160725,"station_id":"SW"},{"station_id":"MGB","transit":false,"station_name":"Manggabesar","i_lat":-6.149769,"is_transit":false,"distance":906,"line":2,"time":2,"i_long":106.82482},{"station_id":"JAY","transit":false,"station_name":"Jayakarta","is_transit":false,"i_long":106.820901,"line":2,"distance":1080,"time":2,"i_lat":-6.141205},{"transit":true,"line":2,"station_id":"JAKK","station_name":"Jakarta Kota","i_lat":-6.137569,"distance":1264,"time":4,"is_transit":true,"i_long":106.812439},{"station_name":"Kampung Bandan","i_long":106.826365,"i_lat":-6.132549,"distance":1364,"transit":true,"station_id":"KPB","time":3,"is_transit":true,"line":4},{"i_lat":-6.14505,"is_transit":false,"i_long":106.836569,"time":3,"transit":false,"station_name":"Rajawali","line":11,"station_id":"RJW","distance":1444},{"i_lat":-6.161728,"line":11,"transit":false,"is_transit":false,"time":5,"distance":1901,"station_name":"Kemayoran","i_long":106.839204,"station_id":"KMO"},{"is_transit":false,"i_long":106.84368,"line":11,"time":4,"station_id":"PSE","station_name":"Pasar Senen","transit":false,"distance":1436,"i_lat":-6.174784},{"is_transit":false,"station_id":"GST","distance":1567,"i_long":106.850107,"station_name":"Gang Sentiong","transit":false,"i_lat":-6.185975,"line":11,"time":8},{"line":11,"transit":false,"i_lat":-6.193792,"time":1,"i_long":106.855437,"station_id":"KMT","distance":973,"station_name":"Kramat","is_transit":false},{"i_long":106.861737,"distance":1829,"station_name":"Pondok Jati","station_id":"POK","line":11,"is_transit":false,"time":2,"transit":false,"i_lat":-6.209188}]]}