{"data":[[{"line":5,"distance":0,"time":0,"i_long":106.701612,"station_id":"KDS","transit":false,"station_name":"Kalideres","i_lat":-6.166068,"is_transit":false},{"station_id":"RW","time":3,"distance":2504,"station_name":"Rawa Buaya","i_lat":-6.162758,"is_transit":false,"i_long":106.723064,"transit":false,"line":5},{"line":5,"i_long":106.737035,"transit":false,"station_name":"Bojongindah","is_transit":false,"time":4,"distance":1152,"station_id":"BOI","i_lat":-6.159876},{"time":2,"line":5,"is_transit":false,"distance":2334,"station_name":"Taman Kota","station_id":"TKO","transit":false,"i_lat":-6.1587309999999995,"i_long":106.756522},{"i_lat":-6.161433,"distance":1614,"transit":false,"is_transit":false,"i_long":106.771379,"line":5,"station_id":"PSG","station_name":"Pesing","time":2},{"line":5,"i_lat":-6.162021,"i_long":106.788277,"time":2,"station_id":"GGL","is_transit":false,"distance":2036,"station_name":"Grogol","transit":false},{"transit":true,"station_name":"Duri","station_id":"DU","i_lat":-6.155215,"i_long":106.800832,"line":1,"is_transit":true,"distance":1700,"time":3},{"i_long":106.811091,"line":1,"transit":false,"distance":3632,"station_name":"Tanah Abang","is_transit":false,"station_id":"THB","time":8,"i_lat":-6.185545},{"is_transit":false,"transit":false,"distance":2029,"time":5,"station_id":"KAT","i_lat":-6.20132,"station_name":"Karet","i_long":106.816351,"line":1},{"time":1,"line":1,"station_id":"SUDB","i_long":106.819881,"distance":471,"station_name":"Sudirman Baru","transit":false,"is_transit":false,"i_lat":-6.201433}],[{"transit":false,"station_name":"Kalideres","is_transit":false,"i_lat":-6.166068,"distance":0,"i_long":106.701612,"time":0,"station_id":"KDS","line":5},{"is_transit":false,"time":3,"station_id":"RW","i_lat":-6.162758,"i_long":106.723064,"station_name":"Rawa Buaya","transit":false,"line":5,"distance":2504},{"station_id":"BOI","transit":false,"i_long":106.737035,"line":5,"is_transit":false,"time":4,"distance":1152,"station_name":"Bojongindah","i_lat":-6.159876},{"time":2,"distance":2334,"station_id":"TKO","is_transit":false,"i_long":106.756522,"line":5,"station_name":"Taman Kota","i_lat":-6.1587309999999995,"transit":false},{"i_long":106.771379,"station_id":"PSG","transit":false,"i_lat":-6.161433,"time":2,"distance":1614,"station_name":"Pesing","is_transit":false,"line":5},{"is_transit":false,"station_id":"GGL","time":2,"distance":2036,"i_lat":-6.162021,"i_long":106.788277,"line":5,"station_name":"Grogol","transit":false},{"line":1,"is_transit":true,"time":3,"station_name":"Duri","transit":true,"distance":1700,"station_id":"DU","i_long":106.800832,"i_lat":-6.155215},{"is_transit":false,"i_lat":-6.144674,"time":4,"distance":1230,"i_long":106.79867,"transit":false,"station_name":"Angke","line":1,"station_id":"AK"},{"station_name":"Kampung Bandan","is_transit":true,"time":9,"i_long":106.826365,"transit":true,"station_id":"KPB","distance":4102,"i_lat":-6.132549,"line":4},{"i_long":106.812439,"line":2,"time":3,"distance":1364,"station_id":"JAKK","transit":true,"is_transit":true,"i_lat":-6.137569,"station_name":"Jakarta Kota"},{"station_id":"JAY","i_lat":-6.141205,"time":4,"i_long":106.820901,"transit":false,"line":2,"distance":1264,"is_transit":false,"station_name":"Jayakarta"},{"time":2,"station_name":"Manggabesar","station_id":"MGB","is_transit":false,"distance":1080,"transit":false,"i_lat":-6.149769,"i_long":106.82482,"line":2},{"station_name":"Sawah Besar","line":2,"transit":false,"station_id":"SW","time":2,"distance":906,"i_long":106.827103,"is_transit":false,"i_lat":-6.160725},{"i_lat":-6.166716,"station_name":"Juanda","station_id":"JUA","time":2,"transit":false,"line":2,"i_long":106.828284,"distance":1149,"is_transit":false},{"time":4,"is_transit":false,"line":2,"distance":2015,"i_long":106.832183,"i_lat":-6.186295,"station_id":"GDD","station_name":"Gondangdia","transit":false},{"station_id":"CKI","is_transit":false,"i_lat":-6.198556,"i_long":106.840169,"time":3,"station_name":"Cikini","distance":1750,"line":2,"transit":false},{"time":4,"transit":true,"i_long":106.84912,"distance":1590,"is_transit":true,"station_name":"Manggarai","station_id":"MRI","i_lat":-6.209883,"line":2},{"i_lat":-6.202263,"station_id":"SUD","line":1,"time":4,"station_name":"Sudirman","transit":false,"i_long":106.822649,"distance":3186,"is_transit":false},{"line":1,"transit":false,"time":1,"is_transit":false,"distance":280,"i_lat":-6.201433,"station_id":"SUDB","i_long":106.819881,"station_name":"Sudirman Baru"}],[{"station_name":"Kalideres","line":5,"is_transit":false,"time":0,"distance":0,"station_id":"KDS","i_long":106.701612,"i_lat":-6.166068,"transit":false},{"i_long":106.723064,"transit":false,"i_lat":-6.162758,"is_transit":false,"line":5,"time":3,"station_id":"RW","station_name":"Rawa Buaya","distance":2504},{"i_lat":-6.159876,"station_id":"BOI","is_transit":false,"transit":false,"line":5,"distance":1152,"time":4,"station_name":"Bojongindah","i_long":106.737035},{"distance":2334,"i_long":106.756522,"i_lat":-6.1587309999999995,"line":5,"transit":false,"time":2,"station_id":"TKO","station_name":"Taman Kota","is_transit":false},{"i_long":106.771379,"line":5,"time":2,"i_lat":-6.161433,"station_id":"PSG","transit":false,"is_transit":false,"distance":1614,"station_name":"Pesing"},{"station_id":"GGL","i_long":106.788277,"distance":2036,"station_name":"Grogol","transit":false,"is_transit":false,"i_lat":-6.162021,"line":5,"time":2},{"station_id":"DU","is_transit":true,"station_name":"Duri","i_lat":-6.155215,"i_long":106.800832,"line":1,"transit":true,"distance":1700,"time":3},{"is_transit":false,"i_long":106.79867,"station_id":"AK","station_name":"Angke","distance":1230,"i_lat":-6.144674,"time":4,"transit":false,"line":1},{"station_name":"Kampung Bandan","transit":true,"distance":4102,"line":4,"time":9,"is_transit":true,"station_id":"KPB","i_long":106.826365,"i_lat":-6.132549},{"i_long":106.836569,"line":11,"distance":1444,"station_name":"Rajawali","is_transit":false,"time":3,"station_id":"RJW","transit":false,"i_lat":-6.14505},{"station_id":"KMO","distance":1901,"is_transit":false,"time":5,"station_name":"Kemayoran","transit":false,"i_lat":-6.161728,"line":11,"i_long":106.839204},{"distance":1436,"station_id":"PSE","transit":false,"is_transit":false,"i_lat":-6.174784,"time":4,"station_name":"Pasar Senen","i_long":106.84368,"line":11},{"is_transit":false,"transit":false,"i_long":106.850107,"line":11,"i_lat":-6.185975,"time":8,"distance":1567,"station_id":"GST","station_name":"Gang Sentiong"},{"station_id":"KMT","is_transit":false,"i_long":106.855437,"transit":false,"i_lat":-6.193792,"line":11,"distance":973,"station_name":"Kramat","time":1},{"line":11,"distance":1829,"transit":false,"is_transit":false,"i_long":106.861737,"time":2,"station_id":"POK","station_name":"Pondok Jati","i_lat":-6.209188},{"distance":1236,"station_id":"JNG","transit":true,"i_lat":-6.215091,"station_name":"Jatinegara","i_long":106.86807400000001,"line":1,"time":9,"is_transit":true},{"station_name":"Matraman","transit":false,"station_id":"MTR","i_long":106.858896,"line":1,"time":2,"distance":1377,"i_lat":-6.212485,"is_transit":false},{"i_long":106.84912,"transit":false,"station_name":"Manggarai","i_lat":-6.209883,"is_transit":false,"line":2,"distance":1275,"station_id":"MRI","time":2},{"station_name":"Sudirman","is_transit":false,"distance":3186,"transit":false,"line":1,"station_id":"SUD","i_lat":-6.202263,"i_long":106.822649,"time":4},{"transit":false,"distance":280,"station_name":"Sudirman Baru","i_lat":-6.201433,"i_long":106.819881,"line":1,"time":1,"is_transit":false,"station_id":"SUDB"}]]}