{"data":[[{"line":5,"time":0,"station_name":"Kalideres","distance":0,"i_lat":-6.166068,"transit":false,"is_transit":false,"station_id":"KDS","i_long":106.701612},{"is_transit":false,"station_name":"Poris","i_lat":-6.169933,"transit":false,"time":3,"line":5,"distance":2548,"station_id":"PI","i_long":106.679458},{"station_name":"Batuceper","i_long":106.665036,"transit":false,"i_lat":-6.171811,"is_transit":false,"line":0,"time":3,"station_id":"BPR","distance":1834},{"i_lat":-6.17331,"line":5,"station_id":"TTI","is_transit":false,"i_long":106.64657,"station_name":"Tanah Tinggi","transit":false,"time":3,"distance":2028},{"time":3,"transit":false,"station_id":"TNG","i_long":106.632761,"station_name":"Tangerang","distance":1547,"i_lat":-6.176583,"line":5,"is_transit":false}]]}