{"data":[[{"time":0,"distance":0,"station_id":"KDS","i_lat":-6.166068,"is_transit":false,"line":5,"i_long":106.701612,"transit":false,"station_name":"Kalideres"},{"station_id":"RW","time":3,"is_transit":false,"station_name":"Rawa Buaya","i_lat":-6.162758,"distance":2504,"transit":false,"i_long":106.723064,"line":5},{"i_lat":-6.159876,"is_transit":false,"time":4,"distance":1152,"i_long":106.737035,"station_id":"BOI","transit":false,"line":0,"station_name":"Bojongindah"},{"i_lat":-6.1587309999999995,"station_name":"Taman Kota","transit":false,"station_id":"TKO","is_transit":false,"distance":2334,"i_long":106.756522,"time":2,"line":5},{"station_id":"PSG","time":2,"station_name":"Pesing","i_lat":-6.161433,"is_transit":false,"line":5,"distance":1614,"transit":false,"i_long":106.771379},{"station_id":"GGL","station_name":"Grogol","i_long":106.788277,"distance":2036,"transit":false,"is_transit":false,"time":2,"i_lat":-6.162021,"line":5},{"station_id":"DU","distance":1700,"i_long":106.800832,"i_lat":-6.155215,"transit":true,"is_transit":true,"time":3,"line":1,"station_name":"Duri"},{"station_name":"Tanah Abang","transit":false,"i_lat":-6.185545,"station_id":"THB","i_long":106.811091,"line":1,"distance":3632,"is_transit":true,"time":8},{"line":1,"station_id":"KAT","i_long":106.816351,"station_name":"Karet","is_transit":false,"distance":2029,"time":5,"transit":false,"i_lat":-6.20132},{"distance":471,"i_long":106.819881,"transit":false,"line":1,"station_name":"Sudirman Baru","station_id":"SUDB","time":1,"i_lat":-6.201433,"is_transit":false},{"station_name":"Sudirman","time":1,"i_long":106.822649,"line":1,"station_id":"SUD","distance":280,"transit":false,"i_lat":-6.202263,"is_transit":false},{"line":0,"station_id":"MRI","station_name":"Manggarai","is_transit":true,"i_lat":-6.209883,"time":4,"i_long":106.84912,"distance":3186,"transit":false},{"distance":1275,"time":2,"i_lat":-6.212485,"station_name":"Matraman","transit":false,"i_long":106.858896,"station_id":"MTR","is_transit":false,"line":1}],[{"station_id":"KDS","time":0,"distance":0,"is_transit":false,"i_long":106.701612,"line":5,"station_name":"Kalideres","transit":false,"i_lat":-6.166068},{"is_transit":false,"i_lat":-6.162758,"line":5,"transit":false,"time":3,"i_long":106.723064,"station_id":"RW","distance":2504,"station_name":"Rawa Buaya"},{"station_id":"BOI","time":4,"station_name":"Bojongindah","transit":false,"is_transit":false,"line":0,"i_long":106.737035,"i_lat":-6.159876,"distance":1152},{"time":2,"station_name":"Taman Kota","transit":false,"station_id":"TKO","distance":2334,"i_lat":-6.1587309999999995,"is_transit":false,"i_long":106.756522,"line":5},{"i_long":106.771379,"transit":false,"station_id":"PSG","distance":1614,"time":2,"line":5,"i_lat":-6.161433,"is_transit":false,"station_name":"Pesing"},{"is_transit":false,"station_id":"GGL","i_lat":-6.162021,"distance":2036,"time":2,"i_long":106.788277,"transit":false,"line":5,"station_name":"Grogol"},{"time":3,"i_lat":-6.155215,"line":1,"station_name":"Duri","transit":true,"i_long":106.800832,"is_transit":true,"station_id":"DU","distance":1700},{"distance":1230,"transit":false,"i_lat":-6.144674,"time":4,"line":0,"is_transit":false,"station_id":"AK","station_name":"Angke","i_long":106.79867},{"time":9,"station_id":"KPB","transit":true,"i_long":106.826365,"is_transit":true,"station_name":"Kampung Bandan","line":0,"i_lat":-6.132549,"distance":4102},{"time":3,"station_name":"Rajawali","line":11,"i_lat":-6.14505,"station_id":"RJW","is_transit":false,"distance":1444,"transit":false,"i_long":106.836569},{"i_lat":-6.161728,"i_long":106.839204,"distance":1901,"station_name":"Kemayoran","line":11,"is_transit":false,"station_id":"KMO","time":5,"transit":false},{"station_name":"Pasar Senen","is_transit":false,"distance":1436,"transit":false,"line":11,"i_lat":-6.174784,"i_long":106.84368,"station_id":"PSE","time":4},{"i_lat":-6.185975,"line":11,"station_id":"GST","time":8,"i_long":106.850107,"station_name":"Gang Sentiong","transit":false,"is_transit":false,"distance":1567},{"i_long":106.855437,"transit":false,"is_transit":false,"time":1,"station_id":"KMT","distance":973,"line":11,"i_lat":-6.193792,"station_name":"Kramat"},{"i_long":106.861737,"line":11,"time":2,"i_lat":-6.209188,"transit":false,"station_id":"POK","is_transit":false,"distance":1829,"station_name":"Pondok Jati"},{"station_id":"JNG","transit":true,"is_transit":true,"distance":1236,"station_name":"Jatinegara","time":9,"i_lat":-6.215091,"line":0,"i_long":106.86807400000001},{"line":1,"i_long":106.858896,"time":2,"is_transit":false,"transit":false,"distance":1377,"station_name":"Matraman","i_lat":-6.212485,"station_id":"MTR"}],[{"transit":false,"distance":0,"station_id":"KDS","i_long":106.701612,"line":5,"i_lat":-6.166068,"station_name":"Kalideres","is_transit":false,"time":0},{"station_id":"RW","station_name":"Rawa Buaya","i_lat":-6.162758,"distance":2504,"transit":false,"i_long":106.723064,"time":3,"line":5,"is_transit":false},{"i_lat":-6.159876,"line":0,"i_long":106.737035,"station_id":"BOI","time":4,"distance":1152,"is_transit":false,"transit":false,"station_name":"Bojongindah"},{"is_transit":false,"station_name":"Taman Kota","station_id":"TKO","i_lat":-6.1587309999999995,"i_long":106.756522,"transit":false,"distance":2334,"line":5,"time":2},{"station_id":"PSG","transit":false,"i_lat":-6.161433,"station_name":"Pesing","distance":1614,"line":5,"is_transit":false,"time":2,"i_long":106.771379},{"time":2,"is_transit":false,"transit":false,"distance":2036,"station_id":"GGL","i_long":106.788277,"i_lat":-6.162021,"station_name":"Grogol","line":5},{"time":3,"transit":true,"line":1,"is_transit":true,"station_id":"DU","distance":1700,"i_lat":-6.155215,"station_name":"Duri","i_long":106.800832},{"station_name":"Angke","i_lat":-6.144674,"is_transit":false,"transit":false,"station_id":"AK","time":4,"distance":1230,"i_long":106.79867,"line":0},{"station_id":"KPB","station_name":"Kampung Bandan","distance":4102,"i_lat":-6.132549,"time":9,"is_transit":true,"i_long":106.826365,"transit":false,"line":0},{"transit":true,"time":3,"is_transit":true,"station_name":"Jakarta Kota","line":0,"distance":1364,"i_lat":-6.137569,"station_id":"JAKK","i_long":106.812439},{"line":7,"transit":false,"station_id":"JAY","is_transit":false,"time":4,"distance":1264,"station_name":"Jayakarta","i_lat":-6.141205,"i_long":106.820901},{"i_lat":-6.149769,"station_id":"MGB","station_name":"Manggabesar","is_transit":false,"distance":1080,"transit":false,"i_long":106.82482,"line":2,"time":2},{"line":2,"distance":906,"station_id":"SW","transit":false,"time":2,"i_long":106.827103,"i_lat":-6.160725,"station_name":"Sawah Besar","is_transit":false},{"is_transit":false,"i_long":106.828284,"distance":1149,"line":2,"station_name":"Juanda","i_lat":-6.166716,"time":2,"station_id":"JUA","transit":false},{"i_lat":-6.186295,"station_name":"Gondangdia","distance":2015,"line":2,"is_transit":false,"time":4,"i_long":106.832183,"transit":false,"station_id":"GDD"},{"is_transit":false,"station_id":"CKI","station_name":"Cikini","transit":false,"distance":1750,"line":0,"i_lat":-6.198556,"time":3,"i_long":106.840169},{"station_id":"MRI","i_long":106.84912,"station_name":"Manggarai","line":0,"distance":1590,"is_transit":true,"time":4,"transit":true,"i_lat":-6.209883},{"distance":1275,"line":1,"station_id":"MTR","station_name":"Matraman","is_transit":false,"i_lat":-6.212485,"transit":false,"time":2,"i_long":106.858896}],[{"is_transit":false,"i_long":106.701612,"line":5,"time":0,"station_id":"KDS","distance":0,"station_name":"Kalideres","transit":false,"i_lat":-6.166068},{"distance":2504,"is_transit":false,"station_name":"Rawa Buaya","transit":false,"i_long":106.723064,"i_lat":-6.162758,"line":5,"station_id":"RW","time":3},{"i_long":106.737035,"is_transit":false,"transit":false,"time":4,"station_name":"Bojongindah","station_id":"BOI","i_lat":-6.159876,"distance":1152,"line":0},{"station_name":"Taman Kota","station_id":"TKO","is_transit":false,"i_lat":-6.1587309999999995,"i_long":106.756522,"time":2,"distance":2334,"line":5,"transit":false},{"station_id":"PSG","line":5,"transit":false,"is_transit":false,"i_lat":-6.161433,"i_long":106.771379,"time":2,"distance":1614,"station_name":"Pesing"},{"transit":false,"i_long":106.788277,"time":2,"is_transit":false,"distance":2036,"i_lat":-6.162021,"line":5,"station_name":"Grogol","station_id":"GGL"},{"is_transit":true,"i_long":106.800832,"transit":true,"station_name":"Duri","line":1,"station_id":"DU","i_lat":-6.155215,"time":3,"distance":1700},{"time":8,"station_name":"Tanah Abang","i_long":106.811091,"distance":3632,"line":1,"transit":false,"station_id":"THB","i_lat":-6.185545,"is_transit":true},{"transit":false,"line":1,"distance":2029,"i_lat":-6.20132,"is_transit":false,"i_long":106.816351,"station_id":"KAT","time":5,"station_name":"Karet"},{"station_name":"Sudirman Baru","i_lat":-6.201433,"station_id":"SUDB","time":1,"transit":false,"is_transit":false,"i_long":106.819881,"line":1,"distance":471},{"time":1,"line":1,"station_id":"SUD","transit":false,"i_long":106.822649,"is_transit":false,"i_lat":-6.202263,"distance":280,"station_name":"Sudirman"},{"is_transit":true,"line":0,"i_lat":-6.209883,"transit":true,"distance":3186,"time":4,"i_long":106.84912,"station_id":"MRI","station_name":"Manggarai"},{"i_lat":-6.198556,"line":0,"station_name":"Cikini","is_transit":false,"i_long":106.840169,"transit":false,"time":4,"station_id":"CKI","distance":1590},{"station_name":"Gondangdia","time":3,"line":2,"distance":1750,"is_transit":false,"i_long":106.832183,"station_id":"GDD","transit":false,"i_lat":-6.186295},{"i_long":106.828284,"line":2,"is_transit":false,"distance":2015,"station_id":"JUA","time":4,"transit":false,"i_lat":-6.166716,"station_name":"Juanda"},{"time":2,"distance":1149,"station_name":"Sawah Besar","transit":false,"i_long":106.827103,"is_transit":false,"i_lat":-6.160725,"line":2,"station_id":"SW"},{"i_long":106.82482,"line":2,"station_name":"Manggabesar","transit":false,"distance":906,"i_lat":-6.149769,"station_id":"MGB","time":2,"is_transit":false},{"distance":1080,"time":2,"station_id":"JAY","station_name":"Jayakarta","i_lat":-6.141205,"i_long":106.820901,"transit":false,"line":7,"is_transit":false},{"time":4,"station_id":"JAKK","station_name":"Jakarta Kota","transit":true,"i_long":106.812439,"line":0,"is_transit":true,"distance":1264,"i_lat":-6.137569},{"i_long":106.826365,"station_id":"KPB","distance":1364,"station_name":"Kampung Bandan","time":3,"transit":true,"i_lat":-6.132549,"line":0,"is_transit":true},{"station_name":"Rajawali","station_id":"RJW","i_long":106.836569,"is_transit":false,"line":11,"time":3,"transit":false,"distance":1444,"i_lat":-6.14505},{"is_transit":false,"distance":1901,"station_name":"Kemayoran","time":5,"i_lat":-6.161728,"station_id":"KMO","i_long":106.839204,"line":11,"transit":false},{"transit":false,"distance":1436,"time":4,"is_transit":false,"i_lat":-6.174784,"i_long":106.84368,"station_id":"PSE","line":11,"station_name":"Pasar Senen"},{"distance":1567,"station_id":"GST","station_name":"Gang Sentiong","transit":false,"i_lat":-6.185975,"i_long":106.850107,"line":11,"time":8,"is_transit":false},{"is_transit":false,"distance":973,"station_name":"Kramat","transit":false,"line":11,"time":1,"i_long":106.855437,"i_lat":-6.193792,"station_id":"KMT"},{"station_id":"POK","i_long":106.861737,"station_name":"Pondok Jati","time":2,"line":11,"distance":1829,"transit":false,"is_transit":false,"i_lat":-6.209188},{"time":9,"transit":true,"distance":1236,"is_transit":true,"i_lat":-6.215091,"station_name":"Jatinegara","line":0,"station_id":"JNG","i_long":106.86807400000001},{"i_long":106.858896,"transit":false,"station_name":"Matraman","station_id":"MTR","is_transit":false,"line":1,"i_lat":-6.212485,"time":2,"distance":1377}]]}