{"data":[[{"station_id":"KDS","time":0,"i_long":106.701612,"station_name":"Kalideres","line":5,"distance":0,"transit":false,"is_transit":false,"i_lat":-6.166068},{"i_long":106.723064,"station_id":"RW","i_lat":-6.162758,"transit":false,"line":5,"time":3,"station_name":"Rawa Buaya","distance":2504,"is_transit":false},{"transit":false,"distance":1152,"station_name":"Bojongindah","time":4,"station_id":"BOI","i_lat":-6.159876,"is_transit":false,"i_long":106.737035,"line":5},{"station_name":"Taman Kota","transit":false,"i_lat":-6.1587309999999995,"line":5,"i_long":106.756522,"distance":2334,"is_transit":false,"time":2,"station_id":"TKO"},{"station_name":"Pesing","transit":false,"distance":1614,"time":2,"i_long":106.771379,"i_lat":-6.161433,"is_transit":false,"line":5,"station_id":"PSG"}]]}