{"data":[[{"i_long":106.701612,"i_lat":-6.166068,"transit":false,"station_id":"KDS","is_transit":false,"station_name":"Kalideres","distance":0,"line":5,"time":0},{"distance":2504,"i_lat":-6.162758,"line":5,"is_transit":false,"transit":false,"station_name":"Rawa Buaya","station_id":"RW","i_long":106.723064,"time":3},{"station_name":"Bojongindah","time":4,"is_transit":false,"distance":1152,"station_id":"BOI","transit":false,"i_lat":-6.159876,"i_long":106.737035,"line":5},{"station_name":"Taman Kota","i_lat":-6.1587309999999995,"time":2,"i_long":106.756522,"is_transit":false,"station_id":"TKO","line":5,"distance":2334,"transit":false},{"station_id":"PSG","line":5,"station_name":"Pesing","time":2,"is_transit":false,"i_long":106.771379,"distance":1614,"transit":false,"i_lat":-6.161433},{"distance":2036,"station_id":"GGL","line":5,"i_lat":-6.162021,"is_transit":false,"transit":false,"i_long":106.788277,"station_name":"Grogol","time":2},{"distance":1700,"station_name":"Duri","is_transit":true,"i_lat":-6.155215,"station_id":"DU","time":3,"line":1,"i_long":106.800832,"transit":true},{"distance":3632,"station_name":"Tanah Abang","i_lat":-6.185545,"line":1,"is_transit":true,"time":8,"station_id":"THB","transit":true,"i_long":106.811091},{"transit":false,"station_name":"Palmerah","distance":3191,"is_transit":false,"line":6,"i_lat":-6.207404,"i_long":106.79689,"station_id":"PLM","time":6},{"line":6,"i_lat":-6.237242,"station_id":"KBY","is_transit":false,"i_long":106.780334,"time":7,"transit":false,"distance":3737,"station_name":"Kebayoran"},{"line":6,"distance":6218,"i_long":106.74273,"time":8,"transit":false,"station_name":"Pondokranji","is_transit":false,"i_lat":-6.276362,"station_id":"PDJ"},{"distance":2179,"station_id":"JMU","i_long":106.728916,"is_transit":false,"transit":false,"i_lat":-6.288927,"line":6,"time":3,"station_name":"Jurangmangu"},{"time":4,"i_long":106.712277,"i_lat":-6.296963,"station_name":"Sudimara","transit":false,"is_transit":false,"station_id":"SDM","line":6,"distance":1994},{"is_transit":false,"transit":false,"time":6,"station_name":"Rawa Buntu","i_long":106.675475,"line":6,"distance":4566,"station_id":"RU","i_lat":-6.314823},{"station_name":"Serpong","station_id":"SRP","is_transit":false,"time":4,"i_lat":-6.319871,"i_long":106.66566,"line":6,"transit":false,"distance":2413},{"time":4,"i_long":106.640411,"line":3,"station_id":"CSK","is_transit":false,"station_name":"Cisauk","transit":false,"distance":1784,"i_lat":-6.32484},{"time":4,"i_lat":-6.329547,"is_transit":false,"transit":false,"station_id":"CC","i_long":106.617853,"station_name":"Cicayur","distance":2519,"line":3},{"time":8,"i_long":106.568863,"distance":5968,"line":6,"is_transit":false,"i_lat":-6.3441410000000005,"station_id":"PRP","station_name":"Parung Panjang","transit":false},{"i_lat":-6.354349,"station_name":"Cilejit","transit":false,"distance":7025,"is_transit":false,"station_id":"CJT","i_long":106.508482,"time":9,"line":3},{"is_transit":false,"distance":2675,"time":6,"station_id":"DAR","i_lat":-6.338021,"line":0,"station_name":"Daru","i_long":106.491338,"transit":false},{"transit":false,"is_transit":false,"station_id":"TEJ","i_lat":-6.327251,"station_name":"Tenjo","line":6,"i_long":106.460812,"distance":3902,"time":5},{"time":5,"transit":false,"i_long":106.425991,"line":6,"station_name":"Tigaraksa","i_lat":-6.328533,"distance":2974,"is_transit":false,"station_id":"TGS"},{"i_lat":-6.33561,"line":3,"station_name":"Cikoya","is_transit":false,"transit":false,"station_id":"CKY","time":3,"i_long":106.411216,"distance":2651}],[{"time":0,"i_long":106.701612,"station_name":"Kalideres","line":5,"transit":false,"is_transit":false,"station_id":"KDS","i_lat":-6.166068,"distance":0},{"station_id":"RW","time":3,"line":5,"is_transit":false,"i_long":106.723064,"distance":2504,"transit":false,"i_lat":-6.162758,"station_name":"Rawa Buaya"},{"line":5,"time":4,"station_id":"BOI","station_name":"Bojongindah","is_transit":false,"i_long":106.737035,"transit":false,"distance":1152,"i_lat":-6.159876},{"station_name":"Taman Kota","is_transit":false,"i_long":106.756522,"time":2,"distance":2334,"transit":false,"i_lat":-6.1587309999999995,"line":5,"station_id":"TKO"},{"transit":false,"line":5,"distance":1614,"i_lat":-6.161433,"is_transit":false,"station_name":"Pesing","station_id":"PSG","i_long":106.771379,"time":2},{"is_transit":false,"i_lat":-6.162021,"station_name":"Grogol","distance":2036,"i_long":106.788277,"line":5,"time":2,"transit":false,"station_id":"GGL"},{"distance":1700,"station_name":"Duri","transit":true,"i_long":106.800832,"i_lat":-6.155215,"line":1,"is_transit":true,"station_id":"DU","time":3},{"distance":1230,"line":1,"is_transit":false,"transit":false,"station_name":"Angke","time":4,"station_id":"AK","i_lat":-6.144674,"i_long":106.79867},{"station_id":"KPB","is_transit":true,"i_lat":-6.132549,"station_name":"Kampung Bandan","distance":4102,"transit":true,"i_long":106.826365,"line":4,"time":9},{"transit":true,"station_id":"JAKK","is_transit":true,"i_long":106.812439,"time":3,"station_name":"Jakarta Kota","i_lat":-6.137569,"distance":1364,"line":2},{"time":4,"i_long":106.820901,"line":2,"distance":1264,"transit":false,"is_transit":false,"station_name":"Jayakarta","station_id":"JAY","i_lat":-6.141205},{"transit":false,"time":2,"station_id":"MGB","line":2,"i_lat":-6.149769,"is_transit":false,"station_name":"Manggabesar","i_long":106.82482,"distance":1080},{"line":2,"station_id":"SW","time":2,"is_transit":false,"station_name":"Sawah Besar","i_lat":-6.160725,"distance":906,"i_long":106.827103,"transit":false},{"i_long":106.828284,"station_name":"Juanda","line":2,"time":2,"transit":false,"is_transit":false,"station_id":"JUA","distance":1149,"i_lat":-6.166716},{"distance":2015,"time":4,"station_id":"GDD","is_transit":false,"i_lat":-6.186295,"i_long":106.832183,"station_name":"Gondangdia","transit":false,"line":2},{"time":3,"distance":1750,"station_id":"CKI","station_name":"Cikini","is_transit":false,"line":2,"i_long":106.840169,"transit":false,"i_lat":-6.198556},{"line":2,"distance":1590,"station_name":"Manggarai","transit":true,"time":4,"station_id":"MRI","is_transit":true,"i_lat":-6.209883,"i_long":106.84912},{"station_id":"SUD","transit":false,"i_lat":-6.202263,"line":1,"distance":3186,"time":4,"i_long":106.822649,"is_transit":false,"station_name":"Sudirman"},{"time":1,"station_name":"Sudirman Baru","is_transit":false,"i_lat":-6.201433,"distance":280,"line":1,"transit":false,"station_id":"SUDB","i_long":106.819881},{"line":1,"i_lat":-6.20132,"distance":471,"station_id":"KAT","i_long":106.816351,"time":1,"transit":false,"is_transit":false,"station_name":"Karet"},{"station_name":"Tanah Abang","i_long":106.811091,"station_id":"THB","i_lat":-6.185545,"is_transit":true,"distance":2029,"line":1,"time":5,"transit":true},{"transit":false,"time":6,"distance":3191,"line":6,"i_lat":-6.207404,"station_id":"PLM","is_transit":false,"station_name":"Palmerah","i_long":106.79689},{"is_transit":false,"distance":3737,"station_name":"Kebayoran","i_lat":-6.237242,"transit":false,"i_long":106.780334,"time":7,"line":6,"station_id":"KBY"},{"i_long":106.74273,"transit":false,"station_id":"PDJ","is_transit":false,"station_name":"Pondokranji","line":6,"distance":6218,"i_lat":-6.276362,"time":8},{"transit":false,"i_long":106.728916,"distance":2179,"time":3,"station_name":"Jurangmangu","line":6,"is_transit":false,"station_id":"JMU","i_lat":-6.288927},{"is_transit":false,"time":4,"station_name":"Sudimara","distance":1994,"transit":false,"i_lat":-6.296963,"line":6,"i_long":106.712277,"station_id":"SDM"},{"transit":false,"line":6,"station_name":"Rawa Buntu","i_long":106.675475,"is_transit":false,"i_lat":-6.314823,"distance":4566,"station_id":"RU","time":6},{"time":4,"distance":2413,"station_name":"Serpong","i_lat":-6.319871,"i_long":106.66566,"is_transit":false,"station_id":"SRP","transit":false,"line":6},{"distance":1784,"station_name":"Cisauk","transit":false,"i_lat":-6.32484,"i_long":106.640411,"line":3,"station_id":"CSK","time":4,"is_transit":false},{"i_lat":-6.329547,"distance":2519,"station_name":"Cicayur","is_transit":false,"line":3,"transit":false,"station_id":"CC","i_long":106.617853,"time":4},{"station_id":"PRP","line":6,"time":8,"is_transit":false,"i_lat":-6.3441410000000005,"transit":false,"distance":5968,"i_long":106.568863,"station_name":"Parung Panjang"},{"distance":7025,"time":9,"is_transit":false,"station_name":"Cilejit","station_id":"CJT","i_lat":-6.354349,"line":3,"transit":false,"i_long":106.508482},{"station_name":"Daru","line":0,"is_transit":false,"station_id":"DAR","time":6,"distance":2675,"transit":false,"i_long":106.491338,"i_lat":-6.338021},{"transit":false,"i_lat":-6.327251,"i_long":106.460812,"station_name":"Tenjo","station_id":"TEJ","line":6,"time":5,"is_transit":false,"distance":3902},{"line":6,"station_name":"Tigaraksa","i_lat":-6.328533,"distance":2974,"time":5,"station_id":"TGS","transit":false,"is_transit":false,"i_long":106.425991},{"is_transit":false,"i_long":106.411216,"station_name":"Cikoya","station_id":"CKY","time":3,"transit":false,"distance":2651,"i_lat":-6.33561,"line":3}],[{"station_id":"KDS","line":5,"transit":false,"is_transit":false,"i_long":106.701612,"time":0,"station_name":"Kalideres","i_lat":-6.166068,"distance":0},{"distance":2504,"transit":false,"i_lat":-6.162758,"station_id":"RW","time":3,"is_transit":false,"i_long":106.723064,"line":5,"station_name":"Rawa Buaya"},{"i_lat":-6.159876,"line":5,"is_transit":false,"distance":1152,"station_id":"BOI","time":4,"station_name":"Bojongindah","transit":false,"i_long":106.737035},{"line":5,"station_name":"Taman Kota","i_lat":-6.1587309999999995,"station_id":"TKO","is_transit":false,"distance":2334,"time":2,"i_long":106.756522,"transit":false},{"is_transit":false,"distance":1614,"station_name":"Pesing","transit":false,"station_id":"PSG","i_long":106.771379,"time":2,"i_lat":-6.161433,"line":5},{"distance":2036,"station_name":"Grogol","transit":false,"i_lat":-6.162021,"line":5,"station_id":"GGL","i_long":106.788277,"is_transit":false,"time":2},{"station_name":"Duri","station_id":"DU","is_transit":true,"transit":true,"distance":1700,"time":3,"line":1,"i_lat":-6.155215,"i_long":106.800832},{"station_name":"Angke","i_lat":-6.144674,"station_id":"AK","transit":false,"time":4,"distance":1230,"i_long":106.79867,"line":1,"is_transit":false},{"line":4,"is_transit":true,"time":9,"station_name":"Kampung Bandan","distance":4102,"station_id":"KPB","transit":true,"i_lat":-6.132549,"i_long":106.826365},{"station_id":"RJW","is_transit":false,"station_name":"Rajawali","time":3,"i_lat":-6.14505,"i_long":106.836569,"transit":false,"distance":1444,"line":11},{"transit":false,"i_lat":-6.161728,"time":5,"i_long":106.839204,"line":11,"distance":1901,"station_id":"KMO","is_transit":false,"station_name":"Kemayoran"},{"i_long":106.84368,"station_id":"PSE","line":11,"time":4,"is_transit":false,"transit":false,"distance":1436,"i_lat":-6.174784,"station_name":"Pasar Senen"},{"distance":1567,"station_id":"GST","is_transit":false,"station_name":"Gang Sentiong","i_lat":-6.185975,"i_long":106.850107,"line":11,"transit":false,"time":8},{"time":1,"is_transit":false,"i_lat":-6.193792,"station_name":"Kramat","station_id":"KMT","transit":false,"i_long":106.855437,"distance":973,"line":11},{"is_transit":false,"time":2,"station_id":"POK","i_lat":-6.209188,"station_name":"Pondok Jati","line":11,"i_long":106.861737,"distance":1829,"transit":false},{"i_long":106.86807400000001,"i_lat":-6.215091,"line":1,"station_id":"JNG","station_name":"Jatinegara","transit":true,"is_transit":true,"distance":1236,"time":9},{"transit":false,"is_transit":false,"i_long":106.858896,"distance":1377,"i_lat":-6.212485,"station_id":"MTR","station_name":"Matraman","line":1,"time":2},{"distance":1275,"is_transit":false,"station_id":"MRI","transit":false,"i_long":106.84912,"line":2,"station_name":"Manggarai","i_lat":-6.209883,"time":2},{"time":4,"station_id":"SUD","i_lat":-6.202263,"line":1,"is_transit":false,"i_long":106.822649,"distance":3186,"transit":false,"station_name":"Sudirman"},{"station_name":"Sudirman Baru","is_transit":false,"station_id":"SUDB","i_lat":-6.201433,"i_long":106.819881,"time":1,"transit":false,"line":1,"distance":280},{"distance":471,"i_lat":-6.20132,"is_transit":false,"station_name":"Karet","transit":false,"i_long":106.816351,"station_id":"KAT","line":1,"time":1},{"time":5,"station_id":"THB","i_long":106.811091,"distance":2029,"line":1,"station_name":"Tanah Abang","is_transit":true,"transit":true,"i_lat":-6.185545},{"station_id":"PLM","transit":false,"i_long":106.79689,"distance":3191,"time":6,"is_transit":false,"station_name":"Palmerah","line":6,"i_lat":-6.207404},{"transit":false,"is_transit":false,"station_name":"Kebayoran","time":7,"i_long":106.780334,"line":6,"station_id":"KBY","distance":3737,"i_lat":-6.237242},{"station_id":"PDJ","transit":false,"distance":6218,"station_name":"Pondokranji","i_long":106.74273,"i_lat":-6.276362,"line":6,"time":8,"is_transit":false},{"is_transit":false,"distance":2179,"transit":false,"station_id":"JMU","station_name":"Jurangmangu","i_long":106.728916,"time":3,"line":6,"i_lat":-6.288927},{"is_transit":false,"distance":1994,"time":4,"station_name":"Sudimara","i_long":106.712277,"line":6,"transit":false,"i_lat":-6.296963,"station_id":"SDM"},{"station_name":"Rawa Buntu","line":6,"transit":false,"station_id":"RU","time":6,"distance":4566,"is_transit":false,"i_lat":-6.314823,"i_long":106.675475},{"transit":false,"station_name":"Serpong","station_id":"SRP","distance":2413,"i_long":106.66566,"time":4,"line":6,"is_transit":false,"i_lat":-6.319871},{"station_name":"Cisauk","time":4,"transit":false,"is_transit":false,"i_lat":-6.32484,"i_long":106.640411,"line":3,"distance":1784,"station_id":"CSK"},{"i_lat":-6.329547,"station_id":"CC","is_transit":false,"time":4,"transit":false,"distance":2519,"i_long":106.617853,"line":3,"station_name":"Cicayur"},{"transit":false,"i_lat":-6.3441410000000005,"time":8,"distance":5968,"station_id":"PRP","i_long":106.568863,"is_transit":false,"station_name":"Parung Panjang","line":6},{"line":3,"is_transit":false,"time":9,"transit":false,"station_name":"Cilejit","i_long":106.508482,"station_id":"CJT","i_lat":-6.354349,"distance":7025},{"i_lat":-6.338021,"line":0,"distance":2675,"station_name":"Daru","time":6,"transit":false,"station_id":"DAR","i_long":106.491338,"is_transit":false},{"distance":3902,"station_name":"Tenjo","station_id":"TEJ","time":5,"i_long":106.460812,"transit":false,"line":6,"i_lat":-6.327251,"is_transit":false},{"station_id":"TGS","time":5,"i_long":106.425991,"is_transit":false,"transit":false,"i_lat":-6.328533,"line":6,"station_name":"Tigaraksa","distance":2974},{"distance":2651,"station_name":"Cikoya","is_transit":false,"transit":false,"station_id":"CKY","i_lat":-6.33561,"i_long":106.411216,"time":3,"line":3}]]}