{"data":[[{"time":0,"i_lat":-6.166068,"is_transit":false,"station_id":"KDS","line":5,"distance":0,"transit":false,"i_long":106.701612,"station_name":"Kalideres"},{"is_transit":false,"distance":2504,"time":3,"station_name":"Rawa Buaya","i_long":106.723064,"station_id":"RW","i_lat":-6.162758,"line":5,"transit":false},{"transit":false,"line":5,"is_transit":false,"station_id":"BOI","station_name":"Bojongindah","distance":1152,"i_lat":-6.159876,"i_long":106.737035,"time":4},{"i_long":106.756522,"i_lat":-6.1587309999999995,"line":5,"station_id":"TKO","station_name":"Taman Kota","distance":2334,"time":2,"is_transit":false,"transit":false},{"time":2,"i_lat":-6.161433,"i_long":106.771379,"is_transit":false,"line":5,"distance":1614,"station_name":"Pesing","station_id":"PSG","transit":false},{"is_transit":false,"transit":false,"i_long":106.788277,"i_lat":-6.162021,"station_name":"Grogol","line":5,"time":2,"distance":2036,"station_id":"GGL"},{"transit":true,"time":3,"is_transit":true,"line":1,"station_id":"DU","i_lat":-6.155215,"distance":1700,"i_long":106.800832,"station_name":"Duri"},{"station_name":"Angke","line":1,"distance":1230,"transit":false,"station_id":"AK","i_long":106.79867,"time":4,"is_transit":false,"i_lat":-6.144674}],[{"line":5,"time":0,"station_id":"KDS","is_transit":false,"station_name":"Kalideres","i_lat":-6.166068,"i_long":106.701612,"distance":0,"transit":false},{"line":5,"station_name":"Rawa Buaya","i_long":106.723064,"time":3,"station_id":"RW","i_lat":-6.162758,"is_transit":false,"distance":2504,"transit":false},{"line":5,"time":4,"station_name":"Bojongindah","transit":false,"i_lat":-6.159876,"i_long":106.737035,"distance":1152,"station_id":"BOI","is_transit":false},{"distance":2334,"is_transit":false,"station_id":"TKO","i_lat":-6.1587309999999995,"transit":false,"i_long":106.756522,"time":2,"line":5,"station_name":"Taman Kota"},{"is_transit":false,"station_name":"Pesing","transit":false,"time":2,"distance":1614,"i_lat":-6.161433,"station_id":"PSG","i_long":106.771379,"line":5},{"transit":false,"line":5,"i_lat":-6.162021,"is_transit":false,"time":2,"distance":2036,"station_name":"Grogol","station_id":"GGL","i_long":106.788277},{"line":1,"time":3,"i_lat":-6.155215,"is_transit":true,"transit":true,"i_long":106.800832,"distance":1700,"station_id":"DU","station_name":"Duri"},{"line":1,"i_lat":-6.185545,"i_long":106.811091,"transit":false,"station_name":"Tanah Abang","is_transit":false,"distance":3632,"time":8,"station_id":"THB"},{"distance":2029,"i_lat":-6.20132,"station_id":"KAT","transit":false,"is_transit":false,"i_long":106.816351,"station_name":"Karet","line":1,"time":5},{"station_name":"Sudirman Baru","i_long":106.819881,"distance":471,"is_transit":false,"time":1,"station_id":"SUDB","transit":false,"i_lat":-6.201433,"line":1},{"station_id":"SUD","i_lat":-6.202263,"time":1,"is_transit":false,"distance":280,"transit":false,"i_long":106.822649,"line":1,"station_name":"Sudirman"},{"is_transit":true,"station_name":"Manggarai","transit":true,"line":2,"distance":3186,"station_id":"MRI","time":4,"i_lat":-6.209883,"i_long":106.84912},{"transit":false,"i_lat":-6.198556,"distance":1590,"station_id":"CKI","station_name":"Cikini","i_long":106.840169,"line":2,"time":4,"is_transit":false},{"i_lat":-6.186295,"station_id":"GDD","station_name":"Gondangdia","line":2,"time":3,"transit":false,"is_transit":false,"i_long":106.832183,"distance":1750},{"is_transit":false,"station_id":"JUA","transit":false,"station_name":"Juanda","i_lat":-6.166716,"line":2,"time":4,"distance":2015,"i_long":106.828284},{"is_transit":false,"transit":false,"i_long":106.827103,"station_name":"Sawah Besar","distance":1149,"time":2,"station_id":"SW","i_lat":-6.160725,"line":2},{"is_transit":false,"i_lat":-6.149769,"station_name":"Manggabesar","i_long":106.82482,"line":2,"transit":false,"distance":906,"station_id":"MGB","time":2},{"station_id":"JAY","i_lat":-6.141205,"transit":false,"distance":1080,"i_long":106.820901,"time":2,"is_transit":false,"station_name":"Jayakarta","line":2},{"time":4,"line":2,"i_long":106.812439,"distance":1264,"is_transit":true,"transit":true,"station_id":"JAKK","station_name":"Jakarta Kota","i_lat":-6.137569},{"transit":true,"distance":1364,"is_transit":true,"line":4,"station_name":"Kampung Bandan","time":3,"i_lat":-6.132549,"station_id":"KPB","i_long":106.826365},{"station_name":"Angke","distance":4102,"time":9,"station_id":"AK","i_long":106.79867,"transit":false,"line":1,"is_transit":false,"i_lat":-6.144674}],[{"distance":0,"is_transit":false,"time":0,"station_name":"Kalideres","transit":false,"i_lat":-6.166068,"i_long":106.701612,"line":5,"station_id":"KDS"},{"i_lat":-6.162758,"station_name":"Rawa Buaya","time":3,"i_long":106.723064,"transit":false,"distance":2504,"line":5,"station_id":"RW","is_transit":false},{"station_id":"BOI","transit":false,"line":5,"is_transit":false,"i_lat":-6.159876,"distance":1152,"station_name":"Bojongindah","i_long":106.737035,"time":4},{"line":5,"i_lat":-6.1587309999999995,"distance":2334,"station_name":"Taman Kota","time":2,"transit":false,"is_transit":false,"station_id":"TKO","i_long":106.756522},{"station_name":"Pesing","time":2,"line":5,"transit":false,"is_transit":false,"i_long":106.771379,"distance":1614,"station_id":"PSG","i_lat":-6.161433},{"station_name":"Grogol","distance":2036,"is_transit":false,"i_long":106.788277,"transit":false,"i_lat":-6.162021,"time":2,"station_id":"GGL","line":5},{"transit":true,"i_lat":-6.155215,"time":3,"is_transit":true,"line":1,"i_long":106.800832,"distance":1700,"station_id":"DU","station_name":"Duri"},{"distance":3632,"i_long":106.811091,"station_name":"Tanah Abang","is_transit":false,"time":8,"transit":false,"i_lat":-6.185545,"line":1,"station_id":"THB"},{"distance":2029,"i_lat":-6.20132,"i_long":106.816351,"transit":false,"station_name":"Karet","line":1,"station_id":"KAT","time":5,"is_transit":false},{"station_name":"Sudirman Baru","transit":false,"distance":471,"line":1,"is_transit":false,"time":1,"i_long":106.819881,"i_lat":-6.201433,"station_id":"SUDB"},{"station_id":"SUD","transit":false,"i_lat":-6.202263,"i_long":106.822649,"line":1,"time":1,"distance":280,"is_transit":false,"station_name":"Sudirman"},{"i_long":106.84912,"i_lat":-6.209883,"distance":3186,"is_transit":false,"transit":false,"station_name":"Manggarai","line":2,"station_id":"MRI","time":4},{"distance":1275,"transit":false,"is_transit":false,"i_lat":-6.212485,"line":1,"time":2,"station_name":"Matraman","i_long":106.858896,"station_id":"MTR"},{"line":1,"station_name":"Jatinegara","distance":1377,"i_lat":-6.215091,"station_id":"JNG","i_long":106.86807400000001,"time":8,"transit":true,"is_transit":true},{"i_long":106.861737,"station_id":"POK","distance":1236,"station_name":"Pondok Jati","is_transit":false,"transit":false,"i_lat":-6.209188,"line":11,"time":2},{"distance":1829,"station_id":"KMT","is_transit":false,"i_lat":-6.193792,"i_long":106.855437,"time":2,"station_name":"Kramat","transit":false,"line":11},{"station_name":"Gang Sentiong","i_long":106.850107,"station_id":"GST","distance":973,"line":11,"time":1,"is_transit":false,"transit":false,"i_lat":-6.185975},{"station_id":"PSE","time":8,"i_lat":-6.174784,"transit":false,"distance":1567,"line":11,"i_long":106.84368,"station_name":"Pasar Senen","is_transit":false},{"station_name":"Kemayoran","distance":1436,"is_transit":false,"station_id":"KMO","transit":false,"i_lat":-6.161728,"time":4,"line":11,"i_long":106.839204},{"station_id":"RJW","station_name":"Rajawali","i_lat":-6.14505,"distance":1901,"i_long":106.836569,"line":11,"time":5,"is_transit":false,"transit":false},{"distance":1444,"i_long":106.826365,"station_id":"KPB","transit":true,"station_name":"Kampung Bandan","is_transit":true,"time":3,"line":4,"i_lat":-6.132549},{"station_id":"AK","line":1,"time":9,"is_transit":false,"i_lat":-6.144674,"i_long":106.79867,"distance":4102,"station_name":"Angke","transit":false}]]}