{"data":[[{"i_long":106.701612,"station_name":"Kalideres","i_lat":-6.166068,"time":0,"station_id":"KDS","transit":false,"line":5,"distance":0,"is_transit":false},{"i_lat":-6.162758,"station_id":"RW","station_name":"Rawa Buaya","time":3,"line":5,"i_long":106.723064,"transit":false,"distance":2504,"is_transit":false},{"is_transit":false,"distance":1152,"time":4,"transit":false,"station_id":"BOI","i_long":106.737035,"i_lat":-6.159876,"station_name":"Bojongindah","line":5},{"time":2,"station_name":"Taman Kota","distance":2334,"is_transit":false,"transit":false,"line":5,"i_long":106.756522,"i_lat":-6.1587309999999995,"station_id":"TKO"},{"transit":false,"time":2,"line":5,"station_name":"Pesing","station_id":"PSG","is_transit":false,"i_long":106.771379,"i_lat":-6.161433,"distance":1614},{"is_transit":false,"time":2,"distance":2036,"station_id":"GRG","transit":false,"i_lat":-6.162021,"i_long":106.788277,"line":5,"station_name":"Grogol"},{"is_transit":true,"time":3,"distance":1700,"station_id":"DU","station_name":"Duri","i_long":106.800832,"transit":true,"i_lat":-6.155215,"line":1},{"transit":true,"distance":3632,"station_name":"Tanah Abang","station_id":"THB","time":8,"i_long":106.811091,"line":1,"is_transit":true,"i_lat":-6.185545},{"i_long":106.79689,"station_id":"PLM","distance":3191,"line":6,"is_transit":false,"transit":false,"i_lat":-6.207404,"station_name":"Palmerah","time":6},{"i_long":106.780334,"transit":false,"distance":3737,"is_transit":false,"i_lat":-6.237242,"line":6,"time":7,"station_id":"KBY","station_name":"Kebayoran"},{"is_transit":false,"i_long":106.74273,"line":6,"station_id":"PDJ","i_lat":-6.276362,"time":8,"distance":6218,"transit":false,"station_name":"Pondokranji"},{"distance":2179,"station_name":"Jurangmangu","i_long":106.728916,"time":3,"transit":false,"i_lat":-6.288927,"is_transit":false,"station_id":"JMU","line":6},{"station_id":"SDM","transit":false,"station_name":"Sudimara","i_lat":-6.296963,"i_long":106.712277,"is_transit":false,"distance":1994,"time":4,"line":6},{"distance":4566,"is_transit":false,"station_name":"Rawa Buntu","station_id":"RU","i_lat":-6.314823,"transit":false,"i_long":106.675475,"line":6,"time":6},{"distance":2413,"station_name":"Serpong","station_id":"SRP","time":4,"transit":false,"i_lat":-6.319871,"is_transit":false,"i_long":106.66566,"line":6},{"transit":false,"station_name":"Cisauk","station_id":"CSK","line":3,"time":4,"i_lat":-6.32484,"is_transit":false,"i_long":106.640411,"distance":1784},{"transit":false,"distance":2519,"station_id":"CC","i_long":106.617853,"line":3,"i_lat":-6.329547,"time":4,"station_name":"Cicayur","is_transit":false},{"line":6,"time":8,"is_transit":false,"i_long":106.568863,"i_lat":-6.3441410000000005,"station_name":"Parung Panjang","station_id":"PRP","distance":5968,"transit":false},{"station_id":"CJT","time":9,"is_transit":false,"transit":false,"station_name":"Cilejit","line":3,"i_long":106.508482,"i_lat":-6.354349,"distance":7025},{"line":0,"distance":2675,"i_lat":-6.338021,"is_transit":false,"time":6,"station_name":"Daru","transit":false,"station_id":"DAR","i_long":106.491338},{"i_lat":-6.327251,"station_id":"TEJ","transit":false,"i_long":106.460812,"distance":3902,"line":6,"time":5,"station_name":"Tenjo","is_transit":false},{"transit":false,"station_name":"Tigaraksa","line":6,"time":5,"is_transit":false,"station_id":"TGS","distance":2974,"i_long":106.425991,"i_lat":-6.328533}],[{"distance":0,"station_id":"KDS","i_lat":-6.166068,"line":5,"station_name":"Kalideres","is_transit":false,"i_long":106.701612,"transit":false,"time":0},{"time":3,"distance":2504,"transit":false,"i_lat":-6.162758,"station_id":"RW","line":5,"is_transit":false,"station_name":"Rawa Buaya","i_long":106.723064},{"line":5,"station_id":"BOI","i_long":106.737035,"time":4,"transit":false,"distance":1152,"station_name":"Bojongindah","i_lat":-6.159876,"is_transit":false},{"station_id":"TKO","time":2,"station_name":"Taman Kota","i_lat":-6.1587309999999995,"transit":false,"line":5,"distance":2334,"i_long":106.756522,"is_transit":false},{"i_lat":-6.161433,"station_name":"Pesing","station_id":"PSG","line":5,"is_transit":false,"transit":false,"i_long":106.771379,"distance":1614,"time":2},{"is_transit":false,"station_name":"Grogol","distance":2036,"line":5,"time":2,"i_lat":-6.162021,"transit":false,"i_long":106.788277,"station_id":"GRG"},{"is_transit":true,"transit":true,"distance":1700,"station_id":"DU","station_name":"Duri","i_lat":-6.155215,"i_long":106.800832,"time":3,"line":1},{"i_long":106.79867,"i_lat":-6.144674,"line":1,"station_name":"Angke","station_id":"AK","time":4,"is_transit":false,"transit":false,"distance":1230},{"transit":true,"station_name":"Kampung Bandan","time":9,"station_id":"KPB","line":4,"i_lat":-6.132549,"is_transit":true,"distance":4102,"i_long":106.826365},{"i_long":106.812439,"line":2,"is_transit":true,"transit":true,"i_lat":-6.137569,"station_name":"Jakarta Kota","station_id":"JAKK","time":3,"distance":1364},{"time":4,"station_name":"Jayakarta","line":2,"is_transit":false,"distance":1264,"transit":false,"station_id":"JAY","i_lat":-6.141205,"i_long":106.820901},{"transit":false,"i_lat":-6.149769,"station_id":"MGB","station_name":"Manggabesar","i_long":106.82482,"line":2,"distance":1080,"is_transit":false,"time":2},{"is_transit":false,"station_id":"SW","station_name":"Sawah Besar","distance":906,"time":2,"transit":false,"i_long":106.827103,"line":2,"i_lat":-6.160725},{"distance":1149,"transit":false,"i_lat":-6.166716,"time":2,"station_name":"Juanda","line":2,"i_long":106.828284,"is_transit":false,"station_id":"JUA"},{"station_name":"Gondangdia","time":4,"station_id":"GDD","i_lat":-6.186295,"i_long":106.832183,"distance":2015,"is_transit":false,"transit":false,"line":2},{"i_long":106.840169,"line":2,"i_lat":-6.198556,"time":3,"distance":1750,"station_id":"CKI","transit":false,"station_name":"Cikini","is_transit":false},{"is_transit":true,"i_lat":-6.209883,"station_id":"MRI","distance":1590,"i_long":106.84912,"line":2,"time":4,"transit":true,"station_name":"Manggarai"},{"time":4,"line":1,"is_transit":false,"i_long":106.822649,"distance":3186,"i_lat":-6.202263,"station_id":"SUD","transit":false,"station_name":"Sudirman"},{"i_long":106.819881,"is_transit":false,"distance":280,"i_lat":-6.201433,"station_id":"SUDB","time":1,"station_name":"Sudirman Baru","transit":false,"line":1},{"time":1,"station_name":"Karet","i_long":106.816351,"line":1,"station_id":"KAT","i_lat":-6.20132,"transit":false,"is_transit":false,"distance":471},{"station_id":"THB","station_name":"Tanah Abang","time":5,"distance":2029,"transit":true,"line":1,"i_long":106.811091,"is_transit":true,"i_lat":-6.185545},{"is_transit":false,"i_long":106.79689,"station_name":"Palmerah","distance":3191,"transit":false,"i_lat":-6.207404,"station_id":"PLM","time":6,"line":6},{"i_lat":-6.237242,"is_transit":false,"distance":3737,"line":6,"station_id":"KBY","i_long":106.780334,"time":7,"transit":false,"station_name":"Kebayoran"},{"i_lat":-6.276362,"time":8,"station_id":"PDJ","is_transit":false,"station_name":"Pondokranji","transit":false,"distance":6218,"i_long":106.74273,"line":6},{"i_long":106.728916,"line":6,"time":3,"station_name":"Jurangmangu","transit":false,"is_transit":false,"station_id":"JMU","distance":2179,"i_lat":-6.288927},{"time":4,"station_name":"Sudimara","line":6,"distance":1994,"i_lat":-6.296963,"i_long":106.712277,"station_id":"SDM","is_transit":false,"transit":false},{"is_transit":false,"transit":false,"distance":4566,"station_id":"RU","time":6,"station_name":"Rawa Buntu","i_lat":-6.314823,"i_long":106.675475,"line":6},{"i_long":106.66566,"time":4,"station_name":"Serpong","distance":2413,"i_lat":-6.319871,"line":6,"is_transit":false,"station_id":"SRP","transit":false},{"transit":false,"is_transit":false,"i_lat":-6.32484,"station_id":"CSK","distance":1784,"i_long":106.640411,"station_name":"Cisauk","line":3,"time":4},{"distance":2519,"is_transit":false,"line":3,"i_lat":-6.329547,"station_name":"Cicayur","time":4,"transit":false,"i_long":106.617853,"station_id":"CC"},{"station_name":"Parung Panjang","is_transit":false,"time":8,"station_id":"PRP","line":6,"distance":5968,"i_long":106.568863,"i_lat":-6.3441410000000005,"transit":false},{"station_id":"CJT","station_name":"Cilejit","i_long":106.508482,"time":9,"distance":7025,"i_lat":-6.354349,"transit":false,"line":3,"is_transit":false},{"i_lat":-6.338021,"transit":false,"is_transit":false,"i_long":106.491338,"distance":2675,"line":0,"time":6,"station_name":"Daru","station_id":"DAR"},{"is_transit":false,"station_id":"TEJ","distance":3902,"i_long":106.460812,"line":6,"time":5,"station_name":"Tenjo","i_lat":-6.327251,"transit":false},{"line":6,"distance":2974,"transit":false,"is_transit":false,"time":5,"station_id":"TGS","station_name":"Tigaraksa","i_lat":-6.328533,"i_long":106.425991}],[{"i_lat":-6.166068,"station_name":"Kalideres","line":5,"transit":false,"is_transit":false,"distance":0,"time":0,"station_id":"KDS","i_long":106.701612},{"time":3,"station_id":"RW","i_lat":-6.162758,"i_long":106.723064,"transit":false,"distance":2504,"line":5,"is_transit":false,"station_name":"Rawa Buaya"},{"i_lat":-6.159876,"line":5,"transit":false,"is_transit":false,"time":4,"station_name":"Bojongindah","distance":1152,"station_id":"BOI","i_long":106.737035},{"i_long":106.756522,"station_name":"Taman Kota","is_transit":false,"time":2,"station_id":"TKO","i_lat":-6.1587309999999995,"line":5,"transit":false,"distance":2334},{"line":5,"is_transit":false,"station_id":"PSG","i_lat":-6.161433,"transit":false,"time":2,"i_long":106.771379,"station_name":"Pesing","distance":1614},{"station_name":"Grogol","line":5,"i_long":106.788277,"distance":2036,"is_transit":false,"time":2,"transit":false,"i_lat":-6.162021,"station_id":"GRG"},{"is_transit":true,"transit":true,"station_id":"DU","distance":1700,"station_name":"Duri","i_lat":-6.155215,"i_long":106.800832,"time":3,"line":1},{"is_transit":false,"time":4,"line":1,"i_long":106.79867,"transit":false,"station_id":"AK","station_name":"Angke","distance":1230,"i_lat":-6.144674},{"is_transit":true,"line":4,"time":9,"station_id":"KPB","i_lat":-6.132549,"transit":true,"station_name":"Kampung Bandan","distance":4102,"i_long":106.826365},{"time":3,"transit":false,"station_id":"RJW","distance":1444,"i_long":106.836569,"i_lat":-6.14505,"is_transit":false,"line":11,"station_name":"Rajawali"},{"transit":false,"i_long":106.839204,"distance":1901,"i_lat":-6.161728,"line":11,"is_transit":false,"station_name":"Kemayoran","station_id":"KMO","time":5},{"distance":1436,"station_name":"Pasar Senen","is_transit":false,"i_lat":-6.174784,"i_long":106.84368,"time":4,"station_id":"PSE","transit":false,"line":11},{"station_id":"GST","distance":1567,"is_transit":false,"transit":false,"station_name":"Gang Sentiong","time":8,"i_lat":-6.185975,"i_long":106.850107,"line":11},{"time":1,"is_transit":false,"distance":973,"i_lat":-6.193792,"line":11,"transit":false,"station_name":"Kramat","i_long":106.855437,"station_id":"KMT"},{"is_transit":false,"i_long":106.861737,"station_name":"Pondok Jati","station_id":"POK","distance":1829,"line":11,"transit":false,"time":2,"i_lat":-6.209188},{"transit":true,"i_lat":-6.215091,"is_transit":true,"time":9,"i_long":106.86807400000001,"station_id":"JNG","distance":1236,"line":1,"station_name":"Jatinegara"},{"station_id":"MTR","distance":1377,"time":2,"i_lat":-6.212485,"station_name":"Matraman","i_long":106.858896,"line":1,"transit":false,"is_transit":false},{"station_id":"MRI","i_long":106.84912,"transit":false,"line":2,"station_name":"Manggarai","distance":1275,"time":2,"i_lat":-6.209883,"is_transit":false},{"is_transit":false,"station_id":"SUD","station_name":"Sudirman","i_lat":-6.202263,"time":4,"i_long":106.822649,"distance":3186,"line":1,"transit":false},{"i_long":106.819881,"station_id":"SUDB","distance":280,"transit":false,"line":1,"is_transit":false,"i_lat":-6.201433,"station_name":"Sudirman Baru","time":1},{"station_name":"Karet","distance":471,"line":1,"time":1,"i_lat":-6.20132,"station_id":"KAT","is_transit":false,"transit":false,"i_long":106.816351},{"distance":2029,"transit":true,"station_name":"Tanah Abang","i_lat":-6.185545,"is_transit":true,"line":1,"time":5,"station_id":"THB","i_long":106.811091},{"time":6,"distance":3191,"station_id":"PLM","is_transit":false,"i_long":106.79689,"station_name":"Palmerah","transit":false,"i_lat":-6.207404,"line":6},{"distance":3737,"i_long":106.780334,"i_lat":-6.237242,"is_transit":false,"time":7,"station_name":"Kebayoran","transit":false,"station_id":"KBY","line":6},{"station_id":"PDJ","line":6,"i_lat":-6.276362,"is_transit":false,"time":8,"distance":6218,"i_long":106.74273,"station_name":"Pondokranji","transit":false},{"time":3,"station_name":"Jurangmangu","transit":false,"i_lat":-6.288927,"is_transit":false,"station_id":"JMU","distance":2179,"i_long":106.728916,"line":6},{"is_transit":false,"i_long":106.712277,"distance":1994,"i_lat":-6.296963,"transit":false,"station_name":"Sudimara","time":4,"station_id":"SDM","line":6},{"is_transit":false,"station_name":"Rawa Buntu","transit":false,"time":6,"i_lat":-6.314823,"distance":4566,"i_long":106.675475,"line":6,"station_id":"RU"},{"station_id":"SRP","distance":2413,"line":6,"is_transit":false,"station_name":"Serpong","i_lat":-6.319871,"i_long":106.66566,"time":4,"transit":false},{"time":4,"line":3,"station_name":"Cisauk","is_transit":false,"distance":1784,"i_lat":-6.32484,"station_id":"CSK","transit":false,"i_long":106.640411},{"line":3,"distance":2519,"i_long":106.617853,"is_transit":false,"station_name":"Cicayur","station_id":"CC","transit":false,"time":4,"i_lat":-6.329547},{"i_long":106.568863,"time":8,"is_transit":false,"station_id":"PRP","transit":false,"station_name":"Parung Panjang","i_lat":-6.3441410000000005,"distance":5968,"line":6},{"line":3,"transit":false,"i_lat":-6.354349,"is_transit":false,"i_long":106.508482,"station_name":"Cilejit","time":9,"station_id":"CJT","distance":7025},{"i_long":106.491338,"line":0,"i_lat":-6.338021,"transit":false,"time":6,"distance":2675,"station_name":"Daru","is_transit":false,"station_id":"DAR"},{"transit":false,"time":5,"is_transit":false,"station_id":"TEJ","i_lat":-6.327251,"i_long":106.460812,"line":6,"distance":3902,"station_name":"Tenjo"},{"i_lat":-6.328533,"transit":false,"station_name":"Tigaraksa","is_transit":false,"distance":2974,"time":5,"i_long":106.425991,"station_id":"TGS","line":6}]]}