{"data":[[{"time":0,"i_long":106.701612,"line":5,"transit":false,"distance":0,"is_transit":false,"station_name":"Kalideres","station_id":"KDS","i_lat":-6.166068},{"transit":false,"station_id":"RW","time":3,"line":5,"i_lat":-6.162758,"is_transit":false,"station_name":"Rawa Buaya","i_long":106.723064,"distance":2504},{"line":5,"station_id":"BOI","time":4,"is_transit":false,"station_name":"Bojongindah","i_lat":-6.159876,"distance":1152,"i_long":106.737035,"transit":false},{"i_long":106.756522,"station_name":"Taman Kota","line":5,"time":2,"transit":false,"is_transit":false,"station_id":"TKO","distance":2334,"i_lat":-6.1587309999999995},{"distance":1614,"station_id":"PSG","time":2,"is_transit":false,"i_lat":-6.161433,"i_long":106.771379,"station_name":"Pesing","transit":false,"line":5},{"time":2,"distance":2036,"station_id":"GGL","station_name":"Grogol","is_transit":false,"line":5,"i_long":106.788277,"transit":false,"i_lat":-6.162021},{"line":1,"distance":1700,"station_name":"Duri","transit":true,"time":3,"station_id":"DU","is_transit":true,"i_lat":-6.155215,"i_long":106.800832},{"i_long":106.79867,"is_transit":false,"transit":false,"distance":1230,"i_lat":-6.144674,"line":1,"station_id":"AK","time":4,"station_name":"Angke"},{"transit":false,"is_transit":false,"i_lat":-6.132549,"distance":4102,"time":9,"i_long":106.826365,"station_name":"Kampung Bandan","station_id":"KPB","line":4}],[{"station_id":"KDS","time":0,"transit":false,"i_lat":-6.166068,"distance":0,"station_name":"Kalideres","is_transit":false,"i_long":106.701612,"line":5},{"distance":2504,"i_lat":-6.162758,"i_long":106.723064,"station_id":"RW","station_name":"Rawa Buaya","is_transit":false,"time":3,"transit":false,"line":5},{"time":4,"is_transit":false,"station_name":"Bojongindah","transit":false,"distance":1152,"i_long":106.737035,"line":5,"station_id":"BOI","i_lat":-6.159876},{"i_long":106.756522,"line":5,"station_id":"TKO","time":2,"is_transit":false,"station_name":"Taman Kota","distance":2334,"transit":false,"i_lat":-6.1587309999999995},{"is_transit":false,"station_name":"Pesing","i_long":106.771379,"transit":false,"distance":1614,"time":2,"line":5,"station_id":"PSG","i_lat":-6.161433},{"line":5,"station_id":"GGL","is_transit":false,"time":2,"transit":false,"station_name":"Grogol","distance":2036,"i_long":106.788277,"i_lat":-6.162021},{"station_name":"Duri","station_id":"DU","is_transit":true,"transit":true,"time":3,"distance":1700,"i_lat":-6.155215,"i_long":106.800832,"line":1},{"distance":3632,"transit":false,"station_id":"THB","station_name":"Tanah Abang","i_long":106.811091,"line":1,"time":8,"is_transit":false,"i_lat":-6.185545},{"station_id":"KAT","distance":2029,"i_lat":-6.20132,"line":1,"is_transit":false,"time":5,"transit":false,"station_name":"Karet","i_long":106.816351},{"station_id":"SUDB","distance":471,"station_name":"Sudirman Baru","time":1,"transit":false,"is_transit":false,"i_long":106.819881,"line":1,"i_lat":-6.201433},{"station_name":"Sudirman","transit":false,"line":1,"time":1,"i_lat":-6.202263,"i_long":106.822649,"is_transit":false,"station_id":"SUD","distance":280},{"is_transit":true,"time":4,"i_long":106.84912,"distance":3186,"station_id":"MRI","transit":true,"line":2,"i_lat":-6.209883,"station_name":"Manggarai"},{"transit":false,"i_lat":-6.198556,"time":4,"distance":1590,"i_long":106.840169,"station_id":"CKI","line":2,"is_transit":false,"station_name":"Cikini"},{"distance":1750,"station_name":"Gondangdia","is_transit":false,"time":3,"station_id":"GDD","i_lat":-6.186295,"line":2,"transit":false,"i_long":106.832183},{"distance":2015,"i_lat":-6.166716,"i_long":106.828284,"station_id":"JUA","line":2,"is_transit":false,"transit":false,"station_name":"Juanda","time":4},{"i_lat":-6.160725,"i_long":106.827103,"distance":1149,"transit":false,"line":2,"is_transit":false,"time":2,"station_name":"Sawah Besar","station_id":"SW"},{"is_transit":false,"line":2,"i_lat":-6.149769,"time":2,"i_long":106.82482,"distance":906,"transit":false,"station_name":"Manggabesar","station_id":"MGB"},{"station_id":"JAY","i_lat":-6.141205,"station_name":"Jayakarta","i_long":106.820901,"transit":false,"line":2,"time":2,"is_transit":false,"distance":1080},{"distance":1264,"i_long":106.812439,"line":2,"time":4,"station_id":"JAKK","station_name":"Jakarta Kota","transit":true,"i_lat":-6.137569,"is_transit":true},{"distance":1364,"i_lat":-6.132549,"i_long":106.826365,"station_name":"Kampung Bandan","line":4,"time":3,"station_id":"KPB","transit":false,"is_transit":false}],[{"i_long":106.701612,"time":0,"is_transit":false,"distance":0,"station_id":"KDS","line":5,"transit":false,"i_lat":-6.166068,"station_name":"Kalideres"},{"is_transit":false,"transit":false,"time":3,"distance":2504,"station_name":"Rawa Buaya","i_long":106.723064,"i_lat":-6.162758,"line":5,"station_id":"RW"},{"line":5,"is_transit":false,"transit":false,"distance":1152,"i_lat":-6.159876,"i_long":106.737035,"station_id":"BOI","time":4,"station_name":"Bojongindah"},{"transit":false,"station_id":"TKO","distance":2334,"is_transit":false,"line":5,"i_lat":-6.1587309999999995,"time":2,"i_long":106.756522,"station_name":"Taman Kota"},{"line":5,"distance":1614,"transit":false,"station_id":"PSG","i_lat":-6.161433,"is_transit":false,"station_name":"Pesing","time":2,"i_long":106.771379},{"line":5,"station_id":"GGL","time":2,"i_long":106.788277,"distance":2036,"station_name":"Grogol","i_lat":-6.162021,"transit":false,"is_transit":false},{"is_transit":true,"station_id":"DU","time":3,"i_lat":-6.155215,"distance":1700,"station_name":"Duri","i_long":106.800832,"line":1,"transit":true},{"station_name":"Tanah Abang","i_lat":-6.185545,"station_id":"THB","time":8,"i_long":106.811091,"is_transit":false,"transit":false,"line":1,"distance":3632},{"i_lat":-6.20132,"i_long":106.816351,"is_transit":false,"line":1,"distance":2029,"station_id":"KAT","transit":false,"station_name":"Karet","time":5},{"transit":false,"distance":471,"station_name":"Sudirman Baru","line":1,"time":1,"i_lat":-6.201433,"i_long":106.819881,"station_id":"SUDB","is_transit":false},{"time":1,"transit":false,"i_lat":-6.202263,"station_id":"SUD","distance":280,"line":1,"station_name":"Sudirman","i_long":106.822649,"is_transit":false},{"i_long":106.84912,"is_transit":false,"distance":3186,"time":4,"i_lat":-6.209883,"line":2,"station_id":"MRI","station_name":"Manggarai","transit":false},{"transit":false,"distance":1275,"station_id":"MTR","time":2,"station_name":"Matraman","i_lat":-6.212485,"line":1,"is_transit":false,"i_long":106.858896},{"time":8,"i_lat":-6.215091,"is_transit":true,"transit":true,"i_long":106.86807400000001,"distance":1377,"line":1,"station_name":"Jatinegara","station_id":"JNG"},{"is_transit":false,"i_lat":-6.209188,"distance":1236,"time":2,"line":11,"station_id":"POK","transit":false,"i_long":106.861737,"station_name":"Pondok Jati"},{"i_lat":-6.193792,"station_name":"Kramat","is_transit":false,"time":2,"i_long":106.855437,"line":11,"transit":false,"station_id":"KMT","distance":1829},{"time":1,"i_long":106.850107,"line":11,"transit":false,"station_name":"Gang Sentiong","i_lat":-6.185975,"distance":973,"station_id":"GST","is_transit":false},{"i_lat":-6.174784,"transit":false,"line":11,"time":8,"station_name":"Pasar Senen","is_transit":false,"i_long":106.84368,"station_id":"PSE","distance":1567},{"line":11,"station_id":"KMO","time":4,"distance":1436,"station_name":"Kemayoran","i_lat":-6.161728,"is_transit":false,"transit":false,"i_long":106.839204},{"station_id":"RJW","station_name":"Rajawali","transit":false,"distance":1901,"i_long":106.836569,"is_transit":false,"line":11,"time":5,"i_lat":-6.14505},{"i_lat":-6.132549,"i_long":106.826365,"line":4,"distance":1444,"is_transit":false,"transit":false,"station_id":"KPB","station_name":"Kampung Bandan","time":3}]]}