{"data":[[{"i_lat":-6.166068,"time":0,"distance":0,"transit":false,"is_transit":false,"station_name":"Kalideres","i_long":106.701612,"line":5,"station_id":"KDS"},{"station_id":"RW","is_transit":false,"i_long":106.723064,"time":3,"line":5,"i_lat":-6.162758,"transit":false,"distance":2504,"station_name":"Rawa Buaya"},{"station_id":"BOI","i_long":106.737035,"time":4,"line":0,"station_name":"Bojongindah","i_lat":-6.159876,"transit":false,"is_transit":false,"distance":1152},{"i_long":106.756522,"distance":2334,"is_transit":false,"station_name":"Taman Kota","i_lat":-6.1587309999999995,"station_id":"TKO","time":2,"line":5,"transit":false},{"distance":1614,"time":2,"i_lat":-6.161433,"station_id":"PSG","is_transit":false,"transit":false,"i_long":106.771379,"line":5,"station_name":"Pesing"},{"transit":false,"distance":2036,"is_transit":false,"time":2,"i_long":106.788277,"i_lat":-6.162021,"station_id":"GGL","station_name":"Grogol","line":5},{"is_transit":true,"i_lat":-6.155215,"line":1,"station_name":"Duri","distance":1700,"station_id":"DU","time":3,"i_long":106.800832,"transit":true},{"i_long":106.811091,"time":8,"line":1,"is_transit":true,"i_lat":-6.185545,"distance":3632,"transit":false,"station_name":"Tanah Abang","station_id":"THB"},{"distance":2029,"is_transit":false,"i_long":106.816351,"line":1,"time":5,"station_id":"KAT","i_lat":-6.20132,"transit":false,"station_name":"Karet"},{"distance":471,"i_long":106.819881,"i_lat":-6.201433,"time":1,"station_name":"Sudirman Baru","transit":false,"station_id":"SUDB","line":1,"is_transit":false},{"distance":280,"station_name":"Sudirman","line":1,"i_lat":-6.202263,"i_long":106.822649,"transit":false,"time":1,"is_transit":false,"station_id":"SUD"},{"transit":false,"line":0,"i_lat":-6.209883,"distance":3186,"station_name":"Manggarai","station_id":"MRI","i_long":106.84912,"is_transit":true,"time":4},{"is_transit":false,"i_lat":-6.212485,"line":1,"transit":false,"i_long":106.858896,"station_name":"Matraman","distance":1275,"station_id":"MTR","time":2},{"i_lat":-6.215091,"distance":1377,"time":8,"i_long":106.86807400000001,"line":0,"transit":false,"is_transit":true,"station_name":"Jatinegara","station_id":"JNG"},{"i_lat":-6.2135,"line":1,"transit":false,"station_id":"KLD","distance":3395,"is_transit":false,"station_name":"Klender","i_long":106.899548,"time":3}],[{"station_id":"KDS","distance":0,"transit":false,"time":0,"station_name":"Kalideres","i_long":106.701612,"i_lat":-6.166068,"line":5,"is_transit":false},{"is_transit":false,"time":3,"station_id":"RW","i_lat":-6.162758,"distance":2504,"station_name":"Rawa Buaya","i_long":106.723064,"transit":false,"line":5},{"transit":false,"station_name":"Bojongindah","i_lat":-6.159876,"time":4,"line":0,"is_transit":false,"distance":1152,"i_long":106.737035,"station_id":"BOI"},{"is_transit":false,"station_name":"Taman Kota","distance":2334,"transit":false,"i_long":106.756522,"i_lat":-6.1587309999999995,"line":5,"time":2,"station_id":"TKO"},{"distance":1614,"line":5,"station_name":"Pesing","i_lat":-6.161433,"is_transit":false,"time":2,"transit":false,"i_long":106.771379,"station_id":"PSG"},{"is_transit":false,"distance":2036,"time":2,"i_lat":-6.162021,"line":5,"transit":false,"station_name":"Grogol","i_long":106.788277,"station_id":"GGL"},{"station_name":"Duri","time":3,"line":1,"station_id":"DU","distance":1700,"is_transit":true,"i_lat":-6.155215,"i_long":106.800832,"transit":true},{"i_lat":-6.144674,"station_id":"AK","line":0,"transit":false,"station_name":"Angke","i_long":106.79867,"is_transit":false,"time":4,"distance":1230},{"line":0,"i_lat":-6.132549,"time":9,"transit":true,"distance":4102,"station_id":"KPB","station_name":"Kampung Bandan","is_transit":true,"i_long":106.826365},{"station_name":"Rajawali","distance":1444,"transit":false,"i_lat":-6.14505,"is_transit":false,"i_long":106.836569,"time":3,"line":11,"station_id":"RJW"},{"distance":1901,"station_name":"Kemayoran","station_id":"KMO","line":11,"transit":false,"time":5,"i_lat":-6.161728,"is_transit":false,"i_long":106.839204},{"transit":false,"time":4,"is_transit":false,"station_name":"Pasar Senen","i_long":106.84368,"line":11,"station_id":"PSE","distance":1436,"i_lat":-6.174784},{"station_id":"GST","is_transit":false,"transit":false,"time":8,"distance":1567,"station_name":"Gang Sentiong","i_lat":-6.185975,"i_long":106.850107,"line":11},{"i_lat":-6.193792,"line":11,"i_long":106.855437,"is_transit":false,"station_name":"Kramat","transit":false,"station_id":"KMT","distance":973,"time":1},{"distance":1829,"time":2,"station_id":"POK","station_name":"Pondok Jati","i_lat":-6.209188,"i_long":106.861737,"line":11,"transit":false,"is_transit":false},{"time":9,"station_id":"JNG","station_name":"Jatinegara","is_transit":true,"i_long":106.86807400000001,"transit":true,"distance":1236,"i_lat":-6.215091,"line":0},{"line":1,"station_id":"KLD","is_transit":false,"i_lat":-6.2135,"station_name":"Klender","transit":false,"time":3,"distance":3395,"i_long":106.899548}],[{"distance":0,"line":5,"i_lat":-6.166068,"station_name":"Kalideres","i_long":106.701612,"station_id":"KDS","is_transit":false,"time":0,"transit":false},{"is_transit":false,"i_long":106.723064,"i_lat":-6.162758,"transit":false,"distance":2504,"time":3,"line":5,"station_id":"RW","station_name":"Rawa Buaya"},{"distance":1152,"i_lat":-6.159876,"station_name":"Bojongindah","station_id":"BOI","transit":false,"time":4,"i_long":106.737035,"line":0,"is_transit":false},{"i_long":106.756522,"i_lat":-6.1587309999999995,"is_transit":false,"time":2,"station_name":"Taman Kota","distance":2334,"transit":false,"line":5,"station_id":"TKO"},{"distance":1614,"i_long":106.771379,"station_name":"Pesing","i_lat":-6.161433,"transit":false,"line":5,"station_id":"PSG","is_transit":false,"time":2},{"line":5,"i_long":106.788277,"station_id":"GGL","station_name":"Grogol","i_lat":-6.162021,"is_transit":false,"transit":false,"time":2,"distance":2036},{"transit":true,"i_long":106.800832,"time":3,"station_id":"DU","i_lat":-6.155215,"line":1,"station_name":"Duri","distance":1700,"is_transit":true},{"i_lat":-6.144674,"transit":false,"i_long":106.79867,"line":0,"is_transit":false,"station_id":"AK","distance":1230,"time":4,"station_name":"Angke"},{"i_long":106.826365,"distance":4102,"time":9,"is_transit":true,"transit":false,"line":0,"station_name":"Kampung Bandan","i_lat":-6.132549,"station_id":"KPB"},{"i_lat":-6.137569,"i_long":106.812439,"line":0,"time":3,"is_transit":true,"station_id":"JAKK","distance":1364,"transit":true,"station_name":"Jakarta Kota"},{"i_lat":-6.141205,"line":7,"i_long":106.820901,"transit":false,"time":4,"station_id":"JAY","is_transit":false,"distance":1264,"station_name":"Jayakarta"},{"i_long":106.82482,"is_transit":false,"station_name":"Manggabesar","i_lat":-6.149769,"station_id":"MGB","time":2,"transit":false,"line":2,"distance":1080},{"distance":906,"transit":false,"station_id":"SW","i_long":106.827103,"time":2,"station_name":"Sawah Besar","line":2,"is_transit":false,"i_lat":-6.160725},{"time":2,"distance":1149,"station_name":"Juanda","transit":false,"i_lat":-6.166716,"i_long":106.828284,"line":2,"is_transit":false,"station_id":"JUA"},{"station_name":"Gondangdia","line":2,"transit":false,"i_lat":-6.186295,"station_id":"GDD","is_transit":false,"i_long":106.832183,"time":4,"distance":2015},{"station_id":"CKI","time":3,"is_transit":false,"station_name":"Cikini","i_long":106.840169,"distance":1750,"i_lat":-6.198556,"transit":false,"line":0},{"time":4,"i_long":106.84912,"station_id":"MRI","line":0,"station_name":"Manggarai","distance":1590,"i_lat":-6.209883,"is_transit":true,"transit":true},{"i_long":106.858896,"station_id":"MTR","time":2,"distance":1275,"i_lat":-6.212485,"is_transit":false,"transit":false,"station_name":"Matraman","line":1},{"is_transit":true,"time":8,"i_long":106.86807400000001,"transit":false,"distance":1377,"line":0,"i_lat":-6.215091,"station_name":"Jatinegara","station_id":"JNG"},{"i_lat":-6.2135,"i_long":106.899548,"transit":false,"line":1,"distance":3395,"time":3,"is_transit":false,"station_id":"KLD","station_name":"Klender"}],[{"i_lat":-6.166068,"time":0,"line":5,"i_long":106.701612,"station_id":"KDS","is_transit":false,"distance":0,"transit":false,"station_name":"Kalideres"},{"i_lat":-6.162758,"line":5,"transit":false,"station_name":"Rawa Buaya","is_transit":false,"i_long":106.723064,"station_id":"RW","time":3,"distance":2504},{"time":4,"i_lat":-6.159876,"station_id":"BOI","station_name":"Bojongindah","distance":1152,"transit":false,"i_long":106.737035,"line":0,"is_transit":false},{"station_id":"TKO","i_lat":-6.1587309999999995,"distance":2334,"transit":false,"line":5,"station_name":"Taman Kota","i_long":106.756522,"time":2,"is_transit":false},{"time":2,"station_name":"Pesing","i_long":106.771379,"i_lat":-6.161433,"is_transit":false,"transit":false,"distance":1614,"line":5,"station_id":"PSG"},{"time":2,"i_lat":-6.162021,"is_transit":false,"distance":2036,"transit":false,"station_name":"Grogol","i_long":106.788277,"line":5,"station_id":"GGL"},{"station_id":"DU","is_transit":true,"distance":1700,"station_name":"Duri","transit":true,"i_lat":-6.155215,"i_long":106.800832,"line":1,"time":3},{"station_name":"Tanah Abang","distance":3632,"station_id":"THB","i_lat":-6.185545,"line":1,"time":8,"is_transit":true,"i_long":106.811091,"transit":false},{"i_lat":-6.20132,"distance":2029,"station_id":"KAT","time":5,"i_long":106.816351,"transit":false,"is_transit":false,"station_name":"Karet","line":1},{"is_transit":false,"transit":false,"line":1,"station_name":"Sudirman Baru","time":1,"distance":471,"station_id":"SUDB","i_lat":-6.201433,"i_long":106.819881},{"line":1,"station_id":"SUD","i_long":106.822649,"is_transit":false,"station_name":"Sudirman","i_lat":-6.202263,"distance":280,"time":1,"transit":false},{"i_long":106.84912,"i_lat":-6.209883,"station_id":"MRI","line":0,"distance":3186,"station_name":"Manggarai","is_transit":true,"transit":true,"time":4},{"time":4,"i_lat":-6.198556,"is_transit":false,"transit":false,"i_long":106.840169,"line":0,"distance":1590,"station_id":"CKI","station_name":"Cikini"},{"line":2,"distance":1750,"i_long":106.832183,"is_transit":false,"station_id":"GDD","transit":false,"time":3,"station_name":"Gondangdia","i_lat":-6.186295},{"line":2,"i_lat":-6.166716,"station_id":"JUA","station_name":"Juanda","distance":2015,"is_transit":false,"transit":false,"i_long":106.828284,"time":4},{"time":2,"station_name":"Sawah Besar","line":2,"i_long":106.827103,"distance":1149,"is_transit":false,"i_lat":-6.160725,"transit":false,"station_id":"SW"},{"distance":906,"i_lat":-6.149769,"line":2,"i_long":106.82482,"station_id":"MGB","is_transit":false,"transit":false,"time":2,"station_name":"Manggabesar"},{"is_transit":false,"distance":1080,"station_name":"Jayakarta","time":2,"i_long":106.820901,"line":7,"station_id":"JAY","transit":false,"i_lat":-6.141205},{"i_lat":-6.137569,"station_id":"JAKK","distance":1264,"i_long":106.812439,"station_name":"Jakarta Kota","transit":true,"is_transit":true,"time":4,"line":0},{"station_name":"Kampung Bandan","i_lat":-6.132549,"line":0,"time":3,"distance":1364,"i_long":106.826365,"station_id":"KPB","is_transit":true,"transit":true},{"i_long":106.836569,"line":11,"station_id":"RJW","station_name":"Rajawali","i_lat":-6.14505,"is_transit":false,"distance":1444,"time":3,"transit":false},{"station_name":"Kemayoran","distance":1901,"i_lat":-6.161728,"i_long":106.839204,"line":11,"time":5,"transit":false,"is_transit":false,"station_id":"KMO"},{"is_transit":false,"i_lat":-6.174784,"transit":false,"line":11,"distance":1436,"time":4,"station_name":"Pasar Senen","station_id":"PSE","i_long":106.84368},{"i_lat":-6.185975,"station_name":"Gang Sentiong","i_long":106.850107,"line":11,"station_id":"GST","distance":1567,"time":8,"transit":false,"is_transit":false},{"station_name":"Kramat","line":11,"distance":973,"transit":false,"i_long":106.855437,"is_transit":false,"station_id":"KMT","time":1,"i_lat":-6.193792},{"station_id":"POK","distance":1829,"time":2,"i_long":106.861737,"line":11,"i_lat":-6.209188,"station_name":"Pondok Jati","transit":false,"is_transit":false},{"i_long":106.86807400000001,"distance":1236,"i_lat":-6.215091,"station_name":"Jatinegara","line":0,"transit":true,"station_id":"JNG","is_transit":true,"time":9},{"station_id":"KLD","transit":false,"station_name":"Klender","distance":3395,"time":3,"i_lat":-6.2135,"is_transit":false,"line":1,"i_long":106.899548}]]}