{"data":[[{"transit":false,"time":0,"distance":0,"station_id":"KDS","i_long":106.701612,"station_name":"Kalideres","line":5,"is_transit":false,"i_lat":-6.166068},{"transit":false,"station_name":"Rawa Buaya","station_id":"RW","is_transit":false,"distance":2504,"line":5,"i_lat":-6.162758,"time":3,"i_long":106.723064},{"line":5,"distance":1152,"transit":false,"i_lat":-6.159876,"i_long":106.737035,"station_name":"Bojongindah","station_id":"BOI","is_transit":false,"time":4},{"i_long":106.756522,"is_transit":false,"line":5,"time":2,"transit":false,"station_id":"TKO","distance":2334,"station_name":"Taman Kota","i_lat":-6.1587309999999995},{"i_lat":-6.161433,"line":5,"is_transit":false,"distance":1614,"i_long":106.771379,"station_id":"PSG","transit":false,"time":2,"station_name":"Pesing"},{"distance":2036,"is_transit":false,"station_id":"GGL","transit":false,"time":2,"i_long":106.788277,"station_name":"Grogol","i_lat":-6.162021,"line":5},{"line":1,"i_long":106.800832,"time":3,"station_id":"DU","is_transit":true,"distance":1700,"i_lat":-6.155215,"transit":true,"station_name":"Duri"},{"time":8,"is_transit":false,"i_long":106.811091,"transit":false,"station_id":"THB","line":1,"station_name":"Tanah Abang","i_lat":-6.185545,"distance":3632},{"station_name":"Karet","i_lat":-6.20132,"is_transit":false,"time":5,"distance":2029,"station_id":"KAT","line":1,"i_long":106.816351,"transit":false},{"station_name":"Sudirman Baru","time":1,"station_id":"SUDB","i_lat":-6.201433,"line":1,"is_transit":false,"distance":471,"transit":false,"i_long":106.819881},{"distance":280,"time":1,"station_name":"Sudirman","station_id":"SUD","i_lat":-6.202263,"is_transit":false,"line":1,"transit":false,"i_long":106.822649},{"line":2,"transit":false,"distance":3186,"station_name":"Manggarai","station_id":"MRI","i_lat":-6.209883,"i_long":106.84912,"is_transit":false,"time":4},{"distance":1275,"i_lat":-6.212485,"i_long":106.858896,"is_transit":false,"time":2,"station_name":"Matraman","station_id":"MTR","transit":false,"line":1}],[{"station_id":"KDS","transit":false,"line":5,"station_name":"Kalideres","is_transit":false,"i_lat":-6.166068,"time":0,"distance":0,"i_long":106.701612},{"station_name":"Rawa Buaya","station_id":"RW","time":3,"distance":2504,"i_long":106.723064,"line":5,"is_transit":false,"transit":false,"i_lat":-6.162758},{"i_lat":-6.159876,"line":5,"transit":false,"is_transit":false,"station_name":"Bojongindah","i_long":106.737035,"time":4,"station_id":"BOI","distance":1152},{"transit":false,"is_transit":false,"distance":2334,"i_lat":-6.1587309999999995,"station_name":"Taman Kota","time":2,"station_id":"TKO","i_long":106.756522,"line":5},{"i_long":106.771379,"transit":false,"distance":1614,"station_id":"PSG","time":2,"is_transit":false,"i_lat":-6.161433,"line":5,"station_name":"Pesing"},{"is_transit":false,"line":5,"station_name":"Grogol","i_lat":-6.162021,"i_long":106.788277,"distance":2036,"transit":false,"station_id":"GGL","time":2},{"distance":1700,"i_lat":-6.155215,"station_name":"Duri","is_transit":true,"line":1,"station_id":"DU","i_long":106.800832,"transit":true,"time":3},{"station_id":"AK","is_transit":false,"station_name":"Angke","i_long":106.79867,"transit":false,"time":4,"i_lat":-6.144674,"line":1,"distance":1230},{"i_lat":-6.132549,"line":4,"station_id":"KPB","is_transit":true,"transit":true,"time":9,"distance":4102,"i_long":106.826365,"station_name":"Kampung Bandan"},{"transit":false,"distance":1444,"i_lat":-6.14505,"station_name":"Rajawali","is_transit":false,"time":3,"line":11,"i_long":106.836569,"station_id":"RJW"},{"station_name":"Kemayoran","i_lat":-6.161728,"is_transit":false,"transit":false,"time":5,"distance":1901,"i_long":106.839204,"line":11,"station_id":"KMO"},{"time":4,"i_lat":-6.174784,"i_long":106.84368,"station_name":"Pasar Senen","line":11,"station_id":"PSE","distance":1436,"transit":false,"is_transit":false},{"transit":false,"station_id":"GST","distance":1567,"station_name":"Gang Sentiong","is_transit":false,"time":8,"i_long":106.850107,"line":11,"i_lat":-6.185975},{"is_transit":false,"station_id":"KMT","transit":false,"station_name":"Kramat","i_lat":-6.193792,"time":1,"line":11,"distance":973,"i_long":106.855437},{"i_lat":-6.209188,"transit":false,"station_name":"Pondok Jati","is_transit":false,"i_long":106.861737,"line":11,"station_id":"POK","time":2,"distance":1829},{"distance":1236,"i_lat":-6.215091,"station_id":"JNG","is_transit":true,"time":9,"line":1,"i_long":106.86807400000001,"transit":true,"station_name":"Jatinegara"},{"station_id":"MTR","line":1,"time":2,"is_transit":false,"station_name":"Matraman","transit":false,"distance":1377,"i_lat":-6.212485,"i_long":106.858896}],[{"transit":false,"i_long":106.701612,"station_name":"Kalideres","i_lat":-6.166068,"time":0,"station_id":"KDS","is_transit":false,"distance":0,"line":5},{"time":3,"line":5,"is_transit":false,"station_id":"RW","transit":false,"station_name":"Rawa Buaya","distance":2504,"i_lat":-6.162758,"i_long":106.723064},{"transit":false,"station_name":"Bojongindah","time":4,"distance":1152,"station_id":"BOI","i_lat":-6.159876,"i_long":106.737035,"line":5,"is_transit":false},{"i_lat":-6.1587309999999995,"is_transit":false,"i_long":106.756522,"line":5,"station_id":"TKO","distance":2334,"station_name":"Taman Kota","time":2,"transit":false},{"station_id":"PSG","i_lat":-6.161433,"time":2,"station_name":"Pesing","distance":1614,"is_transit":false,"i_long":106.771379,"transit":false,"line":5},{"i_lat":-6.162021,"transit":false,"station_name":"Grogol","station_id":"GGL","distance":2036,"i_long":106.788277,"is_transit":false,"line":5,"time":2},{"time":3,"station_name":"Duri","station_id":"DU","transit":true,"distance":1700,"line":1,"is_transit":true,"i_long":106.800832,"i_lat":-6.155215},{"is_transit":false,"distance":1230,"time":4,"i_long":106.79867,"station_name":"Angke","line":1,"station_id":"AK","i_lat":-6.144674,"transit":false},{"station_id":"KPB","is_transit":true,"time":9,"station_name":"Kampung Bandan","i_lat":-6.132549,"transit":true,"line":4,"i_long":106.826365,"distance":4102},{"is_transit":true,"time":3,"station_name":"Jakarta Kota","station_id":"JAKK","i_lat":-6.137569,"i_long":106.812439,"distance":1364,"transit":true,"line":2},{"time":4,"is_transit":false,"line":2,"distance":1264,"i_lat":-6.141205,"transit":false,"station_id":"JAY","station_name":"Jayakarta","i_long":106.820901},{"station_id":"MGB","distance":1080,"i_lat":-6.149769,"is_transit":false,"station_name":"Manggabesar","transit":false,"time":2,"i_long":106.82482,"line":2},{"is_transit":false,"transit":false,"station_name":"Sawah Besar","time":2,"i_lat":-6.160725,"i_long":106.827103,"distance":906,"station_id":"SW","line":2},{"time":2,"transit":false,"i_long":106.828284,"line":2,"distance":1149,"i_lat":-6.166716,"station_id":"JUA","station_name":"Juanda","is_transit":false},{"transit":false,"station_name":"Gondangdia","station_id":"GDD","time":4,"distance":2015,"is_transit":false,"i_long":106.832183,"i_lat":-6.186295,"line":2},{"line":2,"station_id":"CKI","station_name":"Cikini","time":3,"i_long":106.840169,"i_lat":-6.198556,"transit":false,"is_transit":false,"distance":1750},{"station_id":"MRI","distance":1590,"i_lat":-6.209883,"transit":true,"station_name":"Manggarai","is_transit":true,"i_long":106.84912,"line":2,"time":4},{"transit":false,"time":2,"is_transit":false,"distance":1275,"i_lat":-6.212485,"i_long":106.858896,"station_id":"MTR","line":1,"station_name":"Matraman"}],[{"line":5,"transit":false,"station_name":"Kalideres","i_long":106.701612,"is_transit":false,"distance":0,"station_id":"KDS","i_lat":-6.166068,"time":0},{"transit":false,"distance":2504,"is_transit":false,"i_long":106.723064,"time":3,"line":5,"station_id":"RW","i_lat":-6.162758,"station_name":"Rawa Buaya"},{"i_lat":-6.159876,"time":4,"distance":1152,"station_name":"Bojongindah","i_long":106.737035,"line":5,"is_transit":false,"transit":false,"station_id":"BOI"},{"time":2,"line":5,"transit":false,"station_name":"Taman Kota","distance":2334,"station_id":"TKO","i_lat":-6.1587309999999995,"i_long":106.756522,"is_transit":false},{"station_id":"PSG","is_transit":false,"line":5,"i_long":106.771379,"transit":false,"distance":1614,"i_lat":-6.161433,"time":2,"station_name":"Pesing"},{"i_long":106.788277,"transit":false,"is_transit":false,"distance":2036,"line":5,"time":2,"i_lat":-6.162021,"station_name":"Grogol","station_id":"GGL"},{"line":1,"station_id":"DU","is_transit":true,"i_lat":-6.155215,"time":3,"station_name":"Duri","transit":true,"distance":1700,"i_long":106.800832},{"time":8,"distance":3632,"i_long":106.811091,"i_lat":-6.185545,"station_name":"Tanah Abang","line":1,"station_id":"THB","is_transit":false,"transit":false},{"transit":false,"is_transit":false,"distance":2029,"time":5,"station_name":"Karet","i_lat":-6.20132,"station_id":"KAT","line":1,"i_long":106.816351},{"transit":false,"station_id":"SUDB","is_transit":false,"time":1,"i_long":106.819881,"station_name":"Sudirman Baru","i_lat":-6.201433,"line":1,"distance":471},{"station_name":"Sudirman","time":1,"is_transit":false,"transit":false,"distance":280,"line":1,"i_lat":-6.202263,"i_long":106.822649,"station_id":"SUD"},{"time":4,"station_id":"MRI","station_name":"Manggarai","i_lat":-6.209883,"i_long":106.84912,"line":2,"is_transit":true,"transit":true,"distance":3186},{"time":4,"transit":false,"station_name":"Cikini","distance":1590,"i_long":106.840169,"is_transit":false,"i_lat":-6.198556,"station_id":"CKI","line":2},{"station_name":"Gondangdia","line":2,"i_long":106.832183,"is_transit":false,"station_id":"GDD","transit":false,"time":3,"distance":1750,"i_lat":-6.186295},{"time":4,"transit":false,"is_transit":false,"station_id":"JUA","i_lat":-6.166716,"line":2,"station_name":"Juanda","distance":2015,"i_long":106.828284},{"transit":false,"station_name":"Sawah Besar","time":2,"line":2,"is_transit":false,"distance":1149,"i_long":106.827103,"i_lat":-6.160725,"station_id":"SW"},{"station_name":"Manggabesar","line":2,"is_transit":false,"i_long":106.82482,"i_lat":-6.149769,"transit":false,"station_id":"MGB","time":2,"distance":906},{"line":2,"station_id":"JAY","time":2,"i_lat":-6.141205,"is_transit":false,"transit":false,"station_name":"Jayakarta","i_long":106.820901,"distance":1080},{"station_id":"JAKK","is_transit":true,"station_name":"Jakarta Kota","i_long":106.812439,"line":2,"i_lat":-6.137569,"distance":1264,"time":4,"transit":true},{"transit":true,"station_id":"KPB","distance":1364,"line":4,"station_name":"Kampung Bandan","i_long":106.826365,"time":3,"is_transit":true,"i_lat":-6.132549},{"time":3,"station_id":"RJW","distance":1444,"i_long":106.836569,"line":11,"transit":false,"station_name":"Rajawali","i_lat":-6.14505,"is_transit":false},{"i_long":106.839204,"time":5,"is_transit":false,"line":11,"station_name":"Kemayoran","i_lat":-6.161728,"transit":false,"distance":1901,"station_id":"KMO"},{"distance":1436,"station_name":"Pasar Senen","i_long":106.84368,"time":4,"transit":false,"station_id":"PSE","line":11,"i_lat":-6.174784,"is_transit":false},{"distance":1567,"is_transit":false,"i_lat":-6.185975,"station_id":"GST","transit":false,"i_long":106.850107,"station_name":"Gang Sentiong","line":11,"time":8},{"station_id":"KMT","station_name":"Kramat","distance":973,"is_transit":false,"i_long":106.855437,"i_lat":-6.193792,"transit":false,"line":11,"time":1},{"transit":false,"is_transit":false,"i_lat":-6.209188,"i_long":106.861737,"station_id":"POK","time":2,"line":11,"station_name":"Pondok Jati","distance":1829},{"time":9,"distance":1236,"station_id":"JNG","is_transit":true,"i_long":106.86807400000001,"transit":true,"line":1,"i_lat":-6.215091,"station_name":"Jatinegara"},{"i_lat":-6.212485,"distance":1377,"station_id":"MTR","i_long":106.858896,"line":1,"station_name":"Matraman","transit":false,"is_transit":false,"time":2}]]}