{"data":[[{"station_name":"Kalideres","distance":0,"i_lat":-6.166068,"is_transit":false,"i_long":106.701612,"time":0,"line":5,"transit":false,"station_id":"KDS"},{"station_id":"RW","station_name":"Rawa Buaya","time":3,"i_long":106.723064,"line":5,"transit":false,"is_transit":false,"distance":2504,"i_lat":-6.162758},{"transit":false,"distance":1152,"is_transit":false,"line":5,"station_name":"Bojongindah","i_lat":-6.159876,"i_long":106.737035,"station_id":"BOI","time":4},{"station_name":"Taman Kota","is_transit":false,"distance":2334,"i_lat":-6.1587309999999995,"i_long":106.756522,"line":5,"time":2,"transit":false,"station_id":"TKO"},{"is_transit":false,"station_id":"PSG","i_lat":-6.161433,"distance":1614,"station_name":"Pesing","i_long":106.771379,"line":5,"time":2,"transit":false},{"distance":2036,"i_lat":-6.162021,"station_id":"GGL","transit":false,"line":5,"i_long":106.788277,"station_name":"Grogol","time":2,"is_transit":false},{"line":1,"transit":true,"i_lat":-6.155215,"distance":1700,"is_transit":true,"time":3,"station_id":"DU","i_long":106.800832,"station_name":"Duri"},{"station_id":"AK","i_lat":-6.144674,"i_long":106.79867,"station_name":"Angke","distance":1230,"line":1,"is_transit":false,"time":4,"transit":false},{"station_name":"Kampung Bandan","is_transit":true,"distance":4102,"i_lat":-6.132549,"line":4,"time":9,"i_long":106.826365,"transit":true,"station_id":"KPB"},{"line":2,"distance":1364,"transit":true,"station_name":"Jakarta Kota","station_id":"JAKK","time":3,"is_transit":true,"i_long":106.812439,"i_lat":-6.137569},{"line":2,"is_transit":false,"station_name":"Jayakarta","station_id":"JAY","time":4,"i_long":106.820901,"transit":false,"distance":1264,"i_lat":-6.141205},{"i_lat":-6.149769,"i_long":106.82482,"line":2,"is_transit":false,"distance":1080,"station_name":"Manggabesar","time":2,"station_id":"MGB","transit":false},{"time":2,"transit":false,"is_transit":false,"station_id":"SW","i_long":106.827103,"i_lat":-6.160725,"station_name":"Sawah Besar","line":2,"distance":906}],[{"distance":0,"station_id":"KDS","i_lat":-6.166068,"station_name":"Kalideres","i_long":106.701612,"is_transit":false,"time":0,"line":5,"transit":false},{"transit":false,"time":3,"line":5,"i_lat":-6.162758,"station_name":"Rawa Buaya","i_long":106.723064,"is_transit":false,"station_id":"RW","distance":2504},{"station_id":"BOI","transit":false,"i_lat":-6.159876,"is_transit":false,"i_long":106.737035,"station_name":"Bojongindah","time":4,"distance":1152,"line":5},{"transit":false,"station_name":"Taman Kota","time":2,"station_id":"TKO","distance":2334,"i_long":106.756522,"line":5,"is_transit":false,"i_lat":-6.1587309999999995},{"station_name":"Pesing","station_id":"PSG","i_lat":-6.161433,"i_long":106.771379,"line":5,"distance":1614,"is_transit":false,"time":2,"transit":false},{"station_name":"Grogol","line":5,"i_lat":-6.162021,"is_transit":false,"time":2,"i_long":106.788277,"station_id":"GGL","transit":false,"distance":2036},{"i_long":106.800832,"transit":true,"is_transit":true,"distance":1700,"station_name":"Duri","station_id":"DU","time":3,"i_lat":-6.155215,"line":1},{"station_id":"THB","time":8,"i_long":106.811091,"transit":false,"is_transit":false,"i_lat":-6.185545,"line":1,"distance":3632,"station_name":"Tanah Abang"},{"i_lat":-6.20132,"time":5,"distance":2029,"line":1,"i_long":106.816351,"station_name":"Karet","is_transit":false,"transit":false,"station_id":"KAT"},{"distance":471,"i_lat":-6.201433,"transit":false,"is_transit":false,"line":1,"time":1,"i_long":106.819881,"station_name":"Sudirman Baru","station_id":"SUDB"},{"time":1,"distance":280,"transit":false,"station_name":"Sudirman","is_transit":false,"i_long":106.822649,"line":1,"station_id":"SUD","i_lat":-6.202263},{"station_name":"Manggarai","station_id":"MRI","time":4,"is_transit":true,"line":2,"distance":3186,"transit":true,"i_long":106.84912,"i_lat":-6.209883},{"is_transit":false,"line":2,"station_id":"CKI","distance":1590,"station_name":"Cikini","time":4,"i_long":106.840169,"i_lat":-6.198556,"transit":false},{"station_name":"Gondangdia","is_transit":false,"time":3,"distance":1750,"i_lat":-6.186295,"transit":false,"i_long":106.832183,"line":2,"station_id":"GDD"},{"time":4,"is_transit":false,"i_lat":-6.166716,"i_long":106.828284,"distance":2015,"line":2,"station_name":"Juanda","station_id":"JUA","transit":false},{"time":2,"distance":1149,"i_lat":-6.160725,"i_long":106.827103,"transit":false,"station_id":"SW","is_transit":false,"station_name":"Sawah Besar","line":2}],[{"transit":false,"station_id":"KDS","is_transit":false,"distance":0,"i_lat":-6.166068,"station_name":"Kalideres","time":0,"i_long":106.701612,"line":5},{"distance":2504,"i_lat":-6.162758,"i_long":106.723064,"transit":false,"station_id":"RW","line":5,"is_transit":false,"time":3,"station_name":"Rawa Buaya"},{"station_id":"BOI","distance":1152,"i_long":106.737035,"time":4,"transit":false,"is_transit":false,"station_name":"Bojongindah","i_lat":-6.159876,"line":5},{"station_id":"TKO","time":2,"i_lat":-6.1587309999999995,"station_name":"Taman Kota","transit":false,"i_long":106.756522,"distance":2334,"is_transit":false,"line":5},{"transit":false,"station_name":"Pesing","station_id":"PSG","distance":1614,"i_long":106.771379,"i_lat":-6.161433,"is_transit":false,"time":2,"line":5},{"distance":2036,"time":2,"i_long":106.788277,"station_name":"Grogol","station_id":"GGL","i_lat":-6.162021,"transit":false,"is_transit":false,"line":5},{"line":1,"is_transit":true,"time":3,"station_name":"Duri","transit":true,"station_id":"DU","i_long":106.800832,"distance":1700,"i_lat":-6.155215},{"transit":false,"time":4,"i_long":106.79867,"station_name":"Angke","is_transit":false,"distance":1230,"i_lat":-6.144674,"line":1,"station_id":"AK"},{"time":9,"station_id":"KPB","line":4,"transit":true,"i_lat":-6.132549,"is_transit":true,"i_long":106.826365,"station_name":"Kampung Bandan","distance":4102},{"time":3,"transit":false,"station_name":"Rajawali","is_transit":false,"i_lat":-6.14505,"i_long":106.836569,"distance":1444,"line":11,"station_id":"RJW"},{"i_long":106.839204,"distance":1901,"is_transit":false,"line":11,"i_lat":-6.161728,"transit":false,"station_name":"Kemayoran","station_id":"KMO","time":5},{"i_lat":-6.174784,"distance":1436,"line":11,"i_long":106.84368,"station_id":"PSE","is_transit":false,"time":4,"transit":false,"station_name":"Pasar Senen"},{"i_long":106.850107,"line":11,"station_id":"GST","is_transit":false,"time":8,"i_lat":-6.185975,"transit":false,"distance":1567,"station_name":"Gang Sentiong"},{"transit":false,"station_id":"KMT","time":1,"distance":973,"i_long":106.855437,"line":11,"station_name":"Kramat","is_transit":false,"i_lat":-6.193792},{"is_transit":false,"time":2,"station_id":"POK","line":11,"transit":false,"distance":1829,"i_lat":-6.209188,"i_long":106.861737,"station_name":"Pondok Jati"},{"i_long":106.86807400000001,"station_id":"JNG","time":9,"station_name":"Jatinegara","line":1,"is_transit":true,"transit":true,"distance":1236,"i_lat":-6.215091},{"is_transit":false,"distance":1377,"station_name":"Matraman","transit":false,"time":2,"i_lat":-6.212485,"i_long":106.858896,"line":1,"station_id":"MTR"},{"distance":1275,"station_name":"Manggarai","line":2,"i_lat":-6.209883,"time":2,"station_id":"MRI","is_transit":true,"i_long":106.84912,"transit":true},{"i_long":106.840169,"distance":1590,"is_transit":false,"station_id":"CKI","station_name":"Cikini","i_lat":-6.198556,"transit":false,"line":2,"time":4},{"time":3,"distance":1750,"i_lat":-6.186295,"line":2,"transit":false,"station_id":"GDD","i_long":106.832183,"is_transit":false,"station_name":"Gondangdia"},{"transit":false,"line":2,"is_transit":false,"i_lat":-6.166716,"station_name":"Juanda","i_long":106.828284,"distance":2015,"time":4,"station_id":"JUA"},{"time":2,"transit":false,"station_id":"SW","i_lat":-6.160725,"line":2,"is_transit":false,"station_name":"Sawah Besar","distance":1149,"i_long":106.827103}],[{"distance":0,"station_name":"Kalideres","transit":false,"time":0,"i_lat":-6.166068,"i_long":106.701612,"is_transit":false,"line":5,"station_id":"KDS"},{"station_name":"Rawa Buaya","station_id":"RW","time":3,"i_lat":-6.162758,"i_long":106.723064,"line":5,"transit":false,"is_transit":false,"distance":2504},{"i_long":106.737035,"time":4,"i_lat":-6.159876,"transit":false,"distance":1152,"line":5,"station_name":"Bojongindah","station_id":"BOI","is_transit":false},{"i_lat":-6.1587309999999995,"i_long":106.756522,"station_id":"TKO","distance":2334,"transit":false,"is_transit":false,"time":2,"station_name":"Taman Kota","line":5},{"station_name":"Pesing","line":5,"transit":false,"time":2,"i_long":106.771379,"is_transit":false,"distance":1614,"station_id":"PSG","i_lat":-6.161433},{"transit":false,"distance":2036,"i_long":106.788277,"station_name":"Grogol","station_id":"GGL","is_transit":false,"i_lat":-6.162021,"line":5,"time":2},{"i_long":106.800832,"is_transit":true,"station_name":"Duri","transit":true,"time":3,"station_id":"DU","line":1,"distance":1700,"i_lat":-6.155215},{"station_id":"THB","is_transit":false,"i_long":106.811091,"transit":false,"time":8,"i_lat":-6.185545,"line":1,"station_name":"Tanah Abang","distance":3632},{"station_id":"KAT","i_long":106.816351,"line":1,"distance":2029,"transit":false,"station_name":"Karet","is_transit":false,"time":5,"i_lat":-6.20132},{"i_long":106.819881,"i_lat":-6.201433,"line":1,"distance":471,"station_name":"Sudirman Baru","is_transit":false,"transit":false,"time":1,"station_id":"SUDB"},{"is_transit":false,"time":1,"station_name":"Sudirman","i_long":106.822649,"distance":280,"station_id":"SUD","line":1,"transit":false,"i_lat":-6.202263},{"line":2,"station_id":"MRI","transit":false,"i_lat":-6.209883,"time":4,"station_name":"Manggarai","is_transit":false,"i_long":106.84912,"distance":3186},{"line":1,"transit":false,"station_id":"MTR","station_name":"Matraman","i_long":106.858896,"time":2,"distance":1275,"i_lat":-6.212485,"is_transit":false},{"i_long":106.86807400000001,"distance":1377,"line":1,"i_lat":-6.215091,"station_name":"Jatinegara","is_transit":true,"transit":true,"station_id":"JNG","time":8},{"is_transit":false,"distance":1236,"i_long":106.861737,"transit":false,"line":11,"station_name":"Pondok Jati","station_id":"POK","time":2,"i_lat":-6.209188},{"station_name":"Kramat","station_id":"KMT","distance":1829,"is_transit":false,"i_lat":-6.193792,"time":2,"i_long":106.855437,"line":11,"transit":false},{"station_name":"Gang Sentiong","i_long":106.850107,"time":1,"i_lat":-6.185975,"line":11,"is_transit":false,"distance":973,"station_id":"GST","transit":false},{"station_name":"Pasar Senen","line":11,"distance":1567,"i_lat":-6.174784,"time":8,"station_id":"PSE","is_transit":false,"i_long":106.84368,"transit":false},{"transit":false,"is_transit":false,"distance":1436,"station_name":"Kemayoran","station_id":"KMO","i_lat":-6.161728,"i_long":106.839204,"time":4,"line":11},{"time":5,"is_transit":false,"transit":false,"distance":1901,"i_long":106.836569,"line":11,"station_name":"Rajawali","i_lat":-6.14505,"station_id":"RJW"},{"is_transit":true,"station_id":"KPB","i_lat":-6.132549,"time":3,"line":4,"distance":1444,"station_name":"Kampung Bandan","i_long":106.826365,"transit":true},{"station_name":"Jakarta Kota","station_id":"JAKK","transit":true,"i_lat":-6.137569,"i_long":106.812439,"line":2,"time":3,"distance":1364,"is_transit":true},{"transit":false,"i_long":106.820901,"station_name":"Jayakarta","distance":1264,"i_lat":-6.141205,"time":4,"line":2,"station_id":"JAY","is_transit":false},{"station_name":"Manggabesar","i_long":106.82482,"line":2,"time":2,"station_id":"MGB","transit":false,"is_transit":false,"distance":1080,"i_lat":-6.149769},{"station_name":"Sawah Besar","i_lat":-6.160725,"distance":906,"transit":false,"is_transit":false,"station_id":"SW","line":2,"time":2,"i_long":106.827103}]]}