{"data":[[{"line":5,"i_lat":-6.166068,"distance":0,"is_transit":false,"time":0,"station_name":"Kalideres","station_id":"KDS","transit":false,"i_long":106.701612},{"transit":false,"time":3,"is_transit":false,"station_name":"Rawa Buaya","i_long":106.723064,"i_lat":-6.162758,"line":5,"distance":2504,"station_id":"RW"},{"station_name":"Bojongindah","distance":1152,"station_id":"BOI","time":4,"i_lat":-6.159876,"transit":false,"i_long":106.737035,"line":0,"is_transit":false},{"transit":false,"station_id":"TKO","line":5,"is_transit":false,"distance":2334,"time":2,"station_name":"Taman Kota","i_lat":-6.1587309999999995,"i_long":106.756522},{"distance":1614,"i_lat":-6.161433,"station_id":"PSG","transit":false,"i_long":106.771379,"station_name":"Pesing","is_transit":false,"line":5,"time":2},{"transit":false,"i_lat":-6.162021,"station_name":"Grogol","station_id":"GGL","is_transit":false,"i_long":106.788277,"time":2,"distance":2036,"line":5},{"i_long":106.800832,"transit":true,"station_id":"DU","line":1,"is_transit":true,"time":3,"i_lat":-6.155215,"distance":1700,"station_name":"Duri"},{"station_name":"Angke","time":4,"i_lat":-6.144674,"i_long":106.79867,"distance":1230,"is_transit":false,"line":0,"transit":false,"station_id":"AK"},{"station_id":"KPB","distance":4102,"station_name":"Kampung Bandan","i_lat":-6.132549,"i_long":106.826365,"line":0,"transit":true,"is_transit":true,"time":9},{"time":3,"distance":1444,"station_id":"RJW","i_lat":-6.14505,"is_transit":false,"station_name":"Rajawali","transit":false,"i_long":106.836569,"line":11},{"distance":1901,"i_long":106.839204,"line":11,"is_transit":false,"time":5,"i_lat":-6.161728,"station_id":"KMO","transit":false,"station_name":"Kemayoran"},{"station_id":"PSE","distance":1436,"line":11,"time":4,"i_long":106.84368,"is_transit":false,"transit":false,"station_name":"Pasar Senen","i_lat":-6.174784},{"line":11,"time":8,"station_id":"GST","transit":false,"station_name":"Gang Sentiong","i_lat":-6.185975,"distance":1567,"is_transit":false,"i_long":106.850107},{"time":1,"i_lat":-6.193792,"i_long":106.855437,"is_transit":false,"distance":973,"station_id":"KMT","transit":false,"line":11,"station_name":"Kramat"},{"line":11,"time":2,"distance":1829,"is_transit":false,"i_lat":-6.209188,"station_name":"Pondok Jati","i_long":106.861737,"transit":false,"station_id":"POK"}],[{"line":5,"time":0,"distance":0,"station_id":"KDS","i_lat":-6.166068,"station_name":"Kalideres","transit":false,"i_long":106.701612,"is_transit":false},{"station_id":"RW","distance":2504,"transit":false,"i_long":106.723064,"time":3,"is_transit":false,"i_lat":-6.162758,"station_name":"Rawa Buaya","line":5},{"distance":1152,"is_transit":false,"transit":false,"station_id":"BOI","i_lat":-6.159876,"i_long":106.737035,"line":0,"time":4,"station_name":"Bojongindah"},{"i_long":106.756522,"line":5,"station_name":"Taman Kota","time":2,"distance":2334,"transit":false,"station_id":"TKO","is_transit":false,"i_lat":-6.1587309999999995},{"transit":false,"station_id":"PSG","time":2,"i_long":106.771379,"line":5,"distance":1614,"is_transit":false,"station_name":"Pesing","i_lat":-6.161433},{"station_id":"GGL","i_lat":-6.162021,"station_name":"Grogol","transit":false,"i_long":106.788277,"time":2,"distance":2036,"is_transit":false,"line":5},{"i_lat":-6.155215,"i_long":106.800832,"station_id":"DU","time":3,"is_transit":true,"line":1,"distance":1700,"transit":true,"station_name":"Duri"},{"station_id":"THB","is_transit":true,"time":8,"i_lat":-6.185545,"i_long":106.811091,"line":1,"distance":3632,"station_name":"Tanah Abang","transit":false},{"station_name":"Karet","station_id":"KAT","is_transit":false,"line":1,"i_long":106.816351,"i_lat":-6.20132,"transit":false,"time":5,"distance":2029},{"line":1,"station_id":"SUDB","is_transit":false,"time":1,"distance":471,"i_lat":-6.201433,"i_long":106.819881,"transit":false,"station_name":"Sudirman Baru"},{"i_long":106.822649,"time":1,"distance":280,"station_name":"Sudirman","station_id":"SUD","line":1,"i_lat":-6.202263,"transit":false,"is_transit":false},{"line":0,"i_long":106.84912,"i_lat":-6.209883,"time":4,"station_id":"MRI","transit":false,"is_transit":true,"distance":3186,"station_name":"Manggarai"},{"distance":1275,"is_transit":false,"time":2,"transit":false,"station_name":"Matraman","i_lat":-6.212485,"station_id":"MTR","i_long":106.858896,"line":1},{"station_name":"Jatinegara","i_long":106.86807400000001,"distance":1377,"is_transit":true,"time":8,"transit":true,"i_lat":-6.215091,"line":0,"station_id":"JNG"},{"i_long":106.861737,"time":2,"station_id":"POK","distance":1236,"transit":false,"station_name":"Pondok Jati","i_lat":-6.209188,"is_transit":false,"line":11}],[{"i_lat":-6.166068,"is_transit":false,"distance":0,"line":5,"transit":false,"station_name":"Kalideres","time":0,"i_long":106.701612,"station_id":"KDS"},{"transit":false,"station_name":"Rawa Buaya","i_long":106.723064,"is_transit":false,"time":3,"line":5,"station_id":"RW","i_lat":-6.162758,"distance":2504},{"transit":false,"station_id":"BOI","time":4,"line":0,"is_transit":false,"station_name":"Bojongindah","i_long":106.737035,"i_lat":-6.159876,"distance":1152},{"time":2,"line":5,"station_name":"Taman Kota","i_lat":-6.1587309999999995,"is_transit":false,"transit":false,"distance":2334,"i_long":106.756522,"station_id":"TKO"},{"station_id":"PSG","distance":1614,"transit":false,"line":5,"i_lat":-6.161433,"i_long":106.771379,"is_transit":false,"station_name":"Pesing","time":2},{"distance":2036,"i_lat":-6.162021,"line":5,"is_transit":false,"station_id":"GGL","time":2,"i_long":106.788277,"transit":false,"station_name":"Grogol"},{"is_transit":true,"station_id":"DU","time":3,"transit":true,"i_lat":-6.155215,"i_long":106.800832,"distance":1700,"line":1,"station_name":"Duri"},{"distance":1230,"station_name":"Angke","transit":false,"station_id":"AK","is_transit":false,"i_lat":-6.144674,"line":0,"i_long":106.79867,"time":4},{"station_id":"KPB","line":0,"time":9,"distance":4102,"is_transit":true,"station_name":"Kampung Bandan","i_long":106.826365,"transit":false,"i_lat":-6.132549},{"is_transit":true,"distance":1364,"i_long":106.812439,"station_id":"JAKK","i_lat":-6.137569,"line":0,"time":3,"station_name":"Jakarta Kota","transit":true},{"i_lat":-6.141205,"is_transit":false,"station_id":"JAY","i_long":106.820901,"line":7,"time":4,"station_name":"Jayakarta","distance":1264,"transit":false},{"station_id":"MGB","i_lat":-6.149769,"i_long":106.82482,"distance":1080,"transit":false,"station_name":"Manggabesar","line":2,"is_transit":false,"time":2},{"i_lat":-6.160725,"line":2,"transit":false,"is_transit":false,"station_id":"SW","i_long":106.827103,"station_name":"Sawah Besar","time":2,"distance":906},{"i_lat":-6.166716,"transit":false,"distance":1149,"station_name":"Juanda","i_long":106.828284,"station_id":"JUA","is_transit":false,"line":2,"time":2},{"time":4,"line":2,"transit":false,"i_lat":-6.186295,"distance":2015,"station_name":"Gondangdia","station_id":"GDD","i_long":106.832183,"is_transit":false},{"distance":1750,"station_id":"CKI","line":0,"is_transit":false,"i_long":106.840169,"time":3,"transit":false,"station_name":"Cikini","i_lat":-6.198556},{"is_transit":true,"distance":1590,"transit":true,"station_name":"Manggarai","i_lat":-6.209883,"i_long":106.84912,"line":0,"station_id":"MRI","time":4},{"i_long":106.858896,"station_id":"MTR","is_transit":false,"time":2,"distance":1275,"transit":false,"line":1,"station_name":"Matraman","i_lat":-6.212485},{"line":0,"i_lat":-6.215091,"station_id":"JNG","transit":true,"is_transit":true,"distance":1377,"station_name":"Jatinegara","time":8,"i_long":106.86807400000001},{"station_name":"Pondok Jati","line":11,"i_long":106.861737,"station_id":"POK","i_lat":-6.209188,"transit":false,"time":2,"is_transit":false,"distance":1236}],[{"station_name":"Kalideres","is_transit":false,"time":0,"transit":false,"station_id":"KDS","distance":0,"i_long":106.701612,"i_lat":-6.166068,"line":5},{"is_transit":false,"station_id":"RW","distance":2504,"time":3,"i_lat":-6.162758,"i_long":106.723064,"station_name":"Rawa Buaya","transit":false,"line":5},{"time":4,"station_id":"BOI","i_long":106.737035,"is_transit":false,"distance":1152,"i_lat":-6.159876,"station_name":"Bojongindah","transit":false,"line":0},{"is_transit":false,"time":2,"distance":2334,"i_lat":-6.1587309999999995,"station_id":"TKO","transit":false,"station_name":"Taman Kota","line":5,"i_long":106.756522},{"time":2,"distance":1614,"station_name":"Pesing","line":5,"transit":false,"i_lat":-6.161433,"station_id":"PSG","is_transit":false,"i_long":106.771379},{"station_id":"GGL","transit":false,"time":2,"station_name":"Grogol","i_lat":-6.162021,"is_transit":false,"distance":2036,"i_long":106.788277,"line":5},{"i_lat":-6.155215,"time":3,"distance":1700,"transit":true,"i_long":106.800832,"is_transit":true,"station_id":"DU","line":1,"station_name":"Duri"},{"is_transit":true,"time":8,"station_id":"THB","line":1,"transit":false,"distance":3632,"station_name":"Tanah Abang","i_lat":-6.185545,"i_long":106.811091},{"transit":false,"i_long":106.816351,"station_name":"Karet","i_lat":-6.20132,"time":5,"distance":2029,"line":1,"is_transit":false,"station_id":"KAT"},{"station_id":"SUDB","i_lat":-6.201433,"line":1,"time":1,"station_name":"Sudirman Baru","distance":471,"is_transit":false,"i_long":106.819881,"transit":false},{"distance":280,"is_transit":false,"station_id":"SUD","i_long":106.822649,"station_name":"Sudirman","time":1,"line":1,"transit":false,"i_lat":-6.202263},{"distance":3186,"time":4,"line":0,"station_name":"Manggarai","i_lat":-6.209883,"i_long":106.84912,"station_id":"MRI","is_transit":true,"transit":true},{"is_transit":false,"station_id":"CKI","time":4,"i_lat":-6.198556,"distance":1590,"i_long":106.840169,"station_name":"Cikini","line":0,"transit":false},{"time":3,"distance":1750,"station_name":"Gondangdia","station_id":"GDD","is_transit":false,"transit":false,"i_lat":-6.186295,"line":2,"i_long":106.832183},{"i_long":106.828284,"transit":false,"line":2,"station_id":"JUA","time":4,"distance":2015,"is_transit":false,"i_lat":-6.166716,"station_name":"Juanda"},{"time":2,"i_lat":-6.160725,"i_long":106.827103,"line":2,"distance":1149,"station_name":"Sawah Besar","is_transit":false,"station_id":"SW","transit":false},{"station_id":"MGB","is_transit":false,"transit":false,"i_lat":-6.149769,"distance":906,"time":2,"station_name":"Manggabesar","i_long":106.82482,"line":2},{"i_lat":-6.141205,"line":7,"i_long":106.820901,"station_id":"JAY","time":2,"distance":1080,"is_transit":false,"station_name":"Jayakarta","transit":false},{"i_lat":-6.137569,"station_id":"JAKK","transit":true,"i_long":106.812439,"distance":1264,"time":4,"line":0,"station_name":"Jakarta Kota","is_transit":true},{"station_name":"Kampung Bandan","i_long":106.826365,"station_id":"KPB","time":3,"distance":1364,"i_lat":-6.132549,"line":0,"is_transit":true,"transit":true},{"line":11,"i_lat":-6.14505,"transit":false,"i_long":106.836569,"station_id":"RJW","distance":1444,"is_transit":false,"time":3,"station_name":"Rajawali"},{"i_lat":-6.161728,"line":11,"station_id":"KMO","is_transit":false,"station_name":"Kemayoran","time":5,"distance":1901,"i_long":106.839204,"transit":false},{"station_name":"Pasar Senen","is_transit":false,"line":11,"time":4,"i_lat":-6.174784,"i_long":106.84368,"station_id":"PSE","transit":false,"distance":1436},{"time":8,"transit":false,"line":11,"station_id":"GST","distance":1567,"station_name":"Gang Sentiong","i_lat":-6.185975,"is_transit":false,"i_long":106.850107},{"station_name":"Kramat","distance":973,"line":11,"station_id":"KMT","i_lat":-6.193792,"is_transit":false,"time":1,"transit":false,"i_long":106.855437},{"station_id":"POK","transit":false,"is_transit":false,"distance":1829,"i_lat":-6.209188,"time":2,"i_long":106.861737,"line":11,"station_name":"Pondok Jati"}]]}