{"data":[[{"line":5,"i_lat":-6.166068,"transit":false,"distance":0,"station_id":"KDS","i_long":106.701612,"station_name":"Kalideres","time":0,"is_transit":false},{"is_transit":false,"distance":2504,"i_lat":-6.162758,"transit":false,"station_id":"RW","time":3,"station_name":"Rawa Buaya","i_long":106.723064,"line":5},{"station_name":"Bojongindah","i_lat":-6.159876,"i_long":106.737035,"distance":1152,"is_transit":false,"station_id":"BOI","time":4,"line":5,"transit":false},{"station_id":"TKO","transit":false,"station_name":"Taman Kota","time":2,"distance":2334,"is_transit":false,"i_lat":-6.1587309999999995,"i_long":106.756522,"line":5},{"distance":1614,"i_lat":-6.161433,"station_id":"PSG","i_long":106.771379,"transit":false,"time":2,"station_name":"Pesing","is_transit":false,"line":5},{"station_id":"GGL","station_name":"Grogol","time":2,"i_long":106.788277,"is_transit":false,"line":5,"i_lat":-6.162021,"transit":false,"distance":2036},{"station_name":"Duri","time":3,"is_transit":true,"transit":true,"distance":1700,"i_long":106.800832,"station_id":"DU","line":1,"i_lat":-6.155215},{"time":4,"is_transit":false,"station_name":"Angke","i_lat":-6.144674,"line":1,"station_id":"AK","distance":1230,"i_long":106.79867,"transit":false},{"transit":true,"distance":4102,"station_id":"KPB","time":9,"i_long":106.826365,"is_transit":true,"i_lat":-6.132549,"line":4,"station_name":"Kampung Bandan"},{"transit":true,"line":2,"station_id":"JAKK","i_lat":-6.137569,"is_transit":true,"time":3,"i_long":106.812439,"station_name":"Jakarta Kota","distance":1364},{"line":2,"transit":false,"station_id":"JAY","i_lat":-6.141205,"is_transit":false,"station_name":"Jayakarta","distance":1264,"i_long":106.820901,"time":4},{"station_id":"MGB","time":2,"transit":false,"i_long":106.82482,"i_lat":-6.149769,"line":2,"distance":1080,"is_transit":false,"station_name":"Manggabesar"},{"time":2,"i_lat":-6.160725,"i_long":106.827103,"transit":false,"is_transit":false,"line":2,"station_name":"Sawah Besar","distance":906,"station_id":"SW"}],[{"transit":false,"distance":0,"station_name":"Kalideres","is_transit":false,"line":5,"i_lat":-6.166068,"time":0,"i_long":106.701612,"station_id":"KDS"},{"i_long":106.723064,"station_name":"Rawa Buaya","is_transit":false,"distance":2504,"time":3,"i_lat":-6.162758,"line":5,"station_id":"RW","transit":false},{"distance":1152,"transit":false,"station_id":"BOI","station_name":"Bojongindah","time":4,"is_transit":false,"i_long":106.737035,"i_lat":-6.159876,"line":5},{"time":2,"station_id":"TKO","line":5,"distance":2334,"i_long":106.756522,"transit":false,"i_lat":-6.1587309999999995,"is_transit":false,"station_name":"Taman Kota"},{"transit":false,"time":2,"distance":1614,"is_transit":false,"station_name":"Pesing","i_long":106.771379,"line":5,"station_id":"PSG","i_lat":-6.161433},{"distance":2036,"is_transit":false,"transit":false,"line":5,"station_name":"Grogol","i_lat":-6.162021,"time":2,"station_id":"GGL","i_long":106.788277},{"i_long":106.800832,"transit":true,"is_transit":true,"line":1,"distance":1700,"station_id":"DU","time":3,"i_lat":-6.155215,"station_name":"Duri"},{"line":1,"i_lat":-6.185545,"i_long":106.811091,"station_id":"THB","transit":false,"is_transit":false,"distance":3632,"time":8,"station_name":"Tanah Abang"},{"i_lat":-6.20132,"time":5,"i_long":106.816351,"station_id":"KAT","is_transit":false,"line":1,"transit":false,"station_name":"Karet","distance":2029},{"line":1,"i_lat":-6.201433,"station_id":"SUDB","transit":false,"distance":471,"time":1,"i_long":106.819881,"is_transit":false,"station_name":"Sudirman Baru"},{"i_long":106.822649,"i_lat":-6.202263,"is_transit":false,"time":1,"line":1,"transit":false,"station_id":"SUD","distance":280,"station_name":"Sudirman"},{"time":4,"is_transit":true,"station_name":"Manggarai","i_lat":-6.209883,"i_long":106.84912,"line":2,"distance":3186,"station_id":"MRI","transit":true},{"station_name":"Cikini","i_long":106.840169,"is_transit":false,"transit":false,"distance":1590,"station_id":"CKI","i_lat":-6.198556,"line":2,"time":4},{"time":3,"transit":false,"i_long":106.832183,"station_name":"Gondangdia","is_transit":false,"i_lat":-6.186295,"distance":1750,"line":2,"station_id":"GDD"},{"is_transit":false,"line":2,"i_lat":-6.166716,"time":4,"transit":false,"station_name":"Juanda","station_id":"JUA","distance":2015,"i_long":106.828284},{"time":2,"is_transit":false,"station_id":"SW","i_lat":-6.160725,"distance":1149,"station_name":"Sawah Besar","line":2,"transit":false,"i_long":106.827103}],[{"transit":false,"station_name":"Kalideres","time":0,"is_transit":false,"line":5,"i_long":106.701612,"i_lat":-6.166068,"station_id":"KDS","distance":0},{"distance":2504,"station_id":"RW","time":3,"line":5,"i_lat":-6.162758,"station_name":"Rawa Buaya","i_long":106.723064,"transit":false,"is_transit":false},{"i_long":106.737035,"line":5,"station_name":"Bojongindah","is_transit":false,"i_lat":-6.159876,"transit":false,"distance":1152,"station_id":"BOI","time":4},{"line":5,"time":2,"station_name":"Taman Kota","station_id":"TKO","i_lat":-6.1587309999999995,"is_transit":false,"distance":2334,"i_long":106.756522,"transit":false},{"station_name":"Pesing","transit":false,"i_long":106.771379,"line":5,"station_id":"PSG","time":2,"is_transit":false,"distance":1614,"i_lat":-6.161433},{"i_long":106.788277,"line":5,"is_transit":false,"time":2,"station_id":"GGL","distance":2036,"station_name":"Grogol","transit":false,"i_lat":-6.162021},{"i_long":106.800832,"line":1,"station_id":"DU","time":3,"station_name":"Duri","transit":true,"is_transit":true,"distance":1700,"i_lat":-6.155215},{"time":4,"i_lat":-6.144674,"transit":false,"station_id":"AK","line":1,"station_name":"Angke","distance":1230,"i_long":106.79867,"is_transit":false},{"distance":4102,"station_id":"KPB","line":4,"station_name":"Kampung Bandan","i_long":106.826365,"time":9,"transit":true,"is_transit":true,"i_lat":-6.132549},{"i_lat":-6.14505,"line":11,"time":3,"station_id":"RJW","station_name":"Rajawali","transit":false,"is_transit":false,"distance":1444,"i_long":106.836569},{"is_transit":false,"time":5,"i_long":106.839204,"line":11,"station_id":"KMO","distance":1901,"station_name":"Kemayoran","i_lat":-6.161728,"transit":false},{"transit":false,"i_long":106.84368,"station_id":"PSE","line":11,"is_transit":false,"time":4,"station_name":"Pasar Senen","distance":1436,"i_lat":-6.174784},{"station_id":"GST","distance":1567,"transit":false,"i_lat":-6.185975,"time":8,"line":11,"is_transit":false,"i_long":106.850107,"station_name":"Gang Sentiong"},{"station_name":"Kramat","transit":false,"time":1,"is_transit":false,"line":11,"i_lat":-6.193792,"i_long":106.855437,"distance":973,"station_id":"KMT"},{"time":2,"distance":1829,"i_lat":-6.209188,"i_long":106.861737,"station_id":"POK","station_name":"Pondok Jati","transit":false,"line":11,"is_transit":false},{"transit":true,"distance":1236,"i_lat":-6.215091,"i_long":106.86807400000001,"is_transit":true,"time":9,"line":1,"station_name":"Jatinegara","station_id":"JNG"},{"station_id":"MTR","transit":false,"line":1,"time":2,"is_transit":false,"station_name":"Matraman","distance":1377,"i_long":106.858896,"i_lat":-6.212485},{"distance":1275,"i_lat":-6.209883,"line":2,"is_transit":true,"station_name":"Manggarai","i_long":106.84912,"station_id":"MRI","transit":true,"time":2},{"is_transit":false,"station_id":"CKI","i_lat":-6.198556,"i_long":106.840169,"transit":false,"time":4,"distance":1590,"station_name":"Cikini","line":2},{"i_lat":-6.186295,"i_long":106.832183,"station_id":"GDD","transit":false,"line":2,"is_transit":false,"distance":1750,"station_name":"Gondangdia","time":3},{"distance":2015,"time":4,"i_lat":-6.166716,"i_long":106.828284,"transit":false,"is_transit":false,"line":2,"station_name":"Juanda","station_id":"JUA"},{"i_long":106.827103,"station_name":"Sawah Besar","station_id":"SW","i_lat":-6.160725,"time":2,"is_transit":false,"line":2,"transit":false,"distance":1149}],[{"station_name":"Kalideres","line":5,"station_id":"KDS","i_long":106.701612,"is_transit":false,"distance":0,"transit":false,"i_lat":-6.166068,"time":0},{"i_lat":-6.162758,"distance":2504,"time":3,"transit":false,"is_transit":false,"station_id":"RW","i_long":106.723064,"station_name":"Rawa Buaya","line":5},{"is_transit":false,"i_lat":-6.159876,"transit":false,"i_long":106.737035,"distance":1152,"station_name":"Bojongindah","line":5,"station_id":"BOI","time":4},{"distance":2334,"is_transit":false,"station_name":"Taman Kota","time":2,"station_id":"TKO","i_lat":-6.1587309999999995,"line":5,"i_long":106.756522,"transit":false},{"is_transit":false,"station_id":"PSG","i_lat":-6.161433,"station_name":"Pesing","line":5,"time":2,"transit":false,"distance":1614,"i_long":106.771379},{"transit":false,"time":2,"distance":2036,"is_transit":false,"i_long":106.788277,"line":5,"station_name":"Grogol","station_id":"GGL","i_lat":-6.162021},{"transit":true,"station_id":"DU","time":3,"i_long":106.800832,"line":1,"station_name":"Duri","is_transit":true,"i_lat":-6.155215,"distance":1700},{"i_long":106.811091,"station_id":"THB","transit":false,"is_transit":false,"distance":3632,"i_lat":-6.185545,"station_name":"Tanah Abang","line":1,"time":8},{"station_name":"Karet","transit":false,"station_id":"KAT","is_transit":false,"distance":2029,"i_long":106.816351,"line":1,"time":5,"i_lat":-6.20132},{"time":1,"station_id":"SUDB","transit":false,"station_name":"Sudirman Baru","i_lat":-6.201433,"is_transit":false,"distance":471,"line":1,"i_long":106.819881},{"transit":false,"line":1,"time":1,"is_transit":false,"i_long":106.822649,"station_id":"SUD","station_name":"Sudirman","i_lat":-6.202263,"distance":280},{"i_lat":-6.209883,"station_id":"MRI","transit":false,"is_transit":false,"distance":3186,"i_long":106.84912,"line":2,"station_name":"Manggarai","time":4},{"distance":1275,"time":2,"is_transit":false,"station_id":"MTR","i_lat":-6.212485,"i_long":106.858896,"line":1,"transit":false,"station_name":"Matraman"},{"distance":1377,"transit":true,"station_name":"Jatinegara","i_long":106.86807400000001,"i_lat":-6.215091,"line":1,"time":8,"station_id":"JNG","is_transit":true},{"is_transit":false,"station_id":"POK","i_lat":-6.209188,"line":11,"transit":false,"i_long":106.861737,"time":2,"station_name":"Pondok Jati","distance":1236},{"transit":false,"i_long":106.855437,"i_lat":-6.193792,"distance":1829,"time":2,"line":11,"station_id":"KMT","station_name":"Kramat","is_transit":false},{"is_transit":false,"station_name":"Gang Sentiong","distance":973,"time":1,"i_long":106.850107,"transit":false,"station_id":"GST","i_lat":-6.185975,"line":11},{"time":8,"i_long":106.84368,"transit":false,"distance":1567,"station_id":"PSE","is_transit":false,"station_name":"Pasar Senen","i_lat":-6.174784,"line":11},{"station_id":"KMO","transit":false,"i_lat":-6.161728,"station_name":"Kemayoran","line":11,"is_transit":false,"distance":1436,"time":4,"i_long":106.839204},{"is_transit":false,"station_id":"RJW","station_name":"Rajawali","i_lat":-6.14505,"line":11,"i_long":106.836569,"distance":1901,"time":5,"transit":false},{"is_transit":true,"distance":1444,"time":3,"station_name":"Kampung Bandan","i_lat":-6.132549,"line":4,"station_id":"KPB","transit":true,"i_long":106.826365},{"station_name":"Jakarta Kota","i_lat":-6.137569,"i_long":106.812439,"transit":true,"is_transit":true,"station_id":"JAKK","line":2,"time":3,"distance":1364},{"time":4,"i_long":106.820901,"i_lat":-6.141205,"line":2,"transit":false,"is_transit":false,"distance":1264,"station_id":"JAY","station_name":"Jayakarta"},{"is_transit":false,"line":2,"transit":false,"station_id":"MGB","i_lat":-6.149769,"station_name":"Manggabesar","distance":1080,"i_long":106.82482,"time":2},{"line":2,"station_name":"Sawah Besar","station_id":"SW","is_transit":false,"transit":false,"i_lat":-6.160725,"i_long":106.827103,"distance":906,"time":2}]]}