{"data":[[{"distance":0,"station_id":"KDS","station_name":"Kalideres","i_long":106.701612,"time":0,"is_transit":false,"transit":false,"i_lat":-6.166068,"line":5},{"distance":2548,"i_lat":-6.169933,"i_long":106.679458,"line":5,"is_transit":false,"station_name":"Poris","time":3,"station_id":"PI","transit":false},{"i_long":106.665036,"station_id":"BPR","transit":false,"station_name":"Batuceper","time":3,"is_transit":false,"line":5,"distance":1834,"i_lat":-6.171811},{"is_transit":false,"distance":2028,"i_lat":-6.17331,"transit":false,"i_long":106.64657,"station_id":"TTI","time":3,"line":5,"station_name":"Tanah Tinggi"},{"time":3,"station_name":"Tangerang","line":5,"station_id":"TNG","transit":false,"distance":1547,"i_lat":-6.176583,"is_transit":false,"i_long":106.632761}]]}