{"data":[[{"is_transit":false,"station_id":"KDS","time":0,"i_lat":-6.166068,"line":5,"distance":0,"transit":false,"i_long":106.701612,"station_name":"Kalideres"},{"transit":false,"i_lat":-6.162758,"station_name":"Rawa Buaya","is_transit":false,"time":3,"distance":2504,"i_long":106.723064,"line":5,"station_id":"RW"},{"transit":false,"is_transit":false,"time":4,"station_id":"BOI","i_long":106.737035,"i_lat":-6.159876,"distance":1152,"line":5,"station_name":"Bojongindah"},{"time":2,"station_id":"TKO","line":5,"distance":2334,"is_transit":false,"station_name":"Taman Kota","transit":false,"i_lat":-6.1587309999999995,"i_long":106.756522},{"i_long":106.771379,"station_name":"Pesing","i_lat":-6.161433,"is_transit":false,"transit":false,"time":2,"distance":1614,"station_id":"PSG","line":5},{"station_name":"Grogol","i_lat":-6.162021,"i_long":106.788277,"distance":2036,"line":5,"transit":false,"is_transit":false,"time":2,"station_id":"GGL"},{"is_transit":true,"transit":true,"distance":1700,"i_lat":-6.155215,"i_long":106.800832,"line":1,"station_name":"Duri","time":3,"station_id":"DU"},{"i_lat":-6.144674,"i_long":106.79867,"station_name":"Angke","transit":false,"line":1,"station_id":"AK","is_transit":false,"distance":1230,"time":4},{"i_long":106.826365,"distance":4102,"line":4,"transit":false,"time":9,"i_lat":-6.132549,"station_id":"KPB","station_name":"Kampung Bandan","is_transit":false}],[{"distance":0,"is_transit":false,"station_name":"Kalideres","i_lat":-6.166068,"transit":false,"line":5,"station_id":"KDS","i_long":106.701612,"time":0},{"distance":2504,"transit":false,"i_long":106.723064,"line":5,"time":3,"station_id":"RW","station_name":"Rawa Buaya","is_transit":false,"i_lat":-6.162758},{"station_name":"Bojongindah","time":4,"line":5,"station_id":"BOI","transit":false,"distance":1152,"is_transit":false,"i_lat":-6.159876,"i_long":106.737035},{"line":5,"station_id":"TKO","distance":2334,"station_name":"Taman Kota","time":2,"i_lat":-6.1587309999999995,"transit":false,"is_transit":false,"i_long":106.756522},{"station_id":"PSG","i_long":106.771379,"i_lat":-6.161433,"time":2,"is_transit":false,"line":5,"station_name":"Pesing","transit":false,"distance":1614},{"transit":false,"station_id":"GGL","line":5,"is_transit":false,"station_name":"Grogol","time":2,"distance":2036,"i_lat":-6.162021,"i_long":106.788277},{"is_transit":true,"i_lat":-6.155215,"i_long":106.800832,"transit":true,"station_id":"DU","station_name":"Duri","time":3,"distance":1700,"line":1},{"distance":3632,"i_long":106.811091,"station_id":"THB","line":1,"is_transit":false,"time":8,"station_name":"Tanah Abang","transit":false,"i_lat":-6.185545},{"transit":false,"i_lat":-6.20132,"distance":2029,"time":5,"line":1,"station_id":"KAT","is_transit":false,"i_long":106.816351,"station_name":"Karet"},{"station_id":"SUDB","is_transit":false,"distance":471,"i_long":106.819881,"time":1,"line":1,"station_name":"Sudirman Baru","i_lat":-6.201433,"transit":false},{"i_long":106.822649,"time":1,"distance":280,"i_lat":-6.202263,"station_id":"SUD","is_transit":false,"transit":false,"line":1,"station_name":"Sudirman"},{"is_transit":true,"transit":true,"distance":3186,"i_long":106.84912,"station_name":"Manggarai","station_id":"MRI","time":4,"i_lat":-6.209883,"line":2},{"time":4,"line":2,"transit":false,"station_name":"Cikini","station_id":"CKI","is_transit":false,"i_lat":-6.198556,"i_long":106.840169,"distance":1590},{"station_name":"Gondangdia","time":3,"distance":1750,"station_id":"GDD","i_lat":-6.186295,"i_long":106.832183,"line":2,"is_transit":false,"transit":false},{"station_name":"Juanda","time":4,"i_lat":-6.166716,"distance":2015,"i_long":106.828284,"transit":false,"is_transit":false,"station_id":"JUA","line":2},{"station_name":"Sawah Besar","is_transit":false,"station_id":"SW","line":2,"i_long":106.827103,"time":2,"distance":1149,"i_lat":-6.160725,"transit":false},{"i_long":106.82482,"line":2,"i_lat":-6.149769,"is_transit":false,"time":2,"distance":906,"station_name":"Manggabesar","station_id":"MGB","transit":false},{"station_name":"Jayakarta","i_long":106.820901,"station_id":"JAY","transit":false,"line":2,"time":2,"i_lat":-6.141205,"distance":1080,"is_transit":false},{"i_long":106.812439,"station_name":"Jakarta Kota","station_id":"JAKK","transit":true,"time":4,"is_transit":true,"i_lat":-6.137569,"line":2,"distance":1264},{"line":4,"station_name":"Kampung Bandan","i_lat":-6.132549,"time":3,"transit":false,"distance":1364,"is_transit":false,"i_long":106.826365,"station_id":"KPB"}],[{"line":5,"distance":0,"station_name":"Kalideres","i_long":106.701612,"transit":false,"i_lat":-6.166068,"station_id":"KDS","time":0,"is_transit":false},{"is_transit":false,"i_long":106.723064,"transit":false,"station_id":"RW","line":5,"distance":2504,"station_name":"Rawa Buaya","time":3,"i_lat":-6.162758},{"line":5,"distance":1152,"station_name":"Bojongindah","i_lat":-6.159876,"time":4,"transit":false,"i_long":106.737035,"is_transit":false,"station_id":"BOI"},{"i_lat":-6.1587309999999995,"i_long":106.756522,"time":2,"is_transit":false,"line":5,"distance":2334,"station_name":"Taman Kota","station_id":"TKO","transit":false},{"time":2,"i_lat":-6.161433,"transit":false,"is_transit":false,"station_id":"PSG","i_long":106.771379,"line":5,"station_name":"Pesing","distance":1614},{"i_lat":-6.162021,"i_long":106.788277,"is_transit":false,"station_name":"Grogol","time":2,"distance":2036,"transit":false,"station_id":"GGL","line":5},{"i_long":106.800832,"transit":true,"distance":1700,"station_name":"Duri","is_transit":true,"station_id":"DU","i_lat":-6.155215,"line":1,"time":3},{"i_lat":-6.185545,"i_long":106.811091,"station_name":"Tanah Abang","distance":3632,"line":1,"transit":false,"is_transit":false,"time":8,"station_id":"THB"},{"i_lat":-6.20132,"transit":false,"time":5,"i_long":106.816351,"station_name":"Karet","distance":2029,"is_transit":false,"station_id":"KAT","line":1},{"transit":false,"time":1,"station_id":"SUDB","distance":471,"station_name":"Sudirman Baru","i_long":106.819881,"i_lat":-6.201433,"line":1,"is_transit":false},{"transit":false,"i_lat":-6.202263,"station_name":"Sudirman","is_transit":false,"line":1,"i_long":106.822649,"distance":280,"time":1,"station_id":"SUD"},{"station_id":"MRI","is_transit":false,"station_name":"Manggarai","distance":3186,"transit":false,"i_lat":-6.209883,"time":4,"i_long":106.84912,"line":2},{"time":2,"station_name":"Matraman","station_id":"MTR","line":1,"i_lat":-6.212485,"i_long":106.858896,"transit":false,"distance":1275,"is_transit":false},{"i_long":106.86807400000001,"distance":1377,"transit":true,"line":1,"i_lat":-6.215091,"time":8,"station_name":"Jatinegara","is_transit":true,"station_id":"JNG"},{"station_id":"POK","line":11,"i_lat":-6.209188,"transit":false,"time":2,"is_transit":false,"station_name":"Pondok Jati","i_long":106.861737,"distance":1236},{"distance":1829,"is_transit":false,"line":11,"station_name":"Kramat","transit":false,"i_long":106.855437,"time":2,"station_id":"KMT","i_lat":-6.193792},{"is_transit":false,"line":11,"i_long":106.850107,"transit":false,"i_lat":-6.185975,"station_id":"GST","time":1,"distance":973,"station_name":"Gang Sentiong"},{"transit":false,"i_lat":-6.174784,"time":8,"is_transit":false,"station_name":"Pasar Senen","distance":1567,"i_long":106.84368,"line":11,"station_id":"PSE"},{"distance":1436,"transit":false,"time":4,"station_id":"KMO","is_transit":false,"i_lat":-6.161728,"station_name":"Kemayoran","i_long":106.839204,"line":11},{"transit":false,"line":11,"time":5,"station_id":"RJW","i_long":106.836569,"distance":1901,"is_transit":false,"station_name":"Rajawali","i_lat":-6.14505},{"line":4,"is_transit":false,"i_lat":-6.132549,"station_id":"KPB","distance":1444,"transit":false,"i_long":106.826365,"time":3,"station_name":"Kampung Bandan"}]]}