{"data":[[{"i_lat":-6.166068,"is_transit":false,"line":5,"station_name":"Kalideres","station_id":"KDS","time":0,"distance":0,"transit":false,"i_long":106.701612},{"station_id":"RW","station_name":"Rawa Buaya","time":3,"distance":2504,"line":5,"i_long":106.723064,"is_transit":false,"i_lat":-6.162758,"transit":false},{"distance":1152,"transit":false,"time":4,"i_lat":-6.159876,"line":0,"is_transit":false,"station_id":"BOI","station_name":"Bojongindah","i_long":106.737035},{"station_name":"Taman Kota","distance":2334,"i_lat":-6.1587309999999995,"line":5,"i_long":106.756522,"station_id":"TKO","time":2,"transit":false,"is_transit":false},{"time":2,"distance":1614,"is_transit":false,"station_id":"PSG","i_lat":-6.161433,"i_long":106.771379,"line":5,"transit":false,"station_name":"Pesing"},{"distance":2036,"i_lat":-6.162021,"station_name":"Grogol","time":2,"i_long":106.788277,"transit":false,"station_id":"GGL","line":5,"is_transit":false},{"transit":true,"is_transit":true,"station_name":"Duri","i_long":106.800832,"distance":1700,"i_lat":-6.155215,"station_id":"DU","line":1,"time":3},{"station_name":"Tanah Abang","i_long":106.811091,"transit":true,"i_lat":-6.185545,"is_transit":true,"line":1,"distance":3632,"time":8,"station_id":"THB"},{"i_lat":-6.207404,"time":6,"line":6,"is_transit":false,"i_long":106.79689,"distance":3191,"station_id":"PLM","station_name":"Palmerah","transit":false},{"station_name":"Kebayoran","line":6,"i_lat":-6.237242,"distance":3737,"station_id":"KBY","is_transit":false,"transit":false,"i_long":106.780334,"time":7},{"is_transit":false,"i_lat":-6.276362,"station_id":"PDJ","time":8,"station_name":"Pondokranji","distance":6218,"line":6,"transit":false,"i_long":106.74273},{"distance":2179,"i_lat":-6.288927,"time":3,"transit":false,"line":6,"station_name":"Jurangmangu","is_transit":false,"i_long":106.728916,"station_id":"JMU"},{"time":4,"is_transit":false,"line":6,"station_id":"SDM","station_name":"Sudimara","transit":false,"i_long":106.712277,"distance":1994,"i_lat":-6.296963},{"transit":false,"is_transit":false,"line":6,"distance":4566,"time":6,"station_id":"RU","i_lat":-6.314823,"i_long":106.675475,"station_name":"Rawa Buntu"},{"distance":2413,"i_lat":-6.319871,"is_transit":false,"station_id":"SRP","transit":false,"line":6,"station_name":"Serpong","time":4,"i_long":106.66566},{"distance":1784,"i_long":106.640411,"time":4,"transit":false,"i_lat":-6.32484,"is_transit":false,"station_name":"Cisauk","station_id":"CSK","line":0},{"station_id":"CC","distance":2519,"time":4,"line":0,"i_long":106.617853,"station_name":"Cicayur","transit":false,"is_transit":false,"i_lat":-6.329547}],[{"i_lat":-6.166068,"i_long":106.701612,"line":5,"station_id":"KDS","time":0,"transit":false,"distance":0,"station_name":"Kalideres","is_transit":false},{"time":3,"i_lat":-6.162758,"i_long":106.723064,"station_name":"Rawa Buaya","is_transit":false,"station_id":"RW","transit":false,"line":5,"distance":2504},{"distance":1152,"station_name":"Bojongindah","i_long":106.737035,"is_transit":false,"time":4,"transit":false,"station_id":"BOI","i_lat":-6.159876,"line":0},{"distance":2334,"i_long":106.756522,"is_transit":false,"i_lat":-6.1587309999999995,"line":5,"transit":false,"station_name":"Taman Kota","station_id":"TKO","time":2},{"station_id":"PSG","is_transit":false,"i_lat":-6.161433,"time":2,"line":5,"station_name":"Pesing","transit":false,"i_long":106.771379,"distance":1614},{"station_name":"Grogol","i_long":106.788277,"distance":2036,"is_transit":false,"transit":false,"time":2,"i_lat":-6.162021,"line":5,"station_id":"GGL"},{"transit":true,"i_long":106.800832,"is_transit":true,"distance":1700,"time":3,"i_lat":-6.155215,"station_id":"DU","station_name":"Duri","line":1},{"station_name":"Angke","is_transit":false,"distance":1230,"time":4,"station_id":"AK","i_long":106.79867,"line":0,"transit":false,"i_lat":-6.144674},{"line":0,"i_lat":-6.132549,"station_name":"Kampung Bandan","i_long":106.826365,"distance":4102,"transit":false,"is_transit":true,"time":9,"station_id":"KPB"},{"station_name":"Jakarta Kota","i_long":106.812439,"distance":1364,"time":3,"station_id":"JAKK","i_lat":-6.137569,"is_transit":true,"transit":true,"line":0},{"station_name":"Jayakarta","distance":1264,"station_id":"JAY","is_transit":false,"line":7,"i_lat":-6.141205,"time":4,"i_long":106.820901,"transit":false},{"station_id":"MGB","i_lat":-6.149769,"station_name":"Manggabesar","is_transit":false,"distance":1080,"time":2,"transit":false,"line":2,"i_long":106.82482},{"i_lat":-6.160725,"time":2,"station_id":"SW","distance":906,"is_transit":false,"line":2,"transit":false,"i_long":106.827103,"station_name":"Sawah Besar"},{"transit":false,"i_lat":-6.166716,"is_transit":false,"i_long":106.828284,"distance":1149,"station_name":"Juanda","line":2,"station_id":"JUA","time":2},{"time":4,"i_lat":-6.186295,"transit":false,"distance":2015,"line":2,"is_transit":false,"station_name":"Gondangdia","station_id":"GDD","i_long":106.832183},{"line":0,"time":3,"distance":1750,"i_long":106.840169,"station_name":"Cikini","i_lat":-6.198556,"is_transit":false,"transit":false,"station_id":"CKI"},{"distance":1590,"i_lat":-6.209883,"time":4,"i_long":106.84912,"is_transit":true,"station_id":"MRI","station_name":"Manggarai","line":0,"transit":true},{"i_lat":-6.202263,"station_name":"Sudirman","is_transit":false,"i_long":106.822649,"station_id":"SUD","time":4,"distance":3186,"line":1,"transit":false},{"i_long":106.819881,"is_transit":false,"station_name":"Sudirman Baru","i_lat":-6.201433,"distance":280,"line":1,"time":1,"transit":false,"station_id":"SUDB"},{"is_transit":false,"station_id":"KAT","distance":471,"station_name":"Karet","line":1,"i_lat":-6.20132,"i_long":106.816351,"transit":false,"time":1},{"station_name":"Tanah Abang","line":1,"distance":2029,"transit":true,"i_long":106.811091,"time":5,"i_lat":-6.185545,"station_id":"THB","is_transit":true},{"line":6,"i_lat":-6.207404,"i_long":106.79689,"is_transit":false,"time":6,"distance":3191,"transit":false,"station_name":"Palmerah","station_id":"PLM"},{"time":7,"i_lat":-6.237242,"transit":false,"station_id":"KBY","station_name":"Kebayoran","distance":3737,"i_long":106.780334,"line":6,"is_transit":false},{"station_id":"PDJ","station_name":"Pondokranji","line":6,"time":8,"is_transit":false,"i_long":106.74273,"transit":false,"distance":6218,"i_lat":-6.276362},{"line":6,"is_transit":false,"station_name":"Jurangmangu","transit":false,"station_id":"JMU","i_lat":-6.288927,"time":3,"distance":2179,"i_long":106.728916},{"line":6,"time":4,"is_transit":false,"distance":1994,"transit":false,"station_name":"Sudimara","station_id":"SDM","i_long":106.712277,"i_lat":-6.296963},{"time":6,"i_long":106.675475,"station_name":"Rawa Buntu","station_id":"RU","i_lat":-6.314823,"distance":4566,"line":6,"transit":false,"is_transit":false},{"time":4,"transit":false,"distance":2413,"station_name":"Serpong","station_id":"SRP","is_transit":false,"i_lat":-6.319871,"line":6,"i_long":106.66566},{"transit":false,"i_long":106.640411,"i_lat":-6.32484,"station_name":"Cisauk","time":4,"station_id":"CSK","is_transit":false,"distance":1784,"line":0},{"i_lat":-6.329547,"station_name":"Cicayur","station_id":"CC","transit":false,"distance":2519,"i_long":106.617853,"time":4,"is_transit":false,"line":0}],[{"station_id":"KDS","transit":false,"i_lat":-6.166068,"time":0,"station_name":"Kalideres","line":5,"i_long":106.701612,"is_transit":false,"distance":0},{"transit":false,"station_name":"Rawa Buaya","distance":2504,"is_transit":false,"time":3,"line":5,"station_id":"RW","i_lat":-6.162758,"i_long":106.723064},{"is_transit":false,"distance":1152,"i_lat":-6.159876,"station_id":"BOI","line":0,"time":4,"i_long":106.737035,"transit":false,"station_name":"Bojongindah"},{"station_id":"TKO","distance":2334,"is_transit":false,"i_lat":-6.1587309999999995,"time":2,"i_long":106.756522,"station_name":"Taman Kota","line":5,"transit":false},{"i_lat":-6.161433,"distance":1614,"i_long":106.771379,"station_name":"Pesing","is_transit":false,"time":2,"line":5,"station_id":"PSG","transit":false},{"line":5,"time":2,"distance":2036,"i_long":106.788277,"transit":false,"i_lat":-6.162021,"station_id":"GGL","is_transit":false,"station_name":"Grogol"},{"i_long":106.800832,"is_transit":true,"station_id":"DU","time":3,"transit":true,"distance":1700,"station_name":"Duri","line":1,"i_lat":-6.155215},{"station_name":"Angke","transit":false,"i_long":106.79867,"is_transit":false,"distance":1230,"station_id":"AK","time":4,"i_lat":-6.144674,"line":0},{"is_transit":true,"i_long":106.826365,"transit":true,"i_lat":-6.132549,"line":0,"station_name":"Kampung Bandan","distance":4102,"station_id":"KPB","time":9},{"i_long":106.836569,"time":3,"line":11,"station_name":"Rajawali","station_id":"RJW","is_transit":false,"distance":1444,"transit":false,"i_lat":-6.14505},{"i_long":106.839204,"i_lat":-6.161728,"station_id":"KMO","distance":1901,"station_name":"Kemayoran","is_transit":false,"time":5,"line":11,"transit":false},{"station_name":"Pasar Senen","distance":1436,"i_long":106.84368,"i_lat":-6.174784,"time":4,"station_id":"PSE","transit":false,"is_transit":false,"line":11},{"station_name":"Gang Sentiong","time":8,"station_id":"GST","distance":1567,"i_lat":-6.185975,"i_long":106.850107,"transit":false,"is_transit":false,"line":11},{"time":1,"line":11,"distance":973,"station_name":"Kramat","station_id":"KMT","is_transit":false,"i_lat":-6.193792,"i_long":106.855437,"transit":false},{"transit":false,"distance":1829,"is_transit":false,"i_long":106.861737,"line":11,"time":2,"station_name":"Pondok Jati","station_id":"POK","i_lat":-6.209188},{"is_transit":true,"station_name":"Jatinegara","distance":1236,"i_lat":-6.215091,"line":0,"time":9,"transit":true,"i_long":106.86807400000001,"station_id":"JNG"},{"line":1,"time":2,"i_long":106.858896,"i_lat":-6.212485,"distance":1377,"is_transit":false,"station_id":"MTR","transit":false,"station_name":"Matraman"},{"i_lat":-6.209883,"is_transit":true,"time":2,"distance":1275,"station_id":"MRI","station_name":"Manggarai","i_long":106.84912,"line":0,"transit":false},{"i_long":106.822649,"is_transit":false,"station_id":"SUD","time":4,"line":1,"station_name":"Sudirman","transit":false,"distance":3186,"i_lat":-6.202263},{"station_id":"SUDB","i_long":106.819881,"line":1,"station_name":"Sudirman Baru","distance":280,"i_lat":-6.201433,"is_transit":false,"time":1,"transit":false},{"i_lat":-6.20132,"line":1,"station_name":"Karet","time":1,"is_transit":false,"transit":false,"i_long":106.816351,"station_id":"KAT","distance":471},{"i_long":106.811091,"station_name":"Tanah Abang","station_id":"THB","distance":2029,"transit":true,"line":1,"is_transit":true,"time":5,"i_lat":-6.185545},{"i_long":106.79689,"line":6,"station_id":"PLM","i_lat":-6.207404,"station_name":"Palmerah","is_transit":false,"time":6,"distance":3191,"transit":false},{"station_id":"KBY","i_lat":-6.237242,"distance":3737,"transit":false,"time":7,"i_long":106.780334,"station_name":"Kebayoran","line":6,"is_transit":false},{"transit":false,"is_transit":false,"i_long":106.74273,"time":8,"distance":6218,"station_id":"PDJ","i_lat":-6.276362,"station_name":"Pondokranji","line":6},{"line":6,"i_lat":-6.288927,"distance":2179,"station_id":"JMU","station_name":"Jurangmangu","transit":false,"time":3,"is_transit":false,"i_long":106.728916},{"i_long":106.712277,"is_transit":false,"station_id":"SDM","i_lat":-6.296963,"distance":1994,"transit":false,"station_name":"Sudimara","time":4,"line":6},{"station_name":"Rawa Buntu","i_lat":-6.314823,"is_transit":false,"i_long":106.675475,"line":6,"time":6,"distance":4566,"station_id":"RU","transit":false},{"distance":2413,"i_long":106.66566,"line":6,"station_name":"Serpong","transit":false,"station_id":"SRP","time":4,"is_transit":false,"i_lat":-6.319871},{"station_name":"Cisauk","is_transit":false,"i_lat":-6.32484,"transit":false,"station_id":"CSK","i_long":106.640411,"line":0,"distance":1784,"time":4},{"line":0,"station_id":"CC","is_transit":false,"time":4,"transit":false,"i_lat":-6.329547,"distance":2519,"station_name":"Cicayur","i_long":106.617853}]]}