{"data":[[{"i_lat":-6.166068,"line":5,"distance":0,"is_transit":false,"time":0,"i_long":106.701612,"transit":false,"station_name":"Kalideres","station_id":"KDS"},{"i_long":106.723064,"station_name":"Rawa Buaya","is_transit":false,"i_lat":-6.162758,"distance":2504,"station_id":"RW","transit":false,"time":3,"line":5},{"is_transit":false,"time":4,"i_long":106.737035,"distance":1152,"transit":false,"station_name":"Bojongindah","station_id":"BOI","i_lat":-6.159876,"line":5},{"transit":false,"i_lat":-6.1587309999999995,"is_transit":false,"station_id":"TKO","i_long":106.756522,"time":2,"distance":2334,"line":5,"station_name":"Taman Kota"},{"station_name":"Pesing","i_long":106.771379,"station_id":"PSG","time":2,"distance":1614,"line":5,"i_lat":-6.161433,"is_transit":false,"transit":false},{"distance":2036,"time":2,"i_lat":-6.162021,"line":5,"i_long":106.788277,"transit":false,"station_name":"Grogol","station_id":"GGL","is_transit":false},{"line":1,"is_transit":true,"i_long":106.800832,"distance":1700,"i_lat":-6.155215,"time":3,"station_id":"DU","station_name":"Duri","transit":true},{"i_long":106.811091,"line":1,"i_lat":-6.185545,"station_id":"THB","is_transit":false,"station_name":"Tanah Abang","time":8,"transit":false,"distance":3632},{"station_id":"KAT","is_transit":false,"i_lat":-6.20132,"line":1,"transit":false,"distance":2029,"station_name":"Karet","i_long":106.816351,"time":5},{"line":1,"transit":false,"time":1,"i_long":106.819881,"station_id":"SUDB","is_transit":false,"station_name":"Sudirman Baru","distance":471,"i_lat":-6.201433},{"is_transit":false,"i_lat":-6.202263,"transit":false,"station_name":"Sudirman","station_id":"SUD","line":1,"distance":280,"time":1,"i_long":106.822649},{"distance":3186,"station_name":"Manggarai","is_transit":false,"time":4,"i_lat":-6.209883,"station_id":"MRI","i_long":106.84912,"line":2,"transit":false},{"distance":1275,"station_name":"Matraman","line":1,"transit":false,"i_lat":-6.212485,"time":2,"is_transit":false,"station_id":"MTR","i_long":106.858896},{"transit":false,"time":8,"i_lat":-6.215091,"line":1,"is_transit":false,"station_name":"Jatinegara","station_id":"JNG","i_long":106.86807400000001,"distance":1377},{"i_lat":-6.2135,"distance":3395,"i_long":106.899548,"station_name":"Klender","station_id":"KLD","line":1,"is_transit":false,"time":3,"transit":false}],[{"transit":false,"station_id":"KDS","i_lat":-6.166068,"line":5,"is_transit":false,"time":0,"i_long":106.701612,"station_name":"Kalideres","distance":0},{"is_transit":false,"distance":2504,"transit":false,"station_name":"Rawa Buaya","i_long":106.723064,"i_lat":-6.162758,"station_id":"RW","time":3,"line":5},{"i_lat":-6.159876,"line":5,"is_transit":false,"i_long":106.737035,"station_id":"BOI","transit":false,"station_name":"Bojongindah","time":4,"distance":1152},{"transit":false,"distance":2334,"line":5,"i_lat":-6.1587309999999995,"station_id":"TKO","station_name":"Taman Kota","is_transit":false,"time":2,"i_long":106.756522},{"distance":1614,"i_lat":-6.161433,"line":5,"time":2,"i_long":106.771379,"transit":false,"station_id":"PSG","is_transit":false,"station_name":"Pesing"},{"line":5,"time":2,"station_name":"Grogol","is_transit":false,"transit":false,"distance":2036,"i_lat":-6.162021,"i_long":106.788277,"station_id":"GGL"},{"line":1,"is_transit":true,"transit":true,"station_id":"DU","time":3,"i_lat":-6.155215,"i_long":106.800832,"distance":1700,"station_name":"Duri"},{"is_transit":false,"station_name":"Angke","transit":false,"distance":1230,"i_lat":-6.144674,"station_id":"AK","line":1,"i_long":106.79867,"time":4},{"distance":4102,"transit":true,"time":9,"line":4,"i_lat":-6.132549,"i_long":106.826365,"station_id":"KPB","station_name":"Kampung Bandan","is_transit":true},{"time":3,"i_lat":-6.14505,"is_transit":false,"distance":1444,"i_long":106.836569,"line":11,"transit":false,"station_id":"RJW","station_name":"Rajawali"},{"is_transit":false,"i_lat":-6.161728,"transit":false,"time":5,"i_long":106.839204,"station_name":"Kemayoran","line":11,"station_id":"KMO","distance":1901},{"time":4,"distance":1436,"is_transit":false,"i_long":106.84368,"line":11,"station_name":"Pasar Senen","station_id":"PSE","transit":false,"i_lat":-6.174784},{"i_lat":-6.185975,"i_long":106.850107,"station_id":"GST","transit":false,"line":11,"is_transit":false,"station_name":"Gang Sentiong","time":8,"distance":1567},{"i_long":106.855437,"line":11,"distance":973,"station_name":"Kramat","station_id":"KMT","is_transit":false,"transit":false,"i_lat":-6.193792,"time":1},{"is_transit":false,"i_long":106.861737,"distance":1829,"transit":false,"station_name":"Pondok Jati","i_lat":-6.209188,"station_id":"POK","line":11,"time":2},{"i_lat":-6.215091,"is_transit":true,"time":9,"i_long":106.86807400000001,"line":1,"station_id":"JNG","distance":1236,"transit":true,"station_name":"Jatinegara"},{"is_transit":false,"time":3,"i_lat":-6.2135,"i_long":106.899548,"line":1,"station_id":"KLD","distance":3395,"transit":false,"station_name":"Klender"}],[{"time":0,"i_lat":-6.166068,"is_transit":false,"station_name":"Kalideres","i_long":106.701612,"transit":false,"line":5,"distance":0,"station_id":"KDS"},{"station_id":"RW","transit":false,"is_transit":false,"time":3,"line":5,"distance":2504,"station_name":"Rawa Buaya","i_lat":-6.162758,"i_long":106.723064},{"transit":false,"is_transit":false,"line":5,"i_long":106.737035,"time":4,"station_id":"BOI","distance":1152,"i_lat":-6.159876,"station_name":"Bojongindah"},{"line":5,"is_transit":false,"distance":2334,"time":2,"station_id":"TKO","i_long":106.756522,"transit":false,"station_name":"Taman Kota","i_lat":-6.1587309999999995},{"station_name":"Pesing","station_id":"PSG","line":5,"i_lat":-6.161433,"is_transit":false,"transit":false,"time":2,"i_long":106.771379,"distance":1614},{"line":5,"station_id":"GGL","time":2,"transit":false,"i_lat":-6.162021,"distance":2036,"station_name":"Grogol","is_transit":false,"i_long":106.788277},{"i_long":106.800832,"station_id":"DU","distance":1700,"transit":true,"line":1,"station_name":"Duri","time":3,"i_lat":-6.155215,"is_transit":true},{"i_long":106.79867,"station_name":"Angke","station_id":"AK","time":4,"distance":1230,"transit":false,"line":1,"i_lat":-6.144674,"is_transit":false},{"station_name":"Kampung Bandan","distance":4102,"i_long":106.826365,"transit":true,"i_lat":-6.132549,"line":4,"is_transit":true,"time":9,"station_id":"KPB"},{"i_long":106.812439,"station_name":"Jakarta Kota","station_id":"JAKK","is_transit":true,"transit":true,"time":3,"i_lat":-6.137569,"line":2,"distance":1364},{"line":2,"i_long":106.820901,"distance":1264,"transit":false,"i_lat":-6.141205,"is_transit":false,"station_name":"Jayakarta","station_id":"JAY","time":4},{"is_transit":false,"line":2,"i_long":106.82482,"distance":1080,"station_name":"Manggabesar","time":2,"transit":false,"station_id":"MGB","i_lat":-6.149769},{"station_id":"SW","transit":false,"i_lat":-6.160725,"i_long":106.827103,"is_transit":false,"time":2,"distance":906,"station_name":"Sawah Besar","line":2},{"time":2,"i_lat":-6.166716,"station_name":"Juanda","transit":false,"is_transit":false,"station_id":"JUA","distance":1149,"line":2,"i_long":106.828284},{"station_id":"GDD","line":2,"station_name":"Gondangdia","is_transit":false,"time":4,"i_lat":-6.186295,"transit":false,"distance":2015,"i_long":106.832183},{"time":3,"station_name":"Cikini","distance":1750,"is_transit":false,"i_long":106.840169,"transit":false,"station_id":"CKI","line":2,"i_lat":-6.198556},{"is_transit":true,"i_lat":-6.209883,"station_name":"Manggarai","station_id":"MRI","time":4,"i_long":106.84912,"distance":1590,"transit":true,"line":2},{"i_lat":-6.212485,"is_transit":false,"i_long":106.858896,"distance":1275,"station_id":"MTR","transit":false,"station_name":"Matraman","time":2,"line":1},{"station_id":"JNG","distance":1377,"time":8,"transit":false,"is_transit":false,"i_lat":-6.215091,"station_name":"Jatinegara","line":1,"i_long":106.86807400000001},{"i_long":106.899548,"station_name":"Klender","is_transit":false,"distance":3395,"line":1,"transit":false,"station_id":"KLD","time":3,"i_lat":-6.2135}],[{"distance":0,"station_id":"KDS","line":5,"station_name":"Kalideres","transit":false,"time":0,"is_transit":false,"i_long":106.701612,"i_lat":-6.166068},{"i_lat":-6.162758,"time":3,"transit":false,"is_transit":false,"i_long":106.723064,"line":5,"distance":2504,"station_name":"Rawa Buaya","station_id":"RW"},{"i_long":106.737035,"line":5,"station_name":"Bojongindah","is_transit":false,"station_id":"BOI","transit":false,"time":4,"distance":1152,"i_lat":-6.159876},{"is_transit":false,"time":2,"i_lat":-6.1587309999999995,"station_name":"Taman Kota","i_long":106.756522,"transit":false,"distance":2334,"station_id":"TKO","line":5},{"transit":false,"time":2,"i_lat":-6.161433,"i_long":106.771379,"line":5,"distance":1614,"station_id":"PSG","is_transit":false,"station_name":"Pesing"},{"distance":2036,"line":5,"i_lat":-6.162021,"station_id":"GGL","i_long":106.788277,"time":2,"is_transit":false,"station_name":"Grogol","transit":false},{"distance":1700,"station_name":"Duri","line":1,"i_lat":-6.155215,"station_id":"DU","i_long":106.800832,"transit":true,"is_transit":true,"time":3},{"transit":false,"distance":3632,"station_id":"THB","line":1,"i_long":106.811091,"i_lat":-6.185545,"is_transit":false,"time":8,"station_name":"Tanah Abang"},{"transit":false,"i_lat":-6.20132,"line":1,"i_long":106.816351,"station_id":"KAT","distance":2029,"is_transit":false,"station_name":"Karet","time":5},{"i_lat":-6.201433,"transit":false,"time":1,"line":1,"station_id":"SUDB","station_name":"Sudirman Baru","i_long":106.819881,"is_transit":false,"distance":471},{"i_long":106.822649,"line":1,"distance":280,"is_transit":false,"transit":false,"station_name":"Sudirman","station_id":"SUD","time":1,"i_lat":-6.202263},{"line":2,"station_id":"MRI","transit":true,"i_lat":-6.209883,"i_long":106.84912,"is_transit":true,"time":4,"distance":3186,"station_name":"Manggarai"},{"distance":1590,"i_long":106.840169,"i_lat":-6.198556,"line":2,"transit":false,"is_transit":false,"station_name":"Cikini","time":4,"station_id":"CKI"},{"i_lat":-6.186295,"line":2,"distance":1750,"is_transit":false,"i_long":106.832183,"station_name":"Gondangdia","transit":false,"station_id":"GDD","time":3},{"station_id":"JUA","transit":false,"is_transit":false,"line":2,"time":4,"i_long":106.828284,"distance":2015,"i_lat":-6.166716,"station_name":"Juanda"},{"station_name":"Sawah Besar","line":2,"station_id":"SW","time":2,"i_lat":-6.160725,"distance":1149,"i_long":106.827103,"transit":false,"is_transit":false},{"i_lat":-6.149769,"i_long":106.82482,"time":2,"line":2,"station_name":"Manggabesar","is_transit":false,"transit":false,"station_id":"MGB","distance":906},{"distance":1080,"i_long":106.820901,"i_lat":-6.141205,"station_id":"JAY","transit":false,"station_name":"Jayakarta","line":2,"is_transit":false,"time":2},{"transit":true,"i_long":106.812439,"station_id":"JAKK","is_transit":true,"station_name":"Jakarta Kota","time":4,"distance":1264,"line":2,"i_lat":-6.137569},{"time":3,"i_long":106.826365,"transit":true,"station_name":"Kampung Bandan","station_id":"KPB","is_transit":true,"i_lat":-6.132549,"distance":1364,"line":4},{"distance":1444,"i_long":106.836569,"transit":false,"station_name":"Rajawali","time":3,"line":11,"i_lat":-6.14505,"is_transit":false,"station_id":"RJW"},{"transit":false,"line":11,"i_long":106.839204,"is_transit":false,"i_lat":-6.161728,"station_name":"Kemayoran","distance":1901,"time":5,"station_id":"KMO"},{"i_lat":-6.174784,"station_name":"Pasar Senen","time":4,"distance":1436,"is_transit":false,"transit":false,"i_long":106.84368,"line":11,"station_id":"PSE"},{"distance":1567,"station_id":"GST","line":11,"is_transit":false,"station_name":"Gang Sentiong","i_lat":-6.185975,"transit":false,"i_long":106.850107,"time":8},{"is_transit":false,"time":1,"transit":false,"i_long":106.855437,"station_id":"KMT","distance":973,"i_lat":-6.193792,"line":11,"station_name":"Kramat"},{"station_id":"POK","transit":false,"time":2,"i_long":106.861737,"station_name":"Pondok Jati","is_transit":false,"line":11,"i_lat":-6.209188,"distance":1829},{"distance":1236,"i_long":106.86807400000001,"i_lat":-6.215091,"line":1,"station_id":"JNG","transit":true,"station_name":"Jatinegara","is_transit":true,"time":9},{"i_lat":-6.2135,"time":3,"i_long":106.899548,"line":1,"station_name":"Klender","transit":false,"is_transit":false,"station_id":"KLD","distance":3395}]]}