{"data":[[{"distance":0,"i_long":106.701612,"line":5,"station_id":"KDS","is_transit":false,"time":0,"i_lat":-6.166068,"transit":false,"station_name":"Kalideres"},{"distance":2504,"transit":false,"is_transit":false,"i_long":106.723064,"station_name":"Rawa Buaya","station_id":"RW","i_lat":-6.162758,"line":5,"time":3},{"time":4,"i_long":106.737035,"transit":false,"line":5,"distance":1152,"is_transit":false,"station_name":"Bojongindah","i_lat":-6.159876,"station_id":"BOI"},{"is_transit":false,"transit":false,"station_name":"Taman Kota","station_id":"TKO","time":2,"distance":2334,"i_lat":-6.1587309999999995,"i_long":106.756522,"line":5},{"i_long":106.771379,"line":5,"transit":false,"station_id":"PSG","station_name":"Pesing","is_transit":false,"distance":1614,"time":2,"i_lat":-6.161433},{"line":5,"station_id":"GGL","distance":2036,"is_transit":false,"transit":false,"station_name":"Grogol","time":2,"i_lat":-6.162021,"i_long":106.788277},{"time":3,"station_id":"DU","distance":1700,"is_transit":true,"i_lat":-6.155215,"line":1,"station_name":"Duri","transit":true,"i_long":106.800832},{"is_transit":false,"station_name":"Tanah Abang","i_lat":-6.185545,"i_long":106.811091,"time":8,"station_id":"THB","line":1,"distance":3632,"transit":false},{"line":1,"i_lat":-6.20132,"station_name":"Karet","time":5,"transit":false,"station_id":"KAT","is_transit":false,"distance":2029,"i_long":106.816351},{"station_name":"Sudirman Baru","line":1,"time":1,"transit":false,"distance":471,"i_lat":-6.201433,"i_long":106.819881,"station_id":"SUDB","is_transit":false},{"line":1,"station_name":"Sudirman","i_lat":-6.202263,"distance":280,"station_id":"SUD","i_long":106.822649,"transit":false,"is_transit":false,"time":1},{"station_id":"MRI","transit":false,"station_name":"Manggarai","is_transit":false,"time":4,"i_long":106.84912,"distance":3186,"line":2,"i_lat":-6.209883}],[{"i_long":106.701612,"distance":0,"station_name":"Kalideres","i_lat":-6.166068,"line":5,"is_transit":false,"time":0,"transit":false,"station_id":"KDS"},{"i_lat":-6.162758,"is_transit":false,"i_long":106.723064,"time":3,"station_id":"RW","station_name":"Rawa Buaya","transit":false,"line":5,"distance":2504},{"line":5,"station_name":"Bojongindah","transit":false,"time":4,"i_long":106.737035,"station_id":"BOI","distance":1152,"i_lat":-6.159876,"is_transit":false},{"transit":false,"i_long":106.756522,"station_name":"Taman Kota","time":2,"line":5,"station_id":"TKO","is_transit":false,"i_lat":-6.1587309999999995,"distance":2334},{"is_transit":false,"transit":false,"time":2,"i_long":106.771379,"station_id":"PSG","line":5,"station_name":"Pesing","distance":1614,"i_lat":-6.161433},{"transit":false,"i_long":106.788277,"station_id":"GGL","station_name":"Grogol","line":5,"time":2,"distance":2036,"i_lat":-6.162021,"is_transit":false},{"is_transit":true,"distance":1700,"station_name":"Duri","line":1,"station_id":"DU","time":3,"i_long":106.800832,"i_lat":-6.155215,"transit":true},{"is_transit":false,"station_name":"Angke","i_lat":-6.144674,"line":1,"station_id":"AK","distance":1230,"i_long":106.79867,"transit":false,"time":4},{"station_id":"KPB","time":9,"i_long":106.826365,"transit":true,"is_transit":true,"station_name":"Kampung Bandan","line":4,"i_lat":-6.132549,"distance":4102},{"i_lat":-6.137569,"station_id":"JAKK","distance":1364,"is_transit":true,"transit":true,"time":3,"line":2,"i_long":106.812439,"station_name":"Jakarta Kota"},{"distance":1264,"station_name":"Jayakarta","transit":false,"time":4,"is_transit":false,"i_lat":-6.141205,"line":2,"station_id":"JAY","i_long":106.820901},{"i_lat":-6.149769,"is_transit":false,"time":2,"station_name":"Manggabesar","distance":1080,"i_long":106.82482,"transit":false,"station_id":"MGB","line":2},{"transit":false,"station_name":"Sawah Besar","station_id":"SW","is_transit":false,"line":2,"i_long":106.827103,"time":2,"distance":906,"i_lat":-6.160725},{"i_long":106.828284,"line":2,"distance":1149,"i_lat":-6.166716,"station_name":"Juanda","is_transit":false,"station_id":"JUA","time":2,"transit":false},{"station_id":"GDD","i_lat":-6.186295,"is_transit":false,"transit":false,"distance":2015,"i_long":106.832183,"time":4,"line":2,"station_name":"Gondangdia"},{"i_long":106.840169,"line":2,"time":3,"transit":false,"is_transit":false,"distance":1750,"station_name":"Cikini","station_id":"CKI","i_lat":-6.198556},{"line":2,"distance":1590,"transit":false,"station_name":"Manggarai","is_transit":false,"i_long":106.84912,"time":4,"i_lat":-6.209883,"station_id":"MRI"}],[{"station_name":"Kalideres","line":5,"is_transit":false,"time":0,"i_long":106.701612,"transit":false,"i_lat":-6.166068,"station_id":"KDS","distance":0},{"station_name":"Rawa Buaya","time":3,"is_transit":false,"i_long":106.723064,"line":5,"distance":2504,"transit":false,"i_lat":-6.162758,"station_id":"RW"},{"line":5,"station_id":"BOI","time":4,"is_transit":false,"transit":false,"i_long":106.737035,"distance":1152,"station_name":"Bojongindah","i_lat":-6.159876},{"i_lat":-6.1587309999999995,"station_id":"TKO","line":5,"transit":false,"is_transit":false,"time":2,"i_long":106.756522,"distance":2334,"station_name":"Taman Kota"},{"i_long":106.771379,"station_id":"PSG","station_name":"Pesing","time":2,"is_transit":false,"distance":1614,"i_lat":-6.161433,"line":5,"transit":false},{"station_name":"Grogol","distance":2036,"transit":false,"i_long":106.788277,"time":2,"is_transit":false,"i_lat":-6.162021,"line":5,"station_id":"GGL"},{"i_lat":-6.155215,"i_long":106.800832,"station_name":"Duri","station_id":"DU","line":1,"distance":1700,"is_transit":true,"transit":true,"time":3},{"transit":false,"line":1,"i_lat":-6.144674,"is_transit":false,"i_long":106.79867,"time":4,"station_name":"Angke","station_id":"AK","distance":1230},{"transit":true,"distance":4102,"station_id":"KPB","time":9,"station_name":"Kampung Bandan","i_long":106.826365,"is_transit":true,"i_lat":-6.132549,"line":4},{"time":3,"is_transit":false,"transit":false,"i_lat":-6.14505,"line":11,"i_long":106.836569,"station_name":"Rajawali","distance":1444,"station_id":"RJW"},{"station_name":"Kemayoran","station_id":"KMO","transit":false,"is_transit":false,"distance":1901,"i_lat":-6.161728,"i_long":106.839204,"line":11,"time":5},{"station_name":"Pasar Senen","i_lat":-6.174784,"i_long":106.84368,"distance":1436,"time":4,"station_id":"PSE","is_transit":false,"line":11,"transit":false},{"transit":false,"is_transit":false,"distance":1567,"i_lat":-6.185975,"time":8,"i_long":106.850107,"station_id":"GST","station_name":"Gang Sentiong","line":11},{"time":1,"station_id":"KMT","i_lat":-6.193792,"line":11,"is_transit":false,"i_long":106.855437,"station_name":"Kramat","transit":false,"distance":973},{"transit":false,"i_long":106.861737,"line":11,"station_name":"Pondok Jati","station_id":"POK","time":2,"distance":1829,"is_transit":false,"i_lat":-6.209188},{"station_name":"Jatinegara","line":1,"distance":1236,"i_long":106.86807400000001,"station_id":"JNG","transit":true,"i_lat":-6.215091,"is_transit":true,"time":9},{"i_lat":-6.212485,"line":1,"transit":false,"is_transit":false,"i_long":106.858896,"station_id":"MTR","time":2,"station_name":"Matraman","distance":1377},{"time":2,"i_long":106.84912,"is_transit":false,"i_lat":-6.209883,"station_id":"MRI","line":2,"distance":1275,"transit":false,"station_name":"Manggarai"}]]}