{"data":[[{"station_id":"KDS","line":5,"distance":0,"is_transit":false,"station_name":"Kalideres","transit":false,"i_long":106.701612,"time":0,"i_lat":-6.166068},{"station_id":"RW","distance":2504,"i_lat":-6.162758,"i_long":106.723064,"line":5,"time":3,"transit":false,"is_transit":false,"station_name":"Rawa Buaya"},{"line":5,"time":4,"i_long":106.737035,"i_lat":-6.159876,"is_transit":false,"station_name":"Bojongindah","transit":false,"station_id":"BOI","distance":1152},{"time":2,"station_name":"Taman Kota","distance":2334,"station_id":"TKO","transit":false,"i_lat":-6.1587309999999995,"is_transit":false,"line":5,"i_long":106.756522},{"i_long":106.771379,"station_id":"PSG","is_transit":false,"transit":false,"i_lat":-6.161433,"station_name":"Pesing","distance":1614,"time":2,"line":5},{"transit":false,"i_long":106.788277,"station_name":"Grogol","i_lat":-6.162021,"line":5,"time":2,"station_id":"GGL","is_transit":false,"distance":2036},{"i_lat":-6.155215,"transit":true,"station_name":"Duri","is_transit":true,"i_long":106.800832,"station_id":"DU","time":3,"distance":1700,"line":1},{"distance":3632,"i_long":106.811091,"transit":false,"is_transit":false,"station_id":"THB","line":1,"time":8,"i_lat":-6.185545,"station_name":"Tanah Abang"},{"line":1,"i_lat":-6.20132,"i_long":106.816351,"distance":2029,"is_transit":false,"station_id":"KAT","time":5,"station_name":"Karet","transit":false},{"i_long":106.819881,"line":1,"station_id":"SUDB","station_name":"Sudirman Baru","is_transit":false,"distance":471,"i_lat":-6.201433,"transit":false,"time":1},{"is_transit":false,"distance":280,"transit":false,"station_id":"SUD","i_lat":-6.202263,"time":1,"i_long":106.822649,"line":1,"station_name":"Sudirman"},{"station_name":"Manggarai","is_transit":true,"station_id":"MRI","transit":true,"time":4,"distance":3186,"i_long":106.84912,"i_lat":-6.209883,"line":2},{"transit":false,"is_transit":false,"line":2,"station_name":"Tebet","time":4,"distance":2610,"station_id":"TEB","i_long":106.857948,"i_lat":-6.226659},{"station_name":"Cawang","is_transit":false,"transit":false,"time":2,"line":2,"distance":1230,"station_id":"CW","i_lat":-6.242512,"i_long":106.856607},{"is_transit":false,"line":2,"transit":false,"station_name":"Duren Kalibata","station_id":"DRN","time":3,"distance":1546,"i_long":106.85449,"i_lat":-6.255332},{"time":2,"i_lat":-6.263214,"is_transit":false,"line":2,"station_name":"Pasar Minggu Baru","i_long":106.851577,"transit":false,"station_id":"PSMB","distance":824},{"transit":false,"station_id":"PSM","is_transit":false,"distance":2380,"i_lat":-6.2842400000000005,"line":2,"i_long":106.843999,"time":2,"station_name":"Pasar Minggu"},{"distance":2820,"line":2,"time":4,"i_long":106.838896,"i_lat":-6.3080680000000005,"is_transit":false,"transit":false,"station_name":"Tanjung Barat","station_id":"TNT"},{"transit":false,"time":3,"i_long":106.832616,"station_id":"LNA","is_transit":false,"distance":2671,"line":2,"i_lat":-6.330363,"station_name":"Lenteng Agung"},{"line":2,"i_lat":-6.339291,"station_name":"Univ. Pancasila","station_id":"UP","transit":false,"is_transit":false,"time":2,"distance":1029,"i_long":106.834175}],[{"station_name":"Kalideres","i_long":106.701612,"time":0,"i_lat":-6.166068,"station_id":"KDS","distance":0,"transit":false,"is_transit":false,"line":5},{"time":3,"line":5,"station_name":"Rawa Buaya","transit":false,"station_id":"RW","distance":2504,"i_long":106.723064,"is_transit":false,"i_lat":-6.162758},{"is_transit":false,"station_name":"Bojongindah","transit":false,"time":4,"station_id":"BOI","i_lat":-6.159876,"i_long":106.737035,"distance":1152,"line":5},{"station_name":"Taman Kota","time":2,"i_long":106.756522,"is_transit":false,"transit":false,"station_id":"TKO","distance":2334,"i_lat":-6.1587309999999995,"line":5},{"station_name":"Pesing","time":2,"distance":1614,"station_id":"PSG","i_long":106.771379,"transit":false,"i_lat":-6.161433,"line":5,"is_transit":false},{"is_transit":false,"time":2,"i_lat":-6.162021,"station_name":"Grogol","i_long":106.788277,"station_id":"GGL","transit":false,"distance":2036,"line":5},{"i_lat":-6.155215,"is_transit":true,"station_name":"Duri","transit":true,"line":1,"time":3,"i_long":106.800832,"station_id":"DU","distance":1700},{"i_lat":-6.144674,"station_id":"AK","is_transit":false,"time":4,"distance":1230,"station_name":"Angke","transit":false,"i_long":106.79867,"line":1},{"is_transit":true,"distance":4102,"station_name":"Kampung Bandan","station_id":"KPB","i_long":106.826365,"transit":true,"i_lat":-6.132549,"line":4,"time":9},{"station_name":"Jakarta Kota","is_transit":true,"station_id":"JAKK","line":2,"transit":true,"i_long":106.812439,"i_lat":-6.137569,"time":3,"distance":1364},{"distance":1264,"i_lat":-6.141205,"station_id":"JAY","line":2,"i_long":106.820901,"transit":false,"is_transit":false,"time":4,"station_name":"Jayakarta"},{"is_transit":false,"station_id":"MGB","time":2,"transit":false,"distance":1080,"i_long":106.82482,"line":2,"station_name":"Manggabesar","i_lat":-6.149769},{"line":2,"i_long":106.827103,"station_name":"Sawah Besar","transit":false,"time":2,"is_transit":false,"distance":906,"station_id":"SW","i_lat":-6.160725},{"station_id":"JUA","is_transit":false,"time":2,"distance":1149,"line":2,"station_name":"Juanda","transit":false,"i_lat":-6.166716,"i_long":106.828284},{"transit":false,"i_lat":-6.186295,"station_id":"GDD","station_name":"Gondangdia","is_transit":false,"line":2,"i_long":106.832183,"time":4,"distance":2015},{"station_id":"CKI","i_lat":-6.198556,"line":2,"distance":1750,"is_transit":false,"i_long":106.840169,"station_name":"Cikini","time":3,"transit":false},{"i_long":106.84912,"transit":false,"station_name":"Manggarai","is_transit":false,"i_lat":-6.209883,"time":4,"station_id":"MRI","distance":1590,"line":2},{"i_long":106.857948,"distance":2610,"is_transit":false,"time":4,"transit":false,"i_lat":-6.226659,"line":2,"station_id":"TEB","station_name":"Tebet"},{"station_name":"Cawang","distance":1230,"transit":false,"station_id":"CW","i_long":106.856607,"is_transit":false,"i_lat":-6.242512,"line":2,"time":2},{"is_transit":false,"station_name":"Duren Kalibata","i_long":106.85449,"line":2,"i_lat":-6.255332,"time":3,"transit":false,"distance":1546,"station_id":"DRN"},{"distance":824,"station_id":"PSMB","i_long":106.851577,"line":2,"is_transit":false,"i_lat":-6.263214,"station_name":"Pasar Minggu Baru","transit":false,"time":2},{"i_lat":-6.2842400000000005,"i_long":106.843999,"transit":false,"is_transit":false,"time":2,"line":2,"station_name":"Pasar Minggu","station_id":"PSM","distance":2380},{"station_id":"TNT","station_name":"Tanjung Barat","is_transit":false,"distance":2820,"line":2,"transit":false,"time":4,"i_lat":-6.3080680000000005,"i_long":106.838896},{"transit":false,"i_lat":-6.330363,"time":3,"station_id":"LNA","i_long":106.832616,"line":2,"distance":2671,"station_name":"Lenteng Agung","is_transit":false},{"station_id":"UP","time":2,"i_lat":-6.339291,"is_transit":false,"distance":1029,"station_name":"Univ. Pancasila","transit":false,"line":2,"i_long":106.834175}],[{"i_lat":-6.166068,"transit":false,"is_transit":false,"station_name":"Kalideres","time":0,"distance":0,"i_long":106.701612,"line":5,"station_id":"KDS"},{"line":5,"is_transit":false,"transit":false,"station_name":"Rawa Buaya","time":3,"distance":2504,"i_lat":-6.162758,"station_id":"RW","i_long":106.723064},{"transit":false,"station_id":"BOI","is_transit":false,"station_name":"Bojongindah","i_long":106.737035,"line":5,"time":4,"distance":1152,"i_lat":-6.159876},{"transit":false,"station_id":"TKO","line":5,"i_long":106.756522,"is_transit":false,"station_name":"Taman Kota","time":2,"distance":2334,"i_lat":-6.1587309999999995},{"line":5,"station_name":"Pesing","station_id":"PSG","i_long":106.771379,"i_lat":-6.161433,"transit":false,"is_transit":false,"time":2,"distance":1614},{"i_long":106.788277,"i_lat":-6.162021,"is_transit":false,"station_id":"GGL","time":2,"transit":false,"station_name":"Grogol","distance":2036,"line":5},{"station_name":"Duri","station_id":"DU","i_lat":-6.155215,"transit":true,"line":1,"time":3,"i_long":106.800832,"distance":1700,"is_transit":true},{"station_name":"Angke","station_id":"AK","distance":1230,"i_long":106.79867,"transit":false,"is_transit":false,"line":1,"i_lat":-6.144674,"time":4},{"is_transit":true,"i_lat":-6.132549,"line":4,"time":9,"i_long":106.826365,"distance":4102,"station_name":"Kampung Bandan","station_id":"KPB","transit":true},{"line":11,"station_name":"Rajawali","transit":false,"i_long":106.836569,"time":3,"i_lat":-6.14505,"station_id":"RJW","distance":1444,"is_transit":false},{"station_name":"Kemayoran","transit":false,"is_transit":false,"i_long":106.839204,"distance":1901,"station_id":"KMO","time":5,"line":11,"i_lat":-6.161728},{"transit":false,"distance":1436,"line":11,"is_transit":false,"i_lat":-6.174784,"station_name":"Pasar Senen","i_long":106.84368,"station_id":"PSE","time":4},{"distance":1567,"i_long":106.850107,"station_id":"GST","i_lat":-6.185975,"is_transit":false,"line":11,"time":8,"transit":false,"station_name":"Gang Sentiong"},{"station_id":"KMT","transit":false,"is_transit":false,"time":1,"i_long":106.855437,"i_lat":-6.193792,"station_name":"Kramat","distance":973,"line":11},{"i_lat":-6.209188,"time":2,"station_name":"Pondok Jati","is_transit":false,"line":11,"distance":1829,"i_long":106.861737,"transit":false,"station_id":"POK"},{"i_lat":-6.215091,"i_long":106.86807400000001,"station_name":"Jatinegara","is_transit":true,"line":1,"transit":true,"distance":1236,"station_id":"JNG","time":9},{"transit":false,"distance":1377,"i_lat":-6.212485,"is_transit":false,"line":1,"i_long":106.858896,"station_id":"MTR","station_name":"Matraman","time":2},{"i_long":106.84912,"line":2,"station_name":"Manggarai","i_lat":-6.209883,"time":2,"transit":true,"station_id":"MRI","is_transit":true,"distance":1275},{"i_lat":-6.226659,"station_name":"Tebet","distance":2610,"is_transit":false,"i_long":106.857948,"line":2,"transit":false,"station_id":"TEB","time":4},{"distance":1230,"station_name":"Cawang","i_long":106.856607,"line":2,"time":2,"transit":false,"station_id":"CW","i_lat":-6.242512,"is_transit":false},{"station_id":"DRN","distance":1546,"i_long":106.85449,"transit":false,"station_name":"Duren Kalibata","is_transit":false,"time":3,"line":2,"i_lat":-6.255332},{"station_name":"Pasar Minggu Baru","station_id":"PSMB","is_transit":false,"distance":824,"time":2,"i_long":106.851577,"line":2,"transit":false,"i_lat":-6.263214},{"transit":false,"station_name":"Pasar Minggu","is_transit":false,"line":2,"station_id":"PSM","time":2,"i_lat":-6.2842400000000005,"distance":2380,"i_long":106.843999},{"i_lat":-6.3080680000000005,"i_long":106.838896,"line":2,"is_transit":false,"station_name":"Tanjung Barat","station_id":"TNT","transit":false,"distance":2820,"time":4},{"transit":false,"station_name":"Lenteng Agung","time":3,"station_id":"LNA","distance":2671,"i_long":106.832616,"i_lat":-6.330363,"line":2,"is_transit":false},{"time":2,"distance":1029,"i_lat":-6.339291,"line":2,"station_name":"Univ. Pancasila","i_long":106.834175,"transit":false,"station_id":"UP","is_transit":false}]]}