{"data":[[{"transit":false,"station_id":"KDS","station_name":"Kalideres","time":0,"line":5,"distance":0,"is_transit":false,"i_lat":-6.166068,"i_long":106.701612},{"line":5,"transit":false,"distance":2504,"station_name":"Rawa Buaya","station_id":"RW","i_lat":-6.162758,"i_long":106.723064,"time":3,"is_transit":false},{"i_lat":-6.159876,"i_long":106.737035,"station_name":"Bojongindah","station_id":"BOI","line":5,"time":4,"distance":1152,"is_transit":false,"transit":false},{"i_lat":-6.1587309999999995,"is_transit":false,"i_long":106.756522,"time":2,"distance":2334,"station_id":"TKO","station_name":"Taman Kota","transit":false,"line":5},{"i_lat":-6.161433,"line":5,"distance":1614,"i_long":106.771379,"is_transit":false,"time":2,"transit":false,"station_id":"PSG","station_name":"Pesing"},{"transit":false,"i_lat":-6.162021,"i_long":106.788277,"is_transit":false,"station_name":"Grogol","line":5,"station_id":"GRG","distance":2036,"time":2},{"station_name":"Duri","i_long":106.800832,"time":3,"distance":1700,"i_lat":-6.155215,"transit":true,"station_id":"DU","line":1,"is_transit":true},{"i_long":106.79867,"time":4,"station_name":"Angke","transit":false,"distance":1230,"line":1,"is_transit":false,"station_id":"AK","i_lat":-6.144674},{"is_transit":true,"i_lat":-6.132549,"i_long":106.826365,"time":9,"station_id":"KPB","transit":true,"station_name":"Kampung Bandan","line":4,"distance":4102},{"is_transit":true,"line":2,"station_name":"Jakarta Kota","station_id":"JAKK","i_lat":-6.137569,"time":3,"i_long":106.812439,"distance":1364,"transit":true},{"i_long":106.820901,"time":4,"i_lat":-6.141205,"station_id":"JAY","distance":1264,"station_name":"Jayakarta","transit":false,"is_transit":false,"line":2},{"time":2,"is_transit":false,"line":2,"i_long":106.82482,"distance":1080,"station_name":"Manggabesar","i_lat":-6.149769,"station_id":"MGB","transit":false},{"i_long":106.827103,"distance":906,"i_lat":-6.160725,"time":2,"station_id":"SW","station_name":"Sawah Besar","is_transit":false,"transit":false,"line":2}],[{"station_name":"Kalideres","distance":0,"station_id":"KDS","i_long":106.701612,"is_transit":false,"line":5,"transit":false,"i_lat":-6.166068,"time":0},{"time":3,"station_name":"Rawa Buaya","distance":2504,"i_lat":-6.162758,"station_id":"RW","transit":false,"i_long":106.723064,"line":5,"is_transit":false},{"time":4,"i_lat":-6.159876,"station_id":"BOI","distance":1152,"station_name":"Bojongindah","is_transit":false,"transit":false,"i_long":106.737035,"line":5},{"station_id":"TKO","transit":false,"i_lat":-6.1587309999999995,"i_long":106.756522,"time":2,"distance":2334,"station_name":"Taman Kota","is_transit":false,"line":5},{"station_id":"PSG","distance":1614,"is_transit":false,"transit":false,"line":5,"i_lat":-6.161433,"time":2,"station_name":"Pesing","i_long":106.771379},{"transit":false,"time":2,"is_transit":false,"i_long":106.788277,"i_lat":-6.162021,"station_id":"GRG","line":5,"distance":2036,"station_name":"Grogol"},{"is_transit":true,"time":3,"transit":true,"line":1,"i_lat":-6.155215,"station_id":"DU","station_name":"Duri","distance":1700,"i_long":106.800832},{"line":1,"i_lat":-6.185545,"is_transit":false,"distance":3632,"station_id":"THB","i_long":106.811091,"station_name":"Tanah Abang","transit":false,"time":8},{"transit":false,"is_transit":false,"i_long":106.816351,"time":5,"station_id":"KAT","line":1,"station_name":"Karet","distance":2029,"i_lat":-6.20132},{"station_name":"Sudirman Baru","station_id":"SUDB","i_long":106.819881,"time":1,"distance":471,"i_lat":-6.201433,"line":1,"is_transit":false,"transit":false},{"station_name":"Sudirman","station_id":"SUD","is_transit":false,"i_long":106.822649,"transit":false,"distance":280,"time":1,"i_lat":-6.202263,"line":1},{"station_id":"MRI","i_lat":-6.209883,"i_long":106.84912,"time":4,"distance":3186,"transit":true,"line":2,"station_name":"Manggarai","is_transit":true},{"transit":false,"i_long":106.840169,"is_transit":false,"i_lat":-6.198556,"line":2,"distance":1590,"time":4,"station_id":"CKI","station_name":"Cikini"},{"line":2,"station_name":"Gondangdia","i_lat":-6.186295,"time":3,"transit":false,"distance":1750,"station_id":"GDD","is_transit":false,"i_long":106.832183},{"i_lat":-6.166716,"is_transit":false,"time":4,"distance":2015,"i_long":106.828284,"line":2,"transit":false,"station_name":"Juanda","station_id":"JUA"},{"i_long":106.827103,"line":2,"transit":false,"distance":1149,"i_lat":-6.160725,"station_id":"SW","time":2,"is_transit":false,"station_name":"Sawah Besar"}],[{"transit":false,"station_id":"KDS","station_name":"Kalideres","line":5,"i_lat":-6.166068,"time":0,"distance":0,"i_long":106.701612,"is_transit":false},{"distance":2504,"i_lat":-6.162758,"station_name":"Rawa Buaya","time":3,"station_id":"RW","transit":false,"i_long":106.723064,"is_transit":false,"line":5},{"line":5,"station_name":"Bojongindah","is_transit":false,"distance":1152,"transit":false,"i_lat":-6.159876,"i_long":106.737035,"station_id":"BOI","time":4},{"i_lat":-6.1587309999999995,"i_long":106.756522,"line":5,"time":2,"station_id":"TKO","is_transit":false,"distance":2334,"transit":false,"station_name":"Taman Kota"},{"station_id":"PSG","i_lat":-6.161433,"line":5,"time":2,"i_long":106.771379,"station_name":"Pesing","transit":false,"is_transit":false,"distance":1614},{"time":2,"is_transit":false,"station_name":"Grogol","line":5,"transit":false,"distance":2036,"i_lat":-6.162021,"i_long":106.788277,"station_id":"GRG"},{"station_name":"Duri","is_transit":true,"line":1,"i_lat":-6.155215,"transit":true,"distance":1700,"station_id":"DU","i_long":106.800832,"time":3},{"is_transit":false,"i_lat":-6.144674,"station_name":"Angke","i_long":106.79867,"time":4,"station_id":"AK","transit":false,"distance":1230,"line":1},{"station_name":"Kampung Bandan","i_lat":-6.132549,"i_long":106.826365,"time":9,"distance":4102,"line":4,"is_transit":true,"station_id":"KPB","transit":true},{"distance":1444,"time":3,"i_lat":-6.14505,"line":11,"is_transit":false,"station_id":"RJW","i_long":106.836569,"station_name":"Rajawali","transit":false},{"transit":false,"i_long":106.839204,"distance":1901,"is_transit":false,"i_lat":-6.161728,"station_id":"KMO","station_name":"Kemayoran","time":5,"line":11},{"i_lat":-6.174784,"i_long":106.84368,"station_name":"Pasar Senen","distance":1436,"station_id":"PSE","is_transit":false,"transit":false,"line":11,"time":4},{"transit":false,"i_long":106.850107,"station_name":"Gang Sentiong","is_transit":false,"time":8,"station_id":"GST","distance":1567,"i_lat":-6.185975,"line":11},{"station_name":"Kramat","i_long":106.855437,"station_id":"KMT","is_transit":false,"transit":false,"line":11,"i_lat":-6.193792,"time":1,"distance":973},{"distance":1829,"time":2,"transit":false,"i_lat":-6.209188,"station_name":"Pondok Jati","line":11,"i_long":106.861737,"station_id":"POK","is_transit":false},{"is_transit":true,"station_name":"Jatinegara","station_id":"JNG","time":9,"distance":1236,"transit":true,"i_lat":-6.215091,"i_long":106.86807400000001,"line":1},{"distance":1377,"i_lat":-6.212485,"station_name":"Matraman","time":2,"line":1,"is_transit":false,"station_id":"MTR","transit":false,"i_long":106.858896},{"i_lat":-6.209883,"i_long":106.84912,"time":2,"is_transit":true,"transit":true,"station_id":"MRI","station_name":"Manggarai","line":2,"distance":1275},{"line":2,"i_lat":-6.198556,"time":4,"transit":false,"distance":1590,"i_long":106.840169,"is_transit":false,"station_id":"CKI","station_name":"Cikini"},{"is_transit":false,"i_long":106.832183,"distance":1750,"transit":false,"line":2,"i_lat":-6.186295,"time":3,"station_name":"Gondangdia","station_id":"GDD"},{"i_lat":-6.166716,"is_transit":false,"time":4,"station_name":"Juanda","i_long":106.828284,"distance":2015,"transit":false,"line":2,"station_id":"JUA"},{"station_id":"SW","is_transit":false,"distance":1149,"transit":false,"i_lat":-6.160725,"line":2,"station_name":"Sawah Besar","time":2,"i_long":106.827103}],[{"transit":false,"is_transit":false,"time":0,"station_id":"KDS","i_long":106.701612,"distance":0,"i_lat":-6.166068,"line":5,"station_name":"Kalideres"},{"is_transit":false,"i_lat":-6.162758,"station_id":"RW","transit":false,"i_long":106.723064,"station_name":"Rawa Buaya","line":5,"distance":2504,"time":3},{"distance":1152,"i_lat":-6.159876,"station_name":"Bojongindah","transit":false,"i_long":106.737035,"line":5,"is_transit":false,"station_id":"BOI","time":4},{"line":5,"i_lat":-6.1587309999999995,"station_id":"TKO","transit":false,"time":2,"station_name":"Taman Kota","distance":2334,"i_long":106.756522,"is_transit":false},{"transit":false,"station_id":"PSG","station_name":"Pesing","i_lat":-6.161433,"line":5,"distance":1614,"is_transit":false,"time":2,"i_long":106.771379},{"transit":false,"i_lat":-6.162021,"is_transit":false,"station_name":"Grogol","station_id":"GRG","line":5,"time":2,"distance":2036,"i_long":106.788277},{"time":3,"i_lat":-6.155215,"distance":1700,"is_transit":true,"transit":true,"station_id":"DU","i_long":106.800832,"line":1,"station_name":"Duri"},{"i_lat":-6.185545,"line":1,"is_transit":false,"station_id":"THB","station_name":"Tanah Abang","time":8,"distance":3632,"transit":false,"i_long":106.811091},{"line":1,"i_long":106.816351,"is_transit":false,"time":5,"station_id":"KAT","i_lat":-6.20132,"distance":2029,"station_name":"Karet","transit":false},{"station_name":"Sudirman Baru","station_id":"SUDB","i_lat":-6.201433,"transit":false,"distance":471,"time":1,"i_long":106.819881,"line":1,"is_transit":false},{"distance":280,"station_id":"SUD","i_lat":-6.202263,"transit":false,"i_long":106.822649,"station_name":"Sudirman","is_transit":false,"time":1,"line":1},{"i_lat":-6.209883,"line":2,"station_id":"MRI","transit":false,"i_long":106.84912,"is_transit":false,"time":4,"distance":3186,"station_name":"Manggarai"},{"station_id":"MTR","time":2,"station_name":"Matraman","line":1,"distance":1275,"is_transit":false,"i_lat":-6.212485,"transit":false,"i_long":106.858896},{"station_name":"Jatinegara","station_id":"JNG","distance":1377,"transit":true,"line":1,"i_long":106.86807400000001,"i_lat":-6.215091,"is_transit":true,"time":8},{"transit":false,"distance":1236,"i_long":106.861737,"station_id":"POK","time":2,"line":11,"i_lat":-6.209188,"station_name":"Pondok Jati","is_transit":false},{"time":2,"i_long":106.855437,"is_transit":false,"distance":1829,"transit":false,"line":11,"station_name":"Kramat","station_id":"KMT","i_lat":-6.193792},{"transit":false,"is_transit":false,"station_name":"Gang Sentiong","station_id":"GST","i_lat":-6.185975,"time":1,"distance":973,"i_long":106.850107,"line":11},{"line":11,"i_long":106.84368,"i_lat":-6.174784,"distance":1567,"is_transit":false,"station_id":"PSE","time":8,"transit":false,"station_name":"Pasar Senen"},{"distance":1436,"station_id":"KMO","time":4,"station_name":"Kemayoran","i_lat":-6.161728,"transit":false,"is_transit":false,"i_long":106.839204,"line":11},{"transit":false,"line":11,"is_transit":false,"distance":1901,"station_id":"RJW","i_long":106.836569,"time":5,"station_name":"Rajawali","i_lat":-6.14505},{"distance":1444,"transit":true,"is_transit":true,"time":3,"i_lat":-6.132549,"station_id":"KPB","i_long":106.826365,"station_name":"Kampung Bandan","line":4},{"station_name":"Jakarta Kota","transit":true,"is_transit":true,"i_lat":-6.137569,"i_long":106.812439,"line":2,"station_id":"JAKK","distance":1364,"time":3},{"is_transit":false,"time":4,"transit":false,"distance":1264,"line":2,"i_long":106.820901,"station_name":"Jayakarta","i_lat":-6.141205,"station_id":"JAY"},{"i_lat":-6.149769,"line":2,"transit":false,"is_transit":false,"time":2,"station_id":"MGB","i_long":106.82482,"station_name":"Manggabesar","distance":1080},{"transit":false,"line":2,"station_id":"SW","i_long":106.827103,"distance":906,"i_lat":-6.160725,"is_transit":false,"time":2,"station_name":"Sawah Besar"}]]}