{"data":[[{"i_long":106.701612,"line":5,"transit":false,"distance":0,"station_name":"Kalideres","station_id":"KDS","i_lat":-6.166068,"time":0,"is_transit":false},{"transit":false,"is_transit":false,"time":3,"i_lat":-6.169933,"distance":2548,"line":5,"station_id":"PI","i_long":106.679458,"station_name":"Poris"},{"i_long":106.665036,"distance":1834,"transit":false,"is_transit":false,"station_id":"BPR","i_lat":-6.171811,"line":5,"time":3,"station_name":"Batuceper"},{"transit":false,"station_id":"TTI","is_transit":false,"time":3,"station_name":"Tanah Tinggi","distance":2028,"i_lat":-6.17331,"line":5,"i_long":106.64657},{"i_lat":-6.176583,"time":3,"i_long":106.632761,"line":5,"station_name":"Tangerang","transit":false,"distance":1547,"is_transit":false,"station_id":"TNG"}]]}