{"data":[[{"transit":false,"i_long":106.701612,"distance":0,"line":5,"station_id":"KDS","station_name":"Kalideres","time":0,"is_transit":false,"i_lat":-6.166068},{"time":3,"transit":false,"is_transit":false,"i_long":106.723064,"station_id":"RW","distance":2504,"line":5,"station_name":"Rawa Buaya","i_lat":-6.162758},{"station_name":"Bojongindah","i_lat":-6.159876,"distance":1152,"is_transit":false,"time":4,"station_id":"BOI","line":0,"i_long":106.737035,"transit":false},{"i_lat":-6.1587309999999995,"station_name":"Taman Kota","transit":false,"is_transit":false,"station_id":"TKO","time":2,"line":5,"distance":2334,"i_long":106.756522},{"i_long":106.771379,"line":5,"i_lat":-6.161433,"is_transit":false,"station_id":"PSG","transit":false,"station_name":"Pesing","time":2,"distance":1614},{"station_name":"Grogol","time":2,"line":5,"i_lat":-6.162021,"is_transit":false,"distance":2036,"i_long":106.788277,"station_id":"GGL","transit":false},{"transit":true,"is_transit":true,"station_id":"DU","line":1,"i_long":106.800832,"time":3,"i_lat":-6.155215,"distance":1700,"station_name":"Duri"},{"station_name":"Tanah Abang","i_lat":-6.185545,"i_long":106.811091,"line":1,"time":8,"station_id":"THB","is_transit":true,"transit":true,"distance":3632},{"transit":false,"station_name":"Palmerah","line":6,"i_lat":-6.207404,"i_long":106.79689,"distance":3191,"station_id":"PLM","time":6,"is_transit":false},{"time":7,"transit":false,"distance":3737,"is_transit":false,"station_name":"Kebayoran","i_lat":-6.237242,"station_id":"KBY","i_long":106.780334,"line":6}],[{"time":0,"station_id":"KDS","transit":false,"station_name":"Kalideres","i_lat":-6.166068,"i_long":106.701612,"is_transit":false,"line":5,"distance":0},{"is_transit":false,"station_name":"Rawa Buaya","transit":false,"i_long":106.723064,"time":3,"distance":2504,"i_lat":-6.162758,"line":5,"station_id":"RW"},{"station_id":"BOI","is_transit":false,"time":4,"distance":1152,"station_name":"Bojongindah","transit":false,"i_lat":-6.159876,"i_long":106.737035,"line":0},{"distance":2334,"station_id":"TKO","i_long":106.756522,"line":5,"time":2,"transit":false,"station_name":"Taman Kota","is_transit":false,"i_lat":-6.1587309999999995},{"distance":1614,"station_id":"PSG","transit":false,"i_long":106.771379,"time":2,"line":5,"station_name":"Pesing","is_transit":false,"i_lat":-6.161433},{"i_long":106.788277,"station_id":"GGL","transit":false,"station_name":"Grogol","time":2,"distance":2036,"line":5,"i_lat":-6.162021,"is_transit":false},{"i_lat":-6.155215,"is_transit":true,"i_long":106.800832,"line":1,"distance":1700,"station_id":"DU","time":3,"transit":true,"station_name":"Duri"},{"station_id":"AK","distance":1230,"time":4,"is_transit":false,"line":0,"station_name":"Angke","transit":false,"i_lat":-6.144674,"i_long":106.79867},{"distance":4102,"transit":false,"line":0,"station_name":"Kampung Bandan","time":9,"i_lat":-6.132549,"i_long":106.826365,"station_id":"KPB","is_transit":true},{"is_transit":true,"i_long":106.812439,"time":3,"distance":1364,"station_id":"JAKK","transit":true,"station_name":"Jakarta Kota","i_lat":-6.137569,"line":0},{"is_transit":false,"transit":false,"station_name":"Jayakarta","i_lat":-6.141205,"time":4,"distance":1264,"i_long":106.820901,"line":7,"station_id":"JAY"},{"i_lat":-6.149769,"line":2,"time":2,"station_name":"Manggabesar","transit":false,"i_long":106.82482,"distance":1080,"is_transit":false,"station_id":"MGB"},{"is_transit":false,"distance":906,"i_long":106.827103,"i_lat":-6.160725,"station_id":"SW","station_name":"Sawah Besar","line":2,"transit":false,"time":2},{"transit":false,"i_long":106.828284,"i_lat":-6.166716,"station_id":"JUA","is_transit":false,"distance":1149,"station_name":"Juanda","line":2,"time":2},{"time":4,"station_id":"GDD","transit":false,"is_transit":false,"distance":2015,"line":2,"i_lat":-6.186295,"i_long":106.832183,"station_name":"Gondangdia"},{"transit":false,"is_transit":false,"station_id":"CKI","i_long":106.840169,"i_lat":-6.198556,"distance":1750,"time":3,"station_name":"Cikini","line":0},{"station_id":"MRI","distance":1590,"time":4,"is_transit":true,"station_name":"Manggarai","i_long":106.84912,"line":0,"transit":true,"i_lat":-6.209883},{"line":1,"time":4,"transit":false,"station_name":"Sudirman","is_transit":false,"station_id":"SUD","distance":3186,"i_long":106.822649,"i_lat":-6.202263},{"station_name":"Sudirman Baru","i_lat":-6.201433,"i_long":106.819881,"line":1,"station_id":"SUDB","time":1,"is_transit":false,"distance":280,"transit":false},{"distance":471,"station_name":"Karet","transit":false,"i_lat":-6.20132,"line":1,"time":1,"station_id":"KAT","i_long":106.816351,"is_transit":false},{"is_transit":true,"time":5,"transit":true,"station_id":"THB","distance":2029,"station_name":"Tanah Abang","i_long":106.811091,"line":1,"i_lat":-6.185545},{"transit":false,"station_id":"PLM","is_transit":false,"i_lat":-6.207404,"station_name":"Palmerah","line":6,"i_long":106.79689,"time":6,"distance":3191},{"transit":false,"distance":3737,"station_name":"Kebayoran","time":7,"line":6,"is_transit":false,"i_lat":-6.237242,"i_long":106.780334,"station_id":"KBY"}],[{"distance":0,"time":0,"station_id":"KDS","transit":false,"i_lat":-6.166068,"line":5,"is_transit":false,"station_name":"Kalideres","i_long":106.701612},{"distance":2504,"station_name":"Rawa Buaya","line":5,"is_transit":false,"i_lat":-6.162758,"station_id":"RW","transit":false,"time":3,"i_long":106.723064},{"station_name":"Bojongindah","i_long":106.737035,"time":4,"distance":1152,"is_transit":false,"i_lat":-6.159876,"station_id":"BOI","transit":false,"line":0},{"i_long":106.756522,"transit":false,"line":5,"i_lat":-6.1587309999999995,"time":2,"is_transit":false,"distance":2334,"station_id":"TKO","station_name":"Taman Kota"},{"is_transit":false,"distance":1614,"station_name":"Pesing","line":5,"transit":false,"i_lat":-6.161433,"station_id":"PSG","i_long":106.771379,"time":2},{"distance":2036,"transit":false,"i_lat":-6.162021,"time":2,"is_transit":false,"station_name":"Grogol","i_long":106.788277,"line":5,"station_id":"GGL"},{"line":1,"station_name":"Duri","station_id":"DU","time":3,"distance":1700,"i_long":106.800832,"is_transit":true,"transit":true,"i_lat":-6.155215},{"is_transit":false,"line":0,"i_lat":-6.144674,"i_long":106.79867,"transit":false,"time":4,"station_id":"AK","distance":1230,"station_name":"Angke"},{"line":0,"transit":true,"i_long":106.826365,"time":9,"distance":4102,"station_id":"KPB","is_transit":true,"station_name":"Kampung Bandan","i_lat":-6.132549},{"transit":false,"station_name":"Rajawali","distance":1444,"line":11,"station_id":"RJW","i_lat":-6.14505,"time":3,"i_long":106.836569,"is_transit":false},{"transit":false,"is_transit":false,"time":5,"station_name":"Kemayoran","distance":1901,"station_id":"KMO","line":11,"i_lat":-6.161728,"i_long":106.839204},{"is_transit":false,"transit":false,"time":4,"station_name":"Pasar Senen","i_lat":-6.174784,"distance":1436,"i_long":106.84368,"line":11,"station_id":"PSE"},{"transit":false,"i_lat":-6.185975,"line":11,"i_long":106.850107,"station_name":"Gang Sentiong","station_id":"GST","time":8,"is_transit":false,"distance":1567},{"station_id":"KMT","distance":973,"i_long":106.855437,"is_transit":false,"station_name":"Kramat","time":1,"i_lat":-6.193792,"transit":false,"line":11},{"time":2,"is_transit":false,"distance":1829,"transit":false,"station_name":"Pondok Jati","i_lat":-6.209188,"i_long":106.861737,"line":11,"station_id":"POK"},{"station_name":"Jatinegara","time":9,"transit":true,"i_long":106.86807400000001,"line":0,"i_lat":-6.215091,"station_id":"JNG","distance":1236,"is_transit":true},{"station_name":"Matraman","i_lat":-6.212485,"station_id":"MTR","i_long":106.858896,"transit":false,"line":1,"time":2,"is_transit":false,"distance":1377},{"station_id":"MRI","i_long":106.84912,"distance":1275,"line":0,"transit":false,"station_name":"Manggarai","i_lat":-6.209883,"time":2,"is_transit":true},{"transit":false,"time":4,"station_id":"SUD","is_transit":false,"station_name":"Sudirman","i_long":106.822649,"distance":3186,"line":1,"i_lat":-6.202263},{"station_id":"SUDB","transit":false,"i_long":106.819881,"is_transit":false,"i_lat":-6.201433,"station_name":"Sudirman Baru","line":1,"time":1,"distance":280},{"station_id":"KAT","i_lat":-6.20132,"line":1,"station_name":"Karet","time":1,"is_transit":false,"distance":471,"i_long":106.816351,"transit":false},{"time":5,"station_id":"THB","transit":true,"i_lat":-6.185545,"i_long":106.811091,"line":1,"is_transit":true,"distance":2029,"station_name":"Tanah Abang"},{"time":6,"transit":false,"i_long":106.79689,"station_id":"PLM","distance":3191,"station_name":"Palmerah","line":6,"is_transit":false,"i_lat":-6.207404},{"time":7,"i_lat":-6.237242,"is_transit":false,"station_name":"Kebayoran","line":6,"transit":false,"distance":3737,"station_id":"KBY","i_long":106.780334}]]}