{"data":[[{"station_name":"Klender","i_lat":-6.2135,"transit":false,"station_id":"KLD","is_transit":false,"time":0,"i_long":106.899548,"distance":0,"line":1},{"i_long":106.86807400000001,"i_lat":-6.215091,"station_name":"Jatinegara","transit":false,"line":1,"distance":3395,"is_transit":false,"station_id":"JNG","time":3},{"line":1,"i_long":106.858896,"is_transit":false,"transit":false,"i_lat":-6.212485,"time":2,"distance":1377,"station_id":"MTR","station_name":"Matraman"},{"station_name":"Manggarai","station_id":"MRI","i_long":106.84912,"is_transit":false,"line":2,"time":2,"i_lat":-6.209883,"distance":1275,"transit":false},{"station_name":"Sudirman","station_id":"SUD","is_transit":false,"i_long":106.822649,"time":4,"line":1,"distance":3186,"transit":false,"i_lat":-6.202263},{"line":1,"i_lat":-6.201433,"time":1,"station_name":"Sudirman Baru","transit":false,"is_transit":false,"i_long":106.819881,"station_id":"SUDB","distance":280},{"transit":false,"station_id":"KAT","time":1,"i_lat":-6.20132,"distance":471,"i_long":106.816351,"line":1,"is_transit":false,"station_name":"Karet"},{"time":5,"transit":true,"distance":2029,"i_lat":-6.185545,"i_long":106.811091,"line":1,"station_name":"Tanah Abang","is_transit":true,"station_id":"THB"},{"i_lat":-6.207404,"i_long":106.79689,"station_name":"Palmerah","time":6,"line":6,"is_transit":false,"station_id":"PLM","transit":false,"distance":3191},{"line":6,"i_long":106.780334,"station_name":"Kebayoran","time":7,"is_transit":false,"station_id":"KBY","distance":3737,"i_lat":-6.237242,"transit":false},{"time":8,"station_name":"Pondokranji","i_long":106.74273,"distance":6218,"station_id":"PDJ","transit":false,"i_lat":-6.276362,"line":6,"is_transit":false},{"station_id":"JMU","transit":false,"is_transit":false,"time":3,"i_lat":-6.288927,"distance":2179,"i_long":106.728916,"station_name":"Jurangmangu","line":6},{"time":4,"is_transit":false,"i_lat":-6.296963,"station_id":"SDM","distance":1994,"i_long":106.712277,"line":6,"station_name":"Sudimara","transit":false},{"distance":4566,"i_long":106.675475,"transit":false,"i_lat":-6.314823,"station_name":"Rawa Buntu","station_id":"RU","is_transit":false,"time":6,"line":6},{"is_transit":false,"station_name":"Serpong","station_id":"SRP","transit":false,"distance":2413,"i_lat":-6.319871,"line":6,"time":4,"i_long":106.66566},{"i_lat":-6.32484,"is_transit":false,"transit":false,"i_long":106.640411,"station_name":"Cisauk","station_id":"CSK","line":3,"distance":1784,"time":4}],[{"line":1,"i_long":106.899548,"station_name":"Klender","station_id":"KLD","is_transit":false,"time":0,"transit":false,"i_lat":-6.2135,"distance":0},{"time":3,"line":1,"distance":3395,"station_id":"JNG","i_long":106.86807400000001,"is_transit":true,"transit":true,"station_name":"Jatinegara","i_lat":-6.215091},{"transit":false,"station_id":"POK","i_lat":-6.209188,"is_transit":false,"station_name":"Pondok Jati","line":11,"time":2,"i_long":106.861737,"distance":1236},{"i_long":106.855437,"station_id":"KMT","time":2,"is_transit":false,"i_lat":-6.193792,"line":11,"transit":false,"station_name":"Kramat","distance":1829},{"transit":false,"i_lat":-6.185975,"station_id":"GST","time":1,"i_long":106.850107,"distance":973,"line":11,"is_transit":false,"station_name":"Gang Sentiong"},{"station_name":"Pasar Senen","line":11,"time":8,"station_id":"PSE","transit":false,"is_transit":false,"i_lat":-6.174784,"i_long":106.84368,"distance":1567},{"transit":false,"station_name":"Kemayoran","distance":1436,"i_long":106.839204,"station_id":"KMO","i_lat":-6.161728,"time":4,"is_transit":false,"line":11},{"station_name":"Rajawali","transit":false,"is_transit":false,"station_id":"RJW","time":5,"line":11,"i_lat":-6.14505,"distance":1901,"i_long":106.836569},{"i_long":106.826365,"station_id":"KPB","station_name":"Kampung Bandan","i_lat":-6.132549,"line":4,"is_transit":true,"transit":true,"time":3,"distance":1444},{"station_id":"AK","i_lat":-6.144674,"is_transit":false,"i_long":106.79867,"line":1,"transit":false,"station_name":"Angke","distance":4102,"time":9},{"time":4,"station_id":"DU","station_name":"Duri","line":1,"transit":false,"i_lat":-6.155215,"i_long":106.800832,"distance":1230,"is_transit":false},{"i_long":106.811091,"i_lat":-6.185545,"time":8,"is_transit":true,"transit":true,"distance":3632,"station_name":"Tanah Abang","station_id":"THB","line":1},{"station_name":"Palmerah","station_id":"PLM","i_lat":-6.207404,"line":6,"time":6,"transit":false,"i_long":106.79689,"is_transit":false,"distance":3191},{"is_transit":false,"i_lat":-6.237242,"transit":false,"distance":3737,"station_id":"KBY","line":6,"i_long":106.780334,"station_name":"Kebayoran","time":7},{"distance":6218,"line":6,"i_long":106.74273,"station_id":"PDJ","transit":false,"i_lat":-6.276362,"station_name":"Pondokranji","is_transit":false,"time":8},{"is_transit":false,"transit":false,"station_id":"JMU","time":3,"distance":2179,"i_lat":-6.288927,"i_long":106.728916,"line":6,"station_name":"Jurangmangu"},{"i_long":106.712277,"transit":false,"station_name":"Sudimara","distance":1994,"is_transit":false,"time":4,"station_id":"SDM","i_lat":-6.296963,"line":6},{"i_lat":-6.314823,"transit":false,"distance":4566,"station_name":"Rawa Buntu","line":6,"time":6,"i_long":106.675475,"is_transit":false,"station_id":"RU"},{"station_id":"SRP","line":6,"station_name":"Serpong","i_lat":-6.319871,"i_long":106.66566,"is_transit":false,"distance":2413,"transit":false,"time":4},{"i_long":106.640411,"line":3,"transit":false,"station_id":"CSK","is_transit":false,"distance":1784,"i_lat":-6.32484,"time":4,"station_name":"Cisauk"}],[{"is_transit":false,"transit":false,"time":0,"station_name":"Klender","station_id":"KLD","i_long":106.899548,"line":1,"distance":0,"i_lat":-6.2135},{"line":1,"time":3,"station_name":"Jatinegara","transit":false,"is_transit":false,"i_long":106.86807400000001,"station_id":"JNG","distance":3395,"i_lat":-6.215091},{"i_long":106.858896,"i_lat":-6.212485,"is_transit":false,"distance":1377,"station_name":"Matraman","transit":false,"station_id":"MTR","time":2,"line":1},{"i_long":106.84912,"transit":true,"station_name":"Manggarai","station_id":"MRI","line":2,"time":2,"is_transit":true,"distance":1275,"i_lat":-6.209883},{"i_lat":-6.198556,"transit":false,"line":2,"distance":1590,"station_id":"CKI","is_transit":false,"time":4,"i_long":106.840169,"station_name":"Cikini"},{"is_transit":false,"station_id":"GDD","i_lat":-6.186295,"time":3,"i_long":106.832183,"line":2,"distance":1750,"station_name":"Gondangdia","transit":false},{"station_id":"JUA","transit":false,"is_transit":false,"time":4,"station_name":"Juanda","i_lat":-6.166716,"distance":2015,"i_long":106.828284,"line":2},{"station_id":"SW","i_long":106.827103,"line":2,"transit":false,"station_name":"Sawah Besar","is_transit":false,"i_lat":-6.160725,"distance":1149,"time":2},{"is_transit":false,"station_name":"Manggabesar","time":2,"station_id":"MGB","line":2,"distance":906,"i_lat":-6.149769,"transit":false,"i_long":106.82482},{"time":2,"i_long":106.820901,"transit":false,"i_lat":-6.141205,"distance":1080,"is_transit":false,"line":2,"station_name":"Jayakarta","station_id":"JAY"},{"is_transit":true,"station_name":"Jakarta Kota","line":2,"i_long":106.812439,"transit":true,"station_id":"JAKK","time":4,"distance":1264,"i_lat":-6.137569},{"line":4,"time":3,"station_id":"KPB","distance":1364,"i_long":106.826365,"is_transit":true,"transit":true,"station_name":"Kampung Bandan","i_lat":-6.132549},{"is_transit":false,"i_long":106.79867,"distance":4102,"line":1,"station_id":"AK","transit":false,"i_lat":-6.144674,"station_name":"Angke","time":9},{"line":1,"is_transit":false,"i_long":106.800832,"station_name":"Duri","transit":false,"time":4,"i_lat":-6.155215,"station_id":"DU","distance":1230},{"transit":true,"is_transit":true,"distance":3632,"i_long":106.811091,"line":1,"i_lat":-6.185545,"station_name":"Tanah Abang","time":8,"station_id":"THB"},{"station_id":"PLM","i_lat":-6.207404,"is_transit":false,"line":6,"time":6,"i_long":106.79689,"station_name":"Palmerah","distance":3191,"transit":false},{"station_id":"KBY","station_name":"Kebayoran","transit":false,"i_lat":-6.237242,"line":6,"is_transit":false,"time":7,"i_long":106.780334,"distance":3737},{"station_name":"Pondokranji","is_transit":false,"time":8,"station_id":"PDJ","distance":6218,"i_long":106.74273,"transit":false,"i_lat":-6.276362,"line":6},{"time":3,"station_name":"Jurangmangu","distance":2179,"line":6,"is_transit":false,"i_long":106.728916,"station_id":"JMU","i_lat":-6.288927,"transit":false},{"station_name":"Sudimara","is_transit":false,"i_lat":-6.296963,"i_long":106.712277,"transit":false,"line":6,"station_id":"SDM","time":4,"distance":1994},{"station_name":"Rawa Buntu","i_long":106.675475,"is_transit":false,"station_id":"RU","transit":false,"time":6,"distance":4566,"i_lat":-6.314823,"line":6},{"is_transit":false,"i_long":106.66566,"line":6,"station_name":"Serpong","station_id":"SRP","time":4,"i_lat":-6.319871,"distance":2413,"transit":false},{"distance":1784,"i_lat":-6.32484,"is_transit":false,"station_id":"CSK","time":4,"station_name":"Cisauk","line":3,"i_long":106.640411,"transit":false}],[{"station_id":"KLD","time":0,"is_transit":false,"i_long":106.899548,"distance":0,"transit":false,"station_name":"Klender","i_lat":-6.2135,"line":1},{"station_name":"Jatinegara","transit":true,"i_lat":-6.215091,"station_id":"JNG","time":3,"i_long":106.86807400000001,"line":1,"is_transit":true,"distance":3395},{"line":11,"station_id":"POK","distance":1236,"station_name":"Pondok Jati","is_transit":false,"time":2,"transit":false,"i_lat":-6.209188,"i_long":106.861737},{"transit":false,"station_name":"Kramat","i_long":106.855437,"line":11,"is_transit":false,"time":2,"station_id":"KMT","i_lat":-6.193792,"distance":1829},{"station_name":"Gang Sentiong","line":11,"station_id":"GST","time":1,"distance":973,"i_long":106.850107,"is_transit":false,"i_lat":-6.185975,"transit":false},{"line":11,"distance":1567,"time":8,"i_long":106.84368,"is_transit":false,"i_lat":-6.174784,"station_name":"Pasar Senen","station_id":"PSE","transit":false},{"distance":1436,"station_id":"KMO","i_long":106.839204,"transit":false,"station_name":"Kemayoran","i_lat":-6.161728,"line":11,"time":4,"is_transit":false},{"line":11,"distance":1901,"station_name":"Rajawali","time":5,"i_lat":-6.14505,"is_transit":false,"station_id":"RJW","transit":false,"i_long":106.836569},{"time":3,"distance":1444,"i_lat":-6.132549,"i_long":106.826365,"station_name":"Kampung Bandan","is_transit":true,"line":4,"transit":true,"station_id":"KPB"},{"transit":true,"station_id":"JAKK","is_transit":true,"time":3,"distance":1364,"line":2,"i_long":106.812439,"station_name":"Jakarta Kota","i_lat":-6.137569},{"is_transit":false,"i_long":106.820901,"distance":1264,"station_id":"JAY","transit":false,"i_lat":-6.141205,"line":2,"time":4,"station_name":"Jayakarta"},{"transit":false,"distance":1080,"station_name":"Manggabesar","i_long":106.82482,"line":2,"station_id":"MGB","i_lat":-6.149769,"is_transit":false,"time":2},{"time":2,"station_id":"SW","is_transit":false,"i_long":106.827103,"line":2,"transit":false,"distance":906,"i_lat":-6.160725,"station_name":"Sawah Besar"},{"distance":1149,"i_lat":-6.166716,"i_long":106.828284,"station_id":"JUA","is_transit":false,"station_name":"Juanda","time":2,"line":2,"transit":false},{"time":4,"line":2,"i_lat":-6.186295,"is_transit":false,"distance":2015,"i_long":106.832183,"transit":false,"station_name":"Gondangdia","station_id":"GDD"},{"time":3,"i_lat":-6.198556,"distance":1750,"line":2,"station_name":"Cikini","i_long":106.840169,"station_id":"CKI","is_transit":false,"transit":false},{"station_name":"Manggarai","i_long":106.84912,"distance":1590,"time":4,"is_transit":true,"station_id":"MRI","i_lat":-6.209883,"line":2,"transit":true},{"transit":false,"time":4,"line":1,"distance":3186,"station_name":"Sudirman","is_transit":false,"i_lat":-6.202263,"i_long":106.822649,"station_id":"SUD"},{"transit":false,"i_long":106.819881,"station_name":"Sudirman Baru","distance":280,"station_id":"SUDB","is_transit":false,"time":1,"i_lat":-6.201433,"line":1},{"station_id":"KAT","station_name":"Karet","line":1,"i_long":106.816351,"transit":false,"distance":471,"is_transit":false,"i_lat":-6.20132,"time":1},{"is_transit":true,"transit":true,"distance":2029,"station_id":"THB","station_name":"Tanah Abang","i_lat":-6.185545,"line":1,"i_long":106.811091,"time":5},{"i_lat":-6.207404,"time":6,"station_name":"Palmerah","station_id":"PLM","i_long":106.79689,"line":6,"is_transit":false,"distance":3191,"transit":false},{"i_long":106.780334,"is_transit":false,"distance":3737,"time":7,"transit":false,"station_name":"Kebayoran","station_id":"KBY","i_lat":-6.237242,"line":6},{"is_transit":false,"i_lat":-6.276362,"station_name":"Pondokranji","station_id":"PDJ","distance":6218,"i_long":106.74273,"transit":false,"time":8,"line":6},{"time":3,"distance":2179,"transit":false,"station_name":"Jurangmangu","station_id":"JMU","is_transit":false,"i_lat":-6.288927,"line":6,"i_long":106.728916},{"line":6,"i_lat":-6.296963,"station_name":"Sudimara","transit":false,"i_long":106.712277,"station_id":"SDM","distance":1994,"time":4,"is_transit":false},{"time":6,"is_transit":false,"station_id":"RU","station_name":"Rawa Buntu","i_lat":-6.314823,"distance":4566,"line":6,"i_long":106.675475,"transit":false},{"distance":2413,"time":4,"transit":false,"i_long":106.66566,"i_lat":-6.319871,"station_name":"Serpong","line":6,"station_id":"SRP","is_transit":false},{"is_transit":false,"i_lat":-6.32484,"time":4,"i_long":106.640411,"station_id":"CSK","distance":1784,"transit":false,"station_name":"Cisauk","line":3}]]}