{"data":[[{"transit":false,"i_lat":-6.2135,"i_long":106.899548,"is_transit":false,"line":1,"station_id":"KLD","time":0,"station_name":"Klender","distance":0},{"station_name":"Jatinegara","is_transit":false,"i_long":106.86807400000001,"i_lat":-6.215091,"transit":false,"time":3,"distance":3395,"line":1,"station_id":"JNG"},{"i_lat":-6.212485,"distance":1377,"station_id":"MTR","station_name":"Matraman","transit":false,"line":1,"i_long":106.858896,"is_transit":false,"time":2},{"time":2,"is_transit":false,"station_id":"MRI","station_name":"Manggarai","distance":1275,"i_lat":-6.209883,"transit":false,"i_long":106.84912,"line":2},{"is_transit":false,"station_id":"SUD","i_long":106.822649,"time":4,"i_lat":-6.202263,"line":1,"transit":false,"distance":3186,"station_name":"Sudirman"},{"station_id":"SUDB","is_transit":false,"transit":false,"i_lat":-6.201433,"i_long":106.819881,"distance":280,"time":1,"station_name":"Sudirman Baru","line":1}],[{"i_lat":-6.2135,"line":1,"station_name":"Klender","distance":0,"transit":false,"is_transit":false,"time":0,"station_id":"KLD","i_long":106.899548},{"transit":true,"is_transit":true,"i_long":106.86807400000001,"line":1,"distance":3395,"station_id":"JNG","i_lat":-6.215091,"time":3,"station_name":"Jatinegara"},{"transit":false,"distance":1236,"i_long":106.861737,"time":2,"line":11,"station_id":"POK","i_lat":-6.209188,"is_transit":false,"station_name":"Pondok Jati"},{"station_name":"Kramat","station_id":"KMT","time":2,"is_transit":false,"transit":false,"i_lat":-6.193792,"i_long":106.855437,"line":11,"distance":1829},{"station_id":"GST","time":1,"distance":973,"is_transit":false,"line":11,"transit":false,"i_lat":-6.185975,"i_long":106.850107,"station_name":"Gang Sentiong"},{"transit":false,"time":8,"station_id":"PSE","distance":1567,"station_name":"Pasar Senen","is_transit":false,"i_long":106.84368,"line":11,"i_lat":-6.174784},{"station_name":"Kemayoran","line":11,"distance":1436,"station_id":"KMO","transit":false,"i_long":106.839204,"i_lat":-6.161728,"is_transit":false,"time":4},{"transit":false,"is_transit":false,"line":11,"i_lat":-6.14505,"station_name":"Rajawali","time":5,"i_long":106.836569,"station_id":"RJW","distance":1901},{"distance":1444,"station_id":"KPB","is_transit":true,"time":3,"station_name":"Kampung Bandan","i_lat":-6.132549,"line":4,"transit":true,"i_long":106.826365},{"is_transit":false,"time":9,"i_long":106.79867,"line":1,"transit":false,"station_id":"AK","i_lat":-6.144674,"distance":4102,"station_name":"Angke"},{"i_lat":-6.155215,"transit":false,"time":4,"distance":1230,"i_long":106.800832,"is_transit":false,"line":1,"station_name":"Duri","station_id":"DU"},{"distance":3632,"is_transit":false,"station_id":"THB","transit":false,"i_long":106.811091,"time":8,"station_name":"Tanah Abang","line":1,"i_lat":-6.185545},{"distance":2029,"time":5,"is_transit":false,"i_long":106.816351,"line":1,"station_id":"KAT","station_name":"Karet","transit":false,"i_lat":-6.20132},{"distance":471,"is_transit":false,"transit":false,"i_lat":-6.201433,"station_id":"SUDB","line":1,"time":1,"station_name":"Sudirman Baru","i_long":106.819881}],[{"is_transit":false,"station_id":"KLD","time":0,"distance":0,"transit":false,"line":1,"station_name":"Klender","i_lat":-6.2135,"i_long":106.899548},{"line":1,"station_id":"JNG","i_long":106.86807400000001,"distance":3395,"station_name":"Jatinegara","time":3,"transit":false,"i_lat":-6.215091,"is_transit":false},{"transit":false,"station_name":"Matraman","station_id":"MTR","is_transit":false,"distance":1377,"time":2,"line":1,"i_lat":-6.212485,"i_long":106.858896},{"station_id":"MRI","i_lat":-6.209883,"transit":true,"distance":1275,"is_transit":true,"station_name":"Manggarai","i_long":106.84912,"line":2,"time":2},{"line":2,"is_transit":false,"station_id":"CKI","station_name":"Cikini","transit":false,"time":4,"i_lat":-6.198556,"distance":1590,"i_long":106.840169},{"time":3,"line":2,"station_id":"GDD","transit":false,"distance":1750,"i_long":106.832183,"station_name":"Gondangdia","is_transit":false,"i_lat":-6.186295},{"i_lat":-6.166716,"i_long":106.828284,"distance":2015,"station_name":"Juanda","time":4,"station_id":"JUA","is_transit":false,"transit":false,"line":2},{"is_transit":false,"time":2,"distance":1149,"i_long":106.827103,"line":2,"station_id":"SW","station_name":"Sawah Besar","i_lat":-6.160725,"transit":false},{"i_lat":-6.149769,"station_id":"MGB","distance":906,"station_name":"Manggabesar","is_transit":false,"transit":false,"i_long":106.82482,"line":2,"time":2},{"transit":false,"time":2,"station_name":"Jayakarta","station_id":"JAY","is_transit":false,"i_lat":-6.141205,"i_long":106.820901,"distance":1080,"line":2},{"station_id":"JAKK","station_name":"Jakarta Kota","is_transit":true,"time":4,"i_lat":-6.137569,"i_long":106.812439,"line":2,"transit":true,"distance":1264},{"is_transit":true,"i_lat":-6.132549,"i_long":106.826365,"station_id":"KPB","station_name":"Kampung Bandan","transit":true,"time":3,"line":4,"distance":1364},{"time":9,"i_lat":-6.144674,"i_long":106.79867,"transit":false,"is_transit":false,"distance":4102,"line":1,"station_id":"AK","station_name":"Angke"},{"transit":false,"station_name":"Duri","i_lat":-6.155215,"i_long":106.800832,"time":4,"station_id":"DU","is_transit":false,"line":1,"distance":1230},{"i_long":106.811091,"station_id":"THB","is_transit":false,"line":1,"time":8,"distance":3632,"i_lat":-6.185545,"station_name":"Tanah Abang","transit":false},{"station_id":"KAT","is_transit":false,"i_lat":-6.20132,"distance":2029,"i_long":106.816351,"transit":false,"time":5,"line":1,"station_name":"Karet"},{"line":1,"station_id":"SUDB","transit":false,"time":1,"distance":471,"is_transit":false,"i_lat":-6.201433,"i_long":106.819881,"station_name":"Sudirman Baru"}],[{"transit":false,"is_transit":false,"line":1,"i_lat":-6.2135,"distance":0,"station_name":"Klender","i_long":106.899548,"time":0,"station_id":"KLD"},{"i_long":106.86807400000001,"line":1,"is_transit":true,"station_id":"JNG","station_name":"Jatinegara","i_lat":-6.215091,"time":3,"distance":3395,"transit":true},{"distance":1236,"i_lat":-6.209188,"line":11,"time":2,"is_transit":false,"station_name":"Pondok Jati","transit":false,"station_id":"POK","i_long":106.861737},{"is_transit":false,"transit":false,"distance":1829,"i_long":106.855437,"i_lat":-6.193792,"station_id":"KMT","station_name":"Kramat","line":11,"time":2},{"i_lat":-6.185975,"transit":false,"line":11,"time":1,"distance":973,"station_name":"Gang Sentiong","station_id":"GST","i_long":106.850107,"is_transit":false},{"station_name":"Pasar Senen","station_id":"PSE","distance":1567,"i_long":106.84368,"line":11,"transit":false,"i_lat":-6.174784,"time":8,"is_transit":false},{"transit":false,"time":4,"is_transit":false,"distance":1436,"station_id":"KMO","i_long":106.839204,"station_name":"Kemayoran","i_lat":-6.161728,"line":11},{"station_name":"Rajawali","i_lat":-6.14505,"is_transit":false,"station_id":"RJW","line":11,"i_long":106.836569,"transit":false,"distance":1901,"time":5},{"station_id":"KPB","station_name":"Kampung Bandan","line":4,"transit":true,"i_lat":-6.132549,"is_transit":true,"i_long":106.826365,"time":3,"distance":1444},{"line":2,"i_lat":-6.137569,"transit":true,"distance":1364,"station_name":"Jakarta Kota","is_transit":true,"time":3,"station_id":"JAKK","i_long":106.812439},{"distance":1264,"is_transit":false,"transit":false,"station_name":"Jayakarta","i_lat":-6.141205,"time":4,"line":2,"station_id":"JAY","i_long":106.820901},{"transit":false,"distance":1080,"is_transit":false,"station_id":"MGB","time":2,"i_long":106.82482,"line":2,"station_name":"Manggabesar","i_lat":-6.149769},{"is_transit":false,"station_id":"SW","transit":false,"time":2,"i_lat":-6.160725,"distance":906,"station_name":"Sawah Besar","line":2,"i_long":106.827103},{"station_id":"JUA","distance":1149,"station_name":"Juanda","is_transit":false,"i_long":106.828284,"line":2,"transit":false,"i_lat":-6.166716,"time":2},{"station_name":"Gondangdia","distance":2015,"transit":false,"is_transit":false,"i_lat":-6.186295,"i_long":106.832183,"time":4,"line":2,"station_id":"GDD"},{"line":2,"transit":false,"station_name":"Cikini","station_id":"CKI","is_transit":false,"time":3,"i_lat":-6.198556,"distance":1750,"i_long":106.840169},{"time":4,"distance":1590,"transit":true,"i_long":106.84912,"is_transit":true,"i_lat":-6.209883,"station_id":"MRI","line":2,"station_name":"Manggarai"},{"transit":false,"is_transit":false,"line":1,"station_id":"SUD","time":4,"station_name":"Sudirman","distance":3186,"i_lat":-6.202263,"i_long":106.822649},{"station_name":"Sudirman Baru","station_id":"SUDB","is_transit":false,"line":1,"distance":280,"time":1,"transit":false,"i_lat":-6.201433,"i_long":106.819881}]]}