{"data":[[{"distance":0,"station_id":"KLD","station_name":"Klender","is_transit":false,"line":1,"time":0,"transit":false,"i_lat":-6.2135,"i_long":106.899548},{"distance":3395,"time":3,"line":1,"station_id":"JNG","is_transit":true,"station_name":"Jatinegara","transit":true,"i_lat":-6.215091,"i_long":106.86807400000001},{"distance":1236,"i_lat":-6.209188,"is_transit":false,"station_name":"Pondok Jati","transit":false,"i_long":106.861737,"line":11,"time":2,"station_id":"POK"},{"station_id":"KMT","i_lat":-6.193792,"i_long":106.855437,"is_transit":false,"transit":false,"time":2,"station_name":"Kramat","line":11,"distance":1829}],[{"time":0,"i_lat":-6.2135,"distance":0,"i_long":106.899548,"transit":false,"station_id":"KLD","station_name":"Klender","is_transit":false,"line":1},{"distance":3395,"transit":false,"i_lat":-6.215091,"line":1,"station_name":"Jatinegara","is_transit":false,"station_id":"JNG","time":3,"i_long":106.86807400000001},{"time":2,"is_transit":false,"distance":1377,"transit":false,"i_lat":-6.212485,"station_name":"Matraman","station_id":"MTR","line":1,"i_long":106.858896},{"is_transit":false,"distance":1275,"line":2,"i_lat":-6.209883,"station_name":"Manggarai","transit":false,"station_id":"MRI","time":2,"i_long":106.84912},{"station_name":"Sudirman","line":1,"time":4,"i_long":106.822649,"transit":false,"is_transit":false,"i_lat":-6.202263,"distance":3186,"station_id":"SUD"},{"i_long":106.819881,"station_name":"Sudirman Baru","station_id":"SUDB","distance":280,"is_transit":false,"time":1,"transit":false,"line":1,"i_lat":-6.201433},{"station_id":"KAT","i_lat":-6.20132,"line":1,"time":1,"distance":471,"station_name":"Karet","transit":false,"is_transit":false,"i_long":106.816351},{"transit":false,"is_transit":false,"i_lat":-6.185545,"time":5,"station_id":"THB","station_name":"Tanah Abang","line":1,"distance":2029,"i_long":106.811091},{"i_lat":-6.155215,"time":8,"i_long":106.800832,"station_id":"DU","station_name":"Duri","is_transit":false,"line":1,"transit":false,"distance":3632},{"line":1,"time":4,"distance":1230,"station_id":"AK","station_name":"Angke","is_transit":false,"i_lat":-6.144674,"i_long":106.79867,"transit":false},{"station_id":"KPB","is_transit":true,"line":4,"distance":4102,"i_long":106.826365,"station_name":"Kampung Bandan","i_lat":-6.132549,"time":9,"transit":true},{"station_name":"Rajawali","distance":1444,"is_transit":false,"i_lat":-6.14505,"i_long":106.836569,"time":3,"station_id":"RJW","transit":false,"line":11},{"time":5,"is_transit":false,"station_id":"KMO","i_lat":-6.161728,"station_name":"Kemayoran","distance":1901,"transit":false,"line":11,"i_long":106.839204},{"i_lat":-6.174784,"time":4,"distance":1436,"is_transit":false,"i_long":106.84368,"station_id":"PSE","station_name":"Pasar Senen","transit":false,"line":11},{"i_lat":-6.185975,"line":11,"distance":1567,"transit":false,"is_transit":false,"time":8,"i_long":106.850107,"station_name":"Gang Sentiong","station_id":"GST"},{"i_lat":-6.193792,"station_name":"Kramat","time":1,"distance":973,"transit":false,"i_long":106.855437,"station_id":"KMT","line":11,"is_transit":false}],[{"i_long":106.899548,"line":1,"is_transit":false,"i_lat":-6.2135,"station_id":"KLD","time":0,"distance":0,"transit":false,"station_name":"Klender"},{"station_name":"Jatinegara","is_transit":false,"i_lat":-6.215091,"i_long":106.86807400000001,"line":1,"distance":3395,"station_id":"JNG","transit":false,"time":3},{"time":2,"i_long":106.858896,"station_name":"Matraman","i_lat":-6.212485,"station_id":"MTR","is_transit":false,"line":1,"distance":1377,"transit":false},{"time":2,"transit":true,"line":2,"i_lat":-6.209883,"i_long":106.84912,"is_transit":true,"station_id":"MRI","station_name":"Manggarai","distance":1275},{"i_lat":-6.198556,"time":4,"line":2,"station_name":"Cikini","i_long":106.840169,"station_id":"CKI","transit":false,"is_transit":false,"distance":1590},{"station_name":"Gondangdia","is_transit":false,"line":2,"transit":false,"distance":1750,"time":3,"station_id":"GDD","i_lat":-6.186295,"i_long":106.832183},{"line":2,"distance":2015,"station_id":"JUA","transit":false,"station_name":"Juanda","i_lat":-6.166716,"i_long":106.828284,"time":4,"is_transit":false},{"station_id":"SW","i_lat":-6.160725,"line":2,"distance":1149,"transit":false,"is_transit":false,"time":2,"station_name":"Sawah Besar","i_long":106.827103},{"distance":906,"station_name":"Manggabesar","is_transit":false,"i_lat":-6.149769,"i_long":106.82482,"time":2,"line":2,"transit":false,"station_id":"MGB"},{"is_transit":false,"i_lat":-6.141205,"time":2,"station_id":"JAY","i_long":106.820901,"station_name":"Jayakarta","line":2,"transit":false,"distance":1080},{"station_id":"JAKK","transit":true,"time":4,"station_name":"Jakarta Kota","distance":1264,"is_transit":true,"i_long":106.812439,"line":2,"i_lat":-6.137569},{"is_transit":true,"i_long":106.826365,"station_name":"Kampung Bandan","transit":true,"line":4,"time":3,"distance":1364,"i_lat":-6.132549,"station_id":"KPB"},{"line":11,"is_transit":false,"transit":false,"time":3,"distance":1444,"i_lat":-6.14505,"station_id":"RJW","station_name":"Rajawali","i_long":106.836569},{"i_long":106.839204,"is_transit":false,"line":11,"time":5,"distance":1901,"station_id":"KMO","transit":false,"i_lat":-6.161728,"station_name":"Kemayoran"},{"i_long":106.84368,"line":11,"time":4,"transit":false,"distance":1436,"station_id":"PSE","is_transit":false,"i_lat":-6.174784,"station_name":"Pasar Senen"},{"station_name":"Gang Sentiong","i_lat":-6.185975,"line":11,"station_id":"GST","is_transit":false,"transit":false,"time":8,"i_long":106.850107,"distance":1567},{"station_id":"KMT","line":11,"distance":973,"time":1,"station_name":"Kramat","i_lat":-6.193792,"transit":false,"i_long":106.855437,"is_transit":false}]]}