{"data":[[{"station_name":"Klender","station_id":"KLD","i_long":106.899548,"distance":0,"line":1,"transit":false,"i_lat":-6.2135,"time":0,"is_transit":false},{"station_id":"JNG","is_transit":true,"i_long":106.86807400000001,"line":1,"station_name":"Jatinegara","i_lat":-6.215091,"time":3,"distance":3395,"transit":true},{"transit":false,"is_transit":false,"i_long":106.861737,"line":11,"station_id":"POK","distance":1236,"time":2,"station_name":"Pondok Jati","i_lat":-6.209188},{"station_name":"Kramat","i_long":106.855437,"i_lat":-6.193792,"distance":1829,"time":2,"line":11,"transit":false,"is_transit":false,"station_id":"KMT"},{"is_transit":false,"station_name":"Gang Sentiong","time":1,"line":11,"i_long":106.850107,"i_lat":-6.185975,"transit":false,"station_id":"GST","distance":973},{"is_transit":false,"transit":false,"time":8,"station_name":"Pasar Senen","i_lat":-6.174784,"i_long":106.84368,"line":11,"station_id":"PSE","distance":1567},{"time":4,"i_lat":-6.161728,"distance":1436,"transit":false,"station_id":"KMO","i_long":106.839204,"station_name":"Kemayoran","is_transit":false,"line":11},{"i_lat":-6.14505,"i_long":106.836569,"station_id":"RJW","station_name":"Rajawali","distance":1901,"time":5,"line":11,"transit":false,"is_transit":false},{"time":3,"transit":true,"is_transit":true,"i_long":106.826365,"station_name":"Kampung Bandan","line":4,"distance":1444,"i_lat":-6.132549,"station_id":"KPB"},{"time":4,"is_transit":false,"i_lat":-6.128023,"transit":false,"station_id":"AC","distance":2185,"i_long":106.84464,"line":4,"station_name":"Ancol"},{"i_lat":-6.1109480000000005,"transit":false,"i_long":106.880089,"distance":4566,"station_id":"TPK","is_transit":false,"line":4,"station_name":"Tanjung Priuk","time":9}],[{"station_id":"KLD","distance":0,"i_lat":-6.2135,"i_long":106.899548,"is_transit":false,"transit":false,"line":1,"station_name":"Klender","time":0},{"time":3,"station_id":"JNG","station_name":"Jatinegara","transit":false,"line":1,"is_transit":false,"i_lat":-6.215091,"distance":3395,"i_long":106.86807400000001},{"i_lat":-6.212485,"line":1,"transit":false,"station_name":"Matraman","station_id":"MTR","time":2,"distance":1377,"i_long":106.858896,"is_transit":false},{"i_long":106.84912,"transit":false,"station_name":"Manggarai","distance":1275,"time":2,"i_lat":-6.209883,"line":2,"is_transit":false,"station_id":"MRI"},{"time":4,"station_name":"Sudirman","line":1,"distance":3186,"i_lat":-6.202263,"transit":false,"station_id":"SUD","is_transit":false,"i_long":106.822649},{"station_name":"Sudirman Baru","distance":280,"is_transit":false,"i_long":106.819881,"i_lat":-6.201433,"line":1,"station_id":"SUDB","transit":false,"time":1},{"station_id":"KAT","time":1,"line":1,"transit":false,"station_name":"Karet","distance":471,"i_long":106.816351,"i_lat":-6.20132,"is_transit":false},{"station_id":"THB","time":5,"station_name":"Tanah Abang","line":1,"transit":false,"distance":2029,"is_transit":false,"i_long":106.811091,"i_lat":-6.185545},{"station_id":"DU","i_lat":-6.155215,"station_name":"Duri","time":8,"distance":3632,"i_long":106.800832,"is_transit":false,"line":1,"transit":false},{"i_lat":-6.144674,"station_name":"Angke","transit":false,"i_long":106.79867,"time":4,"distance":1230,"station_id":"AK","is_transit":false,"line":1},{"distance":4102,"station_id":"KPB","station_name":"Kampung Bandan","transit":true,"time":9,"is_transit":true,"i_lat":-6.132549,"line":4,"i_long":106.826365},{"transit":false,"time":4,"line":4,"station_id":"AC","station_name":"Ancol","i_long":106.84464,"is_transit":false,"distance":2185,"i_lat":-6.128023},{"distance":4566,"transit":false,"station_id":"TPK","is_transit":false,"time":9,"i_lat":-6.1109480000000005,"i_long":106.880089,"line":4,"station_name":"Tanjung Priuk"}],[{"is_transit":false,"time":0,"distance":0,"station_name":"Klender","station_id":"KLD","i_lat":-6.2135,"line":1,"i_long":106.899548,"transit":false},{"distance":3395,"i_lat":-6.215091,"is_transit":false,"time":3,"transit":false,"station_name":"Jatinegara","station_id":"JNG","i_long":106.86807400000001,"line":1},{"transit":false,"is_transit":false,"time":2,"station_name":"Matraman","i_lat":-6.212485,"station_id":"MTR","i_long":106.858896,"line":1,"distance":1377},{"i_long":106.84912,"transit":true,"time":2,"line":2,"station_name":"Manggarai","i_lat":-6.209883,"distance":1275,"station_id":"MRI","is_transit":true},{"i_lat":-6.198556,"distance":1590,"i_long":106.840169,"is_transit":false,"time":4,"line":2,"transit":false,"station_name":"Cikini","station_id":"CKI"},{"i_long":106.832183,"time":3,"is_transit":false,"distance":1750,"transit":false,"station_id":"GDD","line":2,"i_lat":-6.186295,"station_name":"Gondangdia"},{"station_id":"JUA","line":2,"distance":2015,"is_transit":false,"i_lat":-6.166716,"i_long":106.828284,"time":4,"transit":false,"station_name":"Juanda"},{"distance":1149,"i_long":106.827103,"line":2,"time":2,"transit":false,"station_id":"SW","station_name":"Sawah Besar","i_lat":-6.160725,"is_transit":false},{"time":2,"is_transit":false,"i_lat":-6.149769,"transit":false,"station_name":"Manggabesar","station_id":"MGB","distance":906,"i_long":106.82482,"line":2},{"i_long":106.820901,"transit":false,"line":2,"time":2,"is_transit":false,"distance":1080,"i_lat":-6.141205,"station_name":"Jayakarta","station_id":"JAY"},{"i_long":106.812439,"line":2,"distance":1264,"time":4,"station_name":"Jakarta Kota","station_id":"JAKK","i_lat":-6.137569,"is_transit":true,"transit":true},{"is_transit":true,"station_name":"Kampung Bandan","station_id":"KPB","line":4,"i_long":106.826365,"transit":true,"distance":1364,"time":3,"i_lat":-6.132549},{"is_transit":false,"station_name":"Ancol","i_lat":-6.128023,"distance":2185,"line":4,"time":4,"transit":false,"i_long":106.84464,"station_id":"AC"},{"is_transit":false,"distance":4566,"station_name":"Tanjung Priuk","line":4,"i_long":106.880089,"transit":false,"i_lat":-6.1109480000000005,"station_id":"TPK","time":9}]]}