{"data":[[{"i_lat":-6.2135,"distance":0,"line":1,"station_id":"KLD","time":0,"station_name":"Klender","transit":false,"i_long":106.899548,"is_transit":false},{"i_lat":-6.215091,"i_long":106.86807400000001,"transit":false,"line":1,"station_id":"JNG","distance":3395,"time":3,"station_name":"Jatinegara","is_transit":false},{"i_lat":-6.212485,"station_id":"MTR","transit":false,"station_name":"Matraman","time":2,"distance":1377,"i_long":106.858896,"line":1,"is_transit":false},{"is_transit":false,"station_id":"MRI","station_name":"Manggarai","line":2,"distance":1275,"transit":false,"i_lat":-6.209883,"i_long":106.84912,"time":2},{"i_long":106.822649,"is_transit":false,"time":4,"distance":3186,"line":1,"transit":false,"i_lat":-6.202263,"station_id":"SUD","station_name":"Sudirman"},{"transit":false,"time":1,"line":1,"i_long":106.819881,"station_id":"SUDB","is_transit":false,"distance":280,"i_lat":-6.201433,"station_name":"Sudirman Baru"},{"distance":471,"station_name":"Karet","i_lat":-6.20132,"line":1,"station_id":"KAT","is_transit":false,"transit":false,"i_long":106.816351,"time":1},{"i_long":106.811091,"distance":2029,"station_name":"Tanah Abang","i_lat":-6.185545,"is_transit":false,"transit":false,"station_id":"THB","time":5,"line":1},{"station_id":"DU","is_transit":true,"time":8,"distance":3632,"i_long":106.800832,"station_name":"Duri","transit":true,"i_lat":-6.155215,"line":1},{"time":3,"is_transit":false,"i_long":106.788277,"i_lat":-6.162021,"station_name":"Grogol","line":5,"distance":1700,"station_id":"GGL","transit":false},{"transit":false,"is_transit":false,"line":5,"station_name":"Pesing","i_lat":-6.161433,"time":2,"station_id":"PSG","i_long":106.771379,"distance":2036},{"distance":1614,"station_id":"TKO","line":5,"time":2,"is_transit":false,"transit":false,"i_long":106.756522,"station_name":"Taman Kota","i_lat":-6.1587309999999995},{"is_transit":false,"time":2,"distance":2334,"station_name":"Bojongindah","line":5,"station_id":"BOI","transit":false,"i_lat":-6.159876,"i_long":106.737035},{"i_lat":-6.162758,"transit":false,"i_long":106.723064,"time":4,"distance":1152,"station_name":"Rawa Buaya","line":5,"is_transit":false,"station_id":"RW"},{"i_long":106.701612,"transit":false,"time":3,"is_transit":false,"i_lat":-6.166068,"distance":2504,"station_id":"KDS","station_name":"Kalideres","line":5},{"time":3,"station_name":"Poris","transit":false,"i_lat":-6.169933,"i_long":106.679458,"station_id":"PI","distance":2548,"line":5,"is_transit":false},{"station_id":"BPR","i_long":106.665036,"is_transit":false,"distance":1834,"station_name":"Batuceper","transit":false,"i_lat":-6.171811,"time":3,"line":5}],[{"line":1,"time":0,"distance":0,"is_transit":false,"i_long":106.899548,"station_id":"KLD","station_name":"Klender","transit":false,"i_lat":-6.2135},{"transit":true,"station_id":"JNG","i_long":106.86807400000001,"i_lat":-6.215091,"line":1,"distance":3395,"is_transit":true,"time":3,"station_name":"Jatinegara"},{"line":11,"station_name":"Pondok Jati","distance":1236,"time":2,"is_transit":false,"station_id":"POK","i_long":106.861737,"i_lat":-6.209188,"transit":false},{"station_id":"KMT","i_lat":-6.193792,"line":11,"distance":1829,"is_transit":false,"i_long":106.855437,"transit":false,"time":2,"station_name":"Kramat"},{"station_name":"Gang Sentiong","station_id":"GST","i_lat":-6.185975,"distance":973,"transit":false,"i_long":106.850107,"time":1,"is_transit":false,"line":11},{"i_lat":-6.174784,"line":11,"station_name":"Pasar Senen","time":8,"transit":false,"distance":1567,"is_transit":false,"i_long":106.84368,"station_id":"PSE"},{"time":4,"station_name":"Kemayoran","distance":1436,"i_lat":-6.161728,"i_long":106.839204,"transit":false,"is_transit":false,"line":11,"station_id":"KMO"},{"time":5,"i_lat":-6.14505,"transit":false,"station_name":"Rajawali","station_id":"RJW","i_long":106.836569,"distance":1901,"line":11,"is_transit":false},{"time":3,"transit":true,"i_lat":-6.132549,"line":4,"distance":1444,"station_name":"Kampung Bandan","is_transit":true,"station_id":"KPB","i_long":106.826365},{"is_transit":false,"distance":4102,"station_id":"AK","time":9,"transit":false,"line":1,"i_long":106.79867,"station_name":"Angke","i_lat":-6.144674},{"station_id":"DU","station_name":"Duri","distance":1230,"time":4,"transit":true,"i_lat":-6.155215,"i_long":106.800832,"line":1,"is_transit":true},{"station_name":"Grogol","i_long":106.788277,"i_lat":-6.162021,"line":5,"station_id":"GGL","transit":false,"time":3,"distance":1700,"is_transit":false},{"transit":false,"i_long":106.771379,"line":5,"time":2,"distance":2036,"is_transit":false,"i_lat":-6.161433,"station_id":"PSG","station_name":"Pesing"},{"line":5,"i_long":106.756522,"time":2,"station_id":"TKO","transit":false,"is_transit":false,"station_name":"Taman Kota","distance":1614,"i_lat":-6.1587309999999995},{"i_long":106.737035,"is_transit":false,"time":2,"i_lat":-6.159876,"station_id":"BOI","transit":false,"station_name":"Bojongindah","line":5,"distance":2334},{"i_lat":-6.162758,"station_name":"Rawa Buaya","time":4,"distance":1152,"is_transit":false,"transit":false,"station_id":"RW","i_long":106.723064,"line":5},{"distance":2504,"i_lat":-6.166068,"transit":false,"time":3,"line":5,"station_id":"KDS","i_long":106.701612,"station_name":"Kalideres","is_transit":false},{"station_id":"PI","time":3,"station_name":"Poris","transit":false,"is_transit":false,"i_lat":-6.169933,"line":5,"distance":2548,"i_long":106.679458},{"time":3,"station_name":"Batuceper","i_lat":-6.171811,"is_transit":false,"line":5,"station_id":"BPR","i_long":106.665036,"distance":1834,"transit":false}],[{"distance":0,"transit":false,"line":1,"is_transit":false,"station_name":"Klender","time":0,"station_id":"KLD","i_long":106.899548,"i_lat":-6.2135},{"station_name":"Jatinegara","i_lat":-6.215091,"distance":3395,"transit":false,"time":3,"is_transit":false,"station_id":"JNG","i_long":106.86807400000001,"line":1},{"line":1,"transit":false,"is_transit":false,"distance":1377,"station_id":"MTR","i_lat":-6.212485,"i_long":106.858896,"station_name":"Matraman","time":2},{"distance":1275,"is_transit":true,"i_lat":-6.209883,"i_long":106.84912,"station_id":"MRI","line":2,"time":2,"transit":true,"station_name":"Manggarai"},{"is_transit":false,"distance":1590,"transit":false,"station_id":"CKI","station_name":"Cikini","i_lat":-6.198556,"i_long":106.840169,"time":4,"line":2},{"distance":1750,"time":3,"i_long":106.832183,"is_transit":false,"i_lat":-6.186295,"line":2,"transit":false,"station_name":"Gondangdia","station_id":"GDD"},{"i_long":106.828284,"station_name":"Juanda","distance":2015,"station_id":"JUA","is_transit":false,"line":2,"time":4,"i_lat":-6.166716,"transit":false},{"transit":false,"distance":1149,"station_id":"SW","station_name":"Sawah Besar","line":2,"time":2,"is_transit":false,"i_lat":-6.160725,"i_long":106.827103},{"line":2,"station_name":"Manggabesar","is_transit":false,"i_long":106.82482,"i_lat":-6.149769,"transit":false,"distance":906,"time":2,"station_id":"MGB"},{"transit":false,"i_lat":-6.141205,"station_name":"Jayakarta","distance":1080,"station_id":"JAY","time":2,"is_transit":false,"line":2,"i_long":106.820901},{"station_id":"JAKK","station_name":"Jakarta Kota","is_transit":true,"i_long":106.812439,"i_lat":-6.137569,"line":2,"distance":1264,"transit":true,"time":4},{"distance":1364,"time":3,"transit":true,"station_id":"KPB","i_lat":-6.132549,"station_name":"Kampung Bandan","is_transit":true,"line":4,"i_long":106.826365},{"i_lat":-6.144674,"station_id":"AK","transit":false,"i_long":106.79867,"line":1,"time":9,"distance":4102,"station_name":"Angke","is_transit":false},{"station_name":"Duri","distance":1230,"transit":true,"is_transit":true,"i_lat":-6.155215,"time":4,"station_id":"DU","i_long":106.800832,"line":1},{"distance":1700,"i_long":106.788277,"transit":false,"time":3,"i_lat":-6.162021,"is_transit":false,"station_name":"Grogol","line":5,"station_id":"GGL"},{"station_id":"PSG","i_long":106.771379,"station_name":"Pesing","time":2,"transit":false,"distance":2036,"line":5,"is_transit":false,"i_lat":-6.161433},{"line":5,"station_id":"TKO","i_lat":-6.1587309999999995,"station_name":"Taman Kota","transit":false,"is_transit":false,"i_long":106.756522,"time":2,"distance":1614},{"station_id":"BOI","i_lat":-6.159876,"i_long":106.737035,"transit":false,"is_transit":false,"time":2,"station_name":"Bojongindah","line":5,"distance":2334},{"time":4,"i_lat":-6.162758,"distance":1152,"i_long":106.723064,"transit":false,"station_id":"RW","station_name":"Rawa Buaya","is_transit":false,"line":5},{"transit":false,"distance":2504,"i_lat":-6.166068,"line":5,"station_name":"Kalideres","is_transit":false,"station_id":"KDS","time":3,"i_long":106.701612},{"transit":false,"time":3,"distance":2548,"is_transit":false,"i_lat":-6.169933,"station_name":"Poris","station_id":"PI","line":5,"i_long":106.679458},{"is_transit":false,"distance":1834,"line":5,"i_lat":-6.171811,"transit":false,"station_name":"Batuceper","station_id":"BPR","time":3,"i_long":106.665036}],[{"station_name":"Klender","line":1,"time":0,"i_long":106.899548,"transit":false,"is_transit":false,"i_lat":-6.2135,"distance":0,"station_id":"KLD"},{"i_long":106.86807400000001,"station_name":"Jatinegara","station_id":"JNG","transit":true,"distance":3395,"time":3,"is_transit":true,"line":1,"i_lat":-6.215091},{"station_id":"POK","i_lat":-6.209188,"line":11,"transit":false,"distance":1236,"time":2,"station_name":"Pondok Jati","is_transit":false,"i_long":106.861737},{"transit":false,"is_transit":false,"i_lat":-6.193792,"time":2,"station_id":"KMT","station_name":"Kramat","line":11,"distance":1829,"i_long":106.855437},{"i_lat":-6.185975,"time":1,"i_long":106.850107,"station_id":"GST","station_name":"Gang Sentiong","is_transit":false,"line":11,"transit":false,"distance":973},{"line":11,"time":8,"distance":1567,"station_id":"PSE","station_name":"Pasar Senen","is_transit":false,"i_lat":-6.174784,"i_long":106.84368,"transit":false},{"station_id":"KMO","is_transit":false,"line":11,"distance":1436,"i_long":106.839204,"station_name":"Kemayoran","i_lat":-6.161728,"time":4,"transit":false},{"station_name":"Rajawali","distance":1901,"is_transit":false,"i_lat":-6.14505,"i_long":106.836569,"time":5,"transit":false,"station_id":"RJW","line":11},{"time":3,"is_transit":true,"station_id":"KPB","i_lat":-6.132549,"transit":true,"distance":1444,"station_name":"Kampung Bandan","line":4,"i_long":106.826365},{"i_lat":-6.137569,"distance":1364,"time":3,"is_transit":true,"i_long":106.812439,"station_id":"JAKK","station_name":"Jakarta Kota","transit":true,"line":2},{"i_lat":-6.141205,"line":2,"distance":1264,"transit":false,"is_transit":false,"time":4,"i_long":106.820901,"station_name":"Jayakarta","station_id":"JAY"},{"i_lat":-6.149769,"station_name":"Manggabesar","distance":1080,"transit":false,"time":2,"i_long":106.82482,"station_id":"MGB","line":2,"is_transit":false},{"i_long":106.827103,"line":2,"is_transit":false,"i_lat":-6.160725,"station_id":"SW","time":2,"distance":906,"transit":false,"station_name":"Sawah Besar"},{"station_name":"Juanda","is_transit":false,"i_lat":-6.166716,"i_long":106.828284,"line":2,"transit":false,"distance":1149,"station_id":"JUA","time":2},{"time":4,"i_long":106.832183,"station_name":"Gondangdia","i_lat":-6.186295,"station_id":"GDD","is_transit":false,"line":2,"distance":2015,"transit":false},{"time":3,"transit":false,"line":2,"i_lat":-6.198556,"i_long":106.840169,"is_transit":false,"station_id":"CKI","station_name":"Cikini","distance":1750},{"i_lat":-6.209883,"time":4,"line":2,"station_name":"Manggarai","i_long":106.84912,"station_id":"MRI","transit":true,"is_transit":true,"distance":1590},{"station_id":"SUD","line":1,"transit":false,"is_transit":false,"i_long":106.822649,"distance":3186,"station_name":"Sudirman","i_lat":-6.202263,"time":4},{"transit":false,"time":1,"i_long":106.819881,"station_id":"SUDB","station_name":"Sudirman Baru","distance":280,"is_transit":false,"i_lat":-6.201433,"line":1},{"transit":false,"i_lat":-6.20132,"i_long":106.816351,"distance":471,"line":1,"time":1,"is_transit":false,"station_name":"Karet","station_id":"KAT"},{"i_lat":-6.185545,"distance":2029,"is_transit":false,"line":1,"station_name":"Tanah Abang","transit":false,"time":5,"i_long":106.811091,"station_id":"THB"},{"time":8,"station_name":"Duri","i_long":106.800832,"is_transit":true,"transit":true,"i_lat":-6.155215,"line":1,"station_id":"DU","distance":3632},{"distance":1700,"i_long":106.788277,"line":5,"transit":false,"station_name":"Grogol","is_transit":false,"station_id":"GGL","i_lat":-6.162021,"time":3},{"station_name":"Pesing","is_transit":false,"i_long":106.771379,"transit":false,"i_lat":-6.161433,"line":5,"distance":2036,"time":2,"station_id":"PSG"},{"time":2,"i_lat":-6.1587309999999995,"transit":false,"station_id":"TKO","i_long":106.756522,"is_transit":false,"station_name":"Taman Kota","line":5,"distance":1614},{"station_id":"BOI","time":2,"i_lat":-6.159876,"line":5,"station_name":"Bojongindah","is_transit":false,"i_long":106.737035,"distance":2334,"transit":false},{"i_long":106.723064,"time":4,"station_id":"RW","is_transit":false,"transit":false,"line":5,"distance":1152,"station_name":"Rawa Buaya","i_lat":-6.162758},{"distance":2504,"station_id":"KDS","is_transit":false,"time":3,"transit":false,"station_name":"Kalideres","line":5,"i_lat":-6.166068,"i_long":106.701612},{"transit":false,"station_id":"PI","i_long":106.679458,"distance":2548,"line":5,"time":3,"station_name":"Poris","is_transit":false,"i_lat":-6.169933},{"transit":false,"distance":1834,"station_id":"BPR","station_name":"Batuceper","i_lat":-6.171811,"line":5,"i_long":106.665036,"time":3,"is_transit":false}]]}