{"data":[[{"line":1,"station_id":"KLD","is_transit":false,"i_lat":-6.2135,"distance":0,"time":0,"transit":false,"i_long":106.899548,"station_name":"Klender"},{"transit":false,"i_lat":-6.215091,"time":3,"i_long":106.86807400000001,"is_transit":true,"line":0,"station_id":"JNG","station_name":"Jatinegara","distance":3395},{"is_transit":false,"distance":1377,"i_lat":-6.212485,"line":1,"i_long":106.858896,"transit":false,"station_name":"Matraman","time":2,"station_id":"MTR"},{"i_lat":-6.209883,"i_long":106.84912,"line":0,"station_id":"MRI","transit":false,"is_transit":true,"time":2,"station_name":"Manggarai","distance":1275},{"station_name":"Sudirman","i_long":106.822649,"time":4,"is_transit":false,"distance":3186,"line":1,"station_id":"SUD","transit":false,"i_lat":-6.202263},{"transit":false,"line":1,"i_lat":-6.201433,"distance":280,"station_id":"SUDB","is_transit":false,"station_name":"Sudirman Baru","time":1,"i_long":106.819881},{"i_long":106.816351,"station_name":"Karet","time":1,"distance":471,"is_transit":false,"line":1,"station_id":"KAT","i_lat":-6.20132,"transit":false},{"i_long":106.811091,"line":1,"is_transit":true,"station_id":"THB","time":5,"distance":2029,"i_lat":-6.185545,"transit":true,"station_name":"Tanah Abang"},{"transit":false,"is_transit":false,"i_lat":-6.207404,"station_name":"Palmerah","station_id":"PLM","time":6,"distance":3191,"line":6,"i_long":106.79689}],[{"time":0,"i_lat":-6.2135,"is_transit":false,"station_id":"KLD","i_long":106.899548,"transit":false,"distance":0,"line":1,"station_name":"Klender"},{"station_id":"JNG","transit":true,"station_name":"Jatinegara","distance":3395,"time":3,"i_lat":-6.215091,"is_transit":true,"i_long":106.86807400000001,"line":0},{"distance":1236,"is_transit":false,"i_long":106.861737,"i_lat":-6.209188,"transit":false,"station_id":"POK","station_name":"Pondok Jati","line":11,"time":2},{"station_id":"KMT","station_name":"Kramat","distance":1829,"line":11,"transit":false,"time":2,"i_long":106.855437,"is_transit":false,"i_lat":-6.193792},{"station_id":"GST","time":1,"station_name":"Gang Sentiong","is_transit":false,"i_lat":-6.185975,"line":11,"transit":false,"i_long":106.850107,"distance":973},{"station_id":"PSE","line":11,"station_name":"Pasar Senen","i_lat":-6.174784,"i_long":106.84368,"distance":1567,"is_transit":false,"time":8,"transit":false},{"i_lat":-6.161728,"station_id":"KMO","time":4,"line":11,"station_name":"Kemayoran","i_long":106.839204,"transit":false,"is_transit":false,"distance":1436},{"i_lat":-6.14505,"station_name":"Rajawali","station_id":"RJW","transit":false,"distance":1901,"i_long":106.836569,"time":5,"line":11,"is_transit":false},{"station_name":"Kampung Bandan","station_id":"KPB","distance":1444,"i_long":106.826365,"time":3,"i_lat":-6.132549,"transit":true,"line":0,"is_transit":true},{"station_id":"AK","station_name":"Angke","distance":4102,"transit":false,"i_long":106.79867,"line":0,"is_transit":false,"time":9,"i_lat":-6.144674},{"distance":1230,"i_lat":-6.155215,"line":1,"station_name":"Duri","station_id":"DU","is_transit":true,"i_long":106.800832,"transit":true,"time":4},{"time":8,"distance":3632,"station_name":"Tanah Abang","i_lat":-6.185545,"station_id":"THB","is_transit":true,"i_long":106.811091,"line":1,"transit":true},{"station_name":"Palmerah","i_lat":-6.207404,"distance":3191,"line":6,"is_transit":false,"time":6,"station_id":"PLM","transit":false,"i_long":106.79689}],[{"distance":0,"time":0,"transit":false,"i_long":106.899548,"i_lat":-6.2135,"line":1,"is_transit":false,"station_id":"KLD","station_name":"Klender"},{"station_id":"JNG","i_lat":-6.215091,"is_transit":true,"i_long":106.86807400000001,"station_name":"Jatinegara","distance":3395,"transit":false,"line":0,"time":3},{"line":1,"i_long":106.858896,"transit":false,"distance":1377,"station_id":"MTR","station_name":"Matraman","is_transit":false,"time":2,"i_lat":-6.212485},{"station_name":"Manggarai","station_id":"MRI","is_transit":true,"distance":1275,"time":2,"line":0,"transit":true,"i_lat":-6.209883,"i_long":106.84912},{"line":0,"station_name":"Cikini","i_long":106.840169,"i_lat":-6.198556,"distance":1590,"station_id":"CKI","is_transit":false,"time":4,"transit":false},{"station_name":"Gondangdia","transit":false,"station_id":"GDD","i_lat":-6.186295,"distance":1750,"i_long":106.832183,"line":2,"time":3,"is_transit":false},{"distance":2015,"i_long":106.828284,"transit":false,"station_id":"JUA","i_lat":-6.166716,"line":2,"is_transit":false,"station_name":"Juanda","time":4},{"distance":1149,"line":2,"transit":false,"station_name":"Sawah Besar","station_id":"SW","is_transit":false,"time":2,"i_lat":-6.160725,"i_long":106.827103},{"i_long":106.82482,"transit":false,"line":2,"time":2,"station_name":"Manggabesar","is_transit":false,"station_id":"MGB","i_lat":-6.149769,"distance":906},{"station_id":"JAY","station_name":"Jayakarta","i_long":106.820901,"line":7,"time":2,"transit":false,"is_transit":false,"i_lat":-6.141205,"distance":1080},{"distance":1264,"i_long":106.812439,"station_id":"JAKK","is_transit":true,"station_name":"Jakarta Kota","time":4,"transit":true,"i_lat":-6.137569,"line":0},{"distance":1364,"is_transit":true,"transit":false,"station_name":"Kampung Bandan","line":0,"i_lat":-6.132549,"station_id":"KPB","time":3,"i_long":106.826365},{"station_name":"Angke","i_lat":-6.144674,"station_id":"AK","time":9,"line":0,"is_transit":false,"i_long":106.79867,"transit":false,"distance":4102},{"transit":true,"station_name":"Duri","i_long":106.800832,"line":1,"time":4,"i_lat":-6.155215,"station_id":"DU","is_transit":true,"distance":1230},{"transit":true,"station_name":"Tanah Abang","is_transit":true,"i_lat":-6.185545,"i_long":106.811091,"line":1,"station_id":"THB","time":8,"distance":3632},{"station_name":"Palmerah","time":6,"distance":3191,"transit":false,"i_long":106.79689,"i_lat":-6.207404,"line":6,"is_transit":false,"station_id":"PLM"}],[{"distance":0,"transit":false,"is_transit":false,"station_id":"KLD","i_lat":-6.2135,"line":1,"time":0,"i_long":106.899548,"station_name":"Klender"},{"distance":3395,"line":0,"is_transit":true,"i_long":106.86807400000001,"station_id":"JNG","transit":true,"station_name":"Jatinegara","time":3,"i_lat":-6.215091},{"distance":1236,"time":2,"transit":false,"station_id":"POK","i_long":106.861737,"line":11,"station_name":"Pondok Jati","is_transit":false,"i_lat":-6.209188},{"station_name":"Kramat","distance":1829,"time":2,"i_lat":-6.193792,"line":11,"is_transit":false,"station_id":"KMT","transit":false,"i_long":106.855437},{"i_long":106.850107,"line":11,"station_name":"Gang Sentiong","distance":973,"i_lat":-6.185975,"is_transit":false,"time":1,"station_id":"GST","transit":false},{"line":11,"is_transit":false,"distance":1567,"station_id":"PSE","transit":false,"i_long":106.84368,"time":8,"station_name":"Pasar Senen","i_lat":-6.174784},{"distance":1436,"station_name":"Kemayoran","station_id":"KMO","is_transit":false,"transit":false,"i_long":106.839204,"time":4,"line":11,"i_lat":-6.161728},{"i_lat":-6.14505,"line":11,"is_transit":false,"distance":1901,"station_id":"RJW","i_long":106.836569,"station_name":"Rajawali","time":5,"transit":false},{"line":0,"i_long":106.826365,"time":3,"station_name":"Kampung Bandan","station_id":"KPB","transit":true,"is_transit":true,"i_lat":-6.132549,"distance":1444},{"station_id":"JAKK","i_lat":-6.137569,"distance":1364,"line":0,"is_transit":true,"station_name":"Jakarta Kota","transit":true,"i_long":106.812439,"time":3},{"i_long":106.820901,"station_id":"JAY","time":4,"transit":false,"i_lat":-6.141205,"station_name":"Jayakarta","is_transit":false,"line":7,"distance":1264},{"is_transit":false,"line":2,"i_lat":-6.149769,"time":2,"distance":1080,"transit":false,"i_long":106.82482,"station_id":"MGB","station_name":"Manggabesar"},{"station_id":"SW","time":2,"is_transit":false,"transit":false,"distance":906,"i_long":106.827103,"station_name":"Sawah Besar","line":2,"i_lat":-6.160725},{"line":2,"is_transit":false,"distance":1149,"i_lat":-6.166716,"station_name":"Juanda","transit":false,"time":2,"station_id":"JUA","i_long":106.828284},{"transit":false,"is_transit":false,"station_name":"Gondangdia","distance":2015,"station_id":"GDD","line":2,"i_lat":-6.186295,"time":4,"i_long":106.832183},{"i_long":106.840169,"station_name":"Cikini","station_id":"CKI","time":3,"i_lat":-6.198556,"is_transit":false,"transit":false,"line":0,"distance":1750},{"station_name":"Manggarai","time":4,"transit":true,"i_long":106.84912,"line":0,"is_transit":true,"i_lat":-6.209883,"distance":1590,"station_id":"MRI"},{"distance":3186,"i_long":106.822649,"i_lat":-6.202263,"line":1,"is_transit":false,"time":4,"transit":false,"station_id":"SUD","station_name":"Sudirman"},{"is_transit":false,"transit":false,"time":1,"i_long":106.819881,"line":1,"distance":280,"station_id":"SUDB","i_lat":-6.201433,"station_name":"Sudirman Baru"},{"distance":471,"i_long":106.816351,"transit":false,"time":1,"station_name":"Karet","station_id":"KAT","is_transit":false,"i_lat":-6.20132,"line":1},{"station_name":"Tanah Abang","distance":2029,"is_transit":true,"i_long":106.811091,"station_id":"THB","line":1,"transit":true,"time":5,"i_lat":-6.185545},{"i_long":106.79689,"line":6,"station_id":"PLM","distance":3191,"is_transit":false,"i_lat":-6.207404,"time":6,"station_name":"Palmerah","transit":false}]]}