{"data":[[{"i_long":106.899548,"station_name":"Klender","time":0,"i_lat":-6.2135,"transit":false,"line":1,"is_transit":false,"distance":0,"station_id":"KLD"},{"is_transit":false,"i_lat":-6.215091,"transit":false,"station_id":"JNG","i_long":106.86807400000001,"distance":3395,"line":1,"time":3,"station_name":"Jatinegara"},{"is_transit":false,"i_long":106.858896,"line":1,"station_name":"Matraman","i_lat":-6.212485,"time":2,"transit":false,"station_id":"MTR","distance":1377},{"distance":1275,"line":2,"is_transit":false,"station_id":"MRI","transit":false,"i_lat":-6.209883,"station_name":"Manggarai","time":2,"i_long":106.84912},{"time":4,"line":1,"distance":3186,"i_lat":-6.202263,"station_id":"SUD","transit":false,"i_long":106.822649,"station_name":"Sudirman","is_transit":false},{"station_id":"SUDB","time":1,"line":1,"transit":false,"is_transit":false,"i_lat":-6.201433,"i_long":106.819881,"distance":280,"station_name":"Sudirman Baru"},{"i_lat":-6.20132,"station_name":"Karet","line":1,"station_id":"KAT","time":1,"transit":false,"i_long":106.816351,"is_transit":false,"distance":471},{"station_id":"THB","distance":2029,"i_long":106.811091,"i_lat":-6.185545,"line":1,"is_transit":true,"transit":true,"station_name":"Tanah Abang","time":5},{"line":6,"transit":false,"station_name":"Palmerah","is_transit":false,"i_lat":-6.207404,"i_long":106.79689,"distance":3191,"time":6,"station_id":"PLM"},{"line":6,"time":7,"i_long":106.780334,"transit":false,"is_transit":false,"station_id":"KBY","station_name":"Kebayoran","distance":3737,"i_lat":-6.237242},{"transit":false,"i_lat":-6.276362,"time":8,"i_long":106.74273,"line":6,"station_name":"Pondokranji","is_transit":false,"station_id":"PDJ","distance":6218},{"transit":false,"i_lat":-6.288927,"i_long":106.728916,"station_name":"Jurangmangu","line":6,"is_transit":false,"station_id":"JMU","time":3,"distance":2179},{"i_lat":-6.296963,"line":6,"transit":false,"time":4,"i_long":106.712277,"station_id":"SDM","distance":1994,"station_name":"Sudimara","is_transit":false},{"i_lat":-6.314823,"distance":4566,"station_id":"RU","time":6,"transit":false,"line":6,"i_long":106.675475,"station_name":"Rawa Buntu","is_transit":false},{"station_name":"Serpong","distance":2413,"i_long":106.66566,"time":4,"i_lat":-6.319871,"line":6,"transit":false,"station_id":"SRP","is_transit":false},{"transit":false,"distance":1784,"i_lat":-6.32484,"i_long":106.640411,"time":4,"station_id":"CSK","line":3,"is_transit":false,"station_name":"Cisauk"}],[{"station_id":"KLD","is_transit":false,"transit":false,"time":0,"i_lat":-6.2135,"station_name":"Klender","i_long":106.899548,"distance":0,"line":1},{"station_name":"Jatinegara","distance":3395,"time":3,"i_lat":-6.215091,"transit":true,"line":1,"is_transit":true,"station_id":"JNG","i_long":106.86807400000001},{"i_long":106.861737,"time":2,"is_transit":false,"station_id":"POK","i_lat":-6.209188,"line":11,"distance":1236,"station_name":"Pondok Jati","transit":false},{"i_long":106.855437,"is_transit":false,"distance":1829,"i_lat":-6.193792,"line":11,"time":2,"station_name":"Kramat","transit":false,"station_id":"KMT"},{"is_transit":false,"line":11,"transit":false,"i_long":106.850107,"i_lat":-6.185975,"time":1,"station_name":"Gang Sentiong","distance":973,"station_id":"GST"},{"line":11,"time":8,"transit":false,"i_lat":-6.174784,"is_transit":false,"station_name":"Pasar Senen","station_id":"PSE","distance":1567,"i_long":106.84368},{"i_lat":-6.161728,"line":11,"time":4,"distance":1436,"station_id":"KMO","is_transit":false,"station_name":"Kemayoran","i_long":106.839204,"transit":false},{"station_name":"Rajawali","time":5,"station_id":"RJW","is_transit":false,"distance":1901,"transit":false,"i_lat":-6.14505,"line":11,"i_long":106.836569},{"station_id":"KPB","time":3,"i_long":106.826365,"distance":1444,"line":4,"station_name":"Kampung Bandan","is_transit":true,"transit":true,"i_lat":-6.132549},{"line":1,"time":9,"i_long":106.79867,"distance":4102,"i_lat":-6.144674,"station_id":"AK","is_transit":false,"station_name":"Angke","transit":false},{"time":4,"station_name":"Duri","transit":false,"i_lat":-6.155215,"distance":1230,"station_id":"DU","is_transit":false,"line":1,"i_long":106.800832},{"i_lat":-6.185545,"line":1,"time":8,"is_transit":true,"i_long":106.811091,"station_name":"Tanah Abang","station_id":"THB","distance":3632,"transit":true},{"line":6,"i_long":106.79689,"distance":3191,"time":6,"i_lat":-6.207404,"is_transit":false,"transit":false,"station_id":"PLM","station_name":"Palmerah"},{"distance":3737,"station_name":"Kebayoran","transit":false,"station_id":"KBY","line":6,"i_long":106.780334,"is_transit":false,"i_lat":-6.237242,"time":7},{"i_lat":-6.276362,"station_id":"PDJ","is_transit":false,"distance":6218,"i_long":106.74273,"line":6,"transit":false,"station_name":"Pondokranji","time":8},{"station_name":"Jurangmangu","station_id":"JMU","i_long":106.728916,"line":6,"distance":2179,"is_transit":false,"time":3,"i_lat":-6.288927,"transit":false},{"i_lat":-6.296963,"line":6,"i_long":106.712277,"is_transit":false,"distance":1994,"transit":false,"time":4,"station_id":"SDM","station_name":"Sudimara"},{"station_id":"RU","is_transit":false,"transit":false,"station_name":"Rawa Buntu","time":6,"i_lat":-6.314823,"distance":4566,"i_long":106.675475,"line":6},{"is_transit":false,"station_id":"SRP","transit":false,"station_name":"Serpong","i_lat":-6.319871,"line":6,"i_long":106.66566,"distance":2413,"time":4},{"station_name":"Cisauk","station_id":"CSK","i_long":106.640411,"i_lat":-6.32484,"is_transit":false,"line":3,"transit":false,"time":4,"distance":1784}],[{"distance":0,"time":0,"is_transit":false,"transit":false,"station_name":"Klender","station_id":"KLD","i_long":106.899548,"line":1,"i_lat":-6.2135},{"station_name":"Jatinegara","distance":3395,"is_transit":false,"transit":false,"station_id":"JNG","i_long":106.86807400000001,"line":1,"i_lat":-6.215091,"time":3},{"line":1,"station_id":"MTR","transit":false,"distance":1377,"is_transit":false,"time":2,"i_long":106.858896,"station_name":"Matraman","i_lat":-6.212485},{"is_transit":true,"distance":1275,"time":2,"transit":true,"station_id":"MRI","i_lat":-6.209883,"station_name":"Manggarai","i_long":106.84912,"line":2},{"time":4,"station_name":"Cikini","station_id":"CKI","i_long":106.840169,"transit":false,"line":2,"distance":1590,"is_transit":false,"i_lat":-6.198556},{"transit":false,"station_name":"Gondangdia","i_lat":-6.186295,"line":2,"distance":1750,"is_transit":false,"time":3,"i_long":106.832183,"station_id":"GDD"},{"station_id":"JUA","station_name":"Juanda","line":2,"i_lat":-6.166716,"transit":false,"i_long":106.828284,"distance":2015,"time":4,"is_transit":false},{"time":2,"station_name":"Sawah Besar","distance":1149,"i_lat":-6.160725,"station_id":"SW","i_long":106.827103,"line":2,"is_transit":false,"transit":false},{"is_transit":false,"i_long":106.82482,"distance":906,"station_id":"MGB","line":2,"transit":false,"station_name":"Manggabesar","i_lat":-6.149769,"time":2},{"time":2,"station_name":"Jayakarta","i_long":106.820901,"distance":1080,"is_transit":false,"station_id":"JAY","i_lat":-6.141205,"line":2,"transit":false},{"station_id":"JAKK","i_long":106.812439,"transit":true,"i_lat":-6.137569,"line":2,"distance":1264,"is_transit":true,"station_name":"Jakarta Kota","time":4},{"i_lat":-6.132549,"distance":1364,"time":3,"i_long":106.826365,"station_id":"KPB","is_transit":true,"transit":true,"station_name":"Kampung Bandan","line":4},{"i_lat":-6.144674,"i_long":106.79867,"distance":4102,"is_transit":false,"transit":false,"station_name":"Angke","station_id":"AK","time":9,"line":1},{"station_name":"Duri","time":4,"i_long":106.800832,"line":1,"is_transit":false,"distance":1230,"station_id":"DU","transit":false,"i_lat":-6.155215},{"time":8,"transit":true,"station_name":"Tanah Abang","i_long":106.811091,"is_transit":true,"line":1,"station_id":"THB","distance":3632,"i_lat":-6.185545},{"is_transit":false,"i_long":106.79689,"station_name":"Palmerah","distance":3191,"transit":false,"line":6,"time":6,"i_lat":-6.207404,"station_id":"PLM"},{"time":7,"station_name":"Kebayoran","line":6,"station_id":"KBY","i_long":106.780334,"is_transit":false,"i_lat":-6.237242,"distance":3737,"transit":false},{"station_id":"PDJ","i_long":106.74273,"transit":false,"distance":6218,"line":6,"time":8,"is_transit":false,"station_name":"Pondokranji","i_lat":-6.276362},{"distance":2179,"i_lat":-6.288927,"transit":false,"i_long":106.728916,"line":6,"is_transit":false,"time":3,"station_name":"Jurangmangu","station_id":"JMU"},{"distance":1994,"i_lat":-6.296963,"station_name":"Sudimara","line":6,"time":4,"is_transit":false,"i_long":106.712277,"station_id":"SDM","transit":false},{"transit":false,"is_transit":false,"station_id":"RU","time":6,"i_lat":-6.314823,"i_long":106.675475,"line":6,"station_name":"Rawa Buntu","distance":4566},{"station_id":"SRP","time":4,"i_long":106.66566,"transit":false,"station_name":"Serpong","is_transit":false,"distance":2413,"i_lat":-6.319871,"line":6},{"line":3,"time":4,"i_long":106.640411,"is_transit":false,"i_lat":-6.32484,"station_id":"CSK","station_name":"Cisauk","transit":false,"distance":1784}],[{"i_long":106.899548,"line":1,"time":0,"i_lat":-6.2135,"station_name":"Klender","transit":false,"is_transit":false,"station_id":"KLD","distance":0},{"is_transit":true,"i_long":106.86807400000001,"line":1,"station_name":"Jatinegara","station_id":"JNG","transit":true,"distance":3395,"time":3,"i_lat":-6.215091},{"i_lat":-6.209188,"i_long":106.861737,"line":11,"transit":false,"station_name":"Pondok Jati","distance":1236,"station_id":"POK","is_transit":false,"time":2},{"distance":1829,"time":2,"line":11,"station_id":"KMT","station_name":"Kramat","is_transit":false,"i_lat":-6.193792,"transit":false,"i_long":106.855437},{"time":1,"is_transit":false,"station_id":"GST","i_long":106.850107,"line":11,"transit":false,"i_lat":-6.185975,"distance":973,"station_name":"Gang Sentiong"},{"line":11,"i_long":106.84368,"transit":false,"distance":1567,"is_transit":false,"time":8,"station_id":"PSE","station_name":"Pasar Senen","i_lat":-6.174784},{"station_id":"KMO","is_transit":false,"transit":false,"i_lat":-6.161728,"line":11,"time":4,"station_name":"Kemayoran","i_long":106.839204,"distance":1436},{"station_name":"Rajawali","i_long":106.836569,"transit":false,"distance":1901,"time":5,"is_transit":false,"station_id":"RJW","i_lat":-6.14505,"line":11},{"distance":1444,"time":3,"i_lat":-6.132549,"station_name":"Kampung Bandan","station_id":"KPB","is_transit":true,"transit":true,"line":4,"i_long":106.826365},{"i_long":106.812439,"distance":1364,"is_transit":true,"line":2,"station_id":"JAKK","station_name":"Jakarta Kota","time":3,"transit":true,"i_lat":-6.137569},{"transit":false,"station_id":"JAY","distance":1264,"i_lat":-6.141205,"time":4,"is_transit":false,"i_long":106.820901,"line":2,"station_name":"Jayakarta"},{"transit":false,"station_name":"Manggabesar","distance":1080,"time":2,"i_long":106.82482,"line":2,"is_transit":false,"station_id":"MGB","i_lat":-6.149769},{"transit":false,"distance":906,"i_long":106.827103,"line":2,"i_lat":-6.160725,"station_name":"Sawah Besar","is_transit":false,"station_id":"SW","time":2},{"station_id":"JUA","i_lat":-6.166716,"is_transit":false,"distance":1149,"line":2,"i_long":106.828284,"transit":false,"time":2,"station_name":"Juanda"},{"is_transit":false,"distance":2015,"i_long":106.832183,"line":2,"time":4,"i_lat":-6.186295,"transit":false,"station_name":"Gondangdia","station_id":"GDD"},{"is_transit":false,"station_name":"Cikini","time":3,"transit":false,"i_long":106.840169,"line":2,"station_id":"CKI","distance":1750,"i_lat":-6.198556},{"time":4,"transit":true,"i_lat":-6.209883,"line":2,"is_transit":true,"station_name":"Manggarai","station_id":"MRI","distance":1590,"i_long":106.84912},{"transit":false,"station_id":"SUD","station_name":"Sudirman","i_lat":-6.202263,"distance":3186,"is_transit":false,"line":1,"time":4,"i_long":106.822649},{"i_lat":-6.201433,"station_name":"Sudirman Baru","station_id":"SUDB","is_transit":false,"distance":280,"line":1,"transit":false,"time":1,"i_long":106.819881},{"i_long":106.816351,"transit":false,"station_name":"Karet","time":1,"line":1,"station_id":"KAT","is_transit":false,"i_lat":-6.20132,"distance":471},{"distance":2029,"station_id":"THB","i_lat":-6.185545,"time":5,"station_name":"Tanah Abang","is_transit":true,"transit":true,"i_long":106.811091,"line":1},{"transit":false,"distance":3191,"time":6,"station_name":"Palmerah","line":6,"is_transit":false,"station_id":"PLM","i_lat":-6.207404,"i_long":106.79689},{"i_long":106.780334,"line":6,"transit":false,"station_id":"KBY","station_name":"Kebayoran","distance":3737,"time":7,"is_transit":false,"i_lat":-6.237242},{"transit":false,"i_long":106.74273,"station_id":"PDJ","station_name":"Pondokranji","is_transit":false,"distance":6218,"time":8,"i_lat":-6.276362,"line":6},{"station_id":"JMU","is_transit":false,"time":3,"i_long":106.728916,"transit":false,"station_name":"Jurangmangu","distance":2179,"line":6,"i_lat":-6.288927},{"line":6,"time":4,"distance":1994,"i_lat":-6.296963,"i_long":106.712277,"transit":false,"is_transit":false,"station_id":"SDM","station_name":"Sudimara"},{"station_id":"RU","line":6,"time":6,"distance":4566,"is_transit":false,"i_lat":-6.314823,"transit":false,"i_long":106.675475,"station_name":"Rawa Buntu"},{"station_name":"Serpong","i_long":106.66566,"i_lat":-6.319871,"line":6,"is_transit":false,"transit":false,"station_id":"SRP","distance":2413,"time":4},{"distance":1784,"line":3,"i_lat":-6.32484,"time":4,"transit":false,"station_id":"CSK","is_transit":false,"i_long":106.640411,"station_name":"Cisauk"}]]}