{"data":[[{"i_long":106.899548,"transit":false,"distance":0,"i_lat":-6.2135,"is_transit":false,"station_id":"KLD","station_name":"Klender","line":1,"time":0},{"station_id":"JNG","transit":false,"distance":3395,"is_transit":false,"i_lat":-6.215091,"station_name":"Jatinegara","time":3,"line":1,"i_long":106.86807400000001},{"time":2,"is_transit":false,"line":1,"station_name":"Matraman","i_long":106.858896,"station_id":"MTR","distance":1377,"i_lat":-6.212485,"transit":false},{"i_long":106.84912,"distance":1275,"transit":false,"station_id":"MRI","time":2,"i_lat":-6.209883,"line":2,"station_name":"Manggarai","is_transit":false},{"transit":false,"i_lat":-6.202263,"time":4,"i_long":106.822649,"station_name":"Sudirman","distance":3186,"is_transit":false,"line":1,"station_id":"SUD"},{"i_long":106.819881,"line":1,"station_name":"Sudirman Baru","station_id":"SUDB","i_lat":-6.201433,"distance":280,"transit":false,"time":1,"is_transit":false},{"distance":471,"station_name":"Karet","transit":false,"i_long":106.816351,"station_id":"KAT","time":1,"i_lat":-6.20132,"line":1,"is_transit":false},{"station_id":"THB","time":5,"distance":2029,"transit":false,"i_lat":-6.185545,"station_name":"Tanah Abang","is_transit":false,"i_long":106.811091,"line":1},{"i_lat":-6.155215,"line":1,"i_long":106.800832,"is_transit":true,"station_id":"DU","station_name":"Duri","distance":3632,"transit":true,"time":8},{"i_lat":-6.162021,"line":5,"transit":false,"time":3,"distance":1700,"station_id":"GGL","station_name":"Grogol","is_transit":false,"i_long":106.788277},{"distance":2036,"station_name":"Pesing","time":2,"i_long":106.771379,"station_id":"PSG","i_lat":-6.161433,"line":5,"transit":false,"is_transit":false},{"station_name":"Taman Kota","i_long":106.756522,"distance":1614,"i_lat":-6.1587309999999995,"line":5,"station_id":"TKO","transit":false,"time":2,"is_transit":false},{"is_transit":false,"i_long":106.737035,"station_id":"BOI","line":5,"station_name":"Bojongindah","i_lat":-6.159876,"distance":2334,"transit":false,"time":2},{"i_long":106.723064,"transit":false,"line":5,"station_id":"RW","time":4,"is_transit":false,"station_name":"Rawa Buaya","distance":1152,"i_lat":-6.162758},{"i_long":106.701612,"distance":2504,"is_transit":false,"station_id":"KDS","station_name":"Kalideres","transit":false,"i_lat":-6.166068,"line":5,"time":3},{"station_id":"PI","i_long":106.679458,"line":5,"distance":2548,"i_lat":-6.169933,"time":3,"station_name":"Poris","transit":false,"is_transit":false},{"time":3,"i_lat":-6.171811,"is_transit":false,"i_long":106.665036,"distance":1834,"station_name":"Batuceper","transit":false,"line":5,"station_id":"BPR"}],[{"i_long":106.899548,"line":1,"distance":0,"station_name":"Klender","transit":false,"i_lat":-6.2135,"time":0,"is_transit":false,"station_id":"KLD"},{"time":3,"is_transit":true,"i_lat":-6.215091,"station_name":"Jatinegara","station_id":"JNG","line":1,"i_long":106.86807400000001,"distance":3395,"transit":true},{"is_transit":false,"time":2,"distance":1236,"line":11,"i_long":106.861737,"i_lat":-6.209188,"transit":false,"station_name":"Pondok Jati","station_id":"POK"},{"is_transit":false,"station_id":"KMT","station_name":"Kramat","transit":false,"distance":1829,"line":11,"time":2,"i_lat":-6.193792,"i_long":106.855437},{"time":1,"station_id":"GST","is_transit":false,"station_name":"Gang Sentiong","transit":false,"distance":973,"i_long":106.850107,"i_lat":-6.185975,"line":11},{"is_transit":false,"station_id":"PSE","time":8,"line":11,"i_lat":-6.174784,"i_long":106.84368,"station_name":"Pasar Senen","distance":1567,"transit":false},{"line":11,"distance":1436,"station_id":"KMO","transit":false,"i_long":106.839204,"is_transit":false,"time":4,"station_name":"Kemayoran","i_lat":-6.161728},{"distance":1901,"line":11,"time":5,"is_transit":false,"i_lat":-6.14505,"i_long":106.836569,"station_id":"RJW","station_name":"Rajawali","transit":false},{"i_lat":-6.132549,"line":4,"time":3,"i_long":106.826365,"station_name":"Kampung Bandan","is_transit":true,"station_id":"KPB","distance":1444,"transit":true},{"line":1,"transit":false,"is_transit":false,"station_id":"AK","i_lat":-6.144674,"station_name":"Angke","distance":4102,"i_long":106.79867,"time":9},{"is_transit":true,"station_id":"DU","station_name":"Duri","line":1,"time":4,"distance":1230,"i_lat":-6.155215,"i_long":106.800832,"transit":true},{"station_id":"GGL","time":3,"line":5,"i_lat":-6.162021,"distance":1700,"transit":false,"is_transit":false,"i_long":106.788277,"station_name":"Grogol"},{"line":5,"is_transit":false,"i_lat":-6.161433,"transit":false,"station_name":"Pesing","time":2,"distance":2036,"station_id":"PSG","i_long":106.771379},{"line":5,"station_id":"TKO","i_long":106.756522,"distance":1614,"transit":false,"time":2,"is_transit":false,"station_name":"Taman Kota","i_lat":-6.1587309999999995},{"distance":2334,"i_lat":-6.159876,"station_id":"BOI","time":2,"is_transit":false,"transit":false,"line":5,"i_long":106.737035,"station_name":"Bojongindah"},{"distance":1152,"transit":false,"station_id":"RW","i_lat":-6.162758,"i_long":106.723064,"line":5,"station_name":"Rawa Buaya","time":4,"is_transit":false},{"is_transit":false,"i_lat":-6.166068,"i_long":106.701612,"station_id":"KDS","line":5,"distance":2504,"transit":false,"station_name":"Kalideres","time":3},{"station_name":"Poris","i_lat":-6.169933,"i_long":106.679458,"station_id":"PI","distance":2548,"transit":false,"time":3,"is_transit":false,"line":5},{"i_long":106.665036,"is_transit":false,"transit":false,"distance":1834,"i_lat":-6.171811,"station_name":"Batuceper","line":5,"station_id":"BPR","time":3}],[{"station_id":"KLD","transit":false,"is_transit":false,"line":1,"i_lat":-6.2135,"distance":0,"station_name":"Klender","i_long":106.899548,"time":0},{"i_long":106.86807400000001,"station_id":"JNG","distance":3395,"time":3,"is_transit":false,"line":1,"transit":false,"i_lat":-6.215091,"station_name":"Jatinegara"},{"i_long":106.858896,"i_lat":-6.212485,"line":1,"time":2,"station_id":"MTR","is_transit":false,"station_name":"Matraman","distance":1377,"transit":false},{"station_name":"Manggarai","distance":1275,"i_lat":-6.209883,"transit":true,"time":2,"is_transit":true,"station_id":"MRI","i_long":106.84912,"line":2},{"i_lat":-6.198556,"transit":false,"station_name":"Cikini","time":4,"line":2,"station_id":"CKI","is_transit":false,"distance":1590,"i_long":106.840169},{"distance":1750,"i_long":106.832183,"time":3,"line":2,"is_transit":false,"i_lat":-6.186295,"station_id":"GDD","station_name":"Gondangdia","transit":false},{"distance":2015,"station_name":"Juanda","transit":false,"time":4,"station_id":"JUA","is_transit":false,"i_long":106.828284,"i_lat":-6.166716,"line":2},{"transit":false,"distance":1149,"i_lat":-6.160725,"line":2,"i_long":106.827103,"station_id":"SW","station_name":"Sawah Besar","time":2,"is_transit":false},{"distance":906,"station_id":"MGB","is_transit":false,"i_long":106.82482,"i_lat":-6.149769,"station_name":"Manggabesar","transit":false,"line":2,"time":2},{"transit":false,"distance":1080,"station_name":"Jayakarta","line":2,"time":2,"i_lat":-6.141205,"station_id":"JAY","is_transit":false,"i_long":106.820901},{"distance":1264,"transit":true,"station_name":"Jakarta Kota","time":4,"is_transit":true,"i_lat":-6.137569,"i_long":106.812439,"line":2,"station_id":"JAKK"},{"distance":1364,"transit":true,"is_transit":true,"station_name":"Kampung Bandan","i_lat":-6.132549,"line":4,"station_id":"KPB","time":3,"i_long":106.826365},{"line":1,"transit":false,"distance":4102,"station_name":"Angke","time":9,"is_transit":false,"station_id":"AK","i_lat":-6.144674,"i_long":106.79867},{"is_transit":true,"station_id":"DU","transit":true,"station_name":"Duri","line":1,"time":4,"i_lat":-6.155215,"distance":1230,"i_long":106.800832},{"i_long":106.788277,"station_id":"GGL","time":3,"i_lat":-6.162021,"distance":1700,"station_name":"Grogol","transit":false,"is_transit":false,"line":5},{"line":5,"is_transit":false,"station_id":"PSG","i_long":106.771379,"station_name":"Pesing","time":2,"distance":2036,"i_lat":-6.161433,"transit":false},{"station_id":"TKO","station_name":"Taman Kota","time":2,"distance":1614,"transit":false,"i_long":106.756522,"line":5,"i_lat":-6.1587309999999995,"is_transit":false},{"i_long":106.737035,"i_lat":-6.159876,"transit":false,"station_id":"BOI","distance":2334,"station_name":"Bojongindah","time":2,"is_transit":false,"line":5},{"station_name":"Rawa Buaya","i_lat":-6.162758,"i_long":106.723064,"station_id":"RW","transit":false,"is_transit":false,"time":4,"line":5,"distance":1152},{"transit":false,"station_id":"KDS","i_lat":-6.166068,"time":3,"i_long":106.701612,"is_transit":false,"station_name":"Kalideres","distance":2504,"line":5},{"station_name":"Poris","is_transit":false,"station_id":"PI","i_lat":-6.169933,"i_long":106.679458,"line":5,"distance":2548,"time":3,"transit":false},{"station_name":"Batuceper","i_lat":-6.171811,"time":3,"is_transit":false,"line":5,"i_long":106.665036,"transit":false,"distance":1834,"station_id":"BPR"}],[{"station_id":"KLD","station_name":"Klender","i_long":106.899548,"line":1,"transit":false,"time":0,"i_lat":-6.2135,"distance":0,"is_transit":false},{"station_name":"Jatinegara","i_lat":-6.215091,"is_transit":true,"distance":3395,"i_long":106.86807400000001,"line":1,"time":3,"station_id":"JNG","transit":true},{"i_long":106.861737,"line":11,"station_id":"POK","transit":false,"distance":1236,"station_name":"Pondok Jati","time":2,"i_lat":-6.209188,"is_transit":false},{"line":11,"i_lat":-6.193792,"station_name":"Kramat","distance":1829,"transit":false,"i_long":106.855437,"is_transit":false,"station_id":"KMT","time":2},{"i_lat":-6.185975,"transit":false,"i_long":106.850107,"line":11,"distance":973,"station_name":"Gang Sentiong","station_id":"GST","time":1,"is_transit":false},{"station_name":"Pasar Senen","transit":false,"distance":1567,"time":8,"i_long":106.84368,"station_id":"PSE","i_lat":-6.174784,"line":11,"is_transit":false},{"transit":false,"station_id":"KMO","station_name":"Kemayoran","line":11,"time":4,"is_transit":false,"i_lat":-6.161728,"distance":1436,"i_long":106.839204},{"station_name":"Rajawali","time":5,"i_lat":-6.14505,"i_long":106.836569,"station_id":"RJW","distance":1901,"line":11,"is_transit":false,"transit":false},{"line":4,"distance":1444,"station_id":"KPB","is_transit":true,"time":3,"i_long":106.826365,"i_lat":-6.132549,"station_name":"Kampung Bandan","transit":true},{"station_name":"Jakarta Kota","time":3,"i_lat":-6.137569,"distance":1364,"station_id":"JAKK","i_long":106.812439,"is_transit":true,"transit":true,"line":2},{"station_name":"Jayakarta","distance":1264,"i_lat":-6.141205,"station_id":"JAY","transit":false,"i_long":106.820901,"is_transit":false,"line":2,"time":4},{"distance":1080,"station_name":"Manggabesar","is_transit":false,"i_long":106.82482,"time":2,"line":2,"transit":false,"station_id":"MGB","i_lat":-6.149769},{"line":2,"time":2,"station_id":"SW","i_long":106.827103,"i_lat":-6.160725,"is_transit":false,"transit":false,"distance":906,"station_name":"Sawah Besar"},{"station_name":"Juanda","i_lat":-6.166716,"transit":false,"station_id":"JUA","line":2,"distance":1149,"is_transit":false,"time":2,"i_long":106.828284},{"station_name":"Gondangdia","transit":false,"line":2,"station_id":"GDD","i_lat":-6.186295,"distance":2015,"time":4,"i_long":106.832183,"is_transit":false},{"distance":1750,"is_transit":false,"i_lat":-6.198556,"station_id":"CKI","transit":false,"i_long":106.840169,"time":3,"station_name":"Cikini","line":2},{"line":2,"distance":1590,"time":4,"is_transit":true,"transit":true,"i_long":106.84912,"station_id":"MRI","i_lat":-6.209883,"station_name":"Manggarai"},{"transit":false,"distance":3186,"is_transit":false,"station_name":"Sudirman","i_long":106.822649,"i_lat":-6.202263,"line":1,"station_id":"SUD","time":4},{"distance":280,"station_id":"SUDB","time":1,"i_lat":-6.201433,"is_transit":false,"line":1,"transit":false,"station_name":"Sudirman Baru","i_long":106.819881},{"station_id":"KAT","is_transit":false,"distance":471,"station_name":"Karet","i_lat":-6.20132,"transit":false,"i_long":106.816351,"time":1,"line":1},{"station_id":"THB","i_lat":-6.185545,"transit":false,"time":5,"is_transit":false,"distance":2029,"i_long":106.811091,"line":1,"station_name":"Tanah Abang"},{"transit":true,"time":8,"station_id":"DU","distance":3632,"i_long":106.800832,"station_name":"Duri","i_lat":-6.155215,"is_transit":true,"line":1},{"station_id":"GGL","is_transit":false,"i_long":106.788277,"distance":1700,"transit":false,"i_lat":-6.162021,"line":5,"time":3,"station_name":"Grogol"},{"time":2,"station_name":"Pesing","is_transit":false,"distance":2036,"station_id":"PSG","line":5,"transit":false,"i_lat":-6.161433,"i_long":106.771379},{"station_id":"TKO","distance":1614,"i_lat":-6.1587309999999995,"transit":false,"line":5,"station_name":"Taman Kota","is_transit":false,"time":2,"i_long":106.756522},{"transit":false,"i_lat":-6.159876,"i_long":106.737035,"line":5,"station_id":"BOI","is_transit":false,"distance":2334,"station_name":"Bojongindah","time":2},{"distance":1152,"line":5,"is_transit":false,"station_name":"Rawa Buaya","i_long":106.723064,"time":4,"i_lat":-6.162758,"station_id":"RW","transit":false},{"station_name":"Kalideres","time":3,"distance":2504,"is_transit":false,"transit":false,"line":5,"i_lat":-6.166068,"i_long":106.701612,"station_id":"KDS"},{"i_lat":-6.169933,"distance":2548,"station_id":"PI","station_name":"Poris","i_long":106.679458,"line":5,"transit":false,"is_transit":false,"time":3},{"station_id":"BPR","line":5,"station_name":"Batuceper","time":3,"distance":1834,"transit":false,"i_long":106.665036,"is_transit":false,"i_lat":-6.171811}]]}