{"data":[[{"time":0,"station_name":"Klender","transit":false,"i_long":106.899548,"is_transit":false,"line":1,"distance":0,"i_lat":-6.2135,"station_id":"KLD"},{"time":3,"i_long":106.86807400000001,"is_transit":true,"line":0,"transit":false,"i_lat":-6.215091,"station_id":"JNG","station_name":"Jatinegara","distance":3395},{"transit":false,"line":1,"i_lat":-6.212485,"distance":1377,"i_long":106.858896,"station_id":"MTR","is_transit":false,"station_name":"Matraman","time":2},{"station_id":"MRI","i_long":106.84912,"distance":1275,"i_lat":-6.209883,"line":0,"time":2,"is_transit":true,"transit":false,"station_name":"Manggarai"},{"station_name":"Sudirman","i_long":106.822649,"distance":3186,"time":4,"is_transit":false,"station_id":"SUD","transit":false,"i_lat":-6.202263,"line":1},{"i_long":106.819881,"line":1,"station_name":"Sudirman Baru","is_transit":false,"i_lat":-6.201433,"time":1,"station_id":"SUDB","distance":280,"transit":false}],[{"time":0,"transit":false,"line":1,"distance":0,"station_name":"Klender","i_long":106.899548,"is_transit":false,"station_id":"KLD","i_lat":-6.2135},{"is_transit":true,"station_id":"JNG","distance":3395,"station_name":"Jatinegara","i_lat":-6.215091,"time":3,"transit":true,"i_long":106.86807400000001,"line":0},{"line":11,"is_transit":false,"time":2,"i_long":106.861737,"station_id":"POK","station_name":"Pondok Jati","i_lat":-6.209188,"transit":false,"distance":1236},{"station_name":"Kramat","i_long":106.855437,"distance":1829,"is_transit":false,"station_id":"KMT","time":2,"line":11,"transit":false,"i_lat":-6.193792},{"transit":false,"distance":973,"station_name":"Gang Sentiong","i_lat":-6.185975,"i_long":106.850107,"line":11,"is_transit":false,"station_id":"GST","time":1},{"is_transit":false,"station_id":"PSE","station_name":"Pasar Senen","transit":false,"distance":1567,"i_long":106.84368,"time":8,"i_lat":-6.174784,"line":11},{"i_long":106.839204,"time":4,"i_lat":-6.161728,"is_transit":false,"line":11,"station_id":"KMO","distance":1436,"transit":false,"station_name":"Kemayoran"},{"is_transit":false,"station_name":"Rajawali","i_long":106.836569,"time":5,"distance":1901,"station_id":"RJW","i_lat":-6.14505,"line":11,"transit":false},{"i_lat":-6.132549,"time":3,"distance":1444,"station_name":"Kampung Bandan","i_long":106.826365,"is_transit":true,"transit":true,"line":0,"station_id":"KPB"},{"i_long":106.79867,"station_id":"AK","time":9,"line":0,"transit":false,"distance":4102,"is_transit":false,"station_name":"Angke","i_lat":-6.144674},{"transit":true,"i_long":106.800832,"station_name":"Duri","i_lat":-6.155215,"time":4,"is_transit":true,"station_id":"DU","distance":1230,"line":1},{"transit":false,"distance":3632,"i_lat":-6.185545,"line":1,"station_name":"Tanah Abang","time":8,"i_long":106.811091,"station_id":"THB","is_transit":true},{"i_long":106.816351,"transit":false,"station_id":"KAT","is_transit":false,"station_name":"Karet","i_lat":-6.20132,"line":1,"time":5,"distance":2029},{"i_long":106.819881,"station_id":"SUDB","i_lat":-6.201433,"station_name":"Sudirman Baru","is_transit":false,"line":1,"time":1,"transit":false,"distance":471}],[{"station_id":"KLD","line":1,"is_transit":false,"distance":0,"i_long":106.899548,"transit":false,"time":0,"i_lat":-6.2135,"station_name":"Klender"},{"distance":3395,"station_id":"JNG","transit":false,"line":0,"station_name":"Jatinegara","i_lat":-6.215091,"is_transit":true,"time":3,"i_long":106.86807400000001},{"is_transit":false,"distance":1377,"time":2,"station_name":"Matraman","transit":false,"i_lat":-6.212485,"station_id":"MTR","i_long":106.858896,"line":1},{"is_transit":true,"i_long":106.84912,"i_lat":-6.209883,"line":0,"time":2,"station_id":"MRI","transit":true,"distance":1275,"station_name":"Manggarai"},{"line":0,"distance":1590,"i_long":106.840169,"is_transit":false,"time":4,"station_id":"CKI","station_name":"Cikini","i_lat":-6.198556,"transit":false},{"line":2,"i_lat":-6.186295,"station_id":"GDD","transit":false,"i_long":106.832183,"distance":1750,"station_name":"Gondangdia","time":3,"is_transit":false},{"line":2,"station_id":"JUA","is_transit":false,"distance":2015,"i_lat":-6.166716,"transit":false,"time":4,"station_name":"Juanda","i_long":106.828284},{"station_name":"Sawah Besar","transit":false,"is_transit":false,"line":2,"distance":1149,"i_long":106.827103,"i_lat":-6.160725,"station_id":"SW","time":2},{"station_id":"MGB","transit":false,"i_long":106.82482,"i_lat":-6.149769,"station_name":"Manggabesar","time":2,"line":2,"distance":906,"is_transit":false},{"i_long":106.820901,"line":7,"station_id":"JAY","distance":1080,"station_name":"Jayakarta","i_lat":-6.141205,"time":2,"transit":false,"is_transit":false},{"station_id":"JAKK","transit":true,"distance":1264,"station_name":"Jakarta Kota","i_long":106.812439,"i_lat":-6.137569,"line":0,"is_transit":true,"time":4},{"line":0,"i_lat":-6.132549,"i_long":106.826365,"time":3,"transit":false,"distance":1364,"station_id":"KPB","station_name":"Kampung Bandan","is_transit":true},{"station_id":"AK","i_lat":-6.144674,"i_long":106.79867,"is_transit":false,"time":9,"transit":false,"distance":4102,"station_name":"Angke","line":0},{"station_name":"Duri","i_long":106.800832,"line":1,"distance":1230,"i_lat":-6.155215,"is_transit":true,"station_id":"DU","transit":true,"time":4},{"is_transit":true,"transit":false,"station_name":"Tanah Abang","i_long":106.811091,"i_lat":-6.185545,"distance":3632,"line":1,"station_id":"THB","time":8},{"i_long":106.816351,"is_transit":false,"station_id":"KAT","time":5,"line":1,"distance":2029,"transit":false,"i_lat":-6.20132,"station_name":"Karet"},{"station_name":"Sudirman Baru","transit":false,"i_long":106.819881,"is_transit":false,"distance":471,"time":1,"station_id":"SUDB","i_lat":-6.201433,"line":1}],[{"time":0,"line":1,"station_id":"KLD","is_transit":false,"distance":0,"station_name":"Klender","i_lat":-6.2135,"i_long":106.899548,"transit":false},{"distance":3395,"transit":true,"line":0,"station_id":"JNG","station_name":"Jatinegara","time":3,"i_long":106.86807400000001,"is_transit":true,"i_lat":-6.215091},{"station_id":"POK","is_transit":false,"transit":false,"time":2,"i_long":106.861737,"station_name":"Pondok Jati","distance":1236,"i_lat":-6.209188,"line":11},{"line":11,"is_transit":false,"station_id":"KMT","distance":1829,"time":2,"transit":false,"station_name":"Kramat","i_lat":-6.193792,"i_long":106.855437},{"i_lat":-6.185975,"transit":false,"station_id":"GST","is_transit":false,"distance":973,"time":1,"line":11,"station_name":"Gang Sentiong","i_long":106.850107},{"i_long":106.84368,"station_name":"Pasar Senen","line":11,"time":8,"i_lat":-6.174784,"is_transit":false,"station_id":"PSE","distance":1567,"transit":false},{"is_transit":false,"time":4,"i_long":106.839204,"transit":false,"distance":1436,"station_id":"KMO","station_name":"Kemayoran","i_lat":-6.161728,"line":11},{"station_name":"Rajawali","distance":1901,"line":11,"is_transit":false,"station_id":"RJW","i_long":106.836569,"transit":false,"i_lat":-6.14505,"time":5},{"is_transit":true,"station_id":"KPB","station_name":"Kampung Bandan","i_long":106.826365,"transit":true,"line":0,"distance":1444,"time":3,"i_lat":-6.132549},{"is_transit":true,"station_name":"Jakarta Kota","i_lat":-6.137569,"i_long":106.812439,"line":0,"time":3,"station_id":"JAKK","transit":true,"distance":1364},{"station_name":"Jayakarta","time":4,"line":7,"i_lat":-6.141205,"i_long":106.820901,"is_transit":false,"station_id":"JAY","transit":false,"distance":1264},{"is_transit":false,"station_id":"MGB","line":2,"station_name":"Manggabesar","i_long":106.82482,"time":2,"transit":false,"i_lat":-6.149769,"distance":1080},{"distance":906,"i_long":106.827103,"transit":false,"line":2,"i_lat":-6.160725,"station_id":"SW","station_name":"Sawah Besar","is_transit":false,"time":2},{"is_transit":false,"time":2,"i_lat":-6.166716,"distance":1149,"line":2,"station_id":"JUA","station_name":"Juanda","transit":false,"i_long":106.828284},{"transit":false,"i_long":106.832183,"is_transit":false,"station_name":"Gondangdia","station_id":"GDD","i_lat":-6.186295,"line":2,"time":4,"distance":2015},{"distance":1750,"time":3,"station_id":"CKI","i_long":106.840169,"transit":false,"i_lat":-6.198556,"is_transit":false,"line":0,"station_name":"Cikini"},{"transit":true,"distance":1590,"station_name":"Manggarai","line":0,"station_id":"MRI","time":4,"i_long":106.84912,"i_lat":-6.209883,"is_transit":true},{"i_lat":-6.202263,"i_long":106.822649,"transit":false,"station_id":"SUD","time":4,"distance":3186,"line":1,"station_name":"Sudirman","is_transit":false},{"distance":280,"is_transit":false,"time":1,"i_lat":-6.201433,"station_name":"Sudirman Baru","transit":false,"line":1,"station_id":"SUDB","i_long":106.819881}]]}