{"data":[[{"station_id":"KLD","i_lat":-6.2135,"i_long":106.899548,"station_name":"Klender","time":0,"distance":0,"is_transit":false,"line":1,"transit":false},{"station_name":"Jatinegara","transit":false,"i_lat":-6.215091,"i_long":106.86807400000001,"is_transit":false,"distance":3395,"time":3,"line":1,"station_id":"JNG"},{"station_id":"MTR","time":2,"station_name":"Matraman","is_transit":false,"transit":false,"i_lat":-6.212485,"line":1,"distance":1377,"i_long":106.858896},{"time":2,"station_name":"Manggarai","i_lat":-6.209883,"is_transit":false,"line":2,"station_id":"MRI","i_long":106.84912,"distance":1275,"transit":false},{"distance":3186,"transit":false,"line":1,"is_transit":false,"station_name":"Sudirman","time":4,"station_id":"SUD","i_long":106.822649,"i_lat":-6.202263},{"station_name":"Sudirman Baru","i_lat":-6.201433,"distance":280,"time":1,"is_transit":false,"transit":false,"station_id":"SUDB","i_long":106.819881,"line":1},{"line":1,"transit":false,"is_transit":false,"distance":471,"station_id":"KAT","i_lat":-6.20132,"i_long":106.816351,"station_name":"Karet","time":1},{"distance":2029,"is_transit":false,"i_lat":-6.185545,"i_long":106.811091,"station_id":"THB","line":1,"time":5,"transit":false,"station_name":"Tanah Abang"},{"is_transit":true,"distance":3632,"station_id":"DU","station_name":"Duri","transit":true,"i_lat":-6.155215,"i_long":106.800832,"time":8,"line":1},{"distance":1700,"time":3,"i_long":106.788277,"is_transit":false,"i_lat":-6.162021,"line":5,"transit":false,"station_name":"Grogol","station_id":"GRG"}],[{"i_long":106.899548,"station_name":"Klender","distance":0,"station_id":"KLD","is_transit":false,"line":1,"time":0,"i_lat":-6.2135,"transit":false},{"distance":3395,"station_id":"JNG","station_name":"Jatinegara","transit":true,"line":1,"time":3,"is_transit":true,"i_lat":-6.215091,"i_long":106.86807400000001},{"line":11,"station_name":"Pondok Jati","is_transit":false,"i_long":106.861737,"i_lat":-6.209188,"time":2,"distance":1236,"station_id":"POK","transit":false},{"transit":false,"i_lat":-6.193792,"station_name":"Kramat","distance":1829,"station_id":"KMT","time":2,"is_transit":false,"line":11,"i_long":106.855437},{"station_id":"GST","transit":false,"is_transit":false,"i_long":106.850107,"i_lat":-6.185975,"line":11,"time":1,"distance":973,"station_name":"Gang Sentiong"},{"distance":1567,"time":8,"transit":false,"station_id":"PSE","i_lat":-6.174784,"station_name":"Pasar Senen","is_transit":false,"line":11,"i_long":106.84368},{"i_lat":-6.161728,"station_id":"KMO","transit":false,"i_long":106.839204,"line":11,"time":4,"distance":1436,"station_name":"Kemayoran","is_transit":false},{"station_name":"Rajawali","distance":1901,"transit":false,"is_transit":false,"i_lat":-6.14505,"time":5,"station_id":"RJW","i_long":106.836569,"line":11},{"distance":1444,"i_long":106.826365,"transit":true,"time":3,"i_lat":-6.132549,"is_transit":true,"station_name":"Kampung Bandan","line":4,"station_id":"KPB"},{"station_id":"AK","i_long":106.79867,"station_name":"Angke","time":9,"transit":false,"distance":4102,"line":1,"is_transit":false,"i_lat":-6.144674},{"line":1,"station_id":"DU","i_lat":-6.155215,"station_name":"Duri","transit":true,"is_transit":true,"i_long":106.800832,"time":4,"distance":1230},{"transit":false,"i_lat":-6.162021,"i_long":106.788277,"line":5,"distance":1700,"station_name":"Grogol","time":3,"is_transit":false,"station_id":"GRG"}],[{"time":0,"distance":0,"i_lat":-6.2135,"line":1,"station_name":"Klender","station_id":"KLD","is_transit":false,"transit":false,"i_long":106.899548},{"distance":3395,"time":3,"station_id":"JNG","i_lat":-6.215091,"station_name":"Jatinegara","is_transit":false,"i_long":106.86807400000001,"transit":false,"line":1},{"station_id":"MTR","time":2,"distance":1377,"station_name":"Matraman","line":1,"is_transit":false,"i_long":106.858896,"i_lat":-6.212485,"transit":false},{"i_long":106.84912,"is_transit":true,"transit":true,"time":2,"line":2,"station_id":"MRI","station_name":"Manggarai","distance":1275,"i_lat":-6.209883},{"station_id":"CKI","time":4,"station_name":"Cikini","distance":1590,"line":2,"is_transit":false,"i_lat":-6.198556,"transit":false,"i_long":106.840169},{"i_lat":-6.186295,"line":2,"i_long":106.832183,"distance":1750,"station_name":"Gondangdia","station_id":"GDD","is_transit":false,"time":3,"transit":false},{"i_long":106.828284,"station_id":"JUA","is_transit":false,"station_name":"Juanda","distance":2015,"time":4,"line":2,"i_lat":-6.166716,"transit":false},{"line":2,"time":2,"station_id":"SW","distance":1149,"is_transit":false,"i_lat":-6.160725,"station_name":"Sawah Besar","i_long":106.827103,"transit":false},{"station_name":"Manggabesar","is_transit":false,"transit":false,"distance":906,"i_lat":-6.149769,"i_long":106.82482,"time":2,"line":2,"station_id":"MGB"},{"distance":1080,"is_transit":false,"transit":false,"i_long":106.820901,"time":2,"station_name":"Jayakarta","i_lat":-6.141205,"line":2,"station_id":"JAY"},{"is_transit":true,"line":2,"transit":true,"i_long":106.812439,"time":4,"i_lat":-6.137569,"distance":1264,"station_id":"JAKK","station_name":"Jakarta Kota"},{"transit":true,"station_id":"KPB","station_name":"Kampung Bandan","is_transit":true,"i_lat":-6.132549,"time":3,"i_long":106.826365,"line":4,"distance":1364},{"time":9,"line":1,"station_name":"Angke","i_long":106.79867,"is_transit":false,"station_id":"AK","distance":4102,"transit":false,"i_lat":-6.144674},{"station_id":"DU","transit":true,"distance":1230,"is_transit":true,"i_long":106.800832,"station_name":"Duri","line":1,"i_lat":-6.155215,"time":4},{"i_lat":-6.162021,"distance":1700,"time":3,"line":5,"transit":false,"is_transit":false,"station_name":"Grogol","i_long":106.788277,"station_id":"GRG"}],[{"distance":0,"station_id":"KLD","line":1,"station_name":"Klender","transit":false,"i_long":106.899548,"is_transit":false,"i_lat":-6.2135,"time":0},{"transit":true,"station_id":"JNG","station_name":"Jatinegara","is_transit":true,"distance":3395,"i_lat":-6.215091,"time":3,"i_long":106.86807400000001,"line":1},{"time":2,"station_id":"POK","distance":1236,"is_transit":false,"station_name":"Pondok Jati","i_long":106.861737,"i_lat":-6.209188,"line":11,"transit":false},{"i_long":106.855437,"line":11,"transit":false,"time":2,"station_name":"Kramat","is_transit":false,"distance":1829,"station_id":"KMT","i_lat":-6.193792},{"i_lat":-6.185975,"station_id":"GST","distance":973,"transit":false,"time":1,"i_long":106.850107,"line":11,"station_name":"Gang Sentiong","is_transit":false},{"station_id":"PSE","distance":1567,"transit":false,"i_lat":-6.174784,"is_transit":false,"i_long":106.84368,"line":11,"time":8,"station_name":"Pasar Senen"},{"is_transit":false,"i_long":106.839204,"station_name":"Kemayoran","time":4,"distance":1436,"i_lat":-6.161728,"transit":false,"line":11,"station_id":"KMO"},{"line":11,"distance":1901,"transit":false,"station_id":"RJW","station_name":"Rajawali","is_transit":false,"time":5,"i_long":106.836569,"i_lat":-6.14505},{"station_name":"Kampung Bandan","is_transit":true,"station_id":"KPB","i_long":106.826365,"distance":1444,"transit":true,"i_lat":-6.132549,"time":3,"line":4},{"distance":1364,"transit":true,"station_id":"JAKK","line":2,"station_name":"Jakarta Kota","time":3,"i_long":106.812439,"i_lat":-6.137569,"is_transit":true},{"transit":false,"i_long":106.820901,"line":2,"time":4,"station_name":"Jayakarta","station_id":"JAY","i_lat":-6.141205,"distance":1264,"is_transit":false},{"distance":1080,"transit":false,"station_id":"MGB","station_name":"Manggabesar","is_transit":false,"i_long":106.82482,"line":2,"time":2,"i_lat":-6.149769},{"time":2,"station_name":"Sawah Besar","line":2,"transit":false,"is_transit":false,"i_lat":-6.160725,"distance":906,"station_id":"SW","i_long":106.827103},{"i_long":106.828284,"time":2,"station_id":"JUA","i_lat":-6.166716,"distance":1149,"is_transit":false,"line":2,"transit":false,"station_name":"Juanda"},{"transit":false,"i_long":106.832183,"station_id":"GDD","is_transit":false,"i_lat":-6.186295,"distance":2015,"time":4,"line":2,"station_name":"Gondangdia"},{"is_transit":false,"time":3,"station_id":"CKI","station_name":"Cikini","i_long":106.840169,"line":2,"i_lat":-6.198556,"transit":false,"distance":1750},{"time":4,"station_name":"Manggarai","is_transit":true,"station_id":"MRI","transit":true,"i_lat":-6.209883,"distance":1590,"line":2,"i_long":106.84912},{"station_name":"Sudirman","i_long":106.822649,"line":1,"transit":false,"station_id":"SUD","i_lat":-6.202263,"is_transit":false,"time":4,"distance":3186},{"is_transit":false,"line":1,"time":1,"station_name":"Sudirman Baru","transit":false,"station_id":"SUDB","i_lat":-6.201433,"i_long":106.819881,"distance":280},{"distance":471,"is_transit":false,"line":1,"transit":false,"station_name":"Karet","time":1,"station_id":"KAT","i_long":106.816351,"i_lat":-6.20132},{"is_transit":false,"distance":2029,"time":5,"station_name":"Tanah Abang","i_lat":-6.185545,"i_long":106.811091,"station_id":"THB","transit":false,"line":1},{"i_lat":-6.155215,"distance":3632,"is_transit":true,"i_long":106.800832,"transit":true,"station_id":"DU","time":8,"line":1,"station_name":"Duri"},{"i_lat":-6.162021,"is_transit":false,"i_long":106.788277,"transit":false,"time":3,"distance":1700,"station_id":"GRG","line":5,"station_name":"Grogol"}]]}