{"data":[[{"distance":0,"time":0,"i_lat":-6.2135,"transit":false,"i_long":106.899548,"is_transit":false,"line":1,"station_name":"Klender","station_id":"KLD"},{"station_name":"Jatinegara","is_transit":false,"transit":false,"station_id":"JNG","time":3,"distance":3395,"line":1,"i_lat":-6.215091,"i_long":106.86807400000001},{"transit":false,"time":2,"i_lat":-6.212485,"station_id":"MTR","distance":1377,"i_long":106.858896,"is_transit":false,"line":1,"station_name":"Matraman"},{"station_name":"Manggarai","is_transit":false,"i_lat":-6.209883,"line":2,"i_long":106.84912,"station_id":"MRI","time":2,"distance":1275,"transit":false},{"time":4,"i_lat":-6.202263,"distance":3186,"station_name":"Sudirman","is_transit":false,"i_long":106.822649,"transit":false,"station_id":"SUD","line":1},{"is_transit":false,"distance":280,"station_name":"Sudirman Baru","i_lat":-6.201433,"transit":false,"i_long":106.819881,"time":1,"line":1,"station_id":"SUDB"},{"distance":471,"station_id":"KAT","transit":false,"is_transit":false,"i_long":106.816351,"line":1,"time":1,"station_name":"Karet","i_lat":-6.20132},{"i_lat":-6.185545,"i_long":106.811091,"is_transit":true,"time":5,"distance":2029,"station_name":"Tanah Abang","line":1,"station_id":"THB","transit":true},{"is_transit":false,"station_id":"PLM","time":6,"i_lat":-6.207404,"i_long":106.79689,"transit":false,"station_name":"Palmerah","line":6,"distance":3191},{"station_id":"KBY","station_name":"Kebayoran","distance":3737,"line":6,"is_transit":false,"i_lat":-6.237242,"time":7,"i_long":106.780334,"transit":false},{"transit":false,"distance":6218,"station_id":"PDJ","time":8,"station_name":"Pondokranji","is_transit":false,"line":6,"i_lat":-6.276362,"i_long":106.74273},{"i_lat":-6.288927,"i_long":106.728916,"transit":false,"is_transit":false,"distance":2179,"line":6,"time":3,"station_name":"Jurangmangu","station_id":"JMU"},{"is_transit":false,"distance":1994,"station_id":"SDM","i_long":106.712277,"transit":false,"i_lat":-6.296963,"line":6,"time":4,"station_name":"Sudimara"},{"transit":false,"station_id":"RU","i_long":106.675475,"station_name":"Rawa Buntu","distance":4566,"time":6,"i_lat":-6.314823,"line":6,"is_transit":false},{"station_id":"SRP","i_lat":-6.319871,"transit":false,"time":4,"station_name":"Serpong","is_transit":false,"distance":2413,"i_long":106.66566,"line":6},{"line":3,"i_long":106.640411,"transit":false,"time":4,"i_lat":-6.32484,"station_name":"Cisauk","station_id":"CSK","distance":1784,"is_transit":false},{"i_long":106.617853,"transit":false,"i_lat":-6.329547,"line":3,"time":4,"distance":2519,"station_name":"Cicayur","is_transit":false,"station_id":"CC"},{"is_transit":false,"station_name":"Parung Panjang","station_id":"PRP","time":8,"i_long":106.568863,"transit":false,"distance":5968,"i_lat":-6.3441410000000005,"line":6},{"station_name":"Cilejit","line":3,"is_transit":false,"distance":7025,"time":9,"i_long":106.508482,"i_lat":-6.354349,"transit":false,"station_id":"CJT"},{"i_lat":-6.338021,"i_long":106.491338,"time":6,"line":0,"distance":2675,"station_id":"DAR","station_name":"Daru","is_transit":false,"transit":false},{"i_lat":-6.327251,"line":6,"is_transit":false,"i_long":106.460812,"station_id":"TEJ","station_name":"Tenjo","time":5,"transit":false,"distance":3902}],[{"i_lat":-6.2135,"station_id":"KLD","station_name":"Klender","time":0,"line":1,"is_transit":false,"i_long":106.899548,"transit":false,"distance":0},{"station_name":"Jatinegara","is_transit":true,"time":3,"i_lat":-6.215091,"line":1,"transit":true,"i_long":106.86807400000001,"distance":3395,"station_id":"JNG"},{"transit":false,"is_transit":false,"time":2,"distance":1236,"i_lat":-6.209188,"station_id":"POK","i_long":106.861737,"line":11,"station_name":"Pondok Jati"},{"is_transit":false,"transit":false,"distance":1829,"i_long":106.855437,"time":2,"i_lat":-6.193792,"station_id":"KMT","station_name":"Kramat","line":11},{"station_id":"GST","is_transit":false,"line":11,"transit":false,"i_lat":-6.185975,"i_long":106.850107,"station_name":"Gang Sentiong","distance":973,"time":1},{"i_lat":-6.174784,"station_id":"PSE","line":11,"i_long":106.84368,"transit":false,"station_name":"Pasar Senen","is_transit":false,"time":8,"distance":1567},{"time":4,"distance":1436,"transit":false,"station_id":"KMO","is_transit":false,"i_lat":-6.161728,"i_long":106.839204,"station_name":"Kemayoran","line":11},{"distance":1901,"station_name":"Rajawali","is_transit":false,"i_long":106.836569,"station_id":"RJW","transit":false,"line":11,"time":5,"i_lat":-6.14505},{"distance":1444,"station_name":"Kampung Bandan","time":3,"i_lat":-6.132549,"line":4,"transit":true,"station_id":"KPB","is_transit":true,"i_long":106.826365},{"station_id":"AK","i_long":106.79867,"transit":false,"station_name":"Angke","time":9,"distance":4102,"is_transit":false,"line":1,"i_lat":-6.144674},{"station_id":"DU","transit":false,"i_long":106.800832,"station_name":"Duri","distance":1230,"is_transit":false,"i_lat":-6.155215,"time":4,"line":1},{"i_long":106.811091,"transit":true,"distance":3632,"time":8,"station_name":"Tanah Abang","is_transit":true,"line":1,"station_id":"THB","i_lat":-6.185545},{"transit":false,"station_name":"Palmerah","is_transit":false,"station_id":"PLM","i_lat":-6.207404,"i_long":106.79689,"time":6,"distance":3191,"line":6},{"line":6,"time":7,"is_transit":false,"i_lat":-6.237242,"transit":false,"station_id":"KBY","station_name":"Kebayoran","i_long":106.780334,"distance":3737},{"station_id":"PDJ","station_name":"Pondokranji","distance":6218,"i_lat":-6.276362,"i_long":106.74273,"time":8,"line":6,"transit":false,"is_transit":false},{"transit":false,"is_transit":false,"i_lat":-6.288927,"station_id":"JMU","station_name":"Jurangmangu","line":6,"distance":2179,"time":3,"i_long":106.728916},{"line":6,"time":4,"transit":false,"is_transit":false,"distance":1994,"i_lat":-6.296963,"station_name":"Sudimara","i_long":106.712277,"station_id":"SDM"},{"line":6,"station_name":"Rawa Buntu","time":6,"station_id":"RU","is_transit":false,"transit":false,"distance":4566,"i_lat":-6.314823,"i_long":106.675475},{"i_long":106.66566,"station_name":"Serpong","is_transit":false,"time":4,"distance":2413,"station_id":"SRP","i_lat":-6.319871,"line":6,"transit":false},{"distance":1784,"time":4,"i_lat":-6.32484,"transit":false,"i_long":106.640411,"station_id":"CSK","station_name":"Cisauk","line":3,"is_transit":false},{"is_transit":false,"line":3,"transit":false,"time":4,"i_long":106.617853,"station_id":"CC","i_lat":-6.329547,"station_name":"Cicayur","distance":2519},{"i_lat":-6.3441410000000005,"line":6,"i_long":106.568863,"distance":5968,"station_name":"Parung Panjang","station_id":"PRP","time":8,"transit":false,"is_transit":false},{"line":3,"station_name":"Cilejit","station_id":"CJT","distance":7025,"transit":false,"time":9,"is_transit":false,"i_lat":-6.354349,"i_long":106.508482},{"distance":2675,"station_name":"Daru","i_lat":-6.338021,"station_id":"DAR","time":6,"i_long":106.491338,"is_transit":false,"line":0,"transit":false},{"is_transit":false,"station_id":"TEJ","i_long":106.460812,"distance":3902,"transit":false,"line":6,"i_lat":-6.327251,"station_name":"Tenjo","time":5}],[{"distance":0,"is_transit":false,"i_lat":-6.2135,"transit":false,"time":0,"i_long":106.899548,"station_name":"Klender","line":1,"station_id":"KLD"},{"distance":3395,"station_id":"JNG","i_lat":-6.215091,"i_long":106.86807400000001,"line":1,"is_transit":false,"time":3,"transit":false,"station_name":"Jatinegara"},{"station_name":"Matraman","line":1,"i_lat":-6.212485,"transit":false,"time":2,"distance":1377,"is_transit":false,"station_id":"MTR","i_long":106.858896},{"transit":true,"distance":1275,"line":2,"is_transit":true,"station_name":"Manggarai","time":2,"i_lat":-6.209883,"i_long":106.84912,"station_id":"MRI"},{"line":2,"transit":false,"distance":1590,"is_transit":false,"i_lat":-6.198556,"time":4,"station_name":"Cikini","station_id":"CKI","i_long":106.840169},{"distance":1750,"i_lat":-6.186295,"station_id":"GDD","time":3,"is_transit":false,"i_long":106.832183,"line":2,"transit":false,"station_name":"Gondangdia"},{"station_id":"JUA","distance":2015,"line":2,"station_name":"Juanda","time":4,"transit":false,"i_long":106.828284,"i_lat":-6.166716,"is_transit":false},{"time":2,"i_long":106.827103,"line":2,"distance":1149,"i_lat":-6.160725,"station_id":"SW","transit":false,"station_name":"Sawah Besar","is_transit":false},{"transit":false,"distance":906,"i_long":106.82482,"station_id":"MGB","i_lat":-6.149769,"line":2,"is_transit":false,"station_name":"Manggabesar","time":2},{"station_name":"Jayakarta","distance":1080,"i_lat":-6.141205,"is_transit":false,"i_long":106.820901,"line":2,"transit":false,"station_id":"JAY","time":2},{"i_lat":-6.137569,"station_name":"Jakarta Kota","is_transit":true,"transit":true,"line":2,"time":4,"distance":1264,"i_long":106.812439,"station_id":"JAKK"},{"is_transit":true,"i_lat":-6.132549,"station_id":"KPB","i_long":106.826365,"line":4,"transit":true,"station_name":"Kampung Bandan","distance":1364,"time":3},{"i_lat":-6.144674,"station_name":"Angke","line":1,"is_transit":false,"distance":4102,"time":9,"transit":false,"i_long":106.79867,"station_id":"AK"},{"i_lat":-6.155215,"line":1,"is_transit":false,"transit":false,"time":4,"station_name":"Duri","i_long":106.800832,"station_id":"DU","distance":1230},{"i_lat":-6.185545,"transit":true,"time":8,"line":1,"station_name":"Tanah Abang","station_id":"THB","is_transit":true,"distance":3632,"i_long":106.811091},{"distance":3191,"i_long":106.79689,"i_lat":-6.207404,"time":6,"station_name":"Palmerah","station_id":"PLM","is_transit":false,"line":6,"transit":false},{"line":6,"station_id":"KBY","transit":false,"time":7,"distance":3737,"station_name":"Kebayoran","is_transit":false,"i_lat":-6.237242,"i_long":106.780334},{"is_transit":false,"station_id":"PDJ","i_long":106.74273,"station_name":"Pondokranji","transit":false,"distance":6218,"i_lat":-6.276362,"time":8,"line":6},{"i_long":106.728916,"transit":false,"is_transit":false,"distance":2179,"i_lat":-6.288927,"station_name":"Jurangmangu","station_id":"JMU","line":6,"time":3},{"station_name":"Sudimara","line":6,"station_id":"SDM","time":4,"i_lat":-6.296963,"transit":false,"distance":1994,"is_transit":false,"i_long":106.712277},{"is_transit":false,"i_lat":-6.314823,"i_long":106.675475,"transit":false,"station_id":"RU","distance":4566,"station_name":"Rawa Buntu","time":6,"line":6},{"station_id":"SRP","station_name":"Serpong","i_lat":-6.319871,"distance":2413,"line":6,"is_transit":false,"transit":false,"time":4,"i_long":106.66566},{"time":4,"is_transit":false,"line":3,"station_name":"Cisauk","transit":false,"station_id":"CSK","i_long":106.640411,"distance":1784,"i_lat":-6.32484},{"line":3,"time":4,"station_id":"CC","transit":false,"i_long":106.617853,"distance":2519,"is_transit":false,"i_lat":-6.329547,"station_name":"Cicayur"},{"is_transit":false,"station_id":"PRP","transit":false,"distance":5968,"i_long":106.568863,"line":6,"time":8,"station_name":"Parung Panjang","i_lat":-6.3441410000000005},{"time":9,"is_transit":false,"i_long":106.508482,"distance":7025,"line":3,"station_id":"CJT","station_name":"Cilejit","transit":false,"i_lat":-6.354349},{"distance":2675,"is_transit":false,"transit":false,"time":6,"i_lat":-6.338021,"i_long":106.491338,"line":0,"station_name":"Daru","station_id":"DAR"},{"i_long":106.460812,"is_transit":false,"station_name":"Tenjo","station_id":"TEJ","time":5,"i_lat":-6.327251,"line":6,"distance":3902,"transit":false}],[{"station_name":"Klender","time":0,"station_id":"KLD","line":1,"transit":false,"is_transit":false,"i_lat":-6.2135,"i_long":106.899548,"distance":0},{"time":3,"station_name":"Jatinegara","i_lat":-6.215091,"station_id":"JNG","line":1,"i_long":106.86807400000001,"is_transit":true,"transit":true,"distance":3395},{"distance":1236,"i_long":106.861737,"line":11,"station_id":"POK","transit":false,"time":2,"is_transit":false,"i_lat":-6.209188,"station_name":"Pondok Jati"},{"transit":false,"is_transit":false,"i_long":106.855437,"station_name":"Kramat","distance":1829,"line":11,"time":2,"i_lat":-6.193792,"station_id":"KMT"},{"station_name":"Gang Sentiong","i_long":106.850107,"transit":false,"station_id":"GST","distance":973,"line":11,"time":1,"is_transit":false,"i_lat":-6.185975},{"distance":1567,"station_id":"PSE","i_lat":-6.174784,"line":11,"time":8,"transit":false,"station_name":"Pasar Senen","is_transit":false,"i_long":106.84368},{"i_long":106.839204,"line":11,"is_transit":false,"transit":false,"station_id":"KMO","i_lat":-6.161728,"station_name":"Kemayoran","distance":1436,"time":4},{"line":11,"transit":false,"distance":1901,"i_long":106.836569,"station_id":"RJW","i_lat":-6.14505,"is_transit":false,"station_name":"Rajawali","time":5},{"transit":true,"line":4,"i_lat":-6.132549,"i_long":106.826365,"station_name":"Kampung Bandan","distance":1444,"station_id":"KPB","is_transit":true,"time":3},{"i_long":106.812439,"distance":1364,"station_id":"JAKK","line":2,"time":3,"is_transit":true,"transit":true,"i_lat":-6.137569,"station_name":"Jakarta Kota"},{"station_id":"JAY","i_long":106.820901,"station_name":"Jayakarta","is_transit":false,"transit":false,"line":2,"i_lat":-6.141205,"time":4,"distance":1264},{"transit":false,"station_id":"MGB","time":2,"i_lat":-6.149769,"i_long":106.82482,"station_name":"Manggabesar","line":2,"distance":1080,"is_transit":false},{"time":2,"distance":906,"station_name":"Sawah Besar","station_id":"SW","i_lat":-6.160725,"i_long":106.827103,"is_transit":false,"transit":false,"line":2},{"transit":false,"station_name":"Juanda","i_lat":-6.166716,"distance":1149,"i_long":106.828284,"line":2,"time":2,"station_id":"JUA","is_transit":false},{"line":2,"time":4,"transit":false,"i_long":106.832183,"station_id":"GDD","distance":2015,"i_lat":-6.186295,"is_transit":false,"station_name":"Gondangdia"},{"time":3,"is_transit":false,"station_name":"Cikini","transit":false,"station_id":"CKI","distance":1750,"i_lat":-6.198556,"i_long":106.840169,"line":2},{"distance":1590,"time":4,"station_id":"MRI","station_name":"Manggarai","is_transit":true,"i_long":106.84912,"i_lat":-6.209883,"transit":true,"line":2},{"transit":false,"station_id":"SUD","is_transit":false,"i_lat":-6.202263,"i_long":106.822649,"station_name":"Sudirman","distance":3186,"line":1,"time":4},{"station_name":"Sudirman Baru","station_id":"SUDB","distance":280,"i_lat":-6.201433,"i_long":106.819881,"time":1,"line":1,"transit":false,"is_transit":false},{"i_long":106.816351,"distance":471,"i_lat":-6.20132,"time":1,"is_transit":false,"station_id":"KAT","transit":false,"line":1,"station_name":"Karet"},{"i_long":106.811091,"distance":2029,"is_transit":true,"i_lat":-6.185545,"station_id":"THB","station_name":"Tanah Abang","line":1,"transit":true,"time":5},{"time":6,"distance":3191,"i_lat":-6.207404,"transit":false,"station_id":"PLM","is_transit":false,"line":6,"station_name":"Palmerah","i_long":106.79689},{"distance":3737,"transit":false,"line":6,"i_long":106.780334,"is_transit":false,"i_lat":-6.237242,"time":7,"station_name":"Kebayoran","station_id":"KBY"},{"time":8,"station_id":"PDJ","transit":false,"distance":6218,"station_name":"Pondokranji","i_long":106.74273,"i_lat":-6.276362,"line":6,"is_transit":false},{"transit":false,"station_id":"JMU","distance":2179,"time":3,"i_lat":-6.288927,"line":6,"is_transit":false,"station_name":"Jurangmangu","i_long":106.728916},{"i_lat":-6.296963,"station_name":"Sudimara","is_transit":false,"distance":1994,"i_long":106.712277,"time":4,"station_id":"SDM","line":6,"transit":false},{"station_name":"Rawa Buntu","line":6,"i_long":106.675475,"is_transit":false,"distance":4566,"transit":false,"station_id":"RU","i_lat":-6.314823,"time":6},{"station_name":"Serpong","is_transit":false,"station_id":"SRP","time":4,"i_long":106.66566,"transit":false,"line":6,"distance":2413,"i_lat":-6.319871},{"transit":false,"station_id":"CSK","i_lat":-6.32484,"time":4,"line":3,"station_name":"Cisauk","distance":1784,"i_long":106.640411,"is_transit":false},{"line":3,"is_transit":false,"i_long":106.617853,"station_id":"CC","transit":false,"i_lat":-6.329547,"station_name":"Cicayur","time":4,"distance":2519},{"i_long":106.568863,"is_transit":false,"station_id":"PRP","time":8,"station_name":"Parung Panjang","distance":5968,"i_lat":-6.3441410000000005,"line":6,"transit":false},{"transit":false,"time":9,"distance":7025,"i_long":106.508482,"station_id":"CJT","station_name":"Cilejit","i_lat":-6.354349,"is_transit":false,"line":3},{"transit":false,"i_lat":-6.338021,"time":6,"i_long":106.491338,"station_name":"Daru","station_id":"DAR","is_transit":false,"distance":2675,"line":0},{"station_name":"Tenjo","transit":false,"is_transit":false,"i_lat":-6.327251,"i_long":106.460812,"line":6,"distance":3902,"station_id":"TEJ","time":5}]]}