{"data":[[{"station_name":"Klender","station_id":"KLD","is_transit":false,"line":1,"i_lat":-6.2135,"distance":0,"i_long":106.899548,"transit":false,"time":0},{"distance":3395,"station_id":"JNG","i_lat":-6.215091,"line":0,"i_long":106.86807400000001,"time":3,"transit":false,"station_name":"Jatinegara","is_transit":true},{"is_transit":false,"line":1,"transit":false,"station_name":"Matraman","station_id":"MTR","distance":1377,"i_lat":-6.212485,"i_long":106.858896,"time":2},{"time":2,"station_name":"Manggarai","distance":1275,"transit":true,"i_lat":-6.209883,"station_id":"MRI","i_long":106.84912,"line":0,"is_transit":true},{"i_lat":-6.198556,"transit":false,"time":4,"station_name":"Cikini","distance":1590,"line":0,"i_long":106.840169,"is_transit":false,"station_id":"CKI"},{"transit":false,"i_long":106.832183,"station_id":"GDD","distance":1750,"i_lat":-6.186295,"time":3,"is_transit":false,"line":2,"station_name":"Gondangdia"},{"i_long":106.828284,"station_id":"JUA","line":2,"time":4,"is_transit":false,"station_name":"Juanda","distance":2015,"i_lat":-6.166716,"transit":false},{"i_lat":-6.160725,"station_id":"SW","time":2,"is_transit":false,"transit":false,"i_long":106.827103,"distance":1149,"line":2,"station_name":"Sawah Besar"},{"transit":false,"station_name":"Manggabesar","i_lat":-6.149769,"distance":906,"i_long":106.82482,"is_transit":false,"station_id":"MGB","time":2,"line":2}],[{"i_long":106.899548,"station_id":"KLD","distance":0,"time":0,"transit":false,"station_name":"Klender","i_lat":-6.2135,"line":1,"is_transit":false},{"station_name":"Jatinegara","is_transit":true,"station_id":"JNG","i_lat":-6.215091,"transit":true,"distance":3395,"time":3,"line":0,"i_long":106.86807400000001},{"i_long":106.861737,"line":11,"transit":false,"is_transit":false,"station_id":"POK","time":2,"station_name":"Pondok Jati","distance":1236,"i_lat":-6.209188},{"time":2,"is_transit":false,"i_long":106.855437,"line":11,"station_id":"KMT","transit":false,"distance":1829,"i_lat":-6.193792,"station_name":"Kramat"},{"time":1,"i_lat":-6.185975,"line":11,"station_name":"Gang Sentiong","is_transit":false,"transit":false,"i_long":106.850107,"distance":973,"station_id":"GST"},{"station_id":"PSE","is_transit":false,"distance":1567,"i_long":106.84368,"time":8,"station_name":"Pasar Senen","line":11,"transit":false,"i_lat":-6.174784},{"distance":1436,"i_lat":-6.161728,"station_id":"KMO","i_long":106.839204,"time":4,"station_name":"Kemayoran","transit":false,"is_transit":false,"line":11},{"time":5,"station_id":"RJW","transit":false,"station_name":"Rajawali","is_transit":false,"distance":1901,"line":11,"i_lat":-6.14505,"i_long":106.836569},{"station_name":"Kampung Bandan","transit":true,"time":3,"distance":1444,"i_long":106.826365,"station_id":"KPB","i_lat":-6.132549,"is_transit":true,"line":0},{"station_id":"JAKK","transit":true,"station_name":"Jakarta Kota","is_transit":true,"i_lat":-6.137569,"line":0,"distance":1364,"time":3,"i_long":106.812439},{"distance":1264,"i_long":106.820901,"line":7,"transit":false,"i_lat":-6.141205,"time":4,"station_name":"Jayakarta","station_id":"JAY","is_transit":false},{"is_transit":false,"station_id":"MGB","line":2,"transit":false,"time":2,"i_lat":-6.149769,"distance":1080,"station_name":"Manggabesar","i_long":106.82482}],[{"station_id":"KLD","distance":0,"station_name":"Klender","i_long":106.899548,"is_transit":false,"time":0,"transit":false,"i_lat":-6.2135,"line":1},{"station_name":"Jatinegara","is_transit":true,"i_lat":-6.215091,"station_id":"JNG","i_long":106.86807400000001,"transit":false,"distance":3395,"line":0,"time":3},{"distance":1377,"i_lat":-6.212485,"i_long":106.858896,"line":1,"transit":false,"station_id":"MTR","time":2,"station_name":"Matraman","is_transit":false},{"transit":false,"line":0,"i_lat":-6.209883,"station_name":"Manggarai","distance":1275,"station_id":"MRI","time":2,"i_long":106.84912,"is_transit":true},{"distance":3186,"i_long":106.822649,"line":1,"station_id":"SUD","is_transit":false,"time":4,"i_lat":-6.202263,"station_name":"Sudirman","transit":false},{"i_long":106.819881,"is_transit":false,"transit":false,"line":1,"station_id":"SUDB","time":1,"i_lat":-6.201433,"distance":280,"station_name":"Sudirman Baru"},{"station_name":"Karet","is_transit":false,"transit":false,"i_lat":-6.20132,"distance":471,"station_id":"KAT","line":1,"time":1,"i_long":106.816351},{"time":5,"is_transit":true,"distance":2029,"station_id":"THB","transit":false,"i_lat":-6.185545,"i_long":106.811091,"station_name":"Tanah Abang","line":1},{"i_lat":-6.155215,"i_long":106.800832,"distance":3632,"station_name":"Duri","transit":true,"is_transit":true,"station_id":"DU","line":1,"time":8},{"i_lat":-6.144674,"is_transit":false,"i_long":106.79867,"line":0,"station_name":"Angke","time":4,"distance":1230,"station_id":"AK","transit":false},{"line":0,"transit":false,"is_transit":true,"station_name":"Kampung Bandan","time":9,"distance":4102,"i_lat":-6.132549,"i_long":106.826365,"station_id":"KPB"},{"time":3,"station_name":"Jakarta Kota","transit":true,"line":0,"station_id":"JAKK","is_transit":true,"i_long":106.812439,"distance":1364,"i_lat":-6.137569},{"transit":false,"station_name":"Jayakarta","i_lat":-6.141205,"i_long":106.820901,"line":7,"station_id":"JAY","is_transit":false,"distance":1264,"time":4},{"transit":false,"is_transit":false,"i_lat":-6.149769,"time":2,"distance":1080,"line":2,"station_id":"MGB","station_name":"Manggabesar","i_long":106.82482}],[{"time":0,"transit":false,"is_transit":false,"distance":0,"i_long":106.899548,"station_id":"KLD","station_name":"Klender","i_lat":-6.2135,"line":1},{"i_lat":-6.215091,"line":0,"time":3,"transit":true,"is_transit":true,"station_id":"JNG","i_long":106.86807400000001,"station_name":"Jatinegara","distance":3395},{"station_id":"POK","station_name":"Pondok Jati","i_long":106.861737,"time":2,"is_transit":false,"transit":false,"i_lat":-6.209188,"line":11,"distance":1236},{"station_id":"KMT","line":11,"i_lat":-6.193792,"time":2,"i_long":106.855437,"transit":false,"station_name":"Kramat","distance":1829,"is_transit":false},{"station_id":"GST","station_name":"Gang Sentiong","line":11,"transit":false,"time":1,"is_transit":false,"i_lat":-6.185975,"distance":973,"i_long":106.850107},{"station_name":"Pasar Senen","is_transit":false,"i_long":106.84368,"time":8,"line":11,"station_id":"PSE","distance":1567,"i_lat":-6.174784,"transit":false},{"transit":false,"i_lat":-6.161728,"i_long":106.839204,"station_id":"KMO","time":4,"is_transit":false,"station_name":"Kemayoran","distance":1436,"line":11},{"i_long":106.836569,"time":5,"station_name":"Rajawali","distance":1901,"line":11,"station_id":"RJW","transit":false,"i_lat":-6.14505,"is_transit":false},{"station_id":"KPB","is_transit":true,"line":0,"time":3,"transit":true,"i_long":106.826365,"distance":1444,"station_name":"Kampung Bandan","i_lat":-6.132549},{"line":0,"time":9,"station_name":"Angke","i_long":106.79867,"distance":4102,"transit":false,"station_id":"AK","i_lat":-6.144674,"is_transit":false},{"station_id":"DU","transit":true,"station_name":"Duri","is_transit":true,"i_long":106.800832,"line":1,"distance":1230,"time":4,"i_lat":-6.155215},{"line":1,"time":8,"i_long":106.811091,"station_id":"THB","is_transit":true,"i_lat":-6.185545,"station_name":"Tanah Abang","transit":false,"distance":3632},{"i_lat":-6.20132,"time":5,"i_long":106.816351,"line":1,"station_name":"Karet","distance":2029,"station_id":"KAT","is_transit":false,"transit":false},{"line":1,"i_long":106.819881,"time":1,"station_id":"SUDB","distance":471,"transit":false,"is_transit":false,"station_name":"Sudirman Baru","i_lat":-6.201433},{"distance":280,"station_id":"SUD","time":1,"station_name":"Sudirman","transit":false,"i_lat":-6.202263,"i_long":106.822649,"line":1,"is_transit":false},{"transit":true,"time":4,"station_name":"Manggarai","line":0,"distance":3186,"i_long":106.84912,"station_id":"MRI","is_transit":true,"i_lat":-6.209883},{"is_transit":false,"distance":1590,"i_long":106.840169,"station_id":"CKI","line":0,"i_lat":-6.198556,"time":4,"station_name":"Cikini","transit":false},{"distance":1750,"transit":false,"i_long":106.832183,"is_transit":false,"line":2,"i_lat":-6.186295,"station_id":"GDD","station_name":"Gondangdia","time":3},{"i_lat":-6.166716,"station_id":"JUA","transit":false,"i_long":106.828284,"station_name":"Juanda","time":4,"is_transit":false,"distance":2015,"line":2},{"distance":1149,"i_long":106.827103,"is_transit":false,"station_id":"SW","transit":false,"station_name":"Sawah Besar","time":2,"i_lat":-6.160725,"line":2},{"i_lat":-6.149769,"i_long":106.82482,"line":2,"station_name":"Manggabesar","time":2,"transit":false,"is_transit":false,"station_id":"MGB","distance":906}]]}