{"data":[[{"transit":false,"distance":0,"time":0,"line":1,"i_long":106.899548,"i_lat":-6.2135,"station_name":"Klender","station_id":"KLD","is_transit":false},{"station_id":"JNG","time":3,"line":1,"transit":true,"distance":3395,"is_transit":true,"i_lat":-6.215091,"station_name":"Jatinegara","i_long":106.86807400000001},{"i_long":106.861737,"station_id":"POK","is_transit":false,"station_name":"Pondok Jati","transit":false,"i_lat":-6.209188,"distance":1236,"time":2,"line":11},{"is_transit":false,"time":2,"i_long":106.855437,"distance":1829,"station_id":"KMT","station_name":"Kramat","transit":false,"i_lat":-6.193792,"line":11},{"time":1,"i_long":106.850107,"is_transit":false,"station_id":"GST","transit":false,"i_lat":-6.185975,"station_name":"Gang Sentiong","distance":973,"line":11},{"time":8,"i_long":106.84368,"is_transit":false,"station_id":"PSE","distance":1567,"line":11,"station_name":"Pasar Senen","i_lat":-6.174784,"transit":false},{"distance":1436,"transit":false,"i_long":106.839204,"station_name":"Kemayoran","line":11,"station_id":"KMO","time":4,"i_lat":-6.161728,"is_transit":false}],[{"i_lat":-6.2135,"line":1,"distance":0,"station_name":"Klender","i_long":106.899548,"station_id":"KLD","time":0,"transit":false,"is_transit":false},{"i_long":106.86807400000001,"i_lat":-6.215091,"transit":false,"is_transit":false,"line":1,"station_name":"Jatinegara","time":3,"distance":3395,"station_id":"JNG"},{"distance":1377,"station_id":"MTR","i_long":106.858896,"station_name":"Matraman","transit":false,"i_lat":-6.212485,"is_transit":false,"line":1,"time":2},{"i_lat":-6.209883,"line":2,"distance":1275,"is_transit":false,"transit":false,"station_name":"Manggarai","time":2,"station_id":"MRI","i_long":106.84912},{"i_long":106.822649,"is_transit":false,"distance":3186,"time":4,"i_lat":-6.202263,"station_name":"Sudirman","transit":false,"line":1,"station_id":"SUD"},{"transit":false,"i_lat":-6.201433,"line":1,"station_name":"Sudirman Baru","time":1,"distance":280,"i_long":106.819881,"station_id":"SUDB","is_transit":false},{"distance":471,"transit":false,"i_lat":-6.20132,"station_name":"Karet","station_id":"KAT","is_transit":false,"i_long":106.816351,"line":1,"time":1},{"station_name":"Tanah Abang","i_long":106.811091,"distance":2029,"station_id":"THB","transit":false,"line":1,"time":5,"i_lat":-6.185545,"is_transit":false},{"time":8,"i_lat":-6.155215,"i_long":106.800832,"station_id":"DU","station_name":"Duri","is_transit":false,"distance":3632,"line":1,"transit":false},{"i_long":106.79867,"is_transit":false,"distance":1230,"station_name":"Angke","time":4,"transit":false,"station_id":"AK","i_lat":-6.144674,"line":1},{"station_id":"KPB","station_name":"Kampung Bandan","i_lat":-6.132549,"line":4,"time":9,"i_long":106.826365,"is_transit":true,"distance":4102,"transit":true},{"line":11,"station_name":"Rajawali","i_long":106.836569,"transit":false,"distance":1444,"station_id":"RJW","time":3,"i_lat":-6.14505,"is_transit":false},{"distance":1901,"time":5,"i_long":106.839204,"line":11,"is_transit":false,"i_lat":-6.161728,"transit":false,"station_id":"KMO","station_name":"Kemayoran"}],[{"i_lat":-6.2135,"station_name":"Klender","transit":false,"is_transit":false,"time":0,"station_id":"KLD","i_long":106.899548,"distance":0,"line":1},{"station_id":"JNG","time":3,"i_long":106.86807400000001,"i_lat":-6.215091,"line":1,"is_transit":false,"distance":3395,"station_name":"Jatinegara","transit":false},{"station_name":"Matraman","distance":1377,"transit":false,"is_transit":false,"time":2,"station_id":"MTR","i_lat":-6.212485,"i_long":106.858896,"line":1},{"transit":true,"station_id":"MRI","i_long":106.84912,"line":2,"time":2,"is_transit":true,"distance":1275,"i_lat":-6.209883,"station_name":"Manggarai"},{"time":4,"station_id":"CKI","i_lat":-6.198556,"transit":false,"line":2,"distance":1590,"is_transit":false,"i_long":106.840169,"station_name":"Cikini"},{"station_name":"Gondangdia","time":3,"transit":false,"distance":1750,"station_id":"GDD","is_transit":false,"i_lat":-6.186295,"i_long":106.832183,"line":2},{"station_name":"Juanda","station_id":"JUA","is_transit":false,"time":4,"distance":2015,"i_lat":-6.166716,"transit":false,"i_long":106.828284,"line":2},{"is_transit":false,"distance":1149,"i_lat":-6.160725,"station_name":"Sawah Besar","station_id":"SW","time":2,"i_long":106.827103,"transit":false,"line":2},{"i_long":106.82482,"station_name":"Manggabesar","time":2,"distance":906,"i_lat":-6.149769,"line":2,"transit":false,"station_id":"MGB","is_transit":false},{"transit":false,"is_transit":false,"station_name":"Jayakarta","time":2,"distance":1080,"station_id":"JAY","i_lat":-6.141205,"i_long":106.820901,"line":2},{"i_lat":-6.137569,"line":2,"distance":1264,"station_id":"JAKK","station_name":"Jakarta Kota","is_transit":true,"time":4,"transit":true,"i_long":106.812439},{"station_id":"KPB","time":3,"distance":1364,"is_transit":true,"transit":true,"station_name":"Kampung Bandan","i_lat":-6.132549,"i_long":106.826365,"line":4},{"line":11,"station_id":"RJW","i_long":106.836569,"station_name":"Rajawali","transit":false,"i_lat":-6.14505,"is_transit":false,"time":3,"distance":1444},{"line":11,"i_long":106.839204,"i_lat":-6.161728,"distance":1901,"station_name":"Kemayoran","is_transit":false,"time":5,"station_id":"KMO","transit":false}]]}