{"data":[[{"is_transit":false,"distance":0,"i_long":106.899548,"station_id":"KLD","i_lat":-6.2135,"line":1,"time":0,"station_name":"Klender","transit":false},{"i_lat":-6.215091,"is_transit":true,"station_id":"JNG","i_long":106.86807400000001,"line":0,"time":3,"station_name":"Jatinegara","distance":3395,"transit":false},{"station_id":"MTR","i_lat":-6.212485,"i_long":106.858896,"distance":1377,"transit":false,"station_name":"Matraman","line":1,"is_transit":false,"time":2},{"i_lat":-6.209883,"line":0,"transit":true,"is_transit":true,"station_id":"MRI","i_long":106.84912,"station_name":"Manggarai","time":2,"distance":1275},{"i_lat":-6.226659,"transit":false,"distance":2610,"station_name":"Tebet","i_long":106.857948,"station_id":"TEB","is_transit":false,"line":2,"time":4},{"time":2,"line":0,"transit":false,"i_lat":-6.242512,"distance":1230,"station_name":"Cawang","station_id":"CW","i_long":106.856607,"is_transit":false},{"distance":1546,"station_id":"DRN","line":0,"is_transit":false,"i_long":106.85449,"time":3,"transit":false,"station_name":"Duren Kalibata","i_lat":-6.255332},{"is_transit":false,"distance":824,"transit":false,"station_name":"Pasar Minggu Baru","i_lat":-6.263214,"i_long":106.851577,"line":2,"station_id":"PSMB","time":2},{"distance":2380,"is_transit":false,"transit":false,"i_long":106.843999,"station_id":"PSM","station_name":"Pasar Minggu","time":2,"line":2,"i_lat":-6.2842400000000005},{"station_name":"Tanjung Barat","i_lat":-6.3080680000000005,"i_long":106.838896,"distance":2820,"transit":false,"line":2,"is_transit":false,"station_id":"TNT","time":4},{"is_transit":false,"i_lat":-6.330363,"i_long":106.832616,"distance":2671,"station_name":"Lenteng Agung","line":2,"time":3,"transit":false,"station_id":"LNA"},{"station_name":"Univ. Pancasila","transit":false,"i_lat":-6.339291,"i_long":106.834175,"is_transit":false,"time":2,"distance":1029,"station_id":"UP","line":2},{"time":3,"i_lat":-6.360749,"distance":2264,"i_long":106.831474,"station_name":"Univ. Indonesia","transit":false,"is_transit":false,"line":2,"station_id":"UI"},{"station_id":"POC","i_lat":-6.369073,"station_name":"Pondok Cina","time":2,"transit":false,"i_long":106.831114,"is_transit":false,"distance":1109,"line":2}],[{"time":0,"station_name":"Klender","station_id":"KLD","distance":0,"transit":false,"is_transit":false,"i_long":106.899548,"line":1,"i_lat":-6.2135},{"station_id":"JNG","i_long":106.86807400000001,"line":0,"is_transit":true,"distance":3395,"time":3,"transit":true,"station_name":"Jatinegara","i_lat":-6.215091},{"is_transit":false,"time":2,"distance":1236,"station_id":"POK","i_lat":-6.209188,"line":11,"transit":false,"station_name":"Pondok Jati","i_long":106.861737},{"i_lat":-6.193792,"transit":false,"station_id":"KMT","is_transit":false,"station_name":"Kramat","line":11,"distance":1829,"time":2,"i_long":106.855437},{"is_transit":false,"transit":false,"i_long":106.850107,"station_name":"Gang Sentiong","i_lat":-6.185975,"distance":973,"time":1,"station_id":"GST","line":11},{"line":11,"i_long":106.84368,"distance":1567,"time":8,"station_id":"PSE","transit":false,"is_transit":false,"station_name":"Pasar Senen","i_lat":-6.174784},{"transit":false,"i_lat":-6.161728,"i_long":106.839204,"is_transit":false,"station_id":"KMO","time":4,"line":11,"distance":1436,"station_name":"Kemayoran"},{"i_long":106.836569,"station_id":"RJW","time":5,"station_name":"Rajawali","transit":false,"i_lat":-6.14505,"line":11,"distance":1901,"is_transit":false},{"station_name":"Kampung Bandan","i_long":106.826365,"line":0,"distance":1444,"i_lat":-6.132549,"transit":true,"time":3,"is_transit":true,"station_id":"KPB"},{"transit":false,"station_id":"AK","is_transit":false,"line":0,"station_name":"Angke","time":9,"distance":4102,"i_lat":-6.144674,"i_long":106.79867},{"time":4,"is_transit":true,"distance":1230,"station_name":"Duri","i_long":106.800832,"line":1,"station_id":"DU","transit":true,"i_lat":-6.155215},{"i_lat":-6.185545,"transit":false,"distance":3632,"station_name":"Tanah Abang","time":8,"i_long":106.811091,"station_id":"THB","is_transit":true,"line":1},{"station_id":"KAT","is_transit":false,"i_lat":-6.20132,"line":1,"distance":2029,"time":5,"i_long":106.816351,"station_name":"Karet","transit":false},{"distance":471,"is_transit":false,"time":1,"station_name":"Sudirman Baru","line":1,"transit":false,"i_lat":-6.201433,"i_long":106.819881,"station_id":"SUDB"},{"distance":280,"line":1,"station_name":"Sudirman","i_lat":-6.202263,"transit":false,"is_transit":false,"i_long":106.822649,"station_id":"SUD","time":1},{"distance":3186,"station_name":"Manggarai","i_lat":-6.209883,"station_id":"MRI","time":4,"is_transit":true,"transit":true,"line":0,"i_long":106.84912},{"transit":false,"station_id":"TEB","i_lat":-6.226659,"station_name":"Tebet","i_long":106.857948,"line":2,"is_transit":false,"distance":2610,"time":4},{"is_transit":false,"station_name":"Cawang","station_id":"CW","transit":false,"line":0,"distance":1230,"time":2,"i_lat":-6.242512,"i_long":106.856607},{"i_long":106.85449,"station_name":"Duren Kalibata","is_transit":false,"station_id":"DRN","i_lat":-6.255332,"line":0,"distance":1546,"time":3,"transit":false},{"i_long":106.851577,"station_name":"Pasar Minggu Baru","station_id":"PSMB","time":2,"i_lat":-6.263214,"transit":false,"line":2,"distance":824,"is_transit":false},{"line":2,"time":2,"distance":2380,"transit":false,"station_id":"PSM","i_lat":-6.2842400000000005,"i_long":106.843999,"is_transit":false,"station_name":"Pasar Minggu"},{"transit":false,"time":4,"is_transit":false,"i_long":106.838896,"station_name":"Tanjung Barat","line":2,"i_lat":-6.3080680000000005,"station_id":"TNT","distance":2820},{"is_transit":false,"line":2,"distance":2671,"i_lat":-6.330363,"station_name":"Lenteng Agung","time":3,"transit":false,"station_id":"LNA","i_long":106.832616},{"i_long":106.834175,"transit":false,"line":2,"time":2,"distance":1029,"is_transit":false,"station_name":"Univ. Pancasila","i_lat":-6.339291,"station_id":"UP"},{"transit":false,"is_transit":false,"i_lat":-6.360749,"station_id":"UI","distance":2264,"station_name":"Univ. Indonesia","i_long":106.831474,"line":2,"time":3},{"station_name":"Pondok Cina","line":2,"distance":1109,"station_id":"POC","i_long":106.831114,"time":2,"is_transit":false,"transit":false,"i_lat":-6.369073}],[{"station_id":"KLD","is_transit":false,"i_lat":-6.2135,"i_long":106.899548,"distance":0,"station_name":"Klender","line":1,"time":0,"transit":false},{"station_name":"Jatinegara","time":3,"distance":3395,"line":0,"is_transit":true,"station_id":"JNG","i_lat":-6.215091,"i_long":106.86807400000001,"transit":true},{"i_lat":-6.209188,"distance":1236,"i_long":106.861737,"station_name":"Pondok Jati","line":11,"station_id":"POK","is_transit":false,"transit":false,"time":2},{"distance":1829,"time":2,"line":11,"is_transit":false,"transit":false,"i_lat":-6.193792,"i_long":106.855437,"station_name":"Kramat","station_id":"KMT"},{"is_transit":false,"i_lat":-6.185975,"i_long":106.850107,"time":1,"station_id":"GST","transit":false,"distance":973,"station_name":"Gang Sentiong","line":11},{"is_transit":false,"station_name":"Pasar Senen","station_id":"PSE","line":11,"i_long":106.84368,"distance":1567,"transit":false,"time":8,"i_lat":-6.174784},{"line":11,"i_lat":-6.161728,"station_name":"Kemayoran","station_id":"KMO","time":4,"is_transit":false,"transit":false,"i_long":106.839204,"distance":1436},{"station_id":"RJW","is_transit":false,"station_name":"Rajawali","i_lat":-6.14505,"transit":false,"time":5,"distance":1901,"line":11,"i_long":106.836569},{"is_transit":true,"distance":1444,"station_id":"KPB","transit":true,"i_long":106.826365,"time":3,"line":0,"station_name":"Kampung Bandan","i_lat":-6.132549},{"station_name":"Jakarta Kota","distance":1364,"time":3,"line":0,"station_id":"JAKK","i_long":106.812439,"transit":true,"is_transit":true,"i_lat":-6.137569},{"transit":false,"station_id":"JAY","is_transit":false,"i_lat":-6.141205,"line":7,"time":4,"distance":1264,"i_long":106.820901,"station_name":"Jayakarta"},{"i_long":106.82482,"is_transit":false,"i_lat":-6.149769,"time":2,"distance":1080,"station_id":"MGB","transit":false,"station_name":"Manggabesar","line":2},{"station_name":"Sawah Besar","is_transit":false,"i_lat":-6.160725,"i_long":106.827103,"time":2,"station_id":"SW","distance":906,"transit":false,"line":2},{"station_id":"JUA","is_transit":false,"i_lat":-6.166716,"i_long":106.828284,"distance":1149,"time":2,"station_name":"Juanda","line":2,"transit":false},{"time":4,"transit":false,"is_transit":false,"i_lat":-6.186295,"i_long":106.832183,"station_id":"GDD","line":2,"distance":2015,"station_name":"Gondangdia"},{"transit":false,"time":3,"i_lat":-6.198556,"distance":1750,"line":0,"station_id":"CKI","is_transit":false,"i_long":106.840169,"station_name":"Cikini"},{"i_long":106.84912,"time":4,"station_id":"MRI","is_transit":true,"distance":1590,"station_name":"Manggarai","i_lat":-6.209883,"transit":true,"line":0},{"time":4,"station_id":"TEB","station_name":"Tebet","i_lat":-6.226659,"is_transit":false,"distance":2610,"transit":false,"i_long":106.857948,"line":2},{"time":2,"i_lat":-6.242512,"is_transit":false,"station_name":"Cawang","distance":1230,"station_id":"CW","i_long":106.856607,"line":0,"transit":false},{"station_id":"DRN","i_long":106.85449,"line":0,"distance":1546,"i_lat":-6.255332,"is_transit":false,"time":3,"station_name":"Duren Kalibata","transit":false},{"station_id":"PSMB","i_long":106.851577,"line":2,"distance":824,"station_name":"Pasar Minggu Baru","is_transit":false,"time":2,"i_lat":-6.263214,"transit":false},{"transit":false,"i_lat":-6.2842400000000005,"station_id":"PSM","is_transit":false,"line":2,"distance":2380,"time":2,"station_name":"Pasar Minggu","i_long":106.843999},{"i_lat":-6.3080680000000005,"line":2,"station_id":"TNT","distance":2820,"time":4,"transit":false,"is_transit":false,"station_name":"Tanjung Barat","i_long":106.838896},{"i_lat":-6.330363,"time":3,"distance":2671,"line":2,"station_name":"Lenteng Agung","is_transit":false,"i_long":106.832616,"station_id":"LNA","transit":false},{"i_lat":-6.339291,"station_name":"Univ. Pancasila","line":2,"station_id":"UP","time":2,"distance":1029,"i_long":106.834175,"is_transit":false,"transit":false},{"i_long":106.831474,"transit":false,"time":3,"i_lat":-6.360749,"station_id":"UI","station_name":"Univ. Indonesia","line":2,"distance":2264,"is_transit":false},{"is_transit":false,"time":2,"i_long":106.831114,"station_id":"POC","line":2,"transit":false,"station_name":"Pondok Cina","i_lat":-6.369073,"distance":1109}]]}