{"data":[[{"i_lat":-6.2135,"station_id":"KLD","line":1,"is_transit":false,"distance":0,"time":0,"station_name":"Klender","transit":false,"i_long":106.899548},{"station_name":"Jatinegara","time":3,"distance":3395,"station_id":"JNG","transit":false,"i_lat":-6.215091,"line":1,"i_long":106.86807400000001,"is_transit":false},{"i_long":106.858896,"time":2,"station_id":"MTR","is_transit":false,"distance":1377,"station_name":"Matraman","i_lat":-6.212485,"line":1,"transit":false},{"time":2,"i_lat":-6.209883,"i_long":106.84912,"is_transit":true,"transit":true,"line":2,"distance":1275,"station_name":"Manggarai","station_id":"MRI"},{"i_lat":-6.198556,"i_long":106.840169,"is_transit":false,"transit":false,"station_name":"Cikini","time":4,"distance":1590,"station_id":"CKI","line":2},{"station_name":"Gondangdia","station_id":"GDD","i_long":106.832183,"is_transit":false,"transit":false,"i_lat":-6.186295,"line":2,"time":3,"distance":1750},{"line":2,"time":4,"station_id":"JUA","is_transit":false,"transit":false,"i_lat":-6.166716,"i_long":106.828284,"distance":2015,"station_name":"Juanda"},{"is_transit":false,"line":2,"station_id":"SW","i_lat":-6.160725,"i_long":106.827103,"time":2,"station_name":"Sawah Besar","distance":1149,"transit":false},{"station_name":"Manggabesar","line":2,"time":2,"distance":906,"station_id":"MGB","i_lat":-6.149769,"transit":false,"i_long":106.82482,"is_transit":false}],[{"time":0,"distance":0,"station_id":"KLD","i_long":106.899548,"line":1,"is_transit":false,"station_name":"Klender","transit":false,"i_lat":-6.2135},{"transit":true,"i_lat":-6.215091,"i_long":106.86807400000001,"station_id":"JNG","station_name":"Jatinegara","is_transit":true,"distance":3395,"time":3,"line":1},{"station_id":"POK","is_transit":false,"line":11,"distance":1236,"i_lat":-6.209188,"time":2,"i_long":106.861737,"transit":false,"station_name":"Pondok Jati"},{"transit":false,"is_transit":false,"station_name":"Kramat","i_lat":-6.193792,"distance":1829,"time":2,"station_id":"KMT","i_long":106.855437,"line":11},{"distance":973,"is_transit":false,"transit":false,"i_lat":-6.185975,"line":11,"i_long":106.850107,"time":1,"station_id":"GST","station_name":"Gang Sentiong"},{"line":11,"station_id":"PSE","transit":false,"distance":1567,"station_name":"Pasar Senen","time":8,"i_lat":-6.174784,"is_transit":false,"i_long":106.84368},{"transit":false,"line":11,"time":4,"station_name":"Kemayoran","is_transit":false,"i_lat":-6.161728,"distance":1436,"station_id":"KMO","i_long":106.839204},{"distance":1901,"i_lat":-6.14505,"line":11,"station_name":"Rajawali","i_long":106.836569,"is_transit":false,"station_id":"RJW","transit":false,"time":5},{"i_long":106.826365,"time":3,"station_name":"Kampung Bandan","is_transit":true,"transit":true,"station_id":"KPB","i_lat":-6.132549,"distance":1444,"line":4},{"is_transit":true,"time":3,"transit":true,"i_lat":-6.137569,"i_long":106.812439,"distance":1364,"line":2,"station_name":"Jakarta Kota","station_id":"JAKK"},{"time":4,"station_id":"JAY","is_transit":false,"distance":1264,"station_name":"Jayakarta","i_lat":-6.141205,"i_long":106.820901,"transit":false,"line":2},{"station_name":"Manggabesar","distance":1080,"i_lat":-6.149769,"transit":false,"station_id":"MGB","i_long":106.82482,"time":2,"line":2,"is_transit":false}],[{"i_lat":-6.2135,"transit":false,"i_long":106.899548,"is_transit":false,"line":1,"time":0,"distance":0,"station_id":"KLD","station_name":"Klender"},{"station_id":"JNG","transit":false,"i_lat":-6.215091,"is_transit":false,"time":3,"station_name":"Jatinegara","i_long":106.86807400000001,"line":1,"distance":3395},{"i_long":106.858896,"station_id":"MTR","time":2,"transit":false,"distance":1377,"i_lat":-6.212485,"is_transit":false,"line":1,"station_name":"Matraman"},{"time":2,"transit":false,"i_long":106.84912,"i_lat":-6.209883,"line":2,"station_id":"MRI","distance":1275,"station_name":"Manggarai","is_transit":false},{"transit":false,"time":4,"station_id":"SUD","distance":3186,"i_long":106.822649,"station_name":"Sudirman","line":1,"is_transit":false,"i_lat":-6.202263},{"line":1,"i_long":106.819881,"time":1,"is_transit":false,"station_name":"Sudirman Baru","station_id":"SUDB","i_lat":-6.201433,"transit":false,"distance":280},{"i_lat":-6.20132,"i_long":106.816351,"station_id":"KAT","time":1,"transit":false,"station_name":"Karet","is_transit":false,"distance":471,"line":1},{"time":5,"distance":2029,"transit":false,"station_name":"Tanah Abang","line":1,"station_id":"THB","i_long":106.811091,"is_transit":false,"i_lat":-6.185545},{"line":1,"distance":3632,"i_lat":-6.155215,"is_transit":false,"transit":false,"station_id":"DU","i_long":106.800832,"time":8,"station_name":"Duri"},{"distance":1230,"is_transit":false,"line":1,"i_lat":-6.144674,"station_id":"AK","transit":false,"time":4,"station_name":"Angke","i_long":106.79867},{"distance":4102,"transit":true,"station_id":"KPB","station_name":"Kampung Bandan","i_long":106.826365,"line":4,"is_transit":true,"i_lat":-6.132549,"time":9},{"line":2,"station_name":"Jakarta Kota","station_id":"JAKK","i_lat":-6.137569,"i_long":106.812439,"is_transit":true,"time":3,"distance":1364,"transit":true},{"transit":false,"station_id":"JAY","time":4,"i_long":106.820901,"distance":1264,"station_name":"Jayakarta","i_lat":-6.141205,"line":2,"is_transit":false},{"transit":false,"is_transit":false,"i_long":106.82482,"line":2,"distance":1080,"i_lat":-6.149769,"station_id":"MGB","time":2,"station_name":"Manggabesar"}],[{"i_lat":-6.2135,"distance":0,"line":1,"station_id":"KLD","transit":false,"time":0,"station_name":"Klender","i_long":106.899548,"is_transit":false},{"transit":true,"time":3,"distance":3395,"is_transit":true,"i_long":106.86807400000001,"line":1,"station_id":"JNG","station_name":"Jatinegara","i_lat":-6.215091},{"station_id":"POK","station_name":"Pondok Jati","line":11,"is_transit":false,"transit":false,"i_lat":-6.209188,"time":2,"i_long":106.861737,"distance":1236},{"station_id":"KMT","transit":false,"line":11,"i_lat":-6.193792,"distance":1829,"time":2,"station_name":"Kramat","is_transit":false,"i_long":106.855437},{"i_long":106.850107,"station_id":"GST","distance":973,"time":1,"transit":false,"station_name":"Gang Sentiong","i_lat":-6.185975,"is_transit":false,"line":11},{"i_lat":-6.174784,"station_name":"Pasar Senen","distance":1567,"station_id":"PSE","i_long":106.84368,"line":11,"time":8,"transit":false,"is_transit":false},{"time":4,"i_long":106.839204,"distance":1436,"station_name":"Kemayoran","station_id":"KMO","line":11,"transit":false,"is_transit":false,"i_lat":-6.161728},{"station_name":"Rajawali","time":5,"i_lat":-6.14505,"i_long":106.836569,"distance":1901,"is_transit":false,"transit":false,"line":11,"station_id":"RJW"},{"time":3,"station_name":"Kampung Bandan","is_transit":true,"line":4,"distance":1444,"station_id":"KPB","i_lat":-6.132549,"i_long":106.826365,"transit":true},{"time":9,"is_transit":false,"i_lat":-6.144674,"station_id":"AK","distance":4102,"transit":false,"station_name":"Angke","i_long":106.79867,"line":1},{"i_lat":-6.155215,"time":4,"distance":1230,"is_transit":false,"transit":false,"station_id":"DU","i_long":106.800832,"line":1,"station_name":"Duri"},{"station_name":"Tanah Abang","time":8,"i_long":106.811091,"station_id":"THB","i_lat":-6.185545,"line":1,"is_transit":false,"transit":false,"distance":3632},{"line":1,"distance":2029,"station_id":"KAT","i_lat":-6.20132,"is_transit":false,"station_name":"Karet","transit":false,"time":5,"i_long":106.816351},{"distance":471,"transit":false,"i_long":106.819881,"time":1,"station_id":"SUDB","i_lat":-6.201433,"line":1,"is_transit":false,"station_name":"Sudirman Baru"},{"station_id":"SUD","i_long":106.822649,"i_lat":-6.202263,"time":1,"station_name":"Sudirman","transit":false,"line":1,"distance":280,"is_transit":false},{"line":2,"i_long":106.84912,"distance":3186,"station_id":"MRI","time":4,"station_name":"Manggarai","is_transit":true,"transit":true,"i_lat":-6.209883},{"station_id":"CKI","station_name":"Cikini","line":2,"is_transit":false,"distance":1590,"i_lat":-6.198556,"transit":false,"i_long":106.840169,"time":4},{"i_lat":-6.186295,"i_long":106.832183,"station_name":"Gondangdia","distance":1750,"station_id":"GDD","transit":false,"line":2,"time":3,"is_transit":false},{"time":4,"is_transit":false,"station_name":"Juanda","station_id":"JUA","transit":false,"i_long":106.828284,"i_lat":-6.166716,"line":2,"distance":2015},{"transit":false,"time":2,"i_lat":-6.160725,"i_long":106.827103,"is_transit":false,"station_name":"Sawah Besar","distance":1149,"station_id":"SW","line":2},{"line":2,"distance":906,"station_name":"Manggabesar","transit":false,"i_lat":-6.149769,"station_id":"MGB","time":2,"is_transit":false,"i_long":106.82482}]]}