{"data":[[{"station_name":"Klender","line":1,"station_id":"KLD","is_transit":false,"transit":false,"i_lat":-6.2135,"i_long":106.899548,"distance":0,"time":0},{"i_long":106.86807400000001,"i_lat":-6.215091,"transit":true,"time":3,"is_transit":true,"distance":3395,"station_name":"Jatinegara","station_id":"JNG","line":1},{"i_lat":-6.209188,"station_name":"Pondok Jati","transit":false,"time":2,"distance":1236,"station_id":"POK","line":11,"is_transit":false,"i_long":106.861737},{"is_transit":false,"time":2,"i_lat":-6.193792,"station_id":"KMT","station_name":"Kramat","i_long":106.855437,"distance":1829,"transit":false,"line":11},{"station_name":"Gang Sentiong","is_transit":false,"line":11,"i_long":106.850107,"i_lat":-6.185975,"transit":false,"time":1,"distance":973,"station_id":"GST"},{"i_lat":-6.174784,"time":8,"distance":1567,"is_transit":false,"transit":false,"station_name":"Pasar Senen","station_id":"PSE","i_long":106.84368,"line":11},{"i_lat":-6.161728,"time":4,"station_id":"KMO","is_transit":false,"station_name":"Kemayoran","i_long":106.839204,"line":11,"distance":1436,"transit":false}],[{"distance":0,"is_transit":false,"station_id":"KLD","station_name":"Klender","transit":false,"i_long":106.899548,"line":1,"time":0,"i_lat":-6.2135},{"time":3,"station_name":"Jatinegara","i_lat":-6.215091,"transit":false,"line":1,"station_id":"JNG","is_transit":false,"distance":3395,"i_long":106.86807400000001},{"transit":false,"line":1,"i_long":106.858896,"i_lat":-6.212485,"time":2,"station_id":"MTR","distance":1377,"is_transit":false,"station_name":"Matraman"},{"distance":1275,"station_name":"Manggarai","line":2,"time":2,"station_id":"MRI","i_lat":-6.209883,"i_long":106.84912,"is_transit":false,"transit":false},{"line":1,"i_long":106.822649,"station_id":"SUD","distance":3186,"is_transit":false,"station_name":"Sudirman","i_lat":-6.202263,"transit":false,"time":4},{"i_long":106.819881,"station_id":"SUDB","time":1,"i_lat":-6.201433,"station_name":"Sudirman Baru","line":1,"distance":280,"is_transit":false,"transit":false},{"i_long":106.816351,"line":1,"station_name":"Karet","distance":471,"is_transit":false,"time":1,"transit":false,"i_lat":-6.20132,"station_id":"KAT"},{"i_lat":-6.185545,"station_id":"THB","distance":2029,"station_name":"Tanah Abang","i_long":106.811091,"line":1,"time":5,"transit":false,"is_transit":false},{"time":8,"distance":3632,"station_name":"Duri","transit":false,"i_lat":-6.155215,"i_long":106.800832,"is_transit":false,"station_id":"DU","line":1},{"time":4,"station_id":"AK","i_lat":-6.144674,"station_name":"Angke","transit":false,"i_long":106.79867,"is_transit":false,"distance":1230,"line":1},{"i_long":106.826365,"line":4,"time":9,"transit":true,"is_transit":true,"distance":4102,"station_name":"Kampung Bandan","station_id":"KPB","i_lat":-6.132549},{"distance":1444,"i_lat":-6.14505,"time":3,"transit":false,"line":11,"station_id":"RJW","i_long":106.836569,"station_name":"Rajawali","is_transit":false},{"i_lat":-6.161728,"station_name":"Kemayoran","transit":false,"station_id":"KMO","line":11,"distance":1901,"time":5,"is_transit":false,"i_long":106.839204}],[{"time":0,"transit":false,"i_lat":-6.2135,"line":1,"i_long":106.899548,"station_name":"Klender","is_transit":false,"distance":0,"station_id":"KLD"},{"time":3,"station_name":"Jatinegara","transit":false,"i_lat":-6.215091,"line":1,"i_long":106.86807400000001,"station_id":"JNG","is_transit":false,"distance":3395},{"station_id":"MTR","station_name":"Matraman","i_long":106.858896,"is_transit":false,"time":2,"transit":false,"i_lat":-6.212485,"line":1,"distance":1377},{"line":2,"is_transit":true,"station_name":"Manggarai","station_id":"MRI","transit":true,"distance":1275,"time":2,"i_lat":-6.209883,"i_long":106.84912},{"i_lat":-6.198556,"distance":1590,"time":4,"i_long":106.840169,"transit":false,"is_transit":false,"station_name":"Cikini","station_id":"CKI","line":2},{"distance":1750,"transit":false,"i_lat":-6.186295,"time":3,"is_transit":false,"i_long":106.832183,"line":2,"station_name":"Gondangdia","station_id":"GDD"},{"i_lat":-6.166716,"i_long":106.828284,"station_id":"JUA","line":2,"time":4,"distance":2015,"is_transit":false,"transit":false,"station_name":"Juanda"},{"i_long":106.827103,"line":2,"distance":1149,"station_name":"Sawah Besar","is_transit":false,"transit":false,"i_lat":-6.160725,"station_id":"SW","time":2},{"i_long":106.82482,"time":2,"line":2,"station_id":"MGB","is_transit":false,"transit":false,"station_name":"Manggabesar","distance":906,"i_lat":-6.149769},{"is_transit":false,"time":2,"station_id":"JAY","i_lat":-6.141205,"transit":false,"station_name":"Jayakarta","distance":1080,"i_long":106.820901,"line":2},{"station_id":"JAKK","station_name":"Jakarta Kota","distance":1264,"is_transit":true,"transit":true,"i_lat":-6.137569,"time":4,"i_long":106.812439,"line":2},{"station_name":"Kampung Bandan","line":4,"distance":1364,"i_lat":-6.132549,"station_id":"KPB","time":3,"transit":true,"i_long":106.826365,"is_transit":true},{"transit":false,"station_id":"RJW","distance":1444,"is_transit":false,"i_lat":-6.14505,"time":3,"station_name":"Rajawali","i_long":106.836569,"line":11},{"time":5,"i_long":106.839204,"i_lat":-6.161728,"line":11,"station_id":"KMO","is_transit":false,"station_name":"Kemayoran","transit":false,"distance":1901}]]}