{"data":[[{"station_id":"KLD","is_transit":false,"transit":false,"distance":0,"line":1,"i_long":106.899548,"i_lat":-6.2135,"station_name":"Klender","time":0},{"station_name":"Jatinegara","distance":3395,"transit":false,"station_id":"JNG","time":3,"i_lat":-6.215091,"i_long":106.86807400000001,"is_transit":false,"line":1},{"station_name":"Matraman","transit":false,"i_lat":-6.212485,"line":1,"distance":1377,"is_transit":false,"station_id":"MTR","time":2,"i_long":106.858896},{"i_long":106.84912,"is_transit":false,"line":2,"station_id":"MRI","transit":false,"time":2,"i_lat":-6.209883,"station_name":"Manggarai","distance":1275},{"i_long":106.822649,"station_id":"SUD","transit":false,"line":1,"i_lat":-6.202263,"is_transit":false,"station_name":"Sudirman","distance":3186,"time":4},{"station_name":"Sudirman Baru","transit":false,"time":1,"i_long":106.819881,"distance":280,"line":1,"station_id":"SUDB","i_lat":-6.201433,"is_transit":false},{"i_long":106.816351,"i_lat":-6.20132,"line":1,"time":1,"transit":false,"station_name":"Karet","is_transit":false,"distance":471,"station_id":"KAT"},{"line":1,"station_name":"Tanah Abang","transit":true,"time":5,"i_long":106.811091,"i_lat":-6.185545,"distance":2029,"is_transit":true,"station_id":"THB"},{"i_long":106.79689,"station_name":"Palmerah","time":6,"station_id":"PLM","transit":false,"is_transit":false,"distance":3191,"i_lat":-6.207404,"line":6}],[{"i_lat":-6.2135,"line":1,"time":0,"is_transit":false,"i_long":106.899548,"station_name":"Klender","distance":0,"station_id":"KLD","transit":false},{"i_long":106.86807400000001,"station_name":"Jatinegara","time":3,"transit":true,"station_id":"JNG","distance":3395,"i_lat":-6.215091,"line":1,"is_transit":true},{"station_id":"POK","i_lat":-6.209188,"is_transit":false,"station_name":"Pondok Jati","distance":1236,"line":11,"time":2,"i_long":106.861737,"transit":false},{"station_id":"KMT","i_long":106.855437,"is_transit":false,"station_name":"Kramat","line":11,"distance":1829,"time":2,"i_lat":-6.193792,"transit":false},{"distance":973,"i_lat":-6.185975,"line":11,"station_name":"Gang Sentiong","time":1,"station_id":"GST","is_transit":false,"i_long":106.850107,"transit":false},{"transit":false,"time":8,"distance":1567,"station_name":"Pasar Senen","is_transit":false,"i_long":106.84368,"i_lat":-6.174784,"station_id":"PSE","line":11},{"transit":false,"line":11,"i_lat":-6.161728,"station_name":"Kemayoran","time":4,"is_transit":false,"i_long":106.839204,"station_id":"KMO","distance":1436},{"i_long":106.836569,"time":5,"transit":false,"i_lat":-6.14505,"station_id":"RJW","line":11,"station_name":"Rajawali","distance":1901,"is_transit":false},{"station_name":"Kampung Bandan","i_long":106.826365,"line":4,"time":3,"is_transit":true,"distance":1444,"station_id":"KPB","i_lat":-6.132549,"transit":true},{"line":1,"i_long":106.79867,"is_transit":false,"i_lat":-6.144674,"station_name":"Angke","distance":4102,"transit":false,"time":9,"station_id":"AK"},{"transit":false,"station_name":"Duri","line":1,"station_id":"DU","distance":1230,"i_long":106.800832,"is_transit":false,"time":4,"i_lat":-6.155215},{"i_long":106.811091,"station_name":"Tanah Abang","transit":true,"distance":3632,"is_transit":true,"station_id":"THB","time":8,"i_lat":-6.185545,"line":1},{"station_id":"PLM","station_name":"Palmerah","i_long":106.79689,"transit":false,"i_lat":-6.207404,"time":6,"line":6,"is_transit":false,"distance":3191}],[{"station_name":"Klender","is_transit":false,"station_id":"KLD","time":0,"line":1,"transit":false,"distance":0,"i_lat":-6.2135,"i_long":106.899548},{"distance":3395,"i_lat":-6.215091,"is_transit":false,"time":3,"line":1,"transit":false,"i_long":106.86807400000001,"station_id":"JNG","station_name":"Jatinegara"},{"distance":1377,"transit":false,"station_id":"MTR","time":2,"i_long":106.858896,"station_name":"Matraman","line":1,"i_lat":-6.212485,"is_transit":false},{"transit":true,"station_name":"Manggarai","time":2,"distance":1275,"is_transit":true,"i_lat":-6.209883,"i_long":106.84912,"station_id":"MRI","line":2},{"line":2,"i_long":106.840169,"station_id":"CKI","time":4,"i_lat":-6.198556,"transit":false,"station_name":"Cikini","is_transit":false,"distance":1590},{"transit":false,"i_lat":-6.186295,"i_long":106.832183,"station_id":"GDD","distance":1750,"station_name":"Gondangdia","is_transit":false,"line":2,"time":3},{"distance":2015,"is_transit":false,"station_id":"JUA","i_lat":-6.166716,"i_long":106.828284,"line":2,"time":4,"transit":false,"station_name":"Juanda"},{"transit":false,"station_name":"Sawah Besar","i_long":106.827103,"station_id":"SW","time":2,"is_transit":false,"distance":1149,"i_lat":-6.160725,"line":2},{"line":2,"transit":false,"station_id":"MGB","time":2,"i_long":106.82482,"distance":906,"station_name":"Manggabesar","is_transit":false,"i_lat":-6.149769},{"is_transit":false,"station_name":"Jayakarta","station_id":"JAY","transit":false,"time":2,"distance":1080,"line":2,"i_long":106.820901,"i_lat":-6.141205},{"station_id":"JAKK","i_lat":-6.137569,"station_name":"Jakarta Kota","is_transit":true,"i_long":106.812439,"line":2,"distance":1264,"transit":true,"time":4},{"time":3,"i_lat":-6.132549,"transit":true,"distance":1364,"line":4,"station_id":"KPB","station_name":"Kampung Bandan","is_transit":true,"i_long":106.826365},{"station_id":"AK","is_transit":false,"transit":false,"time":9,"station_name":"Angke","i_long":106.79867,"i_lat":-6.144674,"distance":4102,"line":1},{"station_id":"DU","distance":1230,"i_lat":-6.155215,"time":4,"station_name":"Duri","is_transit":false,"transit":false,"i_long":106.800832,"line":1},{"station_name":"Tanah Abang","transit":true,"i_long":106.811091,"distance":3632,"line":1,"station_id":"THB","is_transit":true,"i_lat":-6.185545,"time":8},{"i_long":106.79689,"station_id":"PLM","line":6,"is_transit":false,"time":6,"transit":false,"distance":3191,"i_lat":-6.207404,"station_name":"Palmerah"}],[{"distance":0,"line":1,"i_long":106.899548,"time":0,"station_name":"Klender","i_lat":-6.2135,"transit":false,"is_transit":false,"station_id":"KLD"},{"station_id":"JNG","i_lat":-6.215091,"line":1,"i_long":106.86807400000001,"distance":3395,"is_transit":true,"station_name":"Jatinegara","transit":true,"time":3},{"i_lat":-6.209188,"line":11,"distance":1236,"transit":false,"is_transit":false,"station_id":"POK","station_name":"Pondok Jati","i_long":106.861737,"time":2},{"i_long":106.855437,"is_transit":false,"time":2,"distance":1829,"transit":false,"station_id":"KMT","station_name":"Kramat","line":11,"i_lat":-6.193792},{"distance":973,"line":11,"is_transit":false,"station_id":"GST","station_name":"Gang Sentiong","i_lat":-6.185975,"i_long":106.850107,"time":1,"transit":false},{"station_id":"PSE","distance":1567,"is_transit":false,"time":8,"i_lat":-6.174784,"i_long":106.84368,"line":11,"station_name":"Pasar Senen","transit":false},{"i_lat":-6.161728,"transit":false,"distance":1436,"station_name":"Kemayoran","is_transit":false,"line":11,"time":4,"station_id":"KMO","i_long":106.839204},{"station_id":"RJW","distance":1901,"i_long":106.836569,"i_lat":-6.14505,"station_name":"Rajawali","transit":false,"is_transit":false,"time":5,"line":11},{"i_lat":-6.132549,"i_long":106.826365,"line":4,"distance":1444,"time":3,"is_transit":true,"station_id":"KPB","transit":true,"station_name":"Kampung Bandan"},{"station_name":"Jakarta Kota","station_id":"JAKK","distance":1364,"i_lat":-6.137569,"transit":true,"is_transit":true,"time":3,"i_long":106.812439,"line":2},{"distance":1264,"station_name":"Jayakarta","line":2,"transit":false,"i_long":106.820901,"station_id":"JAY","is_transit":false,"i_lat":-6.141205,"time":4},{"time":2,"distance":1080,"is_transit":false,"i_lat":-6.149769,"i_long":106.82482,"line":2,"station_name":"Manggabesar","transit":false,"station_id":"MGB"},{"line":2,"i_long":106.827103,"station_id":"SW","distance":906,"i_lat":-6.160725,"transit":false,"station_name":"Sawah Besar","is_transit":false,"time":2},{"i_long":106.828284,"line":2,"station_id":"JUA","transit":false,"station_name":"Juanda","time":2,"distance":1149,"is_transit":false,"i_lat":-6.166716},{"i_lat":-6.186295,"i_long":106.832183,"transit":false,"time":4,"distance":2015,"station_id":"GDD","line":2,"is_transit":false,"station_name":"Gondangdia"},{"transit":false,"time":3,"i_long":106.840169,"distance":1750,"line":2,"station_id":"CKI","i_lat":-6.198556,"station_name":"Cikini","is_transit":false},{"station_id":"MRI","distance":1590,"i_lat":-6.209883,"is_transit":true,"i_long":106.84912,"line":2,"time":4,"transit":true,"station_name":"Manggarai"},{"station_id":"SUD","station_name":"Sudirman","time":4,"transit":false,"line":1,"distance":3186,"i_long":106.822649,"i_lat":-6.202263,"is_transit":false},{"station_name":"Sudirman Baru","is_transit":false,"distance":280,"transit":false,"i_long":106.819881,"time":1,"station_id":"SUDB","line":1,"i_lat":-6.201433},{"distance":471,"i_long":106.816351,"station_name":"Karet","transit":false,"is_transit":false,"station_id":"KAT","time":1,"line":1,"i_lat":-6.20132},{"i_lat":-6.185545,"distance":2029,"station_name":"Tanah Abang","i_long":106.811091,"line":1,"time":5,"transit":true,"is_transit":true,"station_id":"THB"},{"station_id":"PLM","transit":false,"station_name":"Palmerah","is_transit":false,"line":6,"distance":3191,"i_long":106.79689,"i_lat":-6.207404,"time":6}]]}