{"data":[[{"station_id":"KLD","transit":false,"station_name":"Klender","time":0,"i_lat":-6.2135,"i_long":106.899548,"distance":0,"is_transit":false,"line":1},{"i_long":106.922662,"is_transit":false,"station_id":"BUA","transit":false,"time":2,"station_name":"Buaran","line":1,"distance":3100,"i_lat":-6.215568},{"distance":1305,"station_id":"KLDB","is_transit":false,"line":1,"i_lat":-6.217455,"station_name":"Klenderbaru","i_long":106.939679,"transit":false,"time":1},{"i_long":106.951283,"is_transit":false,"station_id":"CUK","time":8,"line":1,"station_name":"Cakung","distance":1385,"transit":false,"i_lat":-6.219053},{"distance":3097,"station_name":"Kranji","station_id":"KRI","time":3,"is_transit":false,"i_lat":-6.224515,"i_long":106.977657,"line":1,"transit":false}]]}