{"data":[[{"distance":0,"i_lat":-6.2135,"transit":false,"line":1,"station_id":"KLD","time":0,"is_transit":false,"i_long":106.899548,"station_name":"Klender"},{"distance":3395,"i_lat":-6.215091,"i_long":106.86807400000001,"station_name":"Jatinegara","transit":false,"line":0,"is_transit":true,"time":3,"station_id":"JNG"},{"i_long":106.858896,"line":1,"is_transit":false,"i_lat":-6.212485,"time":2,"station_name":"Matraman","station_id":"MTR","transit":false,"distance":1377},{"time":2,"transit":false,"i_lat":-6.209883,"is_transit":true,"line":0,"i_long":106.84912,"distance":1275,"station_name":"Manggarai","station_id":"MRI"},{"time":4,"station_name":"Sudirman","transit":false,"is_transit":false,"distance":3186,"i_lat":-6.202263,"i_long":106.822649,"line":1,"station_id":"SUD"},{"distance":280,"i_long":106.819881,"line":1,"transit":false,"station_name":"Sudirman Baru","time":1,"station_id":"SUDB","i_lat":-6.201433,"is_transit":false},{"distance":471,"i_long":106.816351,"is_transit":false,"i_lat":-6.20132,"station_name":"Karet","transit":false,"station_id":"KAT","line":1,"time":1},{"station_name":"Tanah Abang","distance":2029,"transit":false,"is_transit":true,"station_id":"THB","i_long":106.811091,"i_lat":-6.185545,"line":1,"time":5},{"station_id":"DU","distance":3632,"line":1,"i_lat":-6.155215,"station_name":"Duri","is_transit":true,"time":8,"i_long":106.800832,"transit":true},{"transit":false,"station_id":"GGL","i_lat":-6.162021,"i_long":106.788277,"line":5,"distance":1700,"is_transit":false,"station_name":"Grogol","time":3},{"station_name":"Pesing","is_transit":false,"distance":2036,"time":2,"station_id":"PSG","i_lat":-6.161433,"transit":false,"i_long":106.771379,"line":5},{"line":5,"station_id":"TKO","transit":false,"is_transit":false,"i_lat":-6.1587309999999995,"station_name":"Taman Kota","i_long":106.756522,"time":2,"distance":1614},{"is_transit":false,"transit":false,"station_name":"Bojongindah","distance":2334,"line":0,"time":2,"station_id":"BOI","i_long":106.737035,"i_lat":-6.159876},{"distance":1152,"i_long":106.723064,"station_name":"Rawa Buaya","line":5,"station_id":"RW","transit":false,"is_transit":false,"time":4,"i_lat":-6.162758},{"station_id":"KDS","time":3,"transit":false,"i_long":106.701612,"line":5,"distance":2504,"station_name":"Kalideres","is_transit":false,"i_lat":-6.166068},{"transit":false,"station_id":"PI","i_lat":-6.169933,"i_long":106.679458,"is_transit":false,"distance":2548,"time":3,"line":5,"station_name":"Poris"},{"station_name":"Batuceper","time":3,"i_long":106.665036,"i_lat":-6.171811,"distance":1834,"transit":false,"station_id":"BPR","is_transit":false,"line":0}],[{"station_name":"Klender","time":0,"i_long":106.899548,"transit":false,"distance":0,"is_transit":false,"station_id":"KLD","i_lat":-6.2135,"line":1},{"station_name":"Jatinegara","is_transit":true,"line":0,"distance":3395,"transit":true,"i_long":106.86807400000001,"time":3,"station_id":"JNG","i_lat":-6.215091},{"station_id":"POK","distance":1236,"station_name":"Pondok Jati","line":11,"is_transit":false,"i_lat":-6.209188,"transit":false,"i_long":106.861737,"time":2},{"i_long":106.855437,"station_id":"KMT","distance":1829,"is_transit":false,"transit":false,"i_lat":-6.193792,"station_name":"Kramat","line":11,"time":2},{"transit":false,"time":1,"station_name":"Gang Sentiong","distance":973,"station_id":"GST","i_lat":-6.185975,"is_transit":false,"i_long":106.850107,"line":11},{"time":8,"i_lat":-6.174784,"i_long":106.84368,"station_id":"PSE","is_transit":false,"line":11,"transit":false,"distance":1567,"station_name":"Pasar Senen"},{"i_long":106.839204,"station_id":"KMO","i_lat":-6.161728,"line":11,"distance":1436,"station_name":"Kemayoran","is_transit":false,"transit":false,"time":4},{"distance":1901,"i_lat":-6.14505,"line":11,"is_transit":false,"transit":false,"station_id":"RJW","time":5,"i_long":106.836569,"station_name":"Rajawali"},{"time":3,"station_name":"Kampung Bandan","line":0,"distance":1444,"station_id":"KPB","is_transit":true,"i_lat":-6.132549,"transit":true,"i_long":106.826365},{"time":9,"station_name":"Angke","distance":4102,"transit":false,"is_transit":false,"i_lat":-6.144674,"station_id":"AK","line":0,"i_long":106.79867},{"station_name":"Duri","is_transit":true,"distance":1230,"station_id":"DU","time":4,"i_lat":-6.155215,"line":1,"i_long":106.800832,"transit":true},{"station_id":"GGL","station_name":"Grogol","time":3,"i_long":106.788277,"line":5,"i_lat":-6.162021,"transit":false,"distance":1700,"is_transit":false},{"station_name":"Pesing","distance":2036,"station_id":"PSG","time":2,"i_lat":-6.161433,"line":5,"is_transit":false,"i_long":106.771379,"transit":false},{"station_name":"Taman Kota","is_transit":false,"transit":false,"i_lat":-6.1587309999999995,"time":2,"station_id":"TKO","i_long":106.756522,"distance":1614,"line":5},{"station_name":"Bojongindah","i_lat":-6.159876,"transit":false,"station_id":"BOI","time":2,"line":0,"distance":2334,"i_long":106.737035,"is_transit":false},{"station_id":"RW","i_lat":-6.162758,"i_long":106.723064,"line":5,"transit":false,"distance":1152,"is_transit":false,"time":4,"station_name":"Rawa Buaya"},{"i_long":106.701612,"station_id":"KDS","line":5,"time":3,"i_lat":-6.166068,"is_transit":false,"transit":false,"distance":2504,"station_name":"Kalideres"},{"i_lat":-6.169933,"station_name":"Poris","station_id":"PI","i_long":106.679458,"is_transit":false,"distance":2548,"line":5,"transit":false,"time":3},{"is_transit":false,"distance":1834,"station_name":"Batuceper","transit":false,"i_long":106.665036,"line":0,"i_lat":-6.171811,"station_id":"BPR","time":3}],[{"station_name":"Klender","is_transit":false,"time":0,"i_lat":-6.2135,"line":1,"transit":false,"i_long":106.899548,"station_id":"KLD","distance":0},{"time":3,"i_lat":-6.215091,"station_name":"Jatinegara","line":0,"station_id":"JNG","is_transit":true,"transit":false,"i_long":106.86807400000001,"distance":3395},{"time":2,"is_transit":false,"transit":false,"line":1,"station_id":"MTR","i_lat":-6.212485,"distance":1377,"station_name":"Matraman","i_long":106.858896},{"i_lat":-6.209883,"station_id":"MRI","is_transit":true,"i_long":106.84912,"line":0,"distance":1275,"time":2,"transit":true,"station_name":"Manggarai"},{"station_name":"Cikini","is_transit":false,"time":4,"distance":1590,"i_long":106.840169,"line":0,"i_lat":-6.198556,"station_id":"CKI","transit":false},{"station_name":"Gondangdia","is_transit":false,"distance":1750,"i_long":106.832183,"transit":false,"i_lat":-6.186295,"station_id":"GDD","line":2,"time":3},{"transit":false,"is_transit":false,"distance":2015,"time":4,"station_id":"JUA","i_lat":-6.166716,"station_name":"Juanda","i_long":106.828284,"line":2},{"is_transit":false,"station_id":"SW","i_lat":-6.160725,"station_name":"Sawah Besar","i_long":106.827103,"transit":false,"distance":1149,"time":2,"line":2},{"transit":false,"time":2,"distance":906,"station_id":"MGB","i_long":106.82482,"is_transit":false,"line":2,"i_lat":-6.149769,"station_name":"Manggabesar"},{"transit":false,"distance":1080,"is_transit":false,"station_name":"Jayakarta","i_long":106.820901,"station_id":"JAY","i_lat":-6.141205,"time":2,"line":7},{"is_transit":true,"distance":1264,"i_lat":-6.137569,"transit":true,"i_long":106.812439,"station_name":"Jakarta Kota","time":4,"station_id":"JAKK","line":0},{"station_name":"Kampung Bandan","station_id":"KPB","i_lat":-6.132549,"i_long":106.826365,"time":3,"distance":1364,"transit":false,"is_transit":true,"line":0},{"line":0,"station_name":"Angke","distance":4102,"time":9,"i_lat":-6.144674,"i_long":106.79867,"transit":false,"is_transit":false,"station_id":"AK"},{"i_lat":-6.155215,"i_long":106.800832,"time":4,"station_id":"DU","line":1,"distance":1230,"station_name":"Duri","transit":true,"is_transit":true},{"time":3,"station_id":"GGL","is_transit":false,"i_lat":-6.162021,"line":5,"station_name":"Grogol","i_long":106.788277,"transit":false,"distance":1700},{"distance":2036,"time":2,"i_lat":-6.161433,"is_transit":false,"i_long":106.771379,"station_name":"Pesing","station_id":"PSG","transit":false,"line":5},{"i_long":106.756522,"station_name":"Taman Kota","line":5,"distance":1614,"i_lat":-6.1587309999999995,"is_transit":false,"time":2,"station_id":"TKO","transit":false},{"distance":2334,"transit":false,"station_id":"BOI","i_lat":-6.159876,"station_name":"Bojongindah","i_long":106.737035,"line":0,"time":2,"is_transit":false},{"station_id":"RW","i_long":106.723064,"transit":false,"distance":1152,"station_name":"Rawa Buaya","time":4,"is_transit":false,"line":5,"i_lat":-6.162758},{"time":3,"i_long":106.701612,"distance":2504,"i_lat":-6.166068,"is_transit":false,"station_name":"Kalideres","station_id":"KDS","transit":false,"line":5},{"station_id":"PI","i_long":106.679458,"time":3,"i_lat":-6.169933,"line":5,"station_name":"Poris","is_transit":false,"transit":false,"distance":2548},{"station_name":"Batuceper","i_lat":-6.171811,"distance":1834,"line":0,"i_long":106.665036,"time":3,"is_transit":false,"station_id":"BPR","transit":false}],[{"i_lat":-6.2135,"distance":0,"time":0,"station_id":"KLD","line":1,"transit":false,"station_name":"Klender","is_transit":false,"i_long":106.899548},{"transit":true,"i_long":106.86807400000001,"station_id":"JNG","line":0,"time":3,"is_transit":true,"station_name":"Jatinegara","distance":3395,"i_lat":-6.215091},{"is_transit":false,"station_name":"Pondok Jati","transit":false,"i_lat":-6.209188,"station_id":"POK","distance":1236,"i_long":106.861737,"line":11,"time":2},{"is_transit":false,"time":2,"line":11,"station_id":"KMT","transit":false,"distance":1829,"i_lat":-6.193792,"station_name":"Kramat","i_long":106.855437},{"distance":973,"transit":false,"station_id":"GST","i_lat":-6.185975,"time":1,"i_long":106.850107,"is_transit":false,"line":11,"station_name":"Gang Sentiong"},{"is_transit":false,"line":11,"station_name":"Pasar Senen","i_lat":-6.174784,"transit":false,"distance":1567,"time":8,"station_id":"PSE","i_long":106.84368},{"is_transit":false,"time":4,"i_lat":-6.161728,"transit":false,"station_name":"Kemayoran","station_id":"KMO","line":11,"distance":1436,"i_long":106.839204},{"time":5,"is_transit":false,"i_long":106.836569,"station_name":"Rajawali","station_id":"RJW","line":11,"i_lat":-6.14505,"distance":1901,"transit":false},{"station_id":"KPB","i_lat":-6.132549,"transit":true,"i_long":106.826365,"station_name":"Kampung Bandan","is_transit":true,"distance":1444,"time":3,"line":0},{"station_name":"Jakarta Kota","i_lat":-6.137569,"transit":true,"time":3,"station_id":"JAKK","is_transit":true,"i_long":106.812439,"distance":1364,"line":0},{"i_long":106.820901,"transit":false,"station_name":"Jayakarta","time":4,"i_lat":-6.141205,"distance":1264,"line":7,"is_transit":false,"station_id":"JAY"},{"i_long":106.82482,"distance":1080,"is_transit":false,"station_name":"Manggabesar","transit":false,"time":2,"station_id":"MGB","i_lat":-6.149769,"line":2},{"transit":false,"line":2,"i_lat":-6.160725,"i_long":106.827103,"time":2,"distance":906,"station_id":"SW","is_transit":false,"station_name":"Sawah Besar"},{"time":2,"station_id":"JUA","i_long":106.828284,"station_name":"Juanda","distance":1149,"line":2,"transit":false,"is_transit":false,"i_lat":-6.166716},{"is_transit":false,"transit":false,"distance":2015,"station_id":"GDD","station_name":"Gondangdia","time":4,"i_long":106.832183,"i_lat":-6.186295,"line":2},{"i_lat":-6.198556,"transit":false,"time":3,"i_long":106.840169,"station_name":"Cikini","station_id":"CKI","is_transit":false,"distance":1750,"line":0},{"line":0,"i_long":106.84912,"is_transit":true,"transit":true,"time":4,"distance":1590,"station_name":"Manggarai","station_id":"MRI","i_lat":-6.209883},{"station_name":"Sudirman","transit":false,"distance":3186,"time":4,"station_id":"SUD","is_transit":false,"i_long":106.822649,"line":1,"i_lat":-6.202263},{"i_lat":-6.201433,"time":1,"i_long":106.819881,"is_transit":false,"transit":false,"line":1,"station_name":"Sudirman Baru","station_id":"SUDB","distance":280},{"distance":471,"i_long":106.816351,"i_lat":-6.20132,"transit":false,"is_transit":false,"time":1,"line":1,"station_id":"KAT","station_name":"Karet"},{"is_transit":true,"station_id":"THB","time":5,"i_long":106.811091,"station_name":"Tanah Abang","transit":false,"line":1,"distance":2029,"i_lat":-6.185545},{"line":1,"station_name":"Duri","time":8,"distance":3632,"i_lat":-6.155215,"i_long":106.800832,"is_transit":true,"transit":true,"station_id":"DU"},{"transit":false,"is_transit":false,"i_long":106.788277,"line":5,"distance":1700,"i_lat":-6.162021,"station_name":"Grogol","time":3,"station_id":"GGL"},{"transit":false,"time":2,"line":5,"is_transit":false,"station_name":"Pesing","distance":2036,"station_id":"PSG","i_lat":-6.161433,"i_long":106.771379},{"station_name":"Taman Kota","transit":false,"station_id":"TKO","i_lat":-6.1587309999999995,"i_long":106.756522,"line":5,"distance":1614,"is_transit":false,"time":2},{"station_name":"Bojongindah","time":2,"i_long":106.737035,"station_id":"BOI","i_lat":-6.159876,"distance":2334,"line":0,"is_transit":false,"transit":false},{"i_long":106.723064,"station_id":"RW","transit":false,"line":5,"station_name":"Rawa Buaya","is_transit":false,"distance":1152,"time":4,"i_lat":-6.162758},{"station_name":"Kalideres","i_lat":-6.166068,"station_id":"KDS","is_transit":false,"distance":2504,"i_long":106.701612,"line":5,"time":3,"transit":false},{"time":3,"transit":false,"station_name":"Poris","is_transit":false,"distance":2548,"i_long":106.679458,"station_id":"PI","line":5,"i_lat":-6.169933},{"time":3,"is_transit":false,"i_lat":-6.171811,"distance":1834,"line":0,"i_long":106.665036,"station_id":"BPR","station_name":"Batuceper","transit":false}]]}