{"data":[[{"station_name":"Klender","i_long":106.899548,"i_lat":-6.2135,"line":1,"is_transit":false,"transit":false,"station_id":"KLD","time":0,"distance":0},{"i_lat":-6.215568,"i_long":106.922662,"station_name":"Buaran","station_id":"BUA","transit":false,"is_transit":false,"time":2,"line":0,"distance":3100},{"distance":1305,"transit":false,"station_id":"KLDB","i_long":106.939679,"line":1,"is_transit":false,"time":1,"i_lat":-6.217455,"station_name":"Klenderbaru"},{"line":0,"station_name":"Cakung","transit":false,"i_lat":-6.219053,"station_id":"CUK","is_transit":false,"distance":1385,"time":8,"i_long":106.951283},{"distance":3097,"line":1,"station_name":"Kranji","i_lat":-6.224515,"i_long":106.977657,"station_id":"KRI","time":3,"is_transit":false,"transit":false},{"station_id":"BKS","i_long":106.997013,"line":0,"transit":false,"time":4,"distance":2520,"is_transit":false,"i_lat":-6.236616,"station_name":"Bekasi"},{"station_name":"Bekasi Timur","is_transit":false,"distance":2368,"station_id":"BKST","transit":false,"i_lat":-6.248029,"i_long":107.016735,"line":0,"time":2},{"distance":4460,"transit":false,"i_long":107.055722,"line":1,"is_transit":false,"i_lat":-6.258864,"station_name":"Tambun","station_id":"TB","time":7},{"is_transit":false,"station_name":"Cibitung","transit":false,"i_lat":-6.261877,"line":0,"distance":3420,"station_id":"CIT","i_long":107.083084,"time":3},{"station_id":"TLM","i_lat":-6.262938,"line":1,"distance":2800,"time":2,"i_long":107.093313,"is_transit":false,"station_name":"Metland Telaga Murni","transit":false},{"time":4,"station_id":"CKR","distance":3689,"station_name":"Cikarang","i_long":107.144613,"line":0,"transit":false,"i_lat":-6.2553149999999995,"is_transit":false}]]}