{"data":[[{"i_long":106.899548,"time":0,"station_id":"KLD","transit":false,"station_name":"Klender","i_lat":-6.2135,"is_transit":false,"line":1,"distance":0},{"i_lat":-6.215568,"time":2,"line":1,"is_transit":false,"distance":3100,"transit":false,"i_long":106.922662,"station_id":"BUA","station_name":"Buaran"},{"station_id":"KLDB","distance":1305,"station_name":"Klenderbaru","transit":false,"i_lat":-6.217455,"time":1,"line":1,"i_long":106.939679,"is_transit":false},{"i_lat":-6.219053,"is_transit":false,"time":8,"station_id":"CUK","i_long":106.951283,"transit":false,"distance":1385,"station_name":"Cakung","line":1},{"time":3,"line":1,"distance":3097,"i_long":106.977657,"is_transit":false,"transit":false,"station_id":"KRI","station_name":"Kranji","i_lat":-6.224515},{"i_lat":-6.236616,"station_id":"BKS","line":1,"time":4,"distance":2520,"is_transit":false,"i_long":106.997013,"transit":false,"station_name":"Bekasi"},{"is_transit":false,"station_name":"Bekasi Timur","station_id":"BKST","i_lat":-6.248029,"line":1,"transit":false,"i_long":107.016735,"distance":2368,"time":2}]]}