{"data":[[{"time":0,"transit":false,"i_lat":-6.2135,"distance":0,"i_long":106.899548,"station_id":"KLD","line":1,"station_name":"Klender","is_transit":false},{"time":3,"i_lat":-6.215091,"i_long":106.86807400000001,"station_id":"JNG","is_transit":false,"transit":false,"distance":3395,"station_name":"Jatinegara","line":1},{"i_lat":-6.212485,"transit":false,"station_name":"Matraman","distance":1377,"station_id":"MTR","line":1,"time":2,"is_transit":false,"i_long":106.858896},{"station_name":"Manggarai","time":2,"is_transit":true,"transit":true,"line":2,"i_lat":-6.209883,"distance":1275,"station_id":"MRI","i_long":106.84912},{"distance":1590,"i_long":106.840169,"station_id":"CKI","transit":false,"i_lat":-6.198556,"is_transit":false,"station_name":"Cikini","line":2,"time":4},{"station_name":"Gondangdia","distance":1750,"line":2,"transit":false,"is_transit":false,"i_long":106.832183,"time":3,"station_id":"GDD","i_lat":-6.186295},{"is_transit":false,"station_name":"Juanda","distance":2015,"i_lat":-6.166716,"transit":false,"station_id":"JUA","i_long":106.828284,"line":2,"time":4},{"is_transit":false,"station_name":"Sawah Besar","time":2,"distance":1149,"i_long":106.827103,"i_lat":-6.160725,"station_id":"SW","line":2,"transit":false},{"line":2,"time":2,"station_name":"Manggabesar","i_long":106.82482,"is_transit":false,"transit":false,"station_id":"MGB","distance":906,"i_lat":-6.149769}],[{"station_name":"Klender","station_id":"KLD","line":1,"i_long":106.899548,"i_lat":-6.2135,"transit":false,"distance":0,"is_transit":false,"time":0},{"distance":3395,"line":1,"transit":true,"station_id":"JNG","time":3,"is_transit":true,"i_long":106.86807400000001,"station_name":"Jatinegara","i_lat":-6.215091},{"line":11,"time":2,"station_name":"Pondok Jati","transit":false,"i_long":106.861737,"station_id":"POK","i_lat":-6.209188,"distance":1236,"is_transit":false},{"i_lat":-6.193792,"i_long":106.855437,"station_name":"Kramat","transit":false,"time":2,"distance":1829,"is_transit":false,"station_id":"KMT","line":11},{"distance":973,"line":11,"time":1,"i_lat":-6.185975,"station_name":"Gang Sentiong","is_transit":false,"i_long":106.850107,"station_id":"GST","transit":false},{"station_id":"PSE","transit":false,"i_long":106.84368,"distance":1567,"line":11,"i_lat":-6.174784,"station_name":"Pasar Senen","time":8,"is_transit":false},{"time":4,"is_transit":false,"distance":1436,"line":11,"i_lat":-6.161728,"station_name":"Kemayoran","transit":false,"station_id":"KMO","i_long":106.839204},{"is_transit":false,"transit":false,"i_lat":-6.14505,"distance":1901,"line":11,"time":5,"station_id":"RJW","i_long":106.836569,"station_name":"Rajawali"},{"is_transit":true,"i_lat":-6.132549,"time":3,"line":4,"station_name":"Kampung Bandan","i_long":106.826365,"transit":true,"station_id":"KPB","distance":1444},{"time":3,"i_long":106.812439,"is_transit":true,"transit":true,"station_name":"Jakarta Kota","station_id":"JAKK","line":2,"i_lat":-6.137569,"distance":1364},{"transit":false,"i_long":106.820901,"is_transit":false,"i_lat":-6.141205,"distance":1264,"station_name":"Jayakarta","time":4,"station_id":"JAY","line":2},{"i_lat":-6.149769,"transit":false,"station_name":"Manggabesar","is_transit":false,"station_id":"MGB","distance":1080,"time":2,"line":2,"i_long":106.82482}],[{"station_id":"KLD","time":0,"i_long":106.899548,"distance":0,"transit":false,"is_transit":false,"i_lat":-6.2135,"line":1,"station_name":"Klender"},{"line":1,"distance":3395,"i_long":106.86807400000001,"station_name":"Jatinegara","transit":false,"i_lat":-6.215091,"time":3,"is_transit":false,"station_id":"JNG"},{"is_transit":false,"time":2,"station_id":"MTR","i_long":106.858896,"line":1,"station_name":"Matraman","distance":1377,"transit":false,"i_lat":-6.212485},{"i_long":106.84912,"time":2,"station_id":"MRI","distance":1275,"i_lat":-6.209883,"line":2,"station_name":"Manggarai","transit":false,"is_transit":false},{"i_long":106.822649,"distance":3186,"station_id":"SUD","line":1,"i_lat":-6.202263,"station_name":"Sudirman","time":4,"transit":false,"is_transit":false},{"is_transit":false,"i_lat":-6.201433,"time":1,"i_long":106.819881,"transit":false,"line":1,"distance":280,"station_id":"SUDB","station_name":"Sudirman Baru"},{"transit":false,"station_id":"KAT","is_transit":false,"i_lat":-6.20132,"time":1,"distance":471,"i_long":106.816351,"station_name":"Karet","line":1},{"i_long":106.811091,"i_lat":-6.185545,"is_transit":false,"station_name":"Tanah Abang","station_id":"THB","line":1,"time":5,"distance":2029,"transit":false},{"time":8,"station_id":"DU","distance":3632,"transit":false,"is_transit":false,"i_long":106.800832,"station_name":"Duri","line":1,"i_lat":-6.155215},{"i_long":106.79867,"station_name":"Angke","line":1,"time":4,"station_id":"AK","i_lat":-6.144674,"distance":1230,"is_transit":false,"transit":false},{"time":9,"transit":true,"distance":4102,"i_long":106.826365,"station_name":"Kampung Bandan","i_lat":-6.132549,"station_id":"KPB","is_transit":true,"line":4},{"i_lat":-6.137569,"time":3,"line":2,"transit":true,"distance":1364,"is_transit":true,"station_id":"JAKK","station_name":"Jakarta Kota","i_long":106.812439},{"transit":false,"station_name":"Jayakarta","distance":1264,"time":4,"i_lat":-6.141205,"i_long":106.820901,"station_id":"JAY","line":2,"is_transit":false},{"is_transit":false,"distance":1080,"time":2,"i_lat":-6.149769,"transit":false,"i_long":106.82482,"line":2,"station_id":"MGB","station_name":"Manggabesar"}],[{"time":0,"station_id":"KLD","i_lat":-6.2135,"station_name":"Klender","transit":false,"distance":0,"is_transit":false,"i_long":106.899548,"line":1},{"station_id":"JNG","station_name":"Jatinegara","transit":true,"time":3,"is_transit":true,"i_long":106.86807400000001,"line":1,"distance":3395,"i_lat":-6.215091},{"is_transit":false,"i_long":106.861737,"transit":false,"distance":1236,"station_id":"POK","line":11,"i_lat":-6.209188,"station_name":"Pondok Jati","time":2},{"station_name":"Kramat","i_lat":-6.193792,"i_long":106.855437,"is_transit":false,"time":2,"station_id":"KMT","distance":1829,"line":11,"transit":false},{"i_long":106.850107,"time":1,"is_transit":false,"station_id":"GST","station_name":"Gang Sentiong","line":11,"transit":false,"i_lat":-6.185975,"distance":973},{"station_name":"Pasar Senen","i_lat":-6.174784,"i_long":106.84368,"is_transit":false,"time":8,"distance":1567,"line":11,"transit":false,"station_id":"PSE"},{"time":4,"station_id":"KMO","i_lat":-6.161728,"i_long":106.839204,"station_name":"Kemayoran","line":11,"transit":false,"is_transit":false,"distance":1436},{"station_id":"RJW","i_long":106.836569,"transit":false,"i_lat":-6.14505,"line":11,"distance":1901,"is_transit":false,"station_name":"Rajawali","time":5},{"line":4,"time":3,"transit":true,"distance":1444,"is_transit":true,"i_lat":-6.132549,"i_long":106.826365,"station_name":"Kampung Bandan","station_id":"KPB"},{"distance":4102,"is_transit":false,"station_name":"Angke","i_lat":-6.144674,"line":1,"time":9,"transit":false,"i_long":106.79867,"station_id":"AK"},{"transit":false,"station_id":"DU","i_lat":-6.155215,"line":1,"time":4,"is_transit":false,"i_long":106.800832,"distance":1230,"station_name":"Duri"},{"transit":false,"line":1,"is_transit":false,"station_name":"Tanah Abang","i_lat":-6.185545,"time":8,"station_id":"THB","distance":3632,"i_long":106.811091},{"station_id":"KAT","line":1,"distance":2029,"is_transit":false,"time":5,"transit":false,"i_long":106.816351,"i_lat":-6.20132,"station_name":"Karet"},{"distance":471,"i_long":106.819881,"line":1,"station_id":"SUDB","time":1,"is_transit":false,"transit":false,"station_name":"Sudirman Baru","i_lat":-6.201433},{"i_long":106.822649,"station_name":"Sudirman","line":1,"distance":280,"station_id":"SUD","is_transit":false,"time":1,"i_lat":-6.202263,"transit":false},{"is_transit":true,"station_id":"MRI","i_lat":-6.209883,"line":2,"i_long":106.84912,"time":4,"station_name":"Manggarai","transit":true,"distance":3186},{"line":2,"i_long":106.840169,"time":4,"distance":1590,"is_transit":false,"station_id":"CKI","transit":false,"i_lat":-6.198556,"station_name":"Cikini"},{"i_lat":-6.186295,"distance":1750,"station_name":"Gondangdia","transit":false,"line":2,"i_long":106.832183,"station_id":"GDD","is_transit":false,"time":3},{"station_id":"JUA","transit":false,"is_transit":false,"station_name":"Juanda","distance":2015,"i_lat":-6.166716,"line":2,"i_long":106.828284,"time":4},{"is_transit":false,"line":2,"transit":false,"i_long":106.827103,"station_name":"Sawah Besar","distance":1149,"station_id":"SW","time":2,"i_lat":-6.160725},{"i_long":106.82482,"station_id":"MGB","transit":false,"time":2,"is_transit":false,"station_name":"Manggabesar","distance":906,"i_lat":-6.149769,"line":2}]]}