{"data":[[{"station_id":"KLD","station_name":"Klender","is_transit":false,"transit":false,"distance":0,"time":0,"i_lat":-6.2135,"i_long":106.899548,"line":1},{"station_name":"Buaran","line":1,"i_long":106.922662,"station_id":"BUA","is_transit":false,"time":2,"i_lat":-6.215568,"transit":false,"distance":3100},{"station_name":"Klenderbaru","transit":false,"i_long":106.939679,"time":1,"is_transit":false,"station_id":"KLDB","line":1,"distance":1305,"i_lat":-6.217455},{"i_lat":-6.219053,"station_name":"Cakung","transit":false,"distance":1385,"i_long":106.951283,"station_id":"CUK","time":8,"line":1,"is_transit":false},{"line":1,"transit":false,"time":3,"station_id":"KRI","i_long":106.977657,"station_name":"Kranji","is_transit":false,"distance":3097,"i_lat":-6.224515},{"is_transit":false,"transit":false,"line":1,"station_id":"BKS","station_name":"Bekasi","time":4,"i_long":106.997013,"distance":2520,"i_lat":-6.236616},{"station_id":"BKST","is_transit":false,"line":1,"distance":2368,"i_lat":-6.248029,"time":2,"transit":false,"i_long":107.016735,"station_name":"Bekasi Timur"},{"i_lat":-6.258864,"distance":4460,"transit":false,"line":1,"station_name":"Tambun","is_transit":false,"station_id":"TB","time":7,"i_long":107.055722},{"station_name":"Cibitung","distance":3420,"time":3,"is_transit":false,"line":1,"station_id":"CIT","transit":false,"i_lat":-6.261877,"i_long":107.083084},{"is_transit":false,"i_lat":-6.262938,"station_id":"TLM","line":1,"transit":false,"station_name":"Metland Telaga Murni","time":2,"i_long":107.093313,"distance":2800},{"time":4,"is_transit":false,"distance":3689,"i_long":107.144613,"i_lat":-6.2553149999999995,"transit":false,"station_name":"Cikarang","station_id":"CKR","line":1}]]}