{"data":[[{"station_name":"Klender","is_transit":false,"i_long":106.899548,"station_id":"KLD","i_lat":-6.2135,"distance":0,"time":0,"line":1,"transit":false},{"transit":false,"line":1,"station_name":"Buaran","i_lat":-6.215568,"i_long":106.922662,"distance":3100,"time":2,"is_transit":false,"station_id":"BUA"},{"station_name":"Klenderbaru","station_id":"KLDB","i_lat":-6.217455,"i_long":106.939679,"distance":1305,"time":1,"transit":false,"line":1,"is_transit":false},{"distance":1385,"is_transit":false,"time":8,"i_long":106.951283,"station_name":"Cakung","transit":false,"i_lat":-6.219053,"line":1,"station_id":"CUK"},{"distance":3097,"i_long":106.977657,"transit":false,"line":1,"time":3,"station_name":"Kranji","is_transit":false,"station_id":"KRI","i_lat":-6.224515},{"i_lat":-6.236616,"i_long":106.997013,"line":1,"station_name":"Bekasi","is_transit":false,"time":4,"distance":2520,"transit":false,"station_id":"BKS"},{"i_lat":-6.248029,"transit":false,"station_name":"Bekasi Timur","line":1,"i_long":107.016735,"distance":2368,"is_transit":false,"station_id":"BKST","time":2}]]}