{"data":[[{"is_transit":false,"station_name":"Klender","distance":0,"time":0,"station_id":"KLD","transit":false,"i_lat":-6.2135,"i_long":106.899548,"line":1},{"is_transit":false,"line":1,"station_name":"Jatinegara","i_lat":-6.215091,"time":3,"i_long":106.86807400000001,"distance":3395,"transit":false,"station_id":"JNG"},{"transit":false,"time":2,"station_name":"Matraman","line":1,"i_lat":-6.212485,"is_transit":false,"distance":1377,"station_id":"MTR","i_long":106.858896},{"station_id":"MRI","i_long":106.84912,"station_name":"Manggarai","is_transit":false,"distance":1275,"time":2,"transit":false,"line":2,"i_lat":-6.209883},{"station_name":"Sudirman","distance":3186,"i_long":106.822649,"i_lat":-6.202263,"line":1,"is_transit":false,"time":4,"station_id":"SUD","transit":false},{"distance":280,"line":1,"transit":false,"time":1,"station_name":"Sudirman Baru","i_lat":-6.201433,"is_transit":false,"station_id":"SUDB","i_long":106.819881},{"transit":false,"station_name":"Karet","station_id":"KAT","line":1,"distance":471,"i_lat":-6.20132,"i_long":106.816351,"time":1,"is_transit":false},{"distance":2029,"i_long":106.811091,"is_transit":true,"line":1,"i_lat":-6.185545,"station_name":"Tanah Abang","transit":true,"station_id":"THB","time":5},{"station_id":"PLM","transit":false,"i_lat":-6.207404,"line":6,"distance":3191,"time":6,"station_name":"Palmerah","i_long":106.79689,"is_transit":false},{"distance":3737,"transit":false,"i_lat":-6.237242,"i_long":106.780334,"is_transit":false,"time":7,"station_id":"KBY","station_name":"Kebayoran","line":6},{"i_lat":-6.276362,"i_long":106.74273,"station_id":"PDJ","time":8,"distance":6218,"line":6,"transit":false,"is_transit":false,"station_name":"Pondokranji"},{"transit":false,"distance":2179,"time":3,"line":6,"is_transit":false,"station_name":"Jurangmangu","i_lat":-6.288927,"i_long":106.728916,"station_id":"JMU"},{"i_long":106.712277,"station_name":"Sudimara","distance":1994,"time":4,"is_transit":false,"i_lat":-6.296963,"transit":false,"line":6,"station_id":"SDM"},{"distance":4566,"i_lat":-6.314823,"station_id":"RU","line":6,"i_long":106.675475,"time":6,"is_transit":false,"transit":false,"station_name":"Rawa Buntu"},{"is_transit":false,"station_id":"SRP","time":4,"i_long":106.66566,"line":6,"station_name":"Serpong","transit":false,"distance":2413,"i_lat":-6.319871},{"line":3,"time":4,"transit":false,"i_lat":-6.32484,"station_id":"CSK","station_name":"Cisauk","is_transit":false,"distance":1784,"i_long":106.640411}],[{"distance":0,"is_transit":false,"station_name":"Klender","time":0,"station_id":"KLD","i_lat":-6.2135,"transit":false,"i_long":106.899548,"line":1},{"time":3,"line":1,"distance":3395,"transit":true,"station_name":"Jatinegara","is_transit":true,"i_lat":-6.215091,"i_long":106.86807400000001,"station_id":"JNG"},{"i_lat":-6.209188,"station_id":"POK","distance":1236,"i_long":106.861737,"transit":false,"is_transit":false,"line":11,"station_name":"Pondok Jati","time":2},{"is_transit":false,"transit":false,"station_id":"KMT","i_lat":-6.193792,"distance":1829,"line":11,"time":2,"station_name":"Kramat","i_long":106.855437},{"distance":973,"station_name":"Gang Sentiong","time":1,"i_long":106.850107,"line":11,"i_lat":-6.185975,"transit":false,"is_transit":false,"station_id":"GST"},{"is_transit":false,"i_lat":-6.174784,"transit":false,"station_id":"PSE","time":8,"i_long":106.84368,"distance":1567,"line":11,"station_name":"Pasar Senen"},{"station_name":"Kemayoran","line":11,"time":4,"distance":1436,"station_id":"KMO","i_lat":-6.161728,"transit":false,"i_long":106.839204,"is_transit":false},{"station_id":"RJW","transit":false,"i_long":106.836569,"time":5,"line":11,"distance":1901,"station_name":"Rajawali","is_transit":false,"i_lat":-6.14505},{"line":4,"transit":true,"station_id":"KPB","is_transit":true,"station_name":"Kampung Bandan","distance":1444,"i_lat":-6.132549,"time":3,"i_long":106.826365},{"time":9,"transit":false,"line":1,"i_lat":-6.144674,"is_transit":false,"distance":4102,"i_long":106.79867,"station_name":"Angke","station_id":"AK"},{"station_name":"Duri","i_long":106.800832,"i_lat":-6.155215,"time":4,"is_transit":false,"line":1,"transit":false,"distance":1230,"station_id":"DU"},{"time":8,"station_name":"Tanah Abang","i_long":106.811091,"is_transit":true,"station_id":"THB","line":1,"transit":true,"distance":3632,"i_lat":-6.185545},{"is_transit":false,"station_name":"Palmerah","time":6,"transit":false,"distance":3191,"station_id":"PLM","i_lat":-6.207404,"line":6,"i_long":106.79689},{"station_id":"KBY","i_long":106.780334,"line":6,"is_transit":false,"i_lat":-6.237242,"distance":3737,"transit":false,"time":7,"station_name":"Kebayoran"},{"i_lat":-6.276362,"transit":false,"i_long":106.74273,"is_transit":false,"distance":6218,"station_id":"PDJ","station_name":"Pondokranji","line":6,"time":8},{"transit":false,"line":6,"i_lat":-6.288927,"i_long":106.728916,"station_id":"JMU","is_transit":false,"station_name":"Jurangmangu","distance":2179,"time":3},{"i_lat":-6.296963,"line":6,"time":4,"transit":false,"station_name":"Sudimara","distance":1994,"station_id":"SDM","i_long":106.712277,"is_transit":false},{"i_long":106.675475,"line":6,"i_lat":-6.314823,"is_transit":false,"transit":false,"time":6,"station_name":"Rawa Buntu","distance":4566,"station_id":"RU"},{"time":4,"station_name":"Serpong","station_id":"SRP","is_transit":false,"distance":2413,"line":6,"transit":false,"i_lat":-6.319871,"i_long":106.66566},{"is_transit":false,"transit":false,"station_name":"Cisauk","i_lat":-6.32484,"i_long":106.640411,"station_id":"CSK","line":3,"distance":1784,"time":4}],[{"station_id":"KLD","transit":false,"time":0,"line":1,"distance":0,"is_transit":false,"station_name":"Klender","i_lat":-6.2135,"i_long":106.899548},{"time":3,"station_id":"JNG","i_lat":-6.215091,"transit":false,"station_name":"Jatinegara","i_long":106.86807400000001,"distance":3395,"line":1,"is_transit":false},{"line":1,"station_id":"MTR","station_name":"Matraman","distance":1377,"transit":false,"time":2,"is_transit":false,"i_lat":-6.212485,"i_long":106.858896},{"transit":true,"is_transit":true,"i_lat":-6.209883,"station_name":"Manggarai","line":2,"time":2,"station_id":"MRI","i_long":106.84912,"distance":1275},{"i_long":106.840169,"transit":false,"line":2,"station_id":"CKI","i_lat":-6.198556,"is_transit":false,"time":4,"distance":1590,"station_name":"Cikini"},{"transit":false,"line":2,"station_id":"GDD","i_long":106.832183,"is_transit":false,"time":3,"i_lat":-6.186295,"station_name":"Gondangdia","distance":1750},{"i_long":106.828284,"is_transit":false,"station_id":"JUA","distance":2015,"line":2,"i_lat":-6.166716,"transit":false,"station_name":"Juanda","time":4},{"is_transit":false,"transit":false,"distance":1149,"station_id":"SW","line":2,"time":2,"i_long":106.827103,"i_lat":-6.160725,"station_name":"Sawah Besar"},{"i_lat":-6.149769,"line":2,"time":2,"station_id":"MGB","is_transit":false,"distance":906,"station_name":"Manggabesar","i_long":106.82482,"transit":false},{"station_id":"JAY","line":2,"transit":false,"i_lat":-6.141205,"distance":1080,"time":2,"is_transit":false,"station_name":"Jayakarta","i_long":106.820901},{"is_transit":true,"i_lat":-6.137569,"i_long":106.812439,"station_name":"Jakarta Kota","distance":1264,"time":4,"station_id":"JAKK","line":2,"transit":true},{"i_lat":-6.132549,"i_long":106.826365,"time":3,"line":4,"distance":1364,"station_id":"KPB","station_name":"Kampung Bandan","is_transit":true,"transit":true},{"station_name":"Angke","transit":false,"is_transit":false,"distance":4102,"time":9,"line":1,"i_lat":-6.144674,"station_id":"AK","i_long":106.79867},{"is_transit":false,"station_id":"DU","i_lat":-6.155215,"i_long":106.800832,"station_name":"Duri","time":4,"transit":false,"distance":1230,"line":1},{"line":1,"transit":true,"i_long":106.811091,"i_lat":-6.185545,"distance":3632,"is_transit":true,"station_id":"THB","station_name":"Tanah Abang","time":8},{"transit":false,"station_id":"PLM","line":6,"i_lat":-6.207404,"station_name":"Palmerah","time":6,"distance":3191,"is_transit":false,"i_long":106.79689},{"station_id":"KBY","i_lat":-6.237242,"i_long":106.780334,"station_name":"Kebayoran","line":6,"is_transit":false,"distance":3737,"transit":false,"time":7},{"i_long":106.74273,"distance":6218,"station_name":"Pondokranji","time":8,"station_id":"PDJ","i_lat":-6.276362,"line":6,"transit":false,"is_transit":false},{"transit":false,"i_lat":-6.288927,"station_id":"JMU","time":3,"station_name":"Jurangmangu","distance":2179,"is_transit":false,"i_long":106.728916,"line":6},{"transit":false,"station_name":"Sudimara","is_transit":false,"distance":1994,"time":4,"station_id":"SDM","i_lat":-6.296963,"line":6,"i_long":106.712277},{"line":6,"station_id":"RU","transit":false,"station_name":"Rawa Buntu","time":6,"i_lat":-6.314823,"distance":4566,"i_long":106.675475,"is_transit":false},{"station_name":"Serpong","time":4,"transit":false,"station_id":"SRP","distance":2413,"i_lat":-6.319871,"line":6,"i_long":106.66566,"is_transit":false},{"distance":1784,"is_transit":false,"i_lat":-6.32484,"transit":false,"station_id":"CSK","time":4,"station_name":"Cisauk","line":3,"i_long":106.640411}],[{"station_name":"Klender","distance":0,"time":0,"i_lat":-6.2135,"transit":false,"is_transit":false,"i_long":106.899548,"station_id":"KLD","line":1},{"i_long":106.86807400000001,"time":3,"station_id":"JNG","line":1,"station_name":"Jatinegara","distance":3395,"transit":true,"i_lat":-6.215091,"is_transit":true},{"i_lat":-6.209188,"is_transit":false,"i_long":106.861737,"line":11,"time":2,"station_id":"POK","distance":1236,"transit":false,"station_name":"Pondok Jati"},{"distance":1829,"transit":false,"is_transit":false,"i_long":106.855437,"station_name":"Kramat","time":2,"station_id":"KMT","line":11,"i_lat":-6.193792},{"i_long":106.850107,"station_name":"Gang Sentiong","line":11,"station_id":"GST","is_transit":false,"transit":false,"time":1,"distance":973,"i_lat":-6.185975},{"time":8,"line":11,"i_lat":-6.174784,"station_id":"PSE","is_transit":false,"station_name":"Pasar Senen","transit":false,"distance":1567,"i_long":106.84368},{"i_long":106.839204,"line":11,"station_name":"Kemayoran","i_lat":-6.161728,"station_id":"KMO","is_transit":false,"transit":false,"distance":1436,"time":4},{"station_name":"Rajawali","station_id":"RJW","i_long":106.836569,"distance":1901,"line":11,"transit":false,"i_lat":-6.14505,"time":5,"is_transit":false},{"is_transit":true,"station_id":"KPB","i_long":106.826365,"line":4,"station_name":"Kampung Bandan","i_lat":-6.132549,"time":3,"distance":1444,"transit":true},{"transit":true,"is_transit":true,"i_long":106.812439,"line":2,"station_id":"JAKK","distance":1364,"time":3,"station_name":"Jakarta Kota","i_lat":-6.137569},{"station_name":"Jayakarta","i_long":106.820901,"i_lat":-6.141205,"distance":1264,"time":4,"line":2,"transit":false,"is_transit":false,"station_id":"JAY"},{"is_transit":false,"station_name":"Manggabesar","time":2,"line":2,"i_long":106.82482,"i_lat":-6.149769,"transit":false,"station_id":"MGB","distance":1080},{"is_transit":false,"transit":false,"time":2,"station_name":"Sawah Besar","i_lat":-6.160725,"i_long":106.827103,"line":2,"station_id":"SW","distance":906},{"time":2,"i_lat":-6.166716,"distance":1149,"transit":false,"station_id":"JUA","i_long":106.828284,"station_name":"Juanda","is_transit":false,"line":2},{"i_lat":-6.186295,"i_long":106.832183,"station_id":"GDD","station_name":"Gondangdia","distance":2015,"time":4,"line":2,"transit":false,"is_transit":false},{"station_id":"CKI","transit":false,"is_transit":false,"i_long":106.840169,"station_name":"Cikini","line":2,"distance":1750,"i_lat":-6.198556,"time":3},{"time":4,"is_transit":true,"i_lat":-6.209883,"transit":true,"station_id":"MRI","distance":1590,"i_long":106.84912,"line":2,"station_name":"Manggarai"},{"i_lat":-6.202263,"is_transit":false,"station_id":"SUD","distance":3186,"i_long":106.822649,"time":4,"line":1,"transit":false,"station_name":"Sudirman"},{"is_transit":false,"transit":false,"distance":280,"time":1,"i_long":106.819881,"line":1,"station_name":"Sudirman Baru","station_id":"SUDB","i_lat":-6.201433},{"time":1,"is_transit":false,"distance":471,"station_id":"KAT","i_long":106.816351,"transit":false,"station_name":"Karet","i_lat":-6.20132,"line":1},{"time":5,"transit":true,"line":1,"station_id":"THB","i_lat":-6.185545,"is_transit":true,"station_name":"Tanah Abang","i_long":106.811091,"distance":2029},{"time":6,"station_name":"Palmerah","i_long":106.79689,"is_transit":false,"station_id":"PLM","line":6,"i_lat":-6.207404,"distance":3191,"transit":false},{"distance":3737,"transit":false,"i_lat":-6.237242,"station_name":"Kebayoran","station_id":"KBY","is_transit":false,"time":7,"line":6,"i_long":106.780334},{"is_transit":false,"station_id":"PDJ","distance":6218,"i_long":106.74273,"line":6,"time":8,"transit":false,"station_name":"Pondokranji","i_lat":-6.276362},{"time":3,"station_name":"Jurangmangu","transit":false,"is_transit":false,"station_id":"JMU","i_lat":-6.288927,"line":6,"distance":2179,"i_long":106.728916},{"i_lat":-6.296963,"line":6,"station_name":"Sudimara","transit":false,"is_transit":false,"station_id":"SDM","distance":1994,"time":4,"i_long":106.712277},{"is_transit":false,"line":6,"i_long":106.675475,"transit":false,"station_name":"Rawa Buntu","time":6,"distance":4566,"i_lat":-6.314823,"station_id":"RU"},{"station_id":"SRP","i_lat":-6.319871,"transit":false,"line":6,"time":4,"is_transit":false,"distance":2413,"i_long":106.66566,"station_name":"Serpong"},{"i_long":106.640411,"i_lat":-6.32484,"transit":false,"is_transit":false,"time":4,"station_id":"CSK","distance":1784,"line":3,"station_name":"Cisauk"}]]}