{"data":[[{"station_id":"KLD","time":0,"station_name":"Klender","i_long":106.899548,"is_transit":false,"distance":0,"transit":false,"i_lat":-6.2135,"line":1},{"transit":true,"line":0,"i_long":106.86807400000001,"i_lat":-6.215091,"time":3,"station_name":"Jatinegara","station_id":"JNG","is_transit":true,"distance":3395},{"is_transit":false,"i_lat":-6.209188,"station_name":"Pondok Jati","distance":1236,"i_long":106.861737,"line":11,"time":2,"station_id":"POK","transit":false},{"is_transit":false,"transit":false,"time":2,"distance":1829,"i_long":106.855437,"i_lat":-6.193792,"station_name":"Kramat","station_id":"KMT","line":11},{"station_name":"Gang Sentiong","line":11,"is_transit":false,"distance":973,"i_long":106.850107,"station_id":"GST","transit":false,"time":1,"i_lat":-6.185975},{"time":8,"station_id":"PSE","transit":false,"i_lat":-6.174784,"line":11,"distance":1567,"i_long":106.84368,"station_name":"Pasar Senen","is_transit":false},{"is_transit":false,"time":4,"station_id":"KMO","transit":false,"station_name":"Kemayoran","distance":1436,"i_lat":-6.161728,"i_long":106.839204,"line":11}],[{"station_id":"KLD","time":0,"transit":false,"i_lat":-6.2135,"i_long":106.899548,"is_transit":false,"distance":0,"station_name":"Klender","line":1},{"i_long":106.86807400000001,"transit":false,"is_transit":true,"i_lat":-6.215091,"station_name":"Jatinegara","station_id":"JNG","time":3,"distance":3395,"line":0},{"i_lat":-6.212485,"distance":1377,"station_name":"Matraman","transit":false,"line":1,"station_id":"MTR","time":2,"is_transit":false,"i_long":106.858896},{"time":2,"distance":1275,"station_name":"Manggarai","is_transit":true,"station_id":"MRI","transit":false,"i_lat":-6.209883,"i_long":106.84912,"line":0},{"transit":false,"station_name":"Sudirman","time":4,"line":1,"distance":3186,"station_id":"SUD","i_long":106.822649,"i_lat":-6.202263,"is_transit":false},{"distance":280,"i_long":106.819881,"line":1,"transit":false,"station_id":"SUDB","station_name":"Sudirman Baru","is_transit":false,"time":1,"i_lat":-6.201433},{"line":1,"station_id":"KAT","is_transit":false,"transit":false,"distance":471,"station_name":"Karet","time":1,"i_lat":-6.20132,"i_long":106.816351},{"station_id":"THB","station_name":"Tanah Abang","line":1,"transit":false,"is_transit":true,"time":5,"distance":2029,"i_lat":-6.185545,"i_long":106.811091},{"is_transit":true,"transit":true,"station_name":"Duri","i_long":106.800832,"station_id":"DU","distance":3632,"time":8,"line":1,"i_lat":-6.155215},{"time":4,"station_id":"AK","station_name":"Angke","i_lat":-6.144674,"line":0,"i_long":106.79867,"transit":false,"distance":1230,"is_transit":false},{"distance":4102,"station_name":"Kampung Bandan","i_lat":-6.132549,"is_transit":true,"time":9,"transit":true,"i_long":106.826365,"line":0,"station_id":"KPB"},{"station_name":"Rajawali","i_lat":-6.14505,"line":11,"distance":1444,"is_transit":false,"station_id":"RJW","i_long":106.836569,"time":3,"transit":false},{"distance":1901,"station_id":"KMO","line":11,"transit":false,"station_name":"Kemayoran","is_transit":false,"i_lat":-6.161728,"time":5,"i_long":106.839204}],[{"line":1,"station_name":"Klender","i_long":106.899548,"station_id":"KLD","distance":0,"time":0,"i_lat":-6.2135,"is_transit":false,"transit":false},{"station_name":"Jatinegara","distance":3395,"line":0,"is_transit":true,"time":3,"station_id":"JNG","transit":false,"i_long":106.86807400000001,"i_lat":-6.215091},{"i_long":106.858896,"line":1,"station_name":"Matraman","is_transit":false,"transit":false,"station_id":"MTR","distance":1377,"time":2,"i_lat":-6.212485},{"is_transit":true,"i_long":106.84912,"line":0,"distance":1275,"station_id":"MRI","i_lat":-6.209883,"time":2,"station_name":"Manggarai","transit":true},{"line":0,"is_transit":false,"i_lat":-6.198556,"station_name":"Cikini","time":4,"station_id":"CKI","i_long":106.840169,"distance":1590,"transit":false},{"i_lat":-6.186295,"i_long":106.832183,"station_name":"Gondangdia","line":2,"is_transit":false,"time":3,"distance":1750,"station_id":"GDD","transit":false},{"i_long":106.828284,"station_id":"JUA","station_name":"Juanda","is_transit":false,"i_lat":-6.166716,"time":4,"distance":2015,"transit":false,"line":2},{"is_transit":false,"distance":1149,"station_name":"Sawah Besar","time":2,"i_long":106.827103,"station_id":"SW","transit":false,"i_lat":-6.160725,"line":2},{"i_lat":-6.149769,"time":2,"line":2,"i_long":106.82482,"station_id":"MGB","distance":906,"is_transit":false,"transit":false,"station_name":"Manggabesar"},{"line":7,"time":2,"station_id":"JAY","distance":1080,"station_name":"Jayakarta","i_long":106.820901,"i_lat":-6.141205,"transit":false,"is_transit":false},{"line":0,"is_transit":true,"transit":true,"i_long":106.812439,"station_id":"JAKK","station_name":"Jakarta Kota","distance":1264,"time":4,"i_lat":-6.137569},{"i_long":106.826365,"station_id":"KPB","station_name":"Kampung Bandan","time":3,"is_transit":true,"distance":1364,"transit":true,"i_lat":-6.132549,"line":0},{"station_name":"Rajawali","line":11,"is_transit":false,"station_id":"RJW","time":3,"transit":false,"i_lat":-6.14505,"i_long":106.836569,"distance":1444},{"time":5,"line":11,"distance":1901,"transit":false,"station_name":"Kemayoran","i_lat":-6.161728,"is_transit":false,"i_long":106.839204,"station_id":"KMO"}]]}