{"data":[[{"i_lat":-6.2135,"time":0,"distance":0,"is_transit":false,"i_long":106.899548,"transit":false,"line":1,"station_id":"KLD","station_name":"Klender"},{"distance":3395,"i_long":106.86807400000001,"i_lat":-6.215091,"transit":false,"station_id":"JNG","time":3,"station_name":"Jatinegara","is_transit":false,"line":1},{"i_lat":-6.212485,"i_long":106.858896,"station_name":"Matraman","distance":1377,"is_transit":false,"transit":false,"line":1,"time":2,"station_id":"MTR"},{"time":2,"distance":1275,"is_transit":false,"i_long":106.84912,"i_lat":-6.209883,"station_name":"Manggarai","transit":false,"station_id":"MRI","line":2},{"station_id":"SUD","time":4,"is_transit":false,"transit":false,"i_lat":-6.202263,"distance":3186,"line":1,"i_long":106.822649,"station_name":"Sudirman"},{"is_transit":false,"station_id":"SUDB","i_lat":-6.201433,"transit":false,"line":1,"i_long":106.819881,"distance":280,"station_name":"Sudirman Baru","time":1},{"i_lat":-6.20132,"i_long":106.816351,"line":1,"time":1,"is_transit":false,"distance":471,"station_id":"KAT","station_name":"Karet","transit":false},{"station_id":"THB","is_transit":false,"i_long":106.811091,"line":1,"time":5,"i_lat":-6.185545,"distance":2029,"station_name":"Tanah Abang","transit":false},{"distance":3632,"is_transit":true,"i_long":106.800832,"time":8,"station_id":"DU","i_lat":-6.155215,"station_name":"Duri","transit":true,"line":1},{"line":5,"i_long":106.788277,"distance":1700,"is_transit":false,"i_lat":-6.162021,"transit":false,"station_name":"Grogol","station_id":"GGL","time":3},{"station_name":"Pesing","i_lat":-6.161433,"distance":2036,"time":2,"station_id":"PSG","transit":false,"i_long":106.771379,"is_transit":false,"line":5},{"station_id":"TKO","i_long":106.756522,"line":5,"distance":1614,"i_lat":-6.1587309999999995,"transit":false,"time":2,"station_name":"Taman Kota","is_transit":false}],[{"time":0,"distance":0,"is_transit":false,"station_id":"KLD","i_lat":-6.2135,"station_name":"Klender","i_long":106.899548,"transit":false,"line":1},{"station_id":"JNG","transit":true,"i_long":106.86807400000001,"is_transit":true,"i_lat":-6.215091,"line":1,"station_name":"Jatinegara","time":3,"distance":3395},{"station_id":"POK","i_lat":-6.209188,"distance":1236,"line":11,"is_transit":false,"time":2,"i_long":106.861737,"transit":false,"station_name":"Pondok Jati"},{"is_transit":false,"i_long":106.855437,"line":11,"i_lat":-6.193792,"distance":1829,"station_id":"KMT","time":2,"transit":false,"station_name":"Kramat"},{"distance":973,"i_lat":-6.185975,"station_id":"GST","station_name":"Gang Sentiong","transit":false,"i_long":106.850107,"time":1,"line":11,"is_transit":false},{"transit":false,"distance":1567,"station_id":"PSE","station_name":"Pasar Senen","is_transit":false,"i_lat":-6.174784,"line":11,"i_long":106.84368,"time":8},{"i_lat":-6.161728,"distance":1436,"time":4,"station_name":"Kemayoran","transit":false,"station_id":"KMO","is_transit":false,"line":11,"i_long":106.839204},{"distance":1901,"i_lat":-6.14505,"transit":false,"i_long":106.836569,"is_transit":false,"time":5,"station_name":"Rajawali","station_id":"RJW","line":11},{"distance":1444,"time":3,"i_lat":-6.132549,"line":4,"station_name":"Kampung Bandan","transit":true,"station_id":"KPB","is_transit":true,"i_long":106.826365},{"i_long":106.79867,"is_transit":false,"i_lat":-6.144674,"line":1,"distance":4102,"station_id":"AK","transit":false,"time":9,"station_name":"Angke"},{"station_name":"Duri","line":1,"distance":1230,"time":4,"is_transit":true,"i_lat":-6.155215,"transit":true,"i_long":106.800832,"station_id":"DU"},{"distance":1700,"i_long":106.788277,"time":3,"transit":false,"line":5,"station_name":"Grogol","station_id":"GGL","i_lat":-6.162021,"is_transit":false},{"transit":false,"is_transit":false,"i_long":106.771379,"station_id":"PSG","line":5,"distance":2036,"station_name":"Pesing","time":2,"i_lat":-6.161433},{"i_lat":-6.1587309999999995,"transit":false,"i_long":106.756522,"distance":1614,"station_id":"TKO","station_name":"Taman Kota","is_transit":false,"time":2,"line":5}],[{"transit":false,"time":0,"station_name":"Klender","distance":0,"is_transit":false,"i_long":106.899548,"station_id":"KLD","i_lat":-6.2135,"line":1},{"time":3,"line":1,"transit":false,"distance":3395,"is_transit":false,"station_id":"JNG","station_name":"Jatinegara","i_lat":-6.215091,"i_long":106.86807400000001},{"time":2,"distance":1377,"is_transit":false,"station_name":"Matraman","station_id":"MTR","i_lat":-6.212485,"transit":false,"i_long":106.858896,"line":1},{"distance":1275,"time":2,"station_name":"Manggarai","i_lat":-6.209883,"line":2,"is_transit":true,"transit":true,"station_id":"MRI","i_long":106.84912},{"station_id":"CKI","transit":false,"i_long":106.840169,"line":2,"is_transit":false,"time":4,"distance":1590,"station_name":"Cikini","i_lat":-6.198556},{"i_long":106.832183,"station_name":"Gondangdia","time":3,"station_id":"GDD","distance":1750,"line":2,"transit":false,"i_lat":-6.186295,"is_transit":false},{"time":4,"transit":false,"distance":2015,"station_id":"JUA","i_long":106.828284,"i_lat":-6.166716,"is_transit":false,"line":2,"station_name":"Juanda"},{"time":2,"station_name":"Sawah Besar","i_lat":-6.160725,"i_long":106.827103,"line":2,"station_id":"SW","is_transit":false,"distance":1149,"transit":false},{"distance":906,"transit":false,"station_name":"Manggabesar","is_transit":false,"station_id":"MGB","i_long":106.82482,"line":2,"time":2,"i_lat":-6.149769},{"i_lat":-6.141205,"distance":1080,"is_transit":false,"station_name":"Jayakarta","time":2,"transit":false,"station_id":"JAY","i_long":106.820901,"line":2},{"line":2,"time":4,"i_lat":-6.137569,"i_long":106.812439,"station_id":"JAKK","distance":1264,"transit":true,"is_transit":true,"station_name":"Jakarta Kota"},{"is_transit":true,"station_name":"Kampung Bandan","transit":true,"distance":1364,"line":4,"i_long":106.826365,"time":3,"i_lat":-6.132549,"station_id":"KPB"},{"distance":4102,"station_id":"AK","is_transit":false,"i_lat":-6.144674,"time":9,"i_long":106.79867,"line":1,"station_name":"Angke","transit":false},{"station_name":"Duri","i_lat":-6.155215,"transit":true,"line":1,"i_long":106.800832,"time":4,"distance":1230,"station_id":"DU","is_transit":true},{"is_transit":false,"i_lat":-6.162021,"distance":1700,"transit":false,"time":3,"station_name":"Grogol","station_id":"GGL","line":5,"i_long":106.788277},{"distance":2036,"line":5,"i_lat":-6.161433,"is_transit":false,"transit":false,"i_long":106.771379,"time":2,"station_id":"PSG","station_name":"Pesing"},{"station_name":"Taman Kota","station_id":"TKO","is_transit":false,"distance":1614,"line":5,"time":2,"transit":false,"i_lat":-6.1587309999999995,"i_long":106.756522}],[{"i_long":106.899548,"is_transit":false,"station_id":"KLD","line":1,"station_name":"Klender","distance":0,"time":0,"i_lat":-6.2135,"transit":false},{"i_lat":-6.215091,"transit":true,"time":3,"station_id":"JNG","is_transit":true,"i_long":106.86807400000001,"distance":3395,"station_name":"Jatinegara","line":1},{"station_name":"Pondok Jati","is_transit":false,"station_id":"POK","i_long":106.861737,"distance":1236,"transit":false,"time":2,"i_lat":-6.209188,"line":11},{"station_id":"KMT","i_lat":-6.193792,"is_transit":false,"time":2,"station_name":"Kramat","i_long":106.855437,"line":11,"transit":false,"distance":1829},{"station_id":"GST","distance":973,"station_name":"Gang Sentiong","transit":false,"i_lat":-6.185975,"time":1,"is_transit":false,"i_long":106.850107,"line":11},{"i_long":106.84368,"distance":1567,"is_transit":false,"i_lat":-6.174784,"time":8,"transit":false,"line":11,"station_name":"Pasar Senen","station_id":"PSE"},{"i_long":106.839204,"distance":1436,"time":4,"is_transit":false,"transit":false,"station_id":"KMO","station_name":"Kemayoran","line":11,"i_lat":-6.161728},{"transit":false,"i_lat":-6.14505,"distance":1901,"line":11,"time":5,"is_transit":false,"station_id":"RJW","i_long":106.836569,"station_name":"Rajawali"},{"time":3,"station_name":"Kampung Bandan","is_transit":true,"transit":true,"station_id":"KPB","i_lat":-6.132549,"i_long":106.826365,"line":4,"distance":1444},{"i_lat":-6.137569,"station_name":"Jakarta Kota","distance":1364,"line":2,"time":3,"station_id":"JAKK","is_transit":true,"i_long":106.812439,"transit":true},{"station_id":"JAY","is_transit":false,"station_name":"Jayakarta","i_lat":-6.141205,"time":4,"line":2,"i_long":106.820901,"distance":1264,"transit":false},{"station_name":"Manggabesar","transit":false,"distance":1080,"line":2,"i_long":106.82482,"station_id":"MGB","time":2,"is_transit":false,"i_lat":-6.149769},{"transit":false,"line":2,"station_name":"Sawah Besar","i_long":106.827103,"is_transit":false,"time":2,"distance":906,"i_lat":-6.160725,"station_id":"SW"},{"i_lat":-6.166716,"distance":1149,"station_name":"Juanda","line":2,"station_id":"JUA","transit":false,"is_transit":false,"time":2,"i_long":106.828284},{"time":4,"transit":false,"station_name":"Gondangdia","i_lat":-6.186295,"i_long":106.832183,"distance":2015,"line":2,"is_transit":false,"station_id":"GDD"},{"line":2,"station_name":"Cikini","time":3,"i_long":106.840169,"distance":1750,"is_transit":false,"station_id":"CKI","i_lat":-6.198556,"transit":false},{"station_name":"Manggarai","i_lat":-6.209883,"time":4,"is_transit":true,"station_id":"MRI","line":2,"i_long":106.84912,"distance":1590,"transit":true},{"is_transit":false,"time":4,"distance":3186,"i_lat":-6.202263,"station_name":"Sudirman","transit":false,"station_id":"SUD","i_long":106.822649,"line":1},{"station_name":"Sudirman Baru","time":1,"distance":280,"station_id":"SUDB","transit":false,"is_transit":false,"i_lat":-6.201433,"i_long":106.819881,"line":1},{"distance":471,"transit":false,"station_name":"Karet","station_id":"KAT","is_transit":false,"i_lat":-6.20132,"i_long":106.816351,"line":1,"time":1},{"i_long":106.811091,"distance":2029,"station_id":"THB","i_lat":-6.185545,"transit":false,"station_name":"Tanah Abang","is_transit":false,"line":1,"time":5},{"i_long":106.800832,"distance":3632,"station_id":"DU","is_transit":true,"station_name":"Duri","time":8,"line":1,"i_lat":-6.155215,"transit":true},{"distance":1700,"i_lat":-6.162021,"time":3,"transit":false,"i_long":106.788277,"station_name":"Grogol","is_transit":false,"station_id":"GGL","line":5},{"distance":2036,"is_transit":false,"station_id":"PSG","transit":false,"i_lat":-6.161433,"line":5,"station_name":"Pesing","i_long":106.771379,"time":2},{"station_name":"Taman Kota","time":2,"distance":1614,"i_lat":-6.1587309999999995,"transit":false,"i_long":106.756522,"line":5,"is_transit":false,"station_id":"TKO"}]]}