{"data":[[{"station_name":"Klender","distance":0,"time":0,"i_long":106.899548,"transit":false,"station_id":"KLD","i_lat":-6.2135,"line":1,"is_transit":false},{"station_id":"BUA","time":2,"station_name":"Buaran","transit":false,"is_transit":false,"distance":3100,"i_lat":-6.215568,"i_long":106.922662,"line":1},{"station_name":"Klenderbaru","i_long":106.939679,"line":1,"i_lat":-6.217455,"distance":1305,"is_transit":false,"transit":false,"time":1,"station_id":"KLDB"},{"station_id":"CUK","distance":1385,"i_long":106.951283,"transit":false,"i_lat":-6.219053,"time":8,"is_transit":false,"station_name":"Cakung","line":1},{"station_id":"KRI","is_transit":false,"time":3,"station_name":"Kranji","distance":3097,"i_lat":-6.224515,"i_long":106.977657,"transit":false,"line":1}]]}