{"data":[[{"transit":false,"is_transit":false,"station_name":"Klender","i_long":106.899548,"time":0,"i_lat":-6.2135,"line":1,"station_id":"KLD","distance":0},{"distance":3395,"line":0,"i_long":106.86807400000001,"i_lat":-6.215091,"station_name":"Jatinegara","is_transit":true,"station_id":"JNG","time":3,"transit":false},{"time":2,"station_id":"MTR","transit":false,"i_lat":-6.212485,"line":1,"i_long":106.858896,"station_name":"Matraman","distance":1377,"is_transit":false},{"station_name":"Manggarai","time":2,"transit":false,"i_lat":-6.209883,"is_transit":true,"line":0,"station_id":"MRI","i_long":106.84912,"distance":1275},{"station_name":"Sudirman","is_transit":false,"line":1,"transit":false,"station_id":"SUD","time":4,"distance":3186,"i_lat":-6.202263,"i_long":106.822649},{"i_lat":-6.201433,"station_id":"SUDB","distance":280,"transit":false,"line":1,"is_transit":false,"station_name":"Sudirman Baru","time":1,"i_long":106.819881},{"line":1,"distance":471,"transit":false,"is_transit":false,"station_name":"Karet","i_lat":-6.20132,"i_long":106.816351,"station_id":"KAT","time":1},{"is_transit":true,"transit":false,"station_id":"THB","time":5,"line":1,"i_long":106.811091,"station_name":"Tanah Abang","distance":2029,"i_lat":-6.185545},{"is_transit":true,"distance":3632,"time":8,"transit":true,"line":1,"i_long":106.800832,"station_name":"Duri","station_id":"DU","i_lat":-6.155215},{"station_name":"Grogol","i_lat":-6.162021,"line":5,"i_long":106.788277,"station_id":"GGL","transit":false,"is_transit":false,"distance":1700,"time":3},{"station_id":"PSG","is_transit":false,"time":2,"transit":false,"station_name":"Pesing","distance":2036,"i_lat":-6.161433,"line":5,"i_long":106.771379},{"i_lat":-6.1587309999999995,"i_long":106.756522,"is_transit":false,"line":5,"station_name":"Taman Kota","station_id":"TKO","time":2,"transit":false,"distance":1614}],[{"time":0,"is_transit":false,"transit":false,"station_id":"KLD","i_lat":-6.2135,"i_long":106.899548,"station_name":"Klender","distance":0,"line":1},{"i_long":106.86807400000001,"distance":3395,"is_transit":true,"station_name":"Jatinegara","line":0,"station_id":"JNG","i_lat":-6.215091,"time":3,"transit":true},{"time":2,"i_lat":-6.209188,"station_name":"Pondok Jati","is_transit":false,"i_long":106.861737,"station_id":"POK","line":11,"transit":false,"distance":1236},{"line":11,"time":2,"i_lat":-6.193792,"distance":1829,"transit":false,"i_long":106.855437,"is_transit":false,"station_name":"Kramat","station_id":"KMT"},{"time":1,"transit":false,"distance":973,"i_long":106.850107,"station_id":"GST","station_name":"Gang Sentiong","is_transit":false,"line":11,"i_lat":-6.185975},{"time":8,"i_lat":-6.174784,"i_long":106.84368,"station_id":"PSE","line":11,"distance":1567,"transit":false,"is_transit":false,"station_name":"Pasar Senen"},{"station_id":"KMO","station_name":"Kemayoran","i_long":106.839204,"is_transit":false,"line":11,"i_lat":-6.161728,"time":4,"transit":false,"distance":1436},{"i_lat":-6.14505,"is_transit":false,"transit":false,"station_id":"RJW","station_name":"Rajawali","time":5,"distance":1901,"line":11,"i_long":106.836569},{"transit":true,"station_id":"KPB","i_lat":-6.132549,"time":3,"is_transit":true,"distance":1444,"line":0,"station_name":"Kampung Bandan","i_long":106.826365},{"i_lat":-6.144674,"line":0,"i_long":106.79867,"station_id":"AK","transit":false,"station_name":"Angke","is_transit":false,"time":9,"distance":4102},{"station_name":"Duri","is_transit":true,"time":4,"transit":true,"i_long":106.800832,"station_id":"DU","distance":1230,"i_lat":-6.155215,"line":1},{"station_id":"GGL","line":5,"distance":1700,"i_lat":-6.162021,"is_transit":false,"station_name":"Grogol","transit":false,"time":3,"i_long":106.788277},{"station_id":"PSG","station_name":"Pesing","i_long":106.771379,"time":2,"is_transit":false,"distance":2036,"i_lat":-6.161433,"transit":false,"line":5},{"i_long":106.756522,"station_name":"Taman Kota","is_transit":false,"line":5,"distance":1614,"time":2,"station_id":"TKO","transit":false,"i_lat":-6.1587309999999995}],[{"time":0,"i_lat":-6.2135,"distance":0,"is_transit":false,"station_id":"KLD","station_name":"Klender","transit":false,"line":1,"i_long":106.899548},{"is_transit":true,"transit":false,"station_name":"Jatinegara","line":0,"i_long":106.86807400000001,"i_lat":-6.215091,"time":3,"distance":3395,"station_id":"JNG"},{"line":1,"station_name":"Matraman","is_transit":false,"time":2,"station_id":"MTR","distance":1377,"i_long":106.858896,"transit":false,"i_lat":-6.212485},{"station_name":"Manggarai","i_long":106.84912,"is_transit":true,"distance":1275,"station_id":"MRI","i_lat":-6.209883,"transit":true,"time":2,"line":0},{"time":4,"station_id":"CKI","i_lat":-6.198556,"line":0,"station_name":"Cikini","i_long":106.840169,"transit":false,"distance":1590,"is_transit":false},{"station_name":"Gondangdia","distance":1750,"i_lat":-6.186295,"transit":false,"station_id":"GDD","i_long":106.832183,"time":3,"line":2,"is_transit":false},{"line":2,"i_lat":-6.166716,"is_transit":false,"time":4,"station_name":"Juanda","distance":2015,"transit":false,"i_long":106.828284,"station_id":"JUA"},{"is_transit":false,"transit":false,"i_long":106.827103,"time":2,"i_lat":-6.160725,"station_name":"Sawah Besar","line":2,"station_id":"SW","distance":1149},{"time":2,"i_long":106.82482,"transit":false,"station_id":"MGB","line":2,"i_lat":-6.149769,"distance":906,"is_transit":false,"station_name":"Manggabesar"},{"line":7,"station_name":"Jayakarta","i_lat":-6.141205,"is_transit":false,"time":2,"station_id":"JAY","distance":1080,"i_long":106.820901,"transit":false},{"i_long":106.812439,"time":4,"transit":true,"i_lat":-6.137569,"line":0,"station_name":"Jakarta Kota","is_transit":true,"station_id":"JAKK","distance":1264},{"station_id":"KPB","transit":false,"line":0,"station_name":"Kampung Bandan","i_lat":-6.132549,"i_long":106.826365,"is_transit":true,"time":3,"distance":1364},{"distance":4102,"i_long":106.79867,"station_name":"Angke","transit":false,"i_lat":-6.144674,"time":9,"line":0,"is_transit":false,"station_id":"AK"},{"station_id":"DU","time":4,"i_lat":-6.155215,"station_name":"Duri","transit":true,"i_long":106.800832,"line":1,"distance":1230,"is_transit":true},{"distance":1700,"station_name":"Grogol","time":3,"is_transit":false,"station_id":"GGL","transit":false,"i_lat":-6.162021,"i_long":106.788277,"line":5},{"station_name":"Pesing","i_long":106.771379,"is_transit":false,"i_lat":-6.161433,"line":5,"time":2,"transit":false,"distance":2036,"station_id":"PSG"},{"i_long":106.756522,"station_id":"TKO","distance":1614,"time":2,"line":5,"is_transit":false,"i_lat":-6.1587309999999995,"transit":false,"station_name":"Taman Kota"}],[{"line":1,"station_name":"Klender","distance":0,"transit":false,"is_transit":false,"time":0,"station_id":"KLD","i_lat":-6.2135,"i_long":106.899548},{"time":3,"line":0,"station_name":"Jatinegara","is_transit":true,"station_id":"JNG","transit":true,"i_long":106.86807400000001,"distance":3395,"i_lat":-6.215091},{"i_long":106.861737,"station_name":"Pondok Jati","is_transit":false,"station_id":"POK","i_lat":-6.209188,"transit":false,"time":2,"distance":1236,"line":11},{"station_id":"KMT","transit":false,"time":2,"distance":1829,"i_long":106.855437,"station_name":"Kramat","is_transit":false,"i_lat":-6.193792,"line":11},{"station_name":"Gang Sentiong","i_lat":-6.185975,"transit":false,"is_transit":false,"i_long":106.850107,"distance":973,"time":1,"station_id":"GST","line":11},{"transit":false,"is_transit":false,"distance":1567,"time":8,"i_long":106.84368,"i_lat":-6.174784,"station_name":"Pasar Senen","line":11,"station_id":"PSE"},{"transit":false,"distance":1436,"is_transit":false,"time":4,"i_lat":-6.161728,"i_long":106.839204,"station_name":"Kemayoran","line":11,"station_id":"KMO"},{"i_lat":-6.14505,"distance":1901,"station_name":"Rajawali","line":11,"transit":false,"station_id":"RJW","time":5,"i_long":106.836569,"is_transit":false},{"line":0,"i_long":106.826365,"i_lat":-6.132549,"station_id":"KPB","station_name":"Kampung Bandan","distance":1444,"time":3,"transit":true,"is_transit":true},{"is_transit":true,"line":0,"i_long":106.812439,"station_id":"JAKK","station_name":"Jakarta Kota","i_lat":-6.137569,"distance":1364,"transit":true,"time":3},{"station_id":"JAY","station_name":"Jayakarta","i_lat":-6.141205,"time":4,"is_transit":false,"transit":false,"distance":1264,"i_long":106.820901,"line":7},{"i_long":106.82482,"is_transit":false,"line":2,"station_name":"Manggabesar","i_lat":-6.149769,"transit":false,"station_id":"MGB","time":2,"distance":1080},{"transit":false,"station_id":"SW","i_lat":-6.160725,"station_name":"Sawah Besar","distance":906,"i_long":106.827103,"is_transit":false,"line":2,"time":2},{"time":2,"transit":false,"station_name":"Juanda","i_long":106.828284,"line":2,"station_id":"JUA","i_lat":-6.166716,"distance":1149,"is_transit":false},{"line":2,"is_transit":false,"distance":2015,"station_id":"GDD","time":4,"transit":false,"i_lat":-6.186295,"station_name":"Gondangdia","i_long":106.832183},{"is_transit":false,"distance":1750,"line":0,"transit":false,"time":3,"i_long":106.840169,"i_lat":-6.198556,"station_name":"Cikini","station_id":"CKI"},{"line":0,"time":4,"distance":1590,"is_transit":true,"transit":true,"station_name":"Manggarai","i_long":106.84912,"station_id":"MRI","i_lat":-6.209883},{"transit":false,"i_lat":-6.202263,"i_long":106.822649,"station_id":"SUD","is_transit":false,"distance":3186,"line":1,"station_name":"Sudirman","time":4},{"time":1,"i_lat":-6.201433,"transit":false,"line":1,"i_long":106.819881,"distance":280,"station_name":"Sudirman Baru","is_transit":false,"station_id":"SUDB"},{"i_lat":-6.20132,"transit":false,"station_id":"KAT","distance":471,"i_long":106.816351,"time":1,"station_name":"Karet","is_transit":false,"line":1},{"is_transit":true,"i_lat":-6.185545,"i_long":106.811091,"line":1,"station_name":"Tanah Abang","time":5,"transit":false,"station_id":"THB","distance":2029},{"i_long":106.800832,"station_id":"DU","line":1,"distance":3632,"time":8,"transit":true,"is_transit":true,"i_lat":-6.155215,"station_name":"Duri"},{"i_long":106.788277,"is_transit":false,"distance":1700,"i_lat":-6.162021,"station_name":"Grogol","time":3,"line":5,"station_id":"GGL","transit":false},{"transit":false,"station_name":"Pesing","is_transit":false,"distance":2036,"i_lat":-6.161433,"line":5,"station_id":"PSG","i_long":106.771379,"time":2},{"line":5,"station_name":"Taman Kota","distance":1614,"time":2,"is_transit":false,"transit":false,"i_lat":-6.1587309999999995,"i_long":106.756522,"station_id":"TKO"}]]}