{"data":[[{"line":1,"distance":0,"transit":false,"i_long":106.899548,"is_transit":false,"time":0,"station_name":"Klender","i_lat":-6.2135,"station_id":"KLD"},{"station_id":"JNG","line":1,"distance":3395,"transit":false,"time":3,"i_long":106.86807400000001,"is_transit":false,"i_lat":-6.215091,"station_name":"Jatinegara"},{"station_id":"MTR","distance":1377,"is_transit":false,"line":1,"transit":false,"station_name":"Matraman","i_long":106.858896,"time":2,"i_lat":-6.212485},{"station_name":"Manggarai","line":2,"is_transit":false,"i_lat":-6.209883,"time":2,"distance":1275,"transit":false,"station_id":"MRI","i_long":106.84912},{"time":4,"i_long":106.822649,"station_id":"SUD","i_lat":-6.202263,"transit":false,"is_transit":false,"distance":3186,"line":1,"station_name":"Sudirman"},{"distance":280,"is_transit":false,"line":1,"i_lat":-6.201433,"transit":false,"station_name":"Sudirman Baru","station_id":"SUDB","time":1,"i_long":106.819881},{"is_transit":false,"line":1,"transit":false,"station_name":"Karet","distance":471,"i_long":106.816351,"i_lat":-6.20132,"time":1,"station_id":"KAT"},{"time":5,"transit":true,"i_long":106.811091,"i_lat":-6.185545,"distance":2029,"line":1,"station_name":"Tanah Abang","is_transit":true,"station_id":"THB"},{"i_lat":-6.207404,"distance":3191,"transit":false,"station_id":"PLM","line":6,"time":6,"station_name":"Palmerah","i_long":106.79689,"is_transit":false},{"station_name":"Kebayoran","i_lat":-6.237242,"i_long":106.780334,"line":6,"station_id":"KBY","is_transit":false,"time":7,"distance":3737,"transit":false},{"transit":false,"distance":6218,"i_lat":-6.276362,"time":8,"i_long":106.74273,"is_transit":false,"station_name":"Pondokranji","station_id":"PDJ","line":6},{"is_transit":false,"distance":2179,"i_lat":-6.288927,"transit":false,"station_name":"Jurangmangu","station_id":"JMU","time":3,"line":6,"i_long":106.728916},{"i_lat":-6.296963,"is_transit":false,"line":6,"i_long":106.712277,"transit":false,"station_name":"Sudimara","time":4,"station_id":"SDM","distance":1994},{"i_long":106.675475,"station_name":"Rawa Buntu","transit":false,"distance":4566,"line":6,"is_transit":false,"station_id":"RU","i_lat":-6.314823,"time":6},{"i_long":106.66566,"time":4,"station_id":"SRP","distance":2413,"line":6,"transit":false,"station_name":"Serpong","i_lat":-6.319871,"is_transit":false},{"i_long":106.640411,"transit":false,"station_id":"CSK","is_transit":false,"station_name":"Cisauk","time":4,"distance":1784,"i_lat":-6.32484,"line":3},{"distance":2519,"station_name":"Cicayur","line":3,"station_id":"CC","time":4,"i_lat":-6.329547,"i_long":106.617853,"is_transit":false,"transit":false},{"i_long":106.568863,"line":6,"station_id":"PRP","is_transit":false,"i_lat":-6.3441410000000005,"transit":false,"station_name":"Parung Panjang","time":8,"distance":5968}],[{"line":1,"station_id":"KLD","distance":0,"i_long":106.899548,"transit":false,"is_transit":false,"station_name":"Klender","time":0,"i_lat":-6.2135},{"transit":true,"time":3,"is_transit":true,"i_lat":-6.215091,"line":1,"station_id":"JNG","station_name":"Jatinegara","distance":3395,"i_long":106.86807400000001},{"time":2,"i_lat":-6.209188,"station_id":"POK","line":11,"i_long":106.861737,"station_name":"Pondok Jati","transit":false,"distance":1236,"is_transit":false},{"time":2,"station_id":"KMT","line":11,"distance":1829,"station_name":"Kramat","i_long":106.855437,"i_lat":-6.193792,"transit":false,"is_transit":false},{"station_name":"Gang Sentiong","time":1,"i_long":106.850107,"station_id":"GST","line":11,"distance":973,"transit":false,"is_transit":false,"i_lat":-6.185975},{"transit":false,"distance":1567,"station_id":"PSE","time":8,"station_name":"Pasar Senen","i_long":106.84368,"line":11,"is_transit":false,"i_lat":-6.174784},{"time":4,"distance":1436,"i_lat":-6.161728,"station_id":"KMO","transit":false,"station_name":"Kemayoran","is_transit":false,"i_long":106.839204,"line":11},{"transit":false,"station_name":"Rajawali","station_id":"RJW","i_long":106.836569,"line":11,"time":5,"distance":1901,"is_transit":false,"i_lat":-6.14505},{"transit":true,"station_name":"Kampung Bandan","distance":1444,"i_lat":-6.132549,"i_long":106.826365,"line":4,"station_id":"KPB","is_transit":true,"time":3},{"i_lat":-6.144674,"station_name":"Angke","is_transit":false,"transit":false,"time":9,"distance":4102,"i_long":106.79867,"station_id":"AK","line":1},{"i_lat":-6.155215,"transit":false,"line":1,"is_transit":false,"time":4,"distance":1230,"station_id":"DU","station_name":"Duri","i_long":106.800832},{"transit":true,"station_name":"Tanah Abang","station_id":"THB","i_lat":-6.185545,"time":8,"distance":3632,"i_long":106.811091,"line":1,"is_transit":true},{"station_id":"PLM","station_name":"Palmerah","distance":3191,"transit":false,"i_long":106.79689,"line":6,"i_lat":-6.207404,"time":6,"is_transit":false},{"line":6,"station_id":"KBY","station_name":"Kebayoran","time":7,"i_long":106.780334,"transit":false,"i_lat":-6.237242,"distance":3737,"is_transit":false},{"line":6,"station_name":"Pondokranji","time":8,"i_long":106.74273,"distance":6218,"transit":false,"is_transit":false,"i_lat":-6.276362,"station_id":"PDJ"},{"distance":2179,"i_long":106.728916,"is_transit":false,"i_lat":-6.288927,"line":6,"station_id":"JMU","transit":false,"station_name":"Jurangmangu","time":3},{"time":4,"i_long":106.712277,"i_lat":-6.296963,"transit":false,"station_name":"Sudimara","station_id":"SDM","distance":1994,"is_transit":false,"line":6},{"is_transit":false,"station_name":"Rawa Buntu","distance":4566,"station_id":"RU","i_long":106.675475,"i_lat":-6.314823,"line":6,"time":6,"transit":false},{"i_lat":-6.319871,"time":4,"distance":2413,"i_long":106.66566,"transit":false,"station_id":"SRP","line":6,"is_transit":false,"station_name":"Serpong"},{"distance":1784,"i_lat":-6.32484,"line":3,"station_name":"Cisauk","i_long":106.640411,"transit":false,"is_transit":false,"station_id":"CSK","time":4},{"transit":false,"is_transit":false,"distance":2519,"i_long":106.617853,"i_lat":-6.329547,"line":3,"station_id":"CC","station_name":"Cicayur","time":4},{"i_lat":-6.3441410000000005,"transit":false,"time":8,"distance":5968,"line":6,"station_name":"Parung Panjang","station_id":"PRP","i_long":106.568863,"is_transit":false}],[{"i_long":106.899548,"transit":false,"distance":0,"station_name":"Klender","station_id":"KLD","time":0,"line":1,"is_transit":false,"i_lat":-6.2135},{"distance":3395,"is_transit":false,"station_name":"Jatinegara","i_lat":-6.215091,"line":1,"i_long":106.86807400000001,"time":3,"transit":false,"station_id":"JNG"},{"transit":false,"station_id":"MTR","is_transit":false,"distance":1377,"time":2,"i_lat":-6.212485,"line":1,"i_long":106.858896,"station_name":"Matraman"},{"time":2,"i_lat":-6.209883,"distance":1275,"station_name":"Manggarai","transit":true,"station_id":"MRI","i_long":106.84912,"is_transit":true,"line":2},{"time":4,"transit":false,"station_id":"CKI","distance":1590,"is_transit":false,"i_lat":-6.198556,"i_long":106.840169,"station_name":"Cikini","line":2},{"distance":1750,"i_lat":-6.186295,"transit":false,"station_name":"Gondangdia","time":3,"i_long":106.832183,"line":2,"is_transit":false,"station_id":"GDD"},{"distance":2015,"line":2,"is_transit":false,"transit":false,"time":4,"station_id":"JUA","station_name":"Juanda","i_lat":-6.166716,"i_long":106.828284},{"station_name":"Sawah Besar","station_id":"SW","distance":1149,"i_long":106.827103,"time":2,"line":2,"transit":false,"i_lat":-6.160725,"is_transit":false},{"line":2,"station_id":"MGB","station_name":"Manggabesar","time":2,"i_long":106.82482,"distance":906,"is_transit":false,"transit":false,"i_lat":-6.149769},{"station_id":"JAY","transit":false,"is_transit":false,"time":2,"distance":1080,"line":2,"station_name":"Jayakarta","i_lat":-6.141205,"i_long":106.820901},{"distance":1264,"station_name":"Jakarta Kota","time":4,"i_long":106.812439,"line":2,"station_id":"JAKK","transit":true,"is_transit":true,"i_lat":-6.137569},{"i_long":106.826365,"line":4,"time":3,"station_name":"Kampung Bandan","transit":true,"distance":1364,"i_lat":-6.132549,"station_id":"KPB","is_transit":true},{"is_transit":false,"i_long":106.79867,"time":9,"transit":false,"station_id":"AK","i_lat":-6.144674,"station_name":"Angke","distance":4102,"line":1},{"distance":1230,"i_lat":-6.155215,"station_id":"DU","is_transit":false,"line":1,"time":4,"transit":false,"station_name":"Duri","i_long":106.800832},{"station_name":"Tanah Abang","is_transit":true,"i_long":106.811091,"transit":true,"distance":3632,"i_lat":-6.185545,"station_id":"THB","time":8,"line":1},{"i_long":106.79689,"distance":3191,"station_name":"Palmerah","station_id":"PLM","i_lat":-6.207404,"is_transit":false,"line":6,"time":6,"transit":false},{"distance":3737,"line":6,"i_long":106.780334,"transit":false,"station_id":"KBY","station_name":"Kebayoran","is_transit":false,"time":7,"i_lat":-6.237242},{"line":6,"i_long":106.74273,"station_name":"Pondokranji","time":8,"i_lat":-6.276362,"is_transit":false,"distance":6218,"transit":false,"station_id":"PDJ"},{"station_id":"JMU","i_lat":-6.288927,"i_long":106.728916,"distance":2179,"transit":false,"time":3,"station_name":"Jurangmangu","is_transit":false,"line":6},{"is_transit":false,"i_lat":-6.296963,"station_id":"SDM","line":6,"transit":false,"station_name":"Sudimara","time":4,"distance":1994,"i_long":106.712277},{"i_long":106.675475,"time":6,"transit":false,"is_transit":false,"distance":4566,"line":6,"station_name":"Rawa Buntu","station_id":"RU","i_lat":-6.314823},{"time":4,"is_transit":false,"transit":false,"i_lat":-6.319871,"i_long":106.66566,"distance":2413,"station_name":"Serpong","station_id":"SRP","line":6},{"distance":1784,"i_lat":-6.32484,"line":3,"station_name":"Cisauk","station_id":"CSK","time":4,"i_long":106.640411,"is_transit":false,"transit":false},{"line":3,"distance":2519,"i_long":106.617853,"station_name":"Cicayur","i_lat":-6.329547,"is_transit":false,"station_id":"CC","time":4,"transit":false},{"line":6,"i_lat":-6.3441410000000005,"i_long":106.568863,"station_id":"PRP","is_transit":false,"time":8,"transit":false,"station_name":"Parung Panjang","distance":5968}],[{"station_id":"KLD","is_transit":false,"i_lat":-6.2135,"i_long":106.899548,"station_name":"Klender","transit":false,"line":1,"distance":0,"time":0},{"is_transit":true,"transit":true,"station_id":"JNG","distance":3395,"i_long":106.86807400000001,"line":1,"time":3,"i_lat":-6.215091,"station_name":"Jatinegara"},{"station_id":"POK","line":11,"time":2,"distance":1236,"is_transit":false,"transit":false,"i_long":106.861737,"i_lat":-6.209188,"station_name":"Pondok Jati"},{"is_transit":false,"i_long":106.855437,"i_lat":-6.193792,"station_name":"Kramat","line":11,"transit":false,"time":2,"distance":1829,"station_id":"KMT"},{"distance":973,"i_long":106.850107,"transit":false,"is_transit":false,"time":1,"station_id":"GST","station_name":"Gang Sentiong","i_lat":-6.185975,"line":11},{"i_lat":-6.174784,"i_long":106.84368,"station_name":"Pasar Senen","station_id":"PSE","transit":false,"time":8,"is_transit":false,"distance":1567,"line":11},{"transit":false,"station_id":"KMO","time":4,"i_lat":-6.161728,"is_transit":false,"distance":1436,"i_long":106.839204,"line":11,"station_name":"Kemayoran"},{"is_transit":false,"distance":1901,"transit":false,"station_id":"RJW","line":11,"i_lat":-6.14505,"station_name":"Rajawali","time":5,"i_long":106.836569},{"distance":1444,"i_lat":-6.132549,"station_id":"KPB","i_long":106.826365,"station_name":"Kampung Bandan","transit":true,"time":3,"line":4,"is_transit":true},{"station_name":"Jakarta Kota","i_lat":-6.137569,"is_transit":true,"time":3,"transit":true,"line":2,"distance":1364,"i_long":106.812439,"station_id":"JAKK"},{"line":2,"is_transit":false,"i_lat":-6.141205,"transit":false,"i_long":106.820901,"station_name":"Jayakarta","station_id":"JAY","time":4,"distance":1264},{"transit":false,"line":2,"is_transit":false,"time":2,"station_name":"Manggabesar","station_id":"MGB","distance":1080,"i_lat":-6.149769,"i_long":106.82482},{"station_name":"Sawah Besar","transit":false,"time":2,"distance":906,"station_id":"SW","is_transit":false,"i_long":106.827103,"line":2,"i_lat":-6.160725},{"time":2,"distance":1149,"station_id":"JUA","i_lat":-6.166716,"i_long":106.828284,"transit":false,"is_transit":false,"station_name":"Juanda","line":2},{"station_id":"GDD","distance":2015,"line":2,"transit":false,"time":4,"i_lat":-6.186295,"station_name":"Gondangdia","is_transit":false,"i_long":106.832183},{"station_id":"CKI","i_long":106.840169,"station_name":"Cikini","distance":1750,"is_transit":false,"time":3,"line":2,"transit":false,"i_lat":-6.198556},{"station_id":"MRI","is_transit":true,"time":4,"transit":true,"distance":1590,"i_lat":-6.209883,"station_name":"Manggarai","i_long":106.84912,"line":2},{"station_id":"SUD","distance":3186,"i_long":106.822649,"line":1,"transit":false,"is_transit":false,"time":4,"station_name":"Sudirman","i_lat":-6.202263},{"station_id":"SUDB","distance":280,"is_transit":false,"station_name":"Sudirman Baru","line":1,"i_lat":-6.201433,"transit":false,"time":1,"i_long":106.819881},{"i_lat":-6.20132,"transit":false,"station_id":"KAT","distance":471,"time":1,"i_long":106.816351,"station_name":"Karet","line":1,"is_transit":false},{"is_transit":true,"transit":true,"i_lat":-6.185545,"i_long":106.811091,"station_name":"Tanah Abang","station_id":"THB","line":1,"distance":2029,"time":5},{"distance":3191,"station_id":"PLM","transit":false,"i_lat":-6.207404,"is_transit":false,"time":6,"i_long":106.79689,"station_name":"Palmerah","line":6},{"i_lat":-6.237242,"i_long":106.780334,"line":6,"transit":false,"station_id":"KBY","is_transit":false,"station_name":"Kebayoran","distance":3737,"time":7},{"time":8,"is_transit":false,"line":6,"station_id":"PDJ","i_lat":-6.276362,"transit":false,"station_name":"Pondokranji","distance":6218,"i_long":106.74273},{"station_id":"JMU","transit":false,"is_transit":false,"distance":2179,"i_lat":-6.288927,"station_name":"Jurangmangu","time":3,"i_long":106.728916,"line":6},{"i_long":106.712277,"station_id":"SDM","station_name":"Sudimara","time":4,"line":6,"is_transit":false,"transit":false,"i_lat":-6.296963,"distance":1994},{"is_transit":false,"distance":4566,"i_long":106.675475,"line":6,"station_id":"RU","transit":false,"station_name":"Rawa Buntu","i_lat":-6.314823,"time":6},{"i_long":106.66566,"distance":2413,"line":6,"time":4,"transit":false,"station_id":"SRP","station_name":"Serpong","is_transit":false,"i_lat":-6.319871},{"station_name":"Cisauk","i_lat":-6.32484,"time":4,"line":3,"transit":false,"station_id":"CSK","is_transit":false,"distance":1784,"i_long":106.640411},{"station_id":"CC","transit":false,"line":3,"i_long":106.617853,"i_lat":-6.329547,"station_name":"Cicayur","is_transit":false,"time":4,"distance":2519},{"station_name":"Parung Panjang","station_id":"PRP","i_lat":-6.3441410000000005,"distance":5968,"i_long":106.568863,"transit":false,"is_transit":false,"time":8,"line":6}]]}