{"data":[[{"is_transit":false,"time":0,"i_long":106.899548,"line":1,"station_id":"KLD","station_name":"Klender","distance":0,"i_lat":-6.2135,"transit":false},{"transit":false,"i_long":106.86807400000001,"station_id":"JNG","line":1,"is_transit":false,"time":3,"station_name":"Jatinegara","distance":3395,"i_lat":-6.215091},{"station_id":"MTR","distance":1377,"transit":false,"i_lat":-6.212485,"time":2,"line":1,"is_transit":false,"i_long":106.858896,"station_name":"Matraman"},{"distance":1275,"transit":true,"time":2,"is_transit":true,"line":2,"i_lat":-6.209883,"i_long":106.84912,"station_id":"MRI","station_name":"Manggarai"},{"time":4,"distance":2610,"i_lat":-6.226659,"i_long":106.857948,"station_id":"TEB","station_name":"Tebet","transit":false,"line":2,"is_transit":false},{"transit":false,"distance":1230,"i_lat":-6.242512,"i_long":106.856607,"is_transit":false,"time":2,"line":2,"station_name":"Cawang","station_id":"CW"},{"station_id":"DRN","transit":false,"line":2,"time":3,"is_transit":false,"station_name":"Duren Kalibata","distance":1546,"i_long":106.85449,"i_lat":-6.255332},{"line":2,"transit":false,"station_id":"PSMB","distance":824,"is_transit":false,"time":2,"station_name":"Pasar Minggu Baru","i_lat":-6.263214,"i_long":106.851577},{"station_id":"PSM","transit":false,"distance":2380,"is_transit":false,"i_lat":-6.2842400000000005,"time":2,"station_name":"Pasar Minggu","i_long":106.843999,"line":2},{"station_name":"Tanjung Barat","time":4,"i_long":106.838896,"i_lat":-6.3080680000000005,"station_id":"TNT","distance":2820,"is_transit":false,"line":2,"transit":false},{"i_lat":-6.330363,"is_transit":false,"station_name":"Lenteng Agung","distance":2671,"time":3,"station_id":"LNA","transit":false,"line":2,"i_long":106.832616},{"distance":1029,"station_id":"UP","transit":false,"station_name":"Univ. Pancasila","i_lat":-6.339291,"is_transit":false,"time":2,"line":2,"i_long":106.834175},{"transit":false,"time":3,"station_name":"Univ. Indonesia","line":2,"station_id":"UI","i_long":106.831474,"distance":2264,"is_transit":false,"i_lat":-6.360749},{"station_name":"Pondok Cina","time":2,"station_id":"POC","distance":1109,"is_transit":false,"transit":false,"i_long":106.831114,"i_lat":-6.369073,"line":2},{"station_name":"Depokbaru","transit":false,"distance":2727,"time":4,"is_transit":false,"i_lat":-6.391065,"station_id":"DPB","i_long":106.819451,"line":2},{"i_lat":-6.405256,"i_long":106.816926,"line":2,"station_id":"DP","transit":false,"distance":1584,"station_name":"Depok","is_transit":false,"time":3},{"station_name":"Citayam","station_id":"CTA","distance":5084,"time":6,"i_long":106.800298,"is_transit":false,"transit":false,"i_lat":-6.448811,"line":2},{"transit":false,"time":5,"distance":5197,"is_transit":false,"i_long":106.792719,"line":2,"station_name":"Bojonggede","station_id":"BJD","i_lat":-6.493243},{"station_id":"CLT","transit":false,"time":5,"i_long":106.800016,"line":2,"station_name":"Cilebut","is_transit":false,"i_lat":-6.530544,"distance":4331}],[{"i_long":106.899548,"station_id":"KLD","is_transit":false,"transit":false,"distance":0,"i_lat":-6.2135,"station_name":"Klender","line":1,"time":0},{"station_name":"Jatinegara","transit":true,"station_id":"JNG","is_transit":true,"distance":3395,"i_long":106.86807400000001,"line":1,"time":3,"i_lat":-6.215091},{"time":2,"station_id":"POK","transit":false,"station_name":"Pondok Jati","i_lat":-6.209188,"is_transit":false,"distance":1236,"line":11,"i_long":106.861737},{"transit":false,"line":11,"time":2,"is_transit":false,"i_long":106.855437,"station_id":"KMT","station_name":"Kramat","i_lat":-6.193792,"distance":1829},{"i_lat":-6.185975,"station_id":"GST","is_transit":false,"transit":false,"distance":973,"i_long":106.850107,"line":11,"station_name":"Gang Sentiong","time":1},{"distance":1567,"time":8,"is_transit":false,"station_id":"PSE","i_lat":-6.174784,"i_long":106.84368,"line":11,"transit":false,"station_name":"Pasar Senen"},{"station_name":"Kemayoran","transit":false,"distance":1436,"i_long":106.839204,"i_lat":-6.161728,"line":11,"time":4,"station_id":"KMO","is_transit":false},{"is_transit":false,"distance":1901,"i_lat":-6.14505,"line":11,"transit":false,"i_long":106.836569,"time":5,"station_name":"Rajawali","station_id":"RJW"},{"transit":true,"i_long":106.826365,"i_lat":-6.132549,"distance":1444,"time":3,"line":4,"station_id":"KPB","station_name":"Kampung Bandan","is_transit":true},{"is_transit":false,"station_name":"Angke","distance":4102,"time":9,"i_long":106.79867,"station_id":"AK","transit":false,"i_lat":-6.144674,"line":1},{"station_id":"DU","distance":1230,"time":4,"i_lat":-6.155215,"i_long":106.800832,"line":1,"transit":false,"is_transit":false,"station_name":"Duri"},{"transit":false,"station_name":"Tanah Abang","distance":3632,"is_transit":false,"time":8,"i_lat":-6.185545,"station_id":"THB","i_long":106.811091,"line":1},{"station_id":"KAT","time":5,"i_lat":-6.20132,"station_name":"Karet","line":1,"i_long":106.816351,"is_transit":false,"transit":false,"distance":2029},{"line":1,"time":1,"station_id":"SUDB","i_lat":-6.201433,"station_name":"Sudirman Baru","distance":471,"i_long":106.819881,"transit":false,"is_transit":false},{"time":1,"transit":false,"i_lat":-6.202263,"distance":280,"i_long":106.822649,"station_id":"SUD","line":1,"station_name":"Sudirman","is_transit":false},{"time":4,"i_lat":-6.209883,"i_long":106.84912,"station_id":"MRI","is_transit":true,"transit":true,"distance":3186,"station_name":"Manggarai","line":2},{"i_lat":-6.226659,"transit":false,"station_id":"TEB","station_name":"Tebet","distance":2610,"line":2,"time":4,"is_transit":false,"i_long":106.857948},{"line":2,"station_name":"Cawang","station_id":"CW","is_transit":false,"transit":false,"i_lat":-6.242512,"i_long":106.856607,"distance":1230,"time":2},{"station_id":"DRN","time":3,"line":2,"is_transit":false,"transit":false,"i_lat":-6.255332,"distance":1546,"i_long":106.85449,"station_name":"Duren Kalibata"},{"i_long":106.851577,"station_name":"Pasar Minggu Baru","transit":false,"time":2,"line":2,"distance":824,"is_transit":false,"station_id":"PSMB","i_lat":-6.263214},{"station_name":"Pasar Minggu","time":2,"transit":false,"is_transit":false,"distance":2380,"line":2,"station_id":"PSM","i_long":106.843999,"i_lat":-6.2842400000000005},{"station_name":"Tanjung Barat","station_id":"TNT","time":4,"i_long":106.838896,"is_transit":false,"distance":2820,"transit":false,"i_lat":-6.3080680000000005,"line":2},{"time":3,"i_lat":-6.330363,"station_id":"LNA","distance":2671,"station_name":"Lenteng Agung","transit":false,"i_long":106.832616,"line":2,"is_transit":false},{"distance":1029,"i_long":106.834175,"time":2,"transit":false,"station_id":"UP","station_name":"Univ. Pancasila","i_lat":-6.339291,"line":2,"is_transit":false},{"i_lat":-6.360749,"station_name":"Univ. Indonesia","station_id":"UI","is_transit":false,"transit":false,"distance":2264,"i_long":106.831474,"line":2,"time":3},{"distance":1109,"station_name":"Pondok Cina","i_lat":-6.369073,"station_id":"POC","time":2,"i_long":106.831114,"line":2,"is_transit":false,"transit":false},{"is_transit":false,"time":4,"i_long":106.819451,"station_name":"Depokbaru","i_lat":-6.391065,"distance":2727,"line":2,"station_id":"DPB","transit":false},{"i_long":106.816926,"station_name":"Depok","distance":1584,"i_lat":-6.405256,"station_id":"DP","line":2,"transit":false,"is_transit":false,"time":3},{"transit":false,"time":6,"i_lat":-6.448811,"station_id":"CTA","is_transit":false,"i_long":106.800298,"line":2,"station_name":"Citayam","distance":5084},{"station_id":"BJD","line":2,"transit":false,"i_long":106.792719,"distance":5197,"is_transit":false,"station_name":"Bojonggede","time":5,"i_lat":-6.493243},{"i_lat":-6.530544,"time":5,"i_long":106.800016,"station_id":"CLT","transit":false,"line":2,"distance":4331,"is_transit":false,"station_name":"Cilebut"}],[{"distance":0,"i_lat":-6.2135,"transit":false,"i_long":106.899548,"line":1,"station_id":"KLD","station_name":"Klender","time":0,"is_transit":false},{"i_long":106.86807400000001,"station_name":"Jatinegara","i_lat":-6.215091,"distance":3395,"is_transit":true,"station_id":"JNG","line":1,"transit":true,"time":3},{"transit":false,"distance":1236,"time":2,"is_transit":false,"i_lat":-6.209188,"station_id":"POK","station_name":"Pondok Jati","i_long":106.861737,"line":11},{"station_name":"Kramat","station_id":"KMT","is_transit":false,"i_long":106.855437,"distance":1829,"transit":false,"time":2,"line":11,"i_lat":-6.193792},{"line":11,"time":1,"distance":973,"station_name":"Gang Sentiong","i_long":106.850107,"transit":false,"station_id":"GST","is_transit":false,"i_lat":-6.185975},{"i_long":106.84368,"line":11,"is_transit":false,"transit":false,"station_id":"PSE","station_name":"Pasar Senen","time":8,"i_lat":-6.174784,"distance":1567},{"is_transit":false,"station_name":"Kemayoran","transit":false,"i_lat":-6.161728,"i_long":106.839204,"distance":1436,"line":11,"station_id":"KMO","time":4},{"transit":false,"station_id":"RJW","distance":1901,"time":5,"station_name":"Rajawali","i_long":106.836569,"line":11,"i_lat":-6.14505,"is_transit":false},{"time":3,"station_name":"Kampung Bandan","distance":1444,"station_id":"KPB","i_lat":-6.132549,"is_transit":true,"line":4,"transit":true,"i_long":106.826365},{"time":3,"station_id":"JAKK","station_name":"Jakarta Kota","i_lat":-6.137569,"is_transit":true,"transit":true,"i_long":106.812439,"line":2,"distance":1364},{"is_transit":false,"i_lat":-6.141205,"station_name":"Jayakarta","station_id":"JAY","i_long":106.820901,"line":2,"transit":false,"distance":1264,"time":4},{"line":2,"station_id":"MGB","is_transit":false,"time":2,"i_long":106.82482,"transit":false,"station_name":"Manggabesar","distance":1080,"i_lat":-6.149769},{"station_name":"Sawah Besar","station_id":"SW","line":2,"is_transit":false,"i_lat":-6.160725,"time":2,"transit":false,"i_long":106.827103,"distance":906},{"is_transit":false,"station_name":"Juanda","i_lat":-6.166716,"i_long":106.828284,"station_id":"JUA","transit":false,"distance":1149,"line":2,"time":2},{"is_transit":false,"station_id":"GDD","station_name":"Gondangdia","i_long":106.832183,"time":4,"i_lat":-6.186295,"distance":2015,"line":2,"transit":false},{"is_transit":false,"station_id":"CKI","station_name":"Cikini","distance":1750,"line":2,"i_lat":-6.198556,"i_long":106.840169,"transit":false,"time":3},{"is_transit":false,"line":2,"station_id":"MRI","station_name":"Manggarai","i_lat":-6.209883,"i_long":106.84912,"time":4,"transit":false,"distance":1590},{"is_transit":false,"time":4,"i_lat":-6.226659,"i_long":106.857948,"station_id":"TEB","line":2,"transit":false,"distance":2610,"station_name":"Tebet"},{"distance":1230,"station_name":"Cawang","i_long":106.856607,"transit":false,"i_lat":-6.242512,"line":2,"is_transit":false,"station_id":"CW","time":2},{"distance":1546,"i_long":106.85449,"is_transit":false,"station_name":"Duren Kalibata","station_id":"DRN","transit":false,"time":3,"i_lat":-6.255332,"line":2},{"i_long":106.851577,"station_name":"Pasar Minggu Baru","line":2,"i_lat":-6.263214,"distance":824,"station_id":"PSMB","time":2,"is_transit":false,"transit":false},{"distance":2380,"station_id":"PSM","line":2,"is_transit":false,"transit":false,"station_name":"Pasar Minggu","time":2,"i_lat":-6.2842400000000005,"i_long":106.843999},{"i_long":106.838896,"distance":2820,"station_id":"TNT","station_name":"Tanjung Barat","time":4,"is_transit":false,"transit":false,"i_lat":-6.3080680000000005,"line":2},{"station_name":"Lenteng Agung","is_transit":false,"transit":false,"i_long":106.832616,"line":2,"station_id":"LNA","time":3,"distance":2671,"i_lat":-6.330363},{"station_id":"UP","transit":false,"station_name":"Univ. Pancasila","distance":1029,"i_lat":-6.339291,"is_transit":false,"line":2,"time":2,"i_long":106.834175},{"is_transit":false,"station_name":"Univ. Indonesia","transit":false,"i_long":106.831474,"line":2,"station_id":"UI","distance":2264,"i_lat":-6.360749,"time":3},{"is_transit":false,"i_lat":-6.369073,"transit":false,"line":2,"time":2,"station_name":"Pondok Cina","distance":1109,"station_id":"POC","i_long":106.831114},{"distance":2727,"time":4,"station_name":"Depokbaru","is_transit":false,"line":2,"station_id":"DPB","i_lat":-6.391065,"i_long":106.819451,"transit":false},{"time":3,"is_transit":false,"distance":1584,"line":2,"station_id":"DP","station_name":"Depok","i_lat":-6.405256,"i_long":106.816926,"transit":false},{"i_lat":-6.448811,"is_transit":false,"time":6,"distance":5084,"station_name":"Citayam","transit":false,"i_long":106.800298,"line":2,"station_id":"CTA"},{"is_transit":false,"distance":5197,"i_long":106.792719,"line":2,"transit":false,"i_lat":-6.493243,"station_id":"BJD","station_name":"Bojonggede","time":5},{"distance":4331,"station_id":"CLT","time":5,"i_long":106.800016,"line":2,"is_transit":false,"i_lat":-6.530544,"station_name":"Cilebut","transit":false}]]}