{"data":[[{"transit":false,"station_name":"Klender","i_long":106.899548,"i_lat":-6.2135,"station_id":"KLD","time":0,"is_transit":false,"distance":0,"line":1},{"transit":true,"is_transit":true,"i_lat":-6.215091,"i_long":106.86807400000001,"line":1,"station_id":"JNG","time":3,"distance":3395,"station_name":"Jatinegara"},{"distance":1236,"station_name":"Pondok Jati","is_transit":false,"time":2,"i_lat":-6.209188,"i_long":106.861737,"line":11,"station_id":"POK","transit":false},{"transit":false,"is_transit":false,"i_lat":-6.193792,"i_long":106.855437,"line":11,"station_name":"Kramat","distance":1829,"station_id":"KMT","time":2},{"i_lat":-6.185975,"line":11,"i_long":106.850107,"is_transit":false,"time":1,"station_id":"GST","distance":973,"station_name":"Gang Sentiong","transit":false},{"station_name":"Pasar Senen","i_lat":-6.174784,"line":11,"time":8,"i_long":106.84368,"transit":false,"distance":1567,"is_transit":false,"station_id":"PSE"},{"line":11,"i_long":106.839204,"transit":false,"distance":1436,"station_id":"KMO","time":4,"i_lat":-6.161728,"station_name":"Kemayoran","is_transit":false},{"distance":1901,"line":11,"i_long":106.836569,"transit":false,"station_name":"Rajawali","time":5,"is_transit":false,"i_lat":-6.14505,"station_id":"RJW"},{"i_lat":-6.132549,"station_name":"Kampung Bandan","distance":1444,"time":3,"line":4,"i_long":106.826365,"is_transit":false,"station_id":"KPB","transit":false}],[{"distance":0,"is_transit":false,"transit":false,"i_lat":-6.2135,"station_id":"KLD","line":1,"time":0,"station_name":"Klender","i_long":106.899548},{"i_lat":-6.215091,"is_transit":false,"i_long":106.86807400000001,"station_id":"JNG","transit":false,"line":1,"station_name":"Jatinegara","time":3,"distance":3395},{"is_transit":false,"i_long":106.858896,"station_name":"Matraman","i_lat":-6.212485,"station_id":"MTR","line":1,"transit":false,"distance":1377,"time":2},{"line":2,"station_name":"Manggarai","transit":false,"station_id":"MRI","i_lat":-6.209883,"time":2,"distance":1275,"i_long":106.84912,"is_transit":false},{"station_name":"Sudirman","time":4,"distance":3186,"transit":false,"i_long":106.822649,"line":1,"station_id":"SUD","is_transit":false,"i_lat":-6.202263},{"station_id":"SUDB","station_name":"Sudirman Baru","i_long":106.819881,"line":1,"time":1,"i_lat":-6.201433,"distance":280,"is_transit":false,"transit":false},{"station_name":"Karet","station_id":"KAT","time":1,"distance":471,"i_lat":-6.20132,"transit":false,"i_long":106.816351,"is_transit":false,"line":1},{"station_name":"Tanah Abang","line":1,"i_lat":-6.185545,"transit":false,"is_transit":false,"time":5,"distance":2029,"i_long":106.811091,"station_id":"THB"},{"i_long":106.800832,"station_name":"Duri","i_lat":-6.155215,"transit":false,"station_id":"DU","time":8,"line":1,"is_transit":false,"distance":3632},{"transit":false,"distance":1230,"i_long":106.79867,"station_id":"AK","station_name":"Angke","i_lat":-6.144674,"is_transit":false,"line":1,"time":4},{"transit":false,"i_lat":-6.132549,"distance":4102,"station_id":"KPB","is_transit":false,"i_long":106.826365,"line":4,"time":9,"station_name":"Kampung Bandan"}],[{"station_name":"Klender","i_long":106.899548,"transit":false,"i_lat":-6.2135,"line":1,"time":0,"station_id":"KLD","distance":0,"is_transit":false},{"is_transit":false,"i_long":106.86807400000001,"line":1,"distance":3395,"station_name":"Jatinegara","transit":false,"station_id":"JNG","i_lat":-6.215091,"time":3},{"station_id":"MTR","i_lat":-6.212485,"station_name":"Matraman","line":1,"time":2,"distance":1377,"is_transit":false,"transit":false,"i_long":106.858896},{"station_id":"MRI","is_transit":true,"transit":true,"i_long":106.84912,"line":2,"time":2,"station_name":"Manggarai","i_lat":-6.209883,"distance":1275},{"distance":1590,"station_name":"Cikini","transit":false,"i_lat":-6.198556,"is_transit":false,"i_long":106.840169,"time":4,"line":2,"station_id":"CKI"},{"station_id":"GDD","is_transit":false,"distance":1750,"station_name":"Gondangdia","line":2,"i_lat":-6.186295,"transit":false,"i_long":106.832183,"time":3},{"is_transit":false,"i_lat":-6.166716,"transit":false,"i_long":106.828284,"station_id":"JUA","time":4,"station_name":"Juanda","distance":2015,"line":2},{"i_long":106.827103,"station_id":"SW","distance":1149,"transit":false,"i_lat":-6.160725,"line":2,"station_name":"Sawah Besar","is_transit":false,"time":2},{"line":2,"station_name":"Manggabesar","station_id":"MGB","time":2,"i_lat":-6.149769,"distance":906,"is_transit":false,"transit":false,"i_long":106.82482},{"line":2,"is_transit":false,"transit":false,"time":2,"station_name":"Jayakarta","station_id":"JAY","i_lat":-6.141205,"i_long":106.820901,"distance":1080},{"line":2,"is_transit":true,"time":4,"station_id":"JAKK","station_name":"Jakarta Kota","distance":1264,"transit":true,"i_lat":-6.137569,"i_long":106.812439},{"station_id":"KPB","i_lat":-6.132549,"distance":1364,"line":4,"station_name":"Kampung Bandan","time":3,"is_transit":false,"transit":false,"i_long":106.826365}]]}