{"data":[[{"distance":0,"line":1,"i_long":106.899548,"transit":false,"station_id":"KLD","is_transit":false,"station_name":"Klender","i_lat":-6.2135,"time":0},{"line":1,"station_name":"Jatinegara","time":3,"is_transit":false,"transit":false,"distance":3395,"station_id":"JNG","i_lat":-6.215091,"i_long":106.86807400000001},{"distance":1377,"is_transit":false,"i_lat":-6.212485,"time":2,"station_id":"MTR","line":1,"i_long":106.858896,"transit":false,"station_name":"Matraman"},{"is_transit":false,"time":2,"distance":1275,"i_long":106.84912,"station_name":"Manggarai","i_lat":-6.209883,"station_id":"MRI","line":2,"transit":false},{"station_id":"SUD","distance":3186,"i_long":106.822649,"line":1,"transit":false,"station_name":"Sudirman","i_lat":-6.202263,"time":4,"is_transit":false},{"i_lat":-6.201433,"distance":280,"is_transit":false,"i_long":106.819881,"station_id":"SUDB","station_name":"Sudirman Baru","time":1,"transit":false,"line":1}],[{"station_id":"KLD","distance":0,"i_long":106.899548,"station_name":"Klender","is_transit":false,"i_lat":-6.2135,"time":0,"transit":false,"line":1},{"is_transit":true,"transit":true,"i_lat":-6.215091,"time":3,"distance":3395,"station_id":"JNG","line":1,"station_name":"Jatinegara","i_long":106.86807400000001},{"line":11,"is_transit":false,"station_id":"POK","distance":1236,"i_long":106.861737,"time":2,"i_lat":-6.209188,"station_name":"Pondok Jati","transit":false},{"time":2,"line":11,"station_name":"Kramat","is_transit":false,"distance":1829,"station_id":"KMT","transit":false,"i_lat":-6.193792,"i_long":106.855437},{"transit":false,"distance":973,"is_transit":false,"time":1,"i_lat":-6.185975,"station_id":"GST","line":11,"i_long":106.850107,"station_name":"Gang Sentiong"},{"is_transit":false,"station_name":"Pasar Senen","line":11,"station_id":"PSE","i_lat":-6.174784,"i_long":106.84368,"time":8,"distance":1567,"transit":false},{"is_transit":false,"time":4,"transit":false,"station_id":"KMO","distance":1436,"i_long":106.839204,"line":11,"station_name":"Kemayoran","i_lat":-6.161728},{"station_id":"RJW","i_lat":-6.14505,"transit":false,"distance":1901,"line":11,"is_transit":false,"station_name":"Rajawali","time":5,"i_long":106.836569},{"station_name":"Kampung Bandan","transit":true,"station_id":"KPB","distance":1444,"is_transit":true,"i_long":106.826365,"time":3,"line":4,"i_lat":-6.132549},{"is_transit":false,"station_id":"AK","transit":false,"station_name":"Angke","distance":4102,"line":1,"i_lat":-6.144674,"time":9,"i_long":106.79867},{"line":1,"i_lat":-6.155215,"station_name":"Duri","distance":1230,"i_long":106.800832,"time":4,"is_transit":false,"transit":false,"station_id":"DU"},{"station_id":"THB","line":1,"is_transit":false,"transit":false,"distance":3632,"i_long":106.811091,"i_lat":-6.185545,"station_name":"Tanah Abang","time":8},{"i_lat":-6.20132,"i_long":106.816351,"time":5,"transit":false,"station_name":"Karet","station_id":"KAT","is_transit":false,"distance":2029,"line":1},{"is_transit":false,"time":1,"transit":false,"station_id":"SUDB","i_lat":-6.201433,"line":1,"distance":471,"station_name":"Sudirman Baru","i_long":106.819881}],[{"station_name":"Klender","distance":0,"is_transit":false,"i_lat":-6.2135,"i_long":106.899548,"station_id":"KLD","time":0,"transit":false,"line":1},{"distance":3395,"time":3,"transit":false,"station_id":"JNG","i_lat":-6.215091,"line":1,"i_long":106.86807400000001,"station_name":"Jatinegara","is_transit":false},{"station_id":"MTR","time":2,"is_transit":false,"station_name":"Matraman","i_long":106.858896,"transit":false,"i_lat":-6.212485,"line":1,"distance":1377},{"transit":true,"i_long":106.84912,"station_id":"MRI","i_lat":-6.209883,"line":2,"time":2,"is_transit":true,"station_name":"Manggarai","distance":1275},{"i_lat":-6.198556,"time":4,"line":2,"is_transit":false,"i_long":106.840169,"transit":false,"distance":1590,"station_name":"Cikini","station_id":"CKI"},{"is_transit":false,"station_id":"GDD","line":2,"station_name":"Gondangdia","i_lat":-6.186295,"i_long":106.832183,"transit":false,"time":3,"distance":1750},{"i_long":106.828284,"line":2,"is_transit":false,"i_lat":-6.166716,"distance":2015,"station_name":"Juanda","transit":false,"station_id":"JUA","time":4},{"distance":1149,"i_lat":-6.160725,"station_id":"SW","i_long":106.827103,"is_transit":false,"station_name":"Sawah Besar","time":2,"transit":false,"line":2},{"is_transit":false,"station_name":"Manggabesar","line":2,"distance":906,"transit":false,"station_id":"MGB","time":2,"i_lat":-6.149769,"i_long":106.82482},{"i_long":106.820901,"distance":1080,"station_id":"JAY","is_transit":false,"line":2,"time":2,"station_name":"Jayakarta","transit":false,"i_lat":-6.141205},{"i_long":106.812439,"i_lat":-6.137569,"distance":1264,"station_id":"JAKK","station_name":"Jakarta Kota","is_transit":true,"line":2,"time":4,"transit":true},{"i_lat":-6.132549,"station_name":"Kampung Bandan","i_long":106.826365,"is_transit":true,"distance":1364,"time":3,"transit":true,"station_id":"KPB","line":4},{"i_long":106.79867,"station_name":"Angke","distance":4102,"station_id":"AK","line":1,"is_transit":false,"transit":false,"time":9,"i_lat":-6.144674},{"distance":1230,"station_id":"DU","station_name":"Duri","transit":false,"i_long":106.800832,"time":4,"line":1,"i_lat":-6.155215,"is_transit":false},{"distance":3632,"time":8,"transit":false,"i_long":106.811091,"line":1,"station_id":"THB","station_name":"Tanah Abang","i_lat":-6.185545,"is_transit":false},{"station_id":"KAT","time":5,"is_transit":false,"distance":2029,"i_long":106.816351,"i_lat":-6.20132,"station_name":"Karet","line":1,"transit":false},{"i_lat":-6.201433,"station_id":"SUDB","is_transit":false,"distance":471,"i_long":106.819881,"time":1,"transit":false,"line":1,"station_name":"Sudirman Baru"}],[{"transit":false,"station_id":"KLD","time":0,"i_lat":-6.2135,"distance":0,"i_long":106.899548,"line":1,"is_transit":false,"station_name":"Klender"},{"distance":3395,"station_id":"JNG","line":1,"i_long":106.86807400000001,"time":3,"station_name":"Jatinegara","transit":true,"i_lat":-6.215091,"is_transit":true},{"distance":1236,"i_lat":-6.209188,"i_long":106.861737,"station_name":"Pondok Jati","station_id":"POK","line":11,"transit":false,"time":2,"is_transit":false},{"distance":1829,"time":2,"i_lat":-6.193792,"transit":false,"station_name":"Kramat","line":11,"i_long":106.855437,"station_id":"KMT","is_transit":false},{"line":11,"i_long":106.850107,"station_name":"Gang Sentiong","distance":973,"transit":false,"i_lat":-6.185975,"is_transit":false,"time":1,"station_id":"GST"},{"station_id":"PSE","distance":1567,"is_transit":false,"i_long":106.84368,"line":11,"i_lat":-6.174784,"transit":false,"time":8,"station_name":"Pasar Senen"},{"distance":1436,"is_transit":false,"time":4,"station_id":"KMO","i_lat":-6.161728,"station_name":"Kemayoran","line":11,"transit":false,"i_long":106.839204},{"i_lat":-6.14505,"i_long":106.836569,"line":11,"distance":1901,"is_transit":false,"station_id":"RJW","time":5,"station_name":"Rajawali","transit":false},{"station_name":"Kampung Bandan","distance":1444,"time":3,"i_long":106.826365,"line":4,"transit":true,"station_id":"KPB","is_transit":true,"i_lat":-6.132549},{"transit":true,"i_lat":-6.137569,"line":2,"i_long":106.812439,"distance":1364,"station_id":"JAKK","is_transit":true,"station_name":"Jakarta Kota","time":3},{"i_lat":-6.141205,"station_name":"Jayakarta","station_id":"JAY","time":4,"distance":1264,"transit":false,"is_transit":false,"i_long":106.820901,"line":2},{"time":2,"i_long":106.82482,"distance":1080,"line":2,"station_name":"Manggabesar","i_lat":-6.149769,"is_transit":false,"transit":false,"station_id":"MGB"},{"line":2,"is_transit":false,"station_name":"Sawah Besar","station_id":"SW","distance":906,"i_lat":-6.160725,"transit":false,"time":2,"i_long":106.827103},{"i_long":106.828284,"is_transit":false,"i_lat":-6.166716,"station_name":"Juanda","distance":1149,"time":2,"transit":false,"station_id":"JUA","line":2},{"station_id":"GDD","distance":2015,"time":4,"line":2,"is_transit":false,"station_name":"Gondangdia","i_long":106.832183,"transit":false,"i_lat":-6.186295},{"is_transit":false,"transit":false,"i_lat":-6.198556,"distance":1750,"time":3,"station_id":"CKI","station_name":"Cikini","i_long":106.840169,"line":2},{"station_id":"MRI","i_lat":-6.209883,"distance":1590,"time":4,"is_transit":true,"i_long":106.84912,"line":2,"transit":true,"station_name":"Manggarai"},{"i_long":106.822649,"time":4,"transit":false,"line":1,"i_lat":-6.202263,"is_transit":false,"station_name":"Sudirman","distance":3186,"station_id":"SUD"},{"i_long":106.819881,"time":1,"transit":false,"station_name":"Sudirman Baru","is_transit":false,"distance":280,"station_id":"SUDB","i_lat":-6.201433,"line":1}]]}