{"data":[[{"transit":false,"time":0,"i_long":106.899548,"station_id":"KLD","is_transit":false,"distance":0,"line":1,"i_lat":-6.2135,"station_name":"Klender"},{"line":1,"i_lat":-6.215091,"station_name":"Jatinegara","station_id":"JNG","transit":false,"is_transit":false,"time":3,"distance":3395,"i_long":106.86807400000001},{"station_name":"Matraman","i_long":106.858896,"time":2,"i_lat":-6.212485,"station_id":"MTR","distance":1377,"transit":false,"is_transit":false,"line":1},{"time":2,"line":2,"station_name":"Manggarai","transit":false,"station_id":"MRI","distance":1275,"i_long":106.84912,"is_transit":false,"i_lat":-6.209883},{"is_transit":false,"station_name":"Sudirman","transit":false,"time":4,"station_id":"SUD","i_lat":-6.202263,"i_long":106.822649,"distance":3186,"line":1},{"station_name":"Sudirman Baru","time":1,"i_long":106.819881,"is_transit":false,"transit":false,"station_id":"SUDB","distance":280,"i_lat":-6.201433,"line":1},{"station_name":"Karet","time":1,"distance":471,"station_id":"KAT","i_long":106.816351,"transit":false,"i_lat":-6.20132,"line":1,"is_transit":false},{"is_transit":false,"time":5,"i_lat":-6.185545,"station_name":"Tanah Abang","i_long":106.811091,"station_id":"THB","transit":false,"distance":2029,"line":1},{"i_lat":-6.155215,"is_transit":true,"station_name":"Duri","transit":true,"line":1,"time":8,"i_long":106.800832,"station_id":"DU","distance":3632},{"i_lat":-6.162021,"station_id":"GGL","is_transit":false,"time":3,"distance":1700,"station_name":"Grogol","transit":false,"i_long":106.788277,"line":5},{"is_transit":false,"distance":2036,"station_name":"Pesing","station_id":"PSG","i_long":106.771379,"transit":false,"i_lat":-6.161433,"line":5,"time":2},{"station_name":"Taman Kota","is_transit":false,"station_id":"TKO","line":5,"transit":false,"i_long":106.756522,"i_lat":-6.1587309999999995,"time":2,"distance":1614},{"distance":2334,"i_lat":-6.159876,"station_id":"BOI","line":5,"i_long":106.737035,"transit":false,"is_transit":false,"time":2,"station_name":"Bojongindah"},{"is_transit":false,"station_id":"RW","time":4,"transit":false,"distance":1152,"i_long":106.723064,"line":5,"station_name":"Rawa Buaya","i_lat":-6.162758},{"line":5,"i_long":106.701612,"station_name":"Kalideres","transit":false,"time":3,"is_transit":false,"distance":2504,"station_id":"KDS","i_lat":-6.166068},{"station_id":"PI","is_transit":false,"time":3,"distance":2548,"line":5,"station_name":"Poris","transit":false,"i_lat":-6.169933,"i_long":106.679458},{"transit":false,"i_lat":-6.171811,"station_id":"BPR","station_name":"Batuceper","is_transit":false,"line":5,"i_long":106.665036,"time":3,"distance":1834}],[{"is_transit":false,"time":0,"station_id":"KLD","line":1,"i_lat":-6.2135,"distance":0,"i_long":106.899548,"station_name":"Klender","transit":false},{"distance":3395,"time":3,"station_id":"JNG","i_lat":-6.215091,"i_long":106.86807400000001,"is_transit":true,"transit":true,"line":1,"station_name":"Jatinegara"},{"i_long":106.861737,"distance":1236,"is_transit":false,"time":2,"transit":false,"i_lat":-6.209188,"line":11,"station_id":"POK","station_name":"Pondok Jati"},{"station_name":"Kramat","distance":1829,"transit":false,"station_id":"KMT","i_long":106.855437,"is_transit":false,"i_lat":-6.193792,"line":11,"time":2},{"is_transit":false,"station_name":"Gang Sentiong","i_long":106.850107,"line":11,"i_lat":-6.185975,"time":1,"transit":false,"distance":973,"station_id":"GST"},{"distance":1567,"station_id":"PSE","i_long":106.84368,"line":11,"is_transit":false,"i_lat":-6.174784,"station_name":"Pasar Senen","transit":false,"time":8},{"i_lat":-6.161728,"i_long":106.839204,"transit":false,"is_transit":false,"time":4,"line":11,"station_name":"Kemayoran","station_id":"KMO","distance":1436},{"station_id":"RJW","station_name":"Rajawali","is_transit":false,"distance":1901,"line":11,"transit":false,"time":5,"i_lat":-6.14505,"i_long":106.836569},{"transit":true,"i_lat":-6.132549,"time":3,"station_id":"KPB","i_long":106.826365,"line":4,"distance":1444,"station_name":"Kampung Bandan","is_transit":true},{"station_id":"AK","time":9,"i_lat":-6.144674,"is_transit":false,"distance":4102,"station_name":"Angke","transit":false,"line":1,"i_long":106.79867},{"i_lat":-6.155215,"transit":true,"is_transit":true,"station_name":"Duri","time":4,"distance":1230,"i_long":106.800832,"line":1,"station_id":"DU"},{"line":5,"is_transit":false,"transit":false,"station_name":"Grogol","time":3,"distance":1700,"i_lat":-6.162021,"station_id":"GGL","i_long":106.788277},{"transit":false,"station_id":"PSG","is_transit":false,"station_name":"Pesing","i_long":106.771379,"line":5,"time":2,"distance":2036,"i_lat":-6.161433},{"transit":false,"station_id":"TKO","line":5,"i_long":106.756522,"is_transit":false,"station_name":"Taman Kota","time":2,"distance":1614,"i_lat":-6.1587309999999995},{"line":5,"station_name":"Bojongindah","station_id":"BOI","i_long":106.737035,"i_lat":-6.159876,"transit":false,"is_transit":false,"time":2,"distance":2334},{"i_long":106.723064,"i_lat":-6.162758,"is_transit":false,"station_id":"RW","time":4,"transit":false,"station_name":"Rawa Buaya","distance":1152,"line":5},{"station_name":"Kalideres","station_id":"KDS","i_lat":-6.166068,"transit":false,"line":5,"time":3,"i_long":106.701612,"distance":2504,"is_transit":false},{"line":5,"transit":false,"is_transit":false,"station_id":"PI","station_name":"Poris","time":3,"distance":2548,"i_lat":-6.169933,"i_long":106.679458},{"station_name":"Batuceper","station_id":"BPR","i_lat":-6.171811,"i_long":106.665036,"transit":false,"distance":1834,"is_transit":false,"time":3,"line":5}],[{"transit":false,"station_name":"Klender","is_transit":false,"time":0,"i_long":106.899548,"distance":0,"line":1,"station_id":"KLD","i_lat":-6.2135},{"i_long":106.86807400000001,"time":3,"is_transit":false,"transit":false,"distance":3395,"line":1,"station_id":"JNG","station_name":"Jatinegara","i_lat":-6.215091},{"transit":false,"is_transit":false,"station_name":"Matraman","line":1,"station_id":"MTR","distance":1377,"time":2,"i_long":106.858896,"i_lat":-6.212485},{"i_lat":-6.209883,"station_id":"MRI","distance":1275,"station_name":"Manggarai","transit":true,"is_transit":true,"time":2,"i_long":106.84912,"line":2},{"station_id":"CKI","i_long":106.840169,"distance":1590,"line":2,"transit":false,"is_transit":false,"time":4,"station_name":"Cikini","i_lat":-6.198556},{"is_transit":false,"line":2,"distance":1750,"time":3,"i_long":106.832183,"i_lat":-6.186295,"station_name":"Gondangdia","station_id":"GDD","transit":false},{"transit":false,"i_lat":-6.166716,"time":4,"station_id":"JUA","line":2,"distance":2015,"is_transit":false,"i_long":106.828284,"station_name":"Juanda"},{"transit":false,"distance":1149,"i_long":106.827103,"is_transit":false,"time":2,"station_id":"SW","i_lat":-6.160725,"line":2,"station_name":"Sawah Besar"},{"i_long":106.82482,"line":2,"station_name":"Manggabesar","i_lat":-6.149769,"time":2,"transit":false,"station_id":"MGB","is_transit":false,"distance":906},{"i_lat":-6.141205,"station_name":"Jayakarta","distance":1080,"is_transit":false,"i_long":106.820901,"line":2,"transit":false,"station_id":"JAY","time":2},{"distance":1264,"station_name":"Jakarta Kota","i_long":106.812439,"line":2,"time":4,"transit":true,"station_id":"JAKK","i_lat":-6.137569,"is_transit":true},{"station_id":"KPB","distance":1364,"i_long":106.826365,"transit":true,"station_name":"Kampung Bandan","is_transit":true,"time":3,"line":4,"i_lat":-6.132549},{"station_name":"Angke","station_id":"AK","is_transit":false,"distance":4102,"time":9,"i_long":106.79867,"line":1,"transit":false,"i_lat":-6.144674},{"transit":true,"station_name":"Duri","is_transit":true,"line":1,"station_id":"DU","time":4,"i_lat":-6.155215,"distance":1230,"i_long":106.800832},{"i_lat":-6.162021,"i_long":106.788277,"line":5,"is_transit":false,"station_name":"Grogol","station_id":"GGL","transit":false,"distance":1700,"time":3},{"transit":false,"station_name":"Pesing","time":2,"station_id":"PSG","distance":2036,"i_long":106.771379,"i_lat":-6.161433,"line":5,"is_transit":false},{"time":2,"distance":1614,"i_lat":-6.1587309999999995,"line":5,"station_name":"Taman Kota","i_long":106.756522,"transit":false,"station_id":"TKO","is_transit":false},{"time":2,"is_transit":false,"station_id":"BOI","distance":2334,"i_lat":-6.159876,"transit":false,"station_name":"Bojongindah","i_long":106.737035,"line":5},{"station_id":"RW","time":4,"i_lat":-6.162758,"station_name":"Rawa Buaya","line":5,"transit":false,"is_transit":false,"i_long":106.723064,"distance":1152},{"station_id":"KDS","distance":2504,"i_lat":-6.166068,"i_long":106.701612,"station_name":"Kalideres","is_transit":false,"time":3,"line":5,"transit":false},{"time":3,"i_lat":-6.169933,"i_long":106.679458,"line":5,"transit":false,"distance":2548,"station_name":"Poris","station_id":"PI","is_transit":false},{"station_name":"Batuceper","line":5,"transit":false,"station_id":"BPR","is_transit":false,"i_long":106.665036,"distance":1834,"i_lat":-6.171811,"time":3}],[{"i_lat":-6.2135,"station_name":"Klender","time":0,"is_transit":false,"distance":0,"transit":false,"station_id":"KLD","line":1,"i_long":106.899548},{"station_name":"Jatinegara","is_transit":true,"i_lat":-6.215091,"line":1,"time":3,"i_long":106.86807400000001,"transit":true,"distance":3395,"station_id":"JNG"},{"distance":1236,"i_long":106.861737,"i_lat":-6.209188,"station_id":"POK","time":2,"is_transit":false,"transit":false,"station_name":"Pondok Jati","line":11},{"time":2,"i_long":106.855437,"distance":1829,"station_id":"KMT","transit":false,"i_lat":-6.193792,"line":11,"station_name":"Kramat","is_transit":false},{"station_name":"Gang Sentiong","station_id":"GST","time":1,"transit":false,"line":11,"distance":973,"i_lat":-6.185975,"is_transit":false,"i_long":106.850107},{"is_transit":false,"station_id":"PSE","distance":1567,"i_long":106.84368,"transit":false,"line":11,"time":8,"station_name":"Pasar Senen","i_lat":-6.174784},{"line":11,"i_long":106.839204,"distance":1436,"is_transit":false,"station_name":"Kemayoran","station_id":"KMO","transit":false,"i_lat":-6.161728,"time":4},{"time":5,"line":11,"station_id":"RJW","i_lat":-6.14505,"station_name":"Rajawali","is_transit":false,"distance":1901,"transit":false,"i_long":106.836569},{"line":4,"time":3,"is_transit":true,"i_lat":-6.132549,"distance":1444,"i_long":106.826365,"station_name":"Kampung Bandan","station_id":"KPB","transit":true},{"transit":true,"is_transit":true,"station_name":"Jakarta Kota","distance":1364,"i_lat":-6.137569,"station_id":"JAKK","i_long":106.812439,"time":3,"line":2},{"station_name":"Jayakarta","line":2,"time":4,"i_long":106.820901,"transit":false,"is_transit":false,"distance":1264,"i_lat":-6.141205,"station_id":"JAY"},{"i_lat":-6.149769,"time":2,"transit":false,"station_id":"MGB","line":2,"i_long":106.82482,"is_transit":false,"station_name":"Manggabesar","distance":1080},{"is_transit":false,"distance":906,"station_name":"Sawah Besar","time":2,"i_lat":-6.160725,"i_long":106.827103,"line":2,"station_id":"SW","transit":false},{"station_id":"JUA","i_long":106.828284,"distance":1149,"transit":false,"is_transit":false,"line":2,"station_name":"Juanda","i_lat":-6.166716,"time":2},{"station_id":"GDD","i_long":106.832183,"distance":2015,"line":2,"station_name":"Gondangdia","is_transit":false,"transit":false,"i_lat":-6.186295,"time":4},{"time":3,"distance":1750,"station_id":"CKI","line":2,"station_name":"Cikini","is_transit":false,"i_long":106.840169,"transit":false,"i_lat":-6.198556},{"i_long":106.84912,"line":2,"time":4,"i_lat":-6.209883,"transit":true,"station_name":"Manggarai","is_transit":true,"station_id":"MRI","distance":1590},{"station_name":"Sudirman","transit":false,"station_id":"SUD","line":1,"distance":3186,"i_lat":-6.202263,"i_long":106.822649,"time":4,"is_transit":false},{"station_id":"SUDB","is_transit":false,"distance":280,"transit":false,"station_name":"Sudirman Baru","line":1,"i_lat":-6.201433,"i_long":106.819881,"time":1},{"i_long":106.816351,"is_transit":false,"time":1,"station_name":"Karet","station_id":"KAT","distance":471,"i_lat":-6.20132,"line":1,"transit":false},{"time":5,"station_name":"Tanah Abang","distance":2029,"station_id":"THB","i_long":106.811091,"is_transit":false,"transit":false,"i_lat":-6.185545,"line":1},{"line":1,"transit":true,"i_lat":-6.155215,"is_transit":true,"station_name":"Duri","time":8,"distance":3632,"i_long":106.800832,"station_id":"DU"},{"time":3,"transit":false,"station_name":"Grogol","distance":1700,"i_long":106.788277,"i_lat":-6.162021,"line":5,"station_id":"GGL","is_transit":false},{"is_transit":false,"i_long":106.771379,"line":5,"time":2,"distance":2036,"station_id":"PSG","station_name":"Pesing","transit":false,"i_lat":-6.161433},{"station_id":"TKO","time":2,"i_long":106.756522,"line":5,"station_name":"Taman Kota","transit":false,"is_transit":false,"distance":1614,"i_lat":-6.1587309999999995},{"station_id":"BOI","time":2,"is_transit":false,"line":5,"transit":false,"i_lat":-6.159876,"station_name":"Bojongindah","distance":2334,"i_long":106.737035},{"i_lat":-6.162758,"is_transit":false,"station_name":"Rawa Buaya","station_id":"RW","time":4,"distance":1152,"i_long":106.723064,"line":5,"transit":false},{"i_lat":-6.166068,"transit":false,"station_name":"Kalideres","line":5,"time":3,"station_id":"KDS","distance":2504,"is_transit":false,"i_long":106.701612},{"line":5,"transit":false,"station_name":"Poris","station_id":"PI","distance":2548,"i_long":106.679458,"is_transit":false,"time":3,"i_lat":-6.169933},{"station_name":"Batuceper","distance":1834,"i_long":106.665036,"station_id":"BPR","line":5,"i_lat":-6.171811,"time":3,"transit":false,"is_transit":false}]]}