{"data":[[{"i_long":106.899548,"line":1,"station_id":"KLD","transit":false,"station_name":"Klender","is_transit":false,"i_lat":-6.2135,"time":0,"distance":0},{"time":3,"station_id":"JNG","station_name":"Jatinegara","is_transit":false,"i_lat":-6.215091,"transit":false,"i_long":106.86807400000001,"distance":3395,"line":1},{"station_id":"MTR","time":2,"i_long":106.858896,"line":1,"transit":false,"is_transit":false,"distance":1377,"i_lat":-6.212485,"station_name":"Matraman"},{"station_name":"Manggarai","distance":1275,"is_transit":true,"time":2,"station_id":"MRI","i_lat":-6.209883,"i_long":106.84912,"line":2,"transit":true},{"time":4,"transit":false,"i_long":106.857948,"station_id":"TEB","distance":2610,"station_name":"Tebet","line":2,"i_lat":-6.226659,"is_transit":false},{"station_name":"Cawang","station_id":"CW","line":2,"transit":false,"i_long":106.856607,"time":2,"is_transit":false,"i_lat":-6.242512,"distance":1230},{"station_id":"DRN","transit":false,"i_lat":-6.255332,"distance":1546,"is_transit":false,"time":3,"line":2,"i_long":106.85449,"station_name":"Duren Kalibata"},{"distance":824,"i_lat":-6.263214,"i_long":106.851577,"transit":false,"station_id":"PSMB","station_name":"Pasar Minggu Baru","is_transit":false,"time":2,"line":2},{"station_id":"PSM","transit":false,"distance":2380,"time":2,"i_lat":-6.2842400000000005,"station_name":"Pasar Minggu","is_transit":false,"i_long":106.843999,"line":2},{"is_transit":false,"time":4,"transit":false,"line":2,"station_name":"Tanjung Barat","distance":2820,"station_id":"TNT","i_lat":-6.3080680000000005,"i_long":106.838896},{"station_id":"LNA","distance":2671,"is_transit":false,"time":3,"transit":false,"i_long":106.832616,"station_name":"Lenteng Agung","line":2,"i_lat":-6.330363},{"i_lat":-6.339291,"time":2,"station_name":"Univ. Pancasila","transit":false,"station_id":"UP","is_transit":false,"distance":1029,"i_long":106.834175,"line":2},{"distance":2264,"transit":false,"is_transit":false,"i_long":106.831474,"time":3,"i_lat":-6.360749,"station_name":"Univ. Indonesia","station_id":"UI","line":2},{"station_name":"Pondok Cina","line":2,"is_transit":false,"distance":1109,"i_long":106.831114,"transit":false,"station_id":"POC","time":2,"i_lat":-6.369073},{"time":4,"i_long":106.819451,"station_id":"DPB","station_name":"Depokbaru","line":2,"is_transit":false,"distance":2727,"i_lat":-6.391065,"transit":false},{"transit":false,"time":3,"line":2,"station_name":"Depok","i_lat":-6.405256,"distance":1584,"is_transit":false,"i_long":106.816926,"station_id":"DP"},{"i_lat":-6.448811,"is_transit":false,"station_name":"Citayam","distance":5084,"line":2,"transit":false,"time":6,"station_id":"CTA","i_long":106.800298},{"is_transit":false,"i_long":106.792719,"station_name":"Bojonggede","station_id":"BJD","distance":5197,"i_lat":-6.493243,"transit":false,"time":5,"line":2},{"is_transit":false,"transit":false,"station_name":"Cilebut","time":5,"distance":4331,"line":2,"i_lat":-6.530544,"station_id":"CLT","i_long":106.800016}],[{"i_lat":-6.2135,"station_id":"KLD","line":1,"distance":0,"transit":false,"station_name":"Klender","is_transit":false,"time":0,"i_long":106.899548},{"is_transit":true,"station_id":"JNG","distance":3395,"time":3,"i_long":106.86807400000001,"station_name":"Jatinegara","transit":true,"line":1,"i_lat":-6.215091},{"station_name":"Pondok Jati","time":2,"distance":1236,"i_long":106.861737,"is_transit":false,"line":11,"station_id":"POK","transit":false,"i_lat":-6.209188},{"station_name":"Kramat","i_long":106.855437,"i_lat":-6.193792,"line":11,"transit":false,"distance":1829,"is_transit":false,"station_id":"KMT","time":2},{"i_long":106.850107,"line":11,"transit":false,"station_id":"GST","distance":973,"station_name":"Gang Sentiong","time":1,"is_transit":false,"i_lat":-6.185975},{"is_transit":false,"station_id":"PSE","i_long":106.84368,"distance":1567,"i_lat":-6.174784,"transit":false,"line":11,"station_name":"Pasar Senen","time":8},{"transit":false,"i_long":106.839204,"is_transit":false,"line":11,"time":4,"station_name":"Kemayoran","distance":1436,"i_lat":-6.161728,"station_id":"KMO"},{"time":5,"station_name":"Rajawali","distance":1901,"i_long":106.836569,"i_lat":-6.14505,"station_id":"RJW","is_transit":false,"line":11,"transit":false},{"distance":1444,"transit":true,"i_lat":-6.132549,"line":4,"station_name":"Kampung Bandan","is_transit":true,"time":3,"i_long":106.826365,"station_id":"KPB"},{"i_lat":-6.144674,"station_id":"AK","transit":false,"is_transit":false,"distance":4102,"station_name":"Angke","i_long":106.79867,"time":9,"line":1},{"i_lat":-6.155215,"i_long":106.800832,"station_id":"DU","line":1,"is_transit":false,"time":4,"distance":1230,"transit":false,"station_name":"Duri"},{"station_id":"THB","i_long":106.811091,"distance":3632,"time":8,"transit":false,"station_name":"Tanah Abang","is_transit":false,"i_lat":-6.185545,"line":1},{"transit":false,"time":5,"i_lat":-6.20132,"is_transit":false,"line":1,"i_long":106.816351,"station_name":"Karet","station_id":"KAT","distance":2029},{"distance":471,"i_long":106.819881,"station_name":"Sudirman Baru","is_transit":false,"i_lat":-6.201433,"transit":false,"time":1,"line":1,"station_id":"SUDB"},{"station_name":"Sudirman","transit":false,"time":1,"line":1,"distance":280,"is_transit":false,"station_id":"SUD","i_lat":-6.202263,"i_long":106.822649},{"i_lat":-6.209883,"line":2,"time":4,"station_name":"Manggarai","transit":true,"i_long":106.84912,"distance":3186,"is_transit":true,"station_id":"MRI"},{"is_transit":false,"station_name":"Tebet","i_long":106.857948,"line":2,"station_id":"TEB","distance":2610,"transit":false,"time":4,"i_lat":-6.226659},{"i_lat":-6.242512,"line":2,"station_id":"CW","i_long":106.856607,"time":2,"station_name":"Cawang","transit":false,"is_transit":false,"distance":1230},{"distance":1546,"station_name":"Duren Kalibata","transit":false,"is_transit":false,"i_long":106.85449,"i_lat":-6.255332,"line":2,"station_id":"DRN","time":3},{"transit":false,"line":2,"is_transit":false,"station_name":"Pasar Minggu Baru","station_id":"PSMB","time":2,"distance":824,"i_lat":-6.263214,"i_long":106.851577},{"station_id":"PSM","i_lat":-6.2842400000000005,"transit":false,"i_long":106.843999,"line":2,"station_name":"Pasar Minggu","time":2,"distance":2380,"is_transit":false},{"is_transit":false,"i_long":106.838896,"time":4,"transit":false,"station_name":"Tanjung Barat","distance":2820,"station_id":"TNT","i_lat":-6.3080680000000005,"line":2},{"transit":false,"station_id":"LNA","station_name":"Lenteng Agung","is_transit":false,"time":3,"distance":2671,"i_lat":-6.330363,"i_long":106.832616,"line":2},{"distance":1029,"station_id":"UP","i_lat":-6.339291,"line":2,"station_name":"Univ. Pancasila","time":2,"i_long":106.834175,"is_transit":false,"transit":false},{"i_long":106.831474,"time":3,"line":2,"distance":2264,"i_lat":-6.360749,"station_id":"UI","transit":false,"is_transit":false,"station_name":"Univ. Indonesia"},{"station_id":"POC","line":2,"transit":false,"station_name":"Pondok Cina","time":2,"i_lat":-6.369073,"is_transit":false,"i_long":106.831114,"distance":1109},{"distance":2727,"i_long":106.819451,"time":4,"station_name":"Depokbaru","line":2,"transit":false,"station_id":"DPB","i_lat":-6.391065,"is_transit":false},{"transit":false,"i_long":106.816926,"line":2,"distance":1584,"time":3,"station_name":"Depok","i_lat":-6.405256,"station_id":"DP","is_transit":false},{"transit":false,"distance":5084,"i_long":106.800298,"station_name":"Citayam","time":6,"station_id":"CTA","is_transit":false,"i_lat":-6.448811,"line":2},{"transit":false,"time":5,"i_lat":-6.493243,"line":2,"distance":5197,"i_long":106.792719,"is_transit":false,"station_id":"BJD","station_name":"Bojonggede"},{"i_long":106.800016,"distance":4331,"time":5,"line":2,"transit":false,"station_name":"Cilebut","station_id":"CLT","i_lat":-6.530544,"is_transit":false}],[{"station_id":"KLD","is_transit":false,"i_lat":-6.2135,"line":1,"transit":false,"station_name":"Klender","i_long":106.899548,"time":0,"distance":0},{"station_id":"JNG","line":1,"transit":true,"i_lat":-6.215091,"i_long":106.86807400000001,"station_name":"Jatinegara","time":3,"distance":3395,"is_transit":true},{"i_lat":-6.209188,"time":2,"is_transit":false,"i_long":106.861737,"line":11,"transit":false,"station_id":"POK","station_name":"Pondok Jati","distance":1236},{"i_long":106.855437,"station_name":"Kramat","time":2,"station_id":"KMT","is_transit":false,"i_lat":-6.193792,"distance":1829,"transit":false,"line":11},{"i_long":106.850107,"transit":false,"line":11,"station_id":"GST","is_transit":false,"i_lat":-6.185975,"time":1,"station_name":"Gang Sentiong","distance":973},{"transit":false,"station_name":"Pasar Senen","i_long":106.84368,"line":11,"station_id":"PSE","distance":1567,"i_lat":-6.174784,"time":8,"is_transit":false},{"is_transit":false,"time":4,"station_id":"KMO","i_long":106.839204,"station_name":"Kemayoran","transit":false,"line":11,"i_lat":-6.161728,"distance":1436},{"line":11,"distance":1901,"is_transit":false,"i_long":106.836569,"station_name":"Rajawali","transit":false,"station_id":"RJW","time":5,"i_lat":-6.14505},{"distance":1444,"i_long":106.826365,"transit":true,"station_id":"KPB","is_transit":true,"i_lat":-6.132549,"station_name":"Kampung Bandan","time":3,"line":4},{"distance":1364,"station_name":"Jakarta Kota","i_lat":-6.137569,"i_long":106.812439,"station_id":"JAKK","line":2,"transit":true,"time":3,"is_transit":true},{"is_transit":false,"i_long":106.820901,"time":4,"line":2,"station_id":"JAY","station_name":"Jayakarta","i_lat":-6.141205,"transit":false,"distance":1264},{"is_transit":false,"i_long":106.82482,"line":2,"station_name":"Manggabesar","transit":false,"time":2,"distance":1080,"i_lat":-6.149769,"station_id":"MGB"},{"is_transit":false,"transit":false,"station_name":"Sawah Besar","i_long":106.827103,"station_id":"SW","distance":906,"i_lat":-6.160725,"line":2,"time":2},{"i_lat":-6.166716,"station_id":"JUA","distance":1149,"station_name":"Juanda","i_long":106.828284,"time":2,"is_transit":false,"transit":false,"line":2},{"distance":2015,"i_long":106.832183,"i_lat":-6.186295,"station_id":"GDD","line":2,"transit":false,"is_transit":false,"time":4,"station_name":"Gondangdia"},{"transit":false,"station_name":"Cikini","is_transit":false,"distance":1750,"i_lat":-6.198556,"station_id":"CKI","i_long":106.840169,"line":2,"time":3},{"time":4,"distance":1590,"i_lat":-6.209883,"transit":false,"i_long":106.84912,"is_transit":false,"line":2,"station_name":"Manggarai","station_id":"MRI"},{"time":4,"is_transit":false,"transit":false,"station_name":"Tebet","station_id":"TEB","distance":2610,"i_lat":-6.226659,"i_long":106.857948,"line":2},{"i_lat":-6.242512,"is_transit":false,"transit":false,"station_id":"CW","time":2,"station_name":"Cawang","distance":1230,"line":2,"i_long":106.856607},{"is_transit":false,"i_lat":-6.255332,"distance":1546,"station_id":"DRN","transit":false,"station_name":"Duren Kalibata","i_long":106.85449,"time":3,"line":2},{"station_name":"Pasar Minggu Baru","distance":824,"line":2,"i_long":106.851577,"time":2,"transit":false,"is_transit":false,"i_lat":-6.263214,"station_id":"PSMB"},{"distance":2380,"is_transit":false,"station_id":"PSM","station_name":"Pasar Minggu","i_lat":-6.2842400000000005,"i_long":106.843999,"time":2,"transit":false,"line":2},{"i_lat":-6.3080680000000005,"station_name":"Tanjung Barat","distance":2820,"is_transit":false,"i_long":106.838896,"station_id":"TNT","line":2,"time":4,"transit":false},{"station_name":"Lenteng Agung","transit":false,"station_id":"LNA","i_long":106.832616,"line":2,"time":3,"distance":2671,"i_lat":-6.330363,"is_transit":false},{"i_lat":-6.339291,"station_name":"Univ. Pancasila","i_long":106.834175,"is_transit":false,"line":2,"transit":false,"station_id":"UP","time":2,"distance":1029},{"transit":false,"station_id":"UI","is_transit":false,"i_long":106.831474,"distance":2264,"time":3,"line":2,"station_name":"Univ. Indonesia","i_lat":-6.360749},{"station_id":"POC","is_transit":false,"i_lat":-6.369073,"i_long":106.831114,"time":2,"station_name":"Pondok Cina","transit":false,"line":2,"distance":1109},{"i_long":106.819451,"i_lat":-6.391065,"is_transit":false,"line":2,"time":4,"transit":false,"station_id":"DPB","distance":2727,"station_name":"Depokbaru"},{"time":3,"line":2,"distance":1584,"transit":false,"station_id":"DP","i_lat":-6.405256,"is_transit":false,"i_long":106.816926,"station_name":"Depok"},{"i_lat":-6.448811,"i_long":106.800298,"line":2,"time":6,"distance":5084,"station_id":"CTA","is_transit":false,"transit":false,"station_name":"Citayam"},{"station_id":"BJD","time":5,"is_transit":false,"distance":5197,"i_lat":-6.493243,"station_name":"Bojonggede","i_long":106.792719,"transit":false,"line":2},{"i_long":106.800016,"distance":4331,"is_transit":false,"line":2,"transit":false,"time":5,"i_lat":-6.530544,"station_id":"CLT","station_name":"Cilebut"}]]}