{"data":[[{"station_name":"Klender","distance":0,"line":1,"is_transit":false,"transit":false,"i_lat":-6.2135,"station_id":"KLD","time":0,"i_long":106.899548},{"i_long":106.86807400000001,"line":1,"distance":3395,"is_transit":true,"time":3,"transit":true,"station_id":"JNG","station_name":"Jatinegara","i_lat":-6.215091},{"time":2,"distance":1236,"transit":false,"line":11,"is_transit":false,"i_lat":-6.209188,"i_long":106.861737,"station_id":"POK","station_name":"Pondok Jati"},{"line":11,"i_long":106.855437,"distance":1829,"time":2,"transit":false,"station_id":"KMT","i_lat":-6.193792,"station_name":"Kramat","is_transit":false},{"time":1,"transit":false,"line":11,"distance":973,"i_long":106.850107,"station_id":"GST","is_transit":false,"i_lat":-6.185975,"station_name":"Gang Sentiong"},{"time":8,"i_long":106.84368,"i_lat":-6.174784,"distance":1567,"station_name":"Pasar Senen","line":11,"station_id":"PSE","transit":false,"is_transit":false},{"i_long":106.839204,"distance":1436,"transit":false,"time":4,"is_transit":false,"station_id":"KMO","station_name":"Kemayoran","line":11,"i_lat":-6.161728},{"time":5,"station_name":"Rajawali","is_transit":false,"line":11,"distance":1901,"transit":false,"i_lat":-6.14505,"i_long":106.836569,"station_id":"RJW"},{"transit":false,"station_id":"KPB","line":4,"station_name":"Kampung Bandan","time":3,"is_transit":false,"i_lat":-6.132549,"distance":1444,"i_long":106.826365}],[{"station_name":"Klender","time":0,"i_long":106.899548,"station_id":"KLD","line":1,"transit":false,"distance":0,"is_transit":false,"i_lat":-6.2135},{"line":1,"distance":3395,"time":3,"transit":false,"i_long":106.86807400000001,"is_transit":false,"station_name":"Jatinegara","station_id":"JNG","i_lat":-6.215091},{"time":2,"i_lat":-6.212485,"is_transit":false,"distance":1377,"station_name":"Matraman","station_id":"MTR","i_long":106.858896,"line":1,"transit":false},{"i_long":106.84912,"distance":1275,"transit":false,"station_id":"MRI","i_lat":-6.209883,"line":2,"station_name":"Manggarai","time":2,"is_transit":false},{"time":4,"transit":false,"is_transit":false,"station_id":"SUD","station_name":"Sudirman","i_long":106.822649,"distance":3186,"line":1,"i_lat":-6.202263},{"station_id":"SUDB","is_transit":false,"time":1,"distance":280,"transit":false,"station_name":"Sudirman Baru","i_lat":-6.201433,"i_long":106.819881,"line":1},{"transit":false,"line":1,"i_lat":-6.20132,"distance":471,"is_transit":false,"station_name":"Karet","time":1,"station_id":"KAT","i_long":106.816351},{"line":1,"transit":false,"i_long":106.811091,"i_lat":-6.185545,"distance":2029,"is_transit":false,"station_name":"Tanah Abang","station_id":"THB","time":5},{"transit":false,"station_name":"Duri","station_id":"DU","i_long":106.800832,"time":8,"distance":3632,"is_transit":false,"line":1,"i_lat":-6.155215},{"i_lat":-6.144674,"station_name":"Angke","is_transit":false,"time":4,"transit":false,"i_long":106.79867,"station_id":"AK","line":1,"distance":1230},{"time":9,"is_transit":false,"station_id":"KPB","line":4,"i_lat":-6.132549,"station_name":"Kampung Bandan","transit":false,"distance":4102,"i_long":106.826365}],[{"i_lat":-6.2135,"line":1,"i_long":106.899548,"time":0,"transit":false,"station_id":"KLD","is_transit":false,"station_name":"Klender","distance":0},{"time":3,"station_name":"Jatinegara","i_lat":-6.215091,"line":1,"i_long":106.86807400000001,"station_id":"JNG","transit":false,"is_transit":false,"distance":3395},{"station_id":"MTR","station_name":"Matraman","distance":1377,"i_lat":-6.212485,"time":2,"is_transit":false,"i_long":106.858896,"transit":false,"line":1},{"distance":1275,"is_transit":true,"station_name":"Manggarai","station_id":"MRI","i_long":106.84912,"line":2,"transit":true,"time":2,"i_lat":-6.209883},{"is_transit":false,"transit":false,"station_id":"CKI","line":2,"distance":1590,"station_name":"Cikini","i_long":106.840169,"time":4,"i_lat":-6.198556},{"distance":1750,"station_id":"GDD","is_transit":false,"transit":false,"i_lat":-6.186295,"line":2,"station_name":"Gondangdia","i_long":106.832183,"time":3},{"distance":2015,"i_lat":-6.166716,"is_transit":false,"i_long":106.828284,"transit":false,"station_id":"JUA","station_name":"Juanda","time":4,"line":2},{"transit":false,"i_lat":-6.160725,"line":2,"station_id":"SW","time":2,"is_transit":false,"station_name":"Sawah Besar","i_long":106.827103,"distance":1149},{"distance":906,"station_name":"Manggabesar","i_lat":-6.149769,"line":2,"transit":false,"is_transit":false,"i_long":106.82482,"time":2,"station_id":"MGB"},{"line":2,"station_name":"Jayakarta","i_lat":-6.141205,"station_id":"JAY","time":2,"i_long":106.820901,"is_transit":false,"distance":1080,"transit":false},{"i_long":106.812439,"station_id":"JAKK","i_lat":-6.137569,"time":4,"transit":true,"distance":1264,"is_transit":true,"station_name":"Jakarta Kota","line":2},{"is_transit":false,"line":4,"station_name":"Kampung Bandan","transit":false,"station_id":"KPB","distance":1364,"i_lat":-6.132549,"time":3,"i_long":106.826365}]]}