{"data":[[{"line":1,"station_name":"Klender","i_long":106.899548,"i_lat":-6.2135,"transit":false,"station_id":"KLD","is_transit":false,"time":0,"distance":0},{"i_long":106.86807400000001,"station_id":"JNG","is_transit":true,"transit":false,"i_lat":-6.215091,"line":0,"time":3,"station_name":"Jatinegara","distance":3395},{"transit":false,"i_long":106.858896,"station_id":"MTR","station_name":"Matraman","distance":1377,"time":2,"line":1,"is_transit":false,"i_lat":-6.212485},{"i_long":106.84912,"line":0,"transit":true,"station_name":"Manggarai","i_lat":-6.209883,"time":2,"is_transit":true,"distance":1275,"station_id":"MRI"},{"transit":false,"station_id":"TEB","i_lat":-6.226659,"station_name":"Tebet","time":4,"distance":2610,"i_long":106.857948,"is_transit":false,"line":2},{"station_id":"CW","transit":false,"line":0,"i_lat":-6.242512,"station_name":"Cawang","i_long":106.856607,"time":2,"distance":1230,"is_transit":false},{"i_lat":-6.255332,"is_transit":false,"time":3,"distance":1546,"transit":false,"line":0,"station_name":"Duren Kalibata","station_id":"DRN","i_long":106.85449},{"distance":824,"line":2,"i_lat":-6.263214,"is_transit":false,"station_id":"PSMB","transit":false,"station_name":"Pasar Minggu Baru","i_long":106.851577,"time":2},{"distance":2380,"station_id":"PSM","station_name":"Pasar Minggu","line":2,"transit":false,"time":2,"is_transit":false,"i_lat":-6.2842400000000005,"i_long":106.843999},{"i_lat":-6.3080680000000005,"transit":false,"distance":2820,"line":2,"i_long":106.838896,"station_name":"Tanjung Barat","time":4,"is_transit":false,"station_id":"TNT"},{"time":3,"station_id":"LNA","is_transit":false,"station_name":"Lenteng Agung","i_lat":-6.330363,"distance":2671,"transit":false,"line":2,"i_long":106.832616},{"transit":false,"is_transit":false,"distance":1029,"i_lat":-6.339291,"station_id":"UP","line":2,"station_name":"Univ. Pancasila","time":2,"i_long":106.834175},{"i_long":106.831474,"station_id":"UI","line":2,"i_lat":-6.360749,"transit":false,"is_transit":false,"distance":2264,"station_name":"Univ. Indonesia","time":3},{"time":2,"station_name":"Pondok Cina","transit":false,"distance":1109,"is_transit":false,"station_id":"POC","i_lat":-6.369073,"i_long":106.831114,"line":2},{"i_long":106.819451,"line":0,"station_name":"Depokbaru","distance":2727,"is_transit":false,"time":4,"station_id":"DPB","i_lat":-6.391065,"transit":false},{"time":3,"i_lat":-6.405256,"station_name":"Depok","station_id":"DP","i_long":106.816926,"distance":1584,"transit":false,"line":0,"is_transit":false},{"i_lat":-6.448811,"is_transit":true,"i_long":106.800298,"transit":false,"time":6,"station_name":"Citayam","station_id":"CTA","distance":5084,"line":1},{"station_name":"Bojonggede","is_transit":false,"i_lat":-6.493243,"i_long":106.792719,"line":0,"station_id":"BJD","distance":5197,"transit":false,"time":5},{"station_id":"CLT","i_long":106.800016,"is_transit":false,"i_lat":-6.530544,"distance":4331,"time":5,"station_name":"Cilebut","transit":false,"line":0}],[{"i_lat":-6.2135,"is_transit":false,"distance":0,"station_name":"Klender","line":1,"station_id":"KLD","i_long":106.899548,"time":0,"transit":false},{"i_lat":-6.215091,"station_name":"Jatinegara","time":3,"transit":true,"station_id":"JNG","i_long":106.86807400000001,"line":0,"is_transit":true,"distance":3395},{"distance":1236,"i_lat":-6.209188,"time":2,"is_transit":false,"station_id":"POK","station_name":"Pondok Jati","line":11,"i_long":106.861737,"transit":false},{"i_lat":-6.193792,"time":2,"i_long":106.855437,"station_name":"Kramat","transit":false,"line":11,"station_id":"KMT","distance":1829,"is_transit":false},{"time":1,"station_id":"GST","line":11,"transit":false,"distance":973,"is_transit":false,"station_name":"Gang Sentiong","i_lat":-6.185975,"i_long":106.850107},{"is_transit":false,"transit":false,"line":11,"station_name":"Pasar Senen","station_id":"PSE","i_lat":-6.174784,"distance":1567,"i_long":106.84368,"time":8},{"is_transit":false,"i_lat":-6.161728,"distance":1436,"transit":false,"time":4,"i_long":106.839204,"station_id":"KMO","station_name":"Kemayoran","line":11},{"i_long":106.836569,"transit":false,"line":11,"time":5,"station_name":"Rajawali","distance":1901,"station_id":"RJW","is_transit":false,"i_lat":-6.14505},{"station_name":"Kampung Bandan","transit":true,"station_id":"KPB","distance":1444,"i_lat":-6.132549,"i_long":106.826365,"line":0,"time":3,"is_transit":true},{"i_long":106.79867,"station_id":"AK","time":9,"distance":4102,"station_name":"Angke","i_lat":-6.144674,"line":0,"is_transit":false,"transit":false},{"is_transit":true,"line":1,"time":4,"station_id":"DU","station_name":"Duri","transit":true,"distance":1230,"i_lat":-6.155215,"i_long":106.800832},{"distance":3632,"time":8,"i_lat":-6.185545,"transit":false,"station_id":"THB","station_name":"Tanah Abang","i_long":106.811091,"is_transit":true,"line":1},{"is_transit":false,"station_name":"Karet","distance":2029,"i_lat":-6.20132,"i_long":106.816351,"line":1,"time":5,"transit":false,"station_id":"KAT"},{"i_lat":-6.201433,"line":1,"distance":471,"station_name":"Sudirman Baru","station_id":"SUDB","is_transit":false,"i_long":106.819881,"time":1,"transit":false},{"line":1,"i_lat":-6.202263,"is_transit":false,"i_long":106.822649,"distance":280,"station_id":"SUD","transit":false,"station_name":"Sudirman","time":1},{"i_lat":-6.209883,"station_name":"Manggarai","line":0,"transit":true,"station_id":"MRI","distance":3186,"time":4,"i_long":106.84912,"is_transit":true},{"is_transit":false,"time":4,"station_name":"Tebet","station_id":"TEB","i_lat":-6.226659,"transit":false,"line":2,"distance":2610,"i_long":106.857948},{"distance":1230,"i_lat":-6.242512,"line":0,"station_id":"CW","is_transit":false,"i_long":106.856607,"station_name":"Cawang","time":2,"transit":false},{"transit":false,"i_long":106.85449,"time":3,"distance":1546,"station_id":"DRN","is_transit":false,"station_name":"Duren Kalibata","i_lat":-6.255332,"line":0},{"transit":false,"line":2,"time":2,"is_transit":false,"distance":824,"station_name":"Pasar Minggu Baru","station_id":"PSMB","i_lat":-6.263214,"i_long":106.851577},{"time":2,"distance":2380,"station_id":"PSM","i_lat":-6.2842400000000005,"i_long":106.843999,"station_name":"Pasar Minggu","is_transit":false,"line":2,"transit":false},{"transit":false,"i_long":106.838896,"station_name":"Tanjung Barat","time":4,"is_transit":false,"station_id":"TNT","i_lat":-6.3080680000000005,"line":2,"distance":2820},{"station_name":"Lenteng Agung","distance":2671,"time":3,"is_transit":false,"station_id":"LNA","i_long":106.832616,"line":2,"transit":false,"i_lat":-6.330363},{"i_lat":-6.339291,"line":2,"station_id":"UP","is_transit":false,"transit":false,"station_name":"Univ. Pancasila","i_long":106.834175,"distance":1029,"time":2},{"station_name":"Univ. Indonesia","i_lat":-6.360749,"line":2,"distance":2264,"station_id":"UI","time":3,"transit":false,"is_transit":false,"i_long":106.831474},{"station_id":"POC","is_transit":false,"station_name":"Pondok Cina","transit":false,"i_lat":-6.369073,"i_long":106.831114,"distance":1109,"line":2,"time":2},{"i_lat":-6.391065,"time":4,"distance":2727,"transit":false,"station_id":"DPB","is_transit":false,"line":0,"station_name":"Depokbaru","i_long":106.819451},{"station_name":"Depok","distance":1584,"station_id":"DP","transit":false,"time":3,"i_long":106.816926,"line":0,"is_transit":false,"i_lat":-6.405256},{"transit":false,"i_long":106.800298,"is_transit":true,"time":6,"station_id":"CTA","i_lat":-6.448811,"station_name":"Citayam","line":1,"distance":5084},{"station_id":"BJD","is_transit":false,"time":5,"i_long":106.792719,"line":0,"i_lat":-6.493243,"station_name":"Bojonggede","distance":5197,"transit":false},{"distance":4331,"time":5,"i_lat":-6.530544,"is_transit":false,"transit":false,"line":0,"station_id":"CLT","station_name":"Cilebut","i_long":106.800016}],[{"line":1,"distance":0,"transit":false,"time":0,"station_id":"KLD","is_transit":false,"station_name":"Klender","i_lat":-6.2135,"i_long":106.899548},{"is_transit":true,"distance":3395,"i_lat":-6.215091,"line":0,"station_id":"JNG","i_long":106.86807400000001,"station_name":"Jatinegara","time":3,"transit":true},{"transit":false,"station_name":"Pondok Jati","station_id":"POK","distance":1236,"line":11,"is_transit":false,"i_lat":-6.209188,"i_long":106.861737,"time":2},{"distance":1829,"time":2,"transit":false,"station_id":"KMT","is_transit":false,"i_long":106.855437,"i_lat":-6.193792,"station_name":"Kramat","line":11},{"station_id":"GST","distance":973,"i_lat":-6.185975,"i_long":106.850107,"line":11,"time":1,"is_transit":false,"station_name":"Gang Sentiong","transit":false},{"line":11,"station_name":"Pasar Senen","distance":1567,"i_lat":-6.174784,"station_id":"PSE","is_transit":false,"transit":false,"i_long":106.84368,"time":8},{"i_long":106.839204,"distance":1436,"i_lat":-6.161728,"is_transit":false,"station_name":"Kemayoran","time":4,"line":11,"transit":false,"station_id":"KMO"},{"line":11,"station_id":"RJW","i_lat":-6.14505,"is_transit":false,"distance":1901,"time":5,"i_long":106.836569,"transit":false,"station_name":"Rajawali"},{"distance":1444,"time":3,"station_id":"KPB","i_lat":-6.132549,"i_long":106.826365,"station_name":"Kampung Bandan","transit":true,"line":0,"is_transit":true},{"distance":1364,"i_lat":-6.137569,"line":0,"i_long":106.812439,"is_transit":true,"station_id":"JAKK","time":3,"transit":true,"station_name":"Jakarta Kota"},{"transit":false,"line":7,"station_name":"Jayakarta","i_long":106.820901,"station_id":"JAY","time":4,"is_transit":false,"distance":1264,"i_lat":-6.141205},{"transit":false,"i_lat":-6.149769,"is_transit":false,"station_name":"Manggabesar","line":2,"i_long":106.82482,"distance":1080,"station_id":"MGB","time":2},{"station_name":"Sawah Besar","distance":906,"transit":false,"is_transit":false,"station_id":"SW","time":2,"i_lat":-6.160725,"line":2,"i_long":106.827103},{"i_long":106.828284,"station_name":"Juanda","transit":false,"time":2,"is_transit":false,"distance":1149,"station_id":"JUA","i_lat":-6.166716,"line":2},{"time":4,"is_transit":false,"station_name":"Gondangdia","station_id":"GDD","line":2,"transit":false,"i_lat":-6.186295,"i_long":106.832183,"distance":2015},{"station_id":"CKI","distance":1750,"i_lat":-6.198556,"i_long":106.840169,"is_transit":false,"line":0,"station_name":"Cikini","transit":false,"time":3},{"station_id":"MRI","distance":1590,"i_lat":-6.209883,"transit":true,"i_long":106.84912,"time":4,"station_name":"Manggarai","line":0,"is_transit":true},{"time":4,"station_id":"TEB","station_name":"Tebet","distance":2610,"i_lat":-6.226659,"line":2,"i_long":106.857948,"transit":false,"is_transit":false},{"i_long":106.856607,"station_id":"CW","line":0,"is_transit":false,"distance":1230,"station_name":"Cawang","transit":false,"time":2,"i_lat":-6.242512},{"i_lat":-6.255332,"i_long":106.85449,"line":0,"is_transit":false,"distance":1546,"station_id":"DRN","station_name":"Duren Kalibata","transit":false,"time":3},{"line":2,"i_lat":-6.263214,"transit":false,"distance":824,"station_id":"PSMB","is_transit":false,"station_name":"Pasar Minggu Baru","i_long":106.851577,"time":2},{"station_name":"Pasar Minggu","distance":2380,"transit":false,"station_id":"PSM","is_transit":false,"i_lat":-6.2842400000000005,"time":2,"i_long":106.843999,"line":2},{"station_id":"TNT","i_lat":-6.3080680000000005,"time":4,"distance":2820,"i_long":106.838896,"line":2,"transit":false,"station_name":"Tanjung Barat","is_transit":false},{"i_lat":-6.330363,"line":2,"transit":false,"station_name":"Lenteng Agung","distance":2671,"station_id":"LNA","i_long":106.832616,"time":3,"is_transit":false},{"transit":false,"i_lat":-6.339291,"distance":1029,"i_long":106.834175,"line":2,"time":2,"station_id":"UP","station_name":"Univ. Pancasila","is_transit":false},{"station_id":"UI","i_long":106.831474,"transit":false,"distance":2264,"i_lat":-6.360749,"line":2,"is_transit":false,"station_name":"Univ. Indonesia","time":3},{"distance":1109,"i_long":106.831114,"is_transit":false,"time":2,"i_lat":-6.369073,"transit":false,"station_id":"POC","station_name":"Pondok Cina","line":2},{"time":4,"station_id":"DPB","is_transit":false,"distance":2727,"transit":false,"i_lat":-6.391065,"station_name":"Depokbaru","i_long":106.819451,"line":0},{"is_transit":false,"i_lat":-6.405256,"i_long":106.816926,"station_id":"DP","distance":1584,"transit":false,"line":0,"time":3,"station_name":"Depok"},{"distance":5084,"station_id":"CTA","station_name":"Citayam","i_lat":-6.448811,"line":1,"time":6,"i_long":106.800298,"is_transit":true,"transit":false},{"time":5,"transit":false,"station_name":"Bojonggede","is_transit":false,"distance":5197,"station_id":"BJD","i_lat":-6.493243,"i_long":106.792719,"line":0},{"station_id":"CLT","distance":4331,"i_long":106.800016,"station_name":"Cilebut","transit":false,"i_lat":-6.530544,"line":0,"is_transit":false,"time":5}]]}