{"data":[[{"i_lat":-6.2135,"station_id":"KLD","is_transit":false,"line":1,"i_long":106.899548,"distance":0,"station_name":"Klender","time":0,"transit":false},{"is_transit":false,"distance":3100,"transit":false,"i_lat":-6.215568,"time":2,"i_long":106.922662,"line":0,"station_id":"BUA","station_name":"Buaran"},{"line":1,"time":1,"station_name":"Klenderbaru","distance":1305,"is_transit":false,"i_long":106.939679,"station_id":"KLDB","transit":false,"i_lat":-6.217455},{"is_transit":false,"i_long":106.951283,"distance":1385,"station_id":"CUK","station_name":"Cakung","time":8,"i_lat":-6.219053,"transit":false,"line":0},{"time":3,"i_long":106.977657,"station_name":"Kranji","i_lat":-6.224515,"station_id":"KRI","distance":3097,"is_transit":false,"transit":false,"line":1},{"line":0,"station_name":"Bekasi","station_id":"BKS","is_transit":false,"distance":2520,"transit":false,"i_lat":-6.236616,"time":4,"i_long":106.997013},{"distance":2368,"i_lat":-6.248029,"is_transit":false,"time":2,"station_name":"Bekasi Timur","transit":false,"i_long":107.016735,"line":0,"station_id":"BKST"}]]}