{"data":[[{"transit":false,"i_long":106.899548,"line":1,"is_transit":false,"i_lat":-6.2135,"time":0,"station_id":"KLD","distance":0,"station_name":"Klender"},{"line":0,"i_long":106.86807400000001,"is_transit":true,"distance":3395,"time":3,"station_id":"JNG","station_name":"Jatinegara","transit":false,"i_lat":-6.215091},{"i_long":106.858896,"is_transit":false,"time":2,"station_id":"MTR","station_name":"Matraman","line":1,"distance":1377,"transit":false,"i_lat":-6.212485},{"i_lat":-6.209883,"line":0,"station_name":"Manggarai","time":2,"transit":false,"is_transit":true,"station_id":"MRI","distance":1275,"i_long":106.84912},{"distance":3186,"is_transit":false,"station_id":"SUD","line":1,"station_name":"Sudirman","transit":false,"i_long":106.822649,"time":4,"i_lat":-6.202263},{"distance":280,"time":1,"i_lat":-6.201433,"station_id":"SUDB","i_long":106.819881,"station_name":"Sudirman Baru","transit":false,"is_transit":false,"line":1},{"i_long":106.816351,"station_id":"KAT","line":1,"station_name":"Karet","transit":false,"time":1,"is_transit":false,"i_lat":-6.20132,"distance":471},{"is_transit":true,"station_id":"THB","station_name":"Tanah Abang","i_lat":-6.185545,"transit":true,"time":5,"distance":2029,"i_long":106.811091,"line":1},{"distance":3191,"time":6,"line":6,"station_id":"PLM","station_name":"Palmerah","transit":false,"is_transit":false,"i_lat":-6.207404,"i_long":106.79689},{"transit":false,"distance":3737,"station_name":"Kebayoran","time":7,"i_long":106.780334,"line":6,"station_id":"KBY","is_transit":false,"i_lat":-6.237242},{"is_transit":false,"i_lat":-6.276362,"i_long":106.74273,"line":6,"station_id":"PDJ","transit":false,"distance":6218,"station_name":"Pondokranji","time":8},{"line":6,"i_lat":-6.288927,"i_long":106.728916,"transit":false,"station_id":"JMU","time":3,"is_transit":false,"distance":2179,"station_name":"Jurangmangu"},{"i_lat":-6.296963,"transit":false,"station_name":"Sudimara","distance":1994,"is_transit":false,"i_long":106.712277,"line":6,"time":4,"station_id":"SDM"},{"is_transit":false,"i_long":106.675475,"time":6,"line":6,"transit":false,"station_name":"Rawa Buntu","i_lat":-6.314823,"station_id":"RU","distance":4566},{"transit":false,"is_transit":false,"i_lat":-6.319871,"station_id":"SRP","station_name":"Serpong","line":6,"distance":2413,"time":4,"i_long":106.66566},{"is_transit":false,"station_id":"CSK","time":4,"line":0,"transit":false,"station_name":"Cisauk","i_long":106.640411,"i_lat":-6.32484,"distance":1784}],[{"line":1,"distance":0,"i_lat":-6.2135,"station_name":"Klender","time":0,"is_transit":false,"i_long":106.899548,"transit":false,"station_id":"KLD"},{"i_lat":-6.215091,"station_name":"Jatinegara","station_id":"JNG","is_transit":true,"distance":3395,"transit":true,"i_long":106.86807400000001,"line":0,"time":3},{"line":11,"distance":1236,"time":2,"is_transit":false,"station_id":"POK","i_long":106.861737,"transit":false,"station_name":"Pondok Jati","i_lat":-6.209188},{"station_id":"KMT","i_lat":-6.193792,"distance":1829,"transit":false,"line":11,"station_name":"Kramat","is_transit":false,"time":2,"i_long":106.855437},{"distance":973,"station_name":"Gang Sentiong","is_transit":false,"time":1,"i_lat":-6.185975,"i_long":106.850107,"line":11,"station_id":"GST","transit":false},{"time":8,"line":11,"is_transit":false,"station_id":"PSE","distance":1567,"i_long":106.84368,"transit":false,"i_lat":-6.174784,"station_name":"Pasar Senen"},{"station_name":"Kemayoran","distance":1436,"line":11,"time":4,"is_transit":false,"i_lat":-6.161728,"station_id":"KMO","i_long":106.839204,"transit":false},{"station_name":"Rajawali","is_transit":false,"station_id":"RJW","transit":false,"distance":1901,"i_long":106.836569,"time":5,"line":11,"i_lat":-6.14505},{"i_long":106.826365,"time":3,"station_id":"KPB","transit":true,"station_name":"Kampung Bandan","is_transit":true,"i_lat":-6.132549,"line":0,"distance":1444},{"line":0,"station_id":"AK","i_long":106.79867,"transit":false,"is_transit":false,"distance":4102,"time":9,"i_lat":-6.144674,"station_name":"Angke"},{"is_transit":true,"time":4,"i_long":106.800832,"line":1,"station_id":"DU","station_name":"Duri","i_lat":-6.155215,"transit":true,"distance":1230},{"time":8,"distance":3632,"line":1,"station_id":"THB","is_transit":true,"i_lat":-6.185545,"station_name":"Tanah Abang","transit":true,"i_long":106.811091},{"distance":3191,"is_transit":false,"line":6,"station_name":"Palmerah","transit":false,"i_long":106.79689,"station_id":"PLM","time":6,"i_lat":-6.207404},{"i_long":106.780334,"transit":false,"time":7,"is_transit":false,"distance":3737,"i_lat":-6.237242,"line":6,"station_id":"KBY","station_name":"Kebayoran"},{"time":8,"is_transit":false,"distance":6218,"i_lat":-6.276362,"transit":false,"station_id":"PDJ","line":6,"station_name":"Pondokranji","i_long":106.74273},{"line":6,"station_name":"Jurangmangu","i_lat":-6.288927,"time":3,"distance":2179,"station_id":"JMU","transit":false,"is_transit":false,"i_long":106.728916},{"station_id":"SDM","is_transit":false,"station_name":"Sudimara","time":4,"transit":false,"i_long":106.712277,"i_lat":-6.296963,"distance":1994,"line":6},{"line":6,"time":6,"transit":false,"station_name":"Rawa Buntu","i_lat":-6.314823,"station_id":"RU","distance":4566,"is_transit":false,"i_long":106.675475},{"distance":2413,"i_long":106.66566,"i_lat":-6.319871,"station_id":"SRP","is_transit":false,"time":4,"line":6,"station_name":"Serpong","transit":false},{"i_lat":-6.32484,"is_transit":false,"distance":1784,"transit":false,"station_id":"CSK","station_name":"Cisauk","time":4,"i_long":106.640411,"line":0}],[{"distance":0,"line":1,"station_id":"KLD","i_long":106.899548,"is_transit":false,"time":0,"station_name":"Klender","transit":false,"i_lat":-6.2135},{"station_id":"JNG","i_long":106.86807400000001,"station_name":"Jatinegara","is_transit":true,"time":3,"line":0,"transit":false,"i_lat":-6.215091,"distance":3395},{"i_long":106.858896,"station_id":"MTR","line":1,"station_name":"Matraman","time":2,"distance":1377,"transit":false,"is_transit":false,"i_lat":-6.212485},{"station_name":"Manggarai","transit":true,"station_id":"MRI","i_long":106.84912,"i_lat":-6.209883,"is_transit":true,"line":0,"distance":1275,"time":2},{"line":0,"i_long":106.840169,"station_name":"Cikini","time":4,"transit":false,"distance":1590,"is_transit":false,"i_lat":-6.198556,"station_id":"CKI"},{"line":2,"is_transit":false,"time":3,"station_id":"GDD","transit":false,"distance":1750,"i_lat":-6.186295,"i_long":106.832183,"station_name":"Gondangdia"},{"is_transit":false,"i_long":106.828284,"station_name":"Juanda","station_id":"JUA","distance":2015,"line":2,"transit":false,"time":4,"i_lat":-6.166716},{"line":2,"distance":1149,"station_id":"SW","is_transit":false,"time":2,"station_name":"Sawah Besar","i_lat":-6.160725,"transit":false,"i_long":106.827103},{"time":2,"station_id":"MGB","station_name":"Manggabesar","transit":false,"distance":906,"line":2,"i_lat":-6.149769,"i_long":106.82482,"is_transit":false},{"is_transit":false,"line":7,"station_name":"Jayakarta","station_id":"JAY","distance":1080,"time":2,"transit":false,"i_long":106.820901,"i_lat":-6.141205},{"is_transit":true,"station_id":"JAKK","distance":1264,"line":0,"time":4,"transit":true,"i_long":106.812439,"station_name":"Jakarta Kota","i_lat":-6.137569},{"is_transit":true,"transit":false,"i_lat":-6.132549,"i_long":106.826365,"time":3,"station_id":"KPB","distance":1364,"line":0,"station_name":"Kampung Bandan"},{"station_id":"AK","distance":4102,"time":9,"is_transit":false,"line":0,"transit":false,"station_name":"Angke","i_lat":-6.144674,"i_long":106.79867},{"i_lat":-6.155215,"time":4,"station_name":"Duri","station_id":"DU","i_long":106.800832,"line":1,"is_transit":true,"transit":true,"distance":1230},{"station_name":"Tanah Abang","is_transit":true,"i_lat":-6.185545,"transit":true,"distance":3632,"i_long":106.811091,"time":8,"station_id":"THB","line":1},{"station_id":"PLM","time":6,"transit":false,"i_lat":-6.207404,"i_long":106.79689,"station_name":"Palmerah","distance":3191,"is_transit":false,"line":6},{"station_name":"Kebayoran","distance":3737,"time":7,"line":6,"station_id":"KBY","is_transit":false,"i_lat":-6.237242,"i_long":106.780334,"transit":false},{"i_lat":-6.276362,"station_id":"PDJ","transit":false,"line":6,"i_long":106.74273,"time":8,"station_name":"Pondokranji","is_transit":false,"distance":6218},{"line":6,"time":3,"station_name":"Jurangmangu","i_lat":-6.288927,"station_id":"JMU","distance":2179,"is_transit":false,"transit":false,"i_long":106.728916},{"transit":false,"time":4,"is_transit":false,"station_id":"SDM","line":6,"distance":1994,"i_long":106.712277,"i_lat":-6.296963,"station_name":"Sudimara"},{"time":6,"distance":4566,"transit":false,"station_name":"Rawa Buntu","i_long":106.675475,"is_transit":false,"station_id":"RU","line":6,"i_lat":-6.314823},{"is_transit":false,"i_long":106.66566,"transit":false,"time":4,"line":6,"station_name":"Serpong","station_id":"SRP","distance":2413,"i_lat":-6.319871},{"i_long":106.640411,"line":0,"transit":false,"station_name":"Cisauk","distance":1784,"time":4,"station_id":"CSK","is_transit":false,"i_lat":-6.32484}],[{"i_lat":-6.2135,"is_transit":false,"time":0,"line":1,"station_id":"KLD","i_long":106.899548,"distance":0,"transit":false,"station_name":"Klender"},{"distance":3395,"transit":true,"line":0,"station_name":"Jatinegara","is_transit":true,"time":3,"i_long":106.86807400000001,"i_lat":-6.215091,"station_id":"JNG"},{"i_lat":-6.209188,"line":11,"station_name":"Pondok Jati","transit":false,"distance":1236,"is_transit":false,"station_id":"POK","time":2,"i_long":106.861737},{"line":11,"transit":false,"is_transit":false,"distance":1829,"i_lat":-6.193792,"time":2,"station_name":"Kramat","station_id":"KMT","i_long":106.855437},{"station_id":"GST","time":1,"line":11,"distance":973,"is_transit":false,"i_long":106.850107,"transit":false,"station_name":"Gang Sentiong","i_lat":-6.185975},{"station_name":"Pasar Senen","i_lat":-6.174784,"line":11,"station_id":"PSE","transit":false,"distance":1567,"i_long":106.84368,"is_transit":false,"time":8},{"station_id":"KMO","time":4,"i_lat":-6.161728,"i_long":106.839204,"line":11,"station_name":"Kemayoran","distance":1436,"is_transit":false,"transit":false},{"station_name":"Rajawali","transit":false,"line":11,"time":5,"i_lat":-6.14505,"i_long":106.836569,"is_transit":false,"distance":1901,"station_id":"RJW"},{"station_name":"Kampung Bandan","station_id":"KPB","transit":true,"distance":1444,"time":3,"is_transit":true,"i_lat":-6.132549,"i_long":106.826365,"line":0},{"i_long":106.812439,"station_id":"JAKK","line":0,"transit":true,"distance":1364,"time":3,"station_name":"Jakarta Kota","is_transit":true,"i_lat":-6.137569},{"is_transit":false,"transit":false,"line":7,"i_lat":-6.141205,"station_name":"Jayakarta","station_id":"JAY","distance":1264,"time":4,"i_long":106.820901},{"distance":1080,"station_id":"MGB","is_transit":false,"line":2,"time":2,"station_name":"Manggabesar","i_long":106.82482,"transit":false,"i_lat":-6.149769},{"line":2,"is_transit":false,"station_name":"Sawah Besar","transit":false,"station_id":"SW","i_lat":-6.160725,"time":2,"distance":906,"i_long":106.827103},{"i_long":106.828284,"distance":1149,"time":2,"line":2,"transit":false,"i_lat":-6.166716,"station_name":"Juanda","station_id":"JUA","is_transit":false},{"station_id":"GDD","transit":false,"distance":2015,"is_transit":false,"i_lat":-6.186295,"line":2,"station_name":"Gondangdia","time":4,"i_long":106.832183},{"station_id":"CKI","is_transit":false,"i_lat":-6.198556,"station_name":"Cikini","line":0,"i_long":106.840169,"transit":false,"distance":1750,"time":3},{"distance":1590,"station_name":"Manggarai","station_id":"MRI","transit":true,"time":4,"i_long":106.84912,"line":0,"i_lat":-6.209883,"is_transit":true},{"is_transit":false,"station_id":"SUD","transit":false,"i_long":106.822649,"i_lat":-6.202263,"line":1,"station_name":"Sudirman","distance":3186,"time":4},{"transit":false,"distance":280,"time":1,"i_lat":-6.201433,"is_transit":false,"i_long":106.819881,"line":1,"station_name":"Sudirman Baru","station_id":"SUDB"},{"is_transit":false,"station_id":"KAT","i_long":106.816351,"line":1,"distance":471,"i_lat":-6.20132,"station_name":"Karet","time":1,"transit":false},{"time":5,"line":1,"is_transit":true,"i_long":106.811091,"transit":true,"station_id":"THB","i_lat":-6.185545,"distance":2029,"station_name":"Tanah Abang"},{"transit":false,"distance":3191,"i_long":106.79689,"i_lat":-6.207404,"time":6,"is_transit":false,"line":6,"station_name":"Palmerah","station_id":"PLM"},{"station_id":"KBY","i_long":106.780334,"is_transit":false,"time":7,"station_name":"Kebayoran","i_lat":-6.237242,"line":6,"transit":false,"distance":3737},{"is_transit":false,"station_id":"PDJ","station_name":"Pondokranji","transit":false,"distance":6218,"time":8,"line":6,"i_lat":-6.276362,"i_long":106.74273},{"time":3,"i_long":106.728916,"station_id":"JMU","transit":false,"line":6,"is_transit":false,"distance":2179,"i_lat":-6.288927,"station_name":"Jurangmangu"},{"distance":1994,"transit":false,"station_name":"Sudimara","time":4,"station_id":"SDM","is_transit":false,"i_long":106.712277,"i_lat":-6.296963,"line":6},{"station_id":"RU","distance":4566,"line":6,"station_name":"Rawa Buntu","i_lat":-6.314823,"is_transit":false,"i_long":106.675475,"transit":false,"time":6},{"is_transit":false,"distance":2413,"time":4,"station_id":"SRP","transit":false,"station_name":"Serpong","i_long":106.66566,"i_lat":-6.319871,"line":6},{"line":0,"distance":1784,"is_transit":false,"i_lat":-6.32484,"transit":false,"time":4,"station_name":"Cisauk","station_id":"CSK","i_long":106.640411}]]}