{"data":[[{"transit":false,"i_lat":-6.2135,"is_transit":false,"i_long":106.899548,"station_id":"KLD","distance":0,"line":1,"time":0,"station_name":"Klender"},{"i_lat":-6.215091,"is_transit":false,"i_long":106.86807400000001,"station_id":"JNG","line":1,"time":3,"transit":false,"distance":3395,"station_name":"Jatinegara"},{"station_name":"Matraman","distance":1377,"line":1,"i_long":106.858896,"station_id":"MTR","transit":false,"i_lat":-6.212485,"is_transit":false,"time":2},{"time":2,"i_long":106.84912,"station_id":"MRI","line":2,"is_transit":false,"i_lat":-6.209883,"transit":false,"station_name":"Manggarai","distance":1275},{"i_long":106.822649,"time":4,"station_id":"SUD","line":1,"transit":false,"station_name":"Sudirman","is_transit":false,"i_lat":-6.202263,"distance":3186},{"station_id":"SUDB","i_long":106.819881,"time":1,"is_transit":false,"transit":false,"distance":280,"station_name":"Sudirman Baru","i_lat":-6.201433,"line":1},{"transit":false,"time":1,"distance":471,"station_name":"Karet","station_id":"KAT","is_transit":false,"line":1,"i_long":106.816351,"i_lat":-6.20132},{"time":5,"is_transit":true,"transit":true,"line":1,"station_id":"THB","i_long":106.811091,"i_lat":-6.185545,"distance":2029,"station_name":"Tanah Abang"},{"i_long":106.79689,"transit":false,"station_name":"Palmerah","distance":3191,"i_lat":-6.207404,"line":6,"station_id":"PLM","time":6,"is_transit":false}],[{"line":1,"station_id":"KLD","i_long":106.899548,"time":0,"is_transit":false,"transit":false,"distance":0,"station_name":"Klender","i_lat":-6.2135},{"line":1,"time":3,"distance":3395,"station_id":"JNG","i_long":106.86807400000001,"transit":true,"station_name":"Jatinegara","is_transit":true,"i_lat":-6.215091},{"i_long":106.861737,"time":2,"distance":1236,"line":11,"station_name":"Pondok Jati","is_transit":false,"transit":false,"i_lat":-6.209188,"station_id":"POK"},{"line":11,"i_lat":-6.193792,"time":2,"distance":1829,"is_transit":false,"i_long":106.855437,"station_id":"KMT","station_name":"Kramat","transit":false},{"station_id":"GST","station_name":"Gang Sentiong","distance":973,"is_transit":false,"i_lat":-6.185975,"i_long":106.850107,"line":11,"transit":false,"time":1},{"station_id":"PSE","transit":false,"time":8,"is_transit":false,"station_name":"Pasar Senen","i_lat":-6.174784,"distance":1567,"i_long":106.84368,"line":11},{"i_long":106.839204,"time":4,"station_id":"KMO","station_name":"Kemayoran","is_transit":false,"distance":1436,"transit":false,"i_lat":-6.161728,"line":11},{"time":5,"transit":false,"line":11,"i_long":106.836569,"distance":1901,"station_name":"Rajawali","i_lat":-6.14505,"is_transit":false,"station_id":"RJW"},{"time":3,"line":4,"i_lat":-6.132549,"is_transit":true,"transit":true,"i_long":106.826365,"distance":1444,"station_name":"Kampung Bandan","station_id":"KPB"},{"transit":false,"line":1,"i_lat":-6.144674,"i_long":106.79867,"distance":4102,"time":9,"is_transit":false,"station_id":"AK","station_name":"Angke"},{"distance":1230,"station_name":"Duri","transit":false,"i_lat":-6.155215,"line":1,"time":4,"is_transit":false,"i_long":106.800832,"station_id":"DU"},{"distance":3632,"i_long":106.811091,"station_name":"Tanah Abang","line":1,"transit":true,"i_lat":-6.185545,"time":8,"station_id":"THB","is_transit":true},{"station_id":"PLM","distance":3191,"i_long":106.79689,"transit":false,"station_name":"Palmerah","i_lat":-6.207404,"time":6,"is_transit":false,"line":6}],[{"transit":false,"time":0,"station_name":"Klender","i_lat":-6.2135,"station_id":"KLD","distance":0,"i_long":106.899548,"line":1,"is_transit":false},{"transit":false,"line":1,"is_transit":false,"station_name":"Jatinegara","time":3,"distance":3395,"i_long":106.86807400000001,"station_id":"JNG","i_lat":-6.215091},{"distance":1377,"is_transit":false,"transit":false,"i_long":106.858896,"line":1,"station_name":"Matraman","time":2,"station_id":"MTR","i_lat":-6.212485},{"time":2,"station_name":"Manggarai","transit":true,"station_id":"MRI","is_transit":true,"i_long":106.84912,"line":2,"distance":1275,"i_lat":-6.209883},{"station_name":"Cikini","time":4,"transit":false,"i_lat":-6.198556,"station_id":"CKI","line":2,"i_long":106.840169,"is_transit":false,"distance":1590},{"station_id":"GDD","station_name":"Gondangdia","i_lat":-6.186295,"i_long":106.832183,"is_transit":false,"transit":false,"time":3,"line":2,"distance":1750},{"station_id":"JUA","is_transit":false,"i_lat":-6.166716,"transit":false,"time":4,"distance":2015,"station_name":"Juanda","i_long":106.828284,"line":2},{"distance":1149,"station_name":"Sawah Besar","station_id":"SW","is_transit":false,"transit":false,"i_lat":-6.160725,"i_long":106.827103,"line":2,"time":2},{"station_id":"MGB","is_transit":false,"line":2,"station_name":"Manggabesar","distance":906,"i_lat":-6.149769,"transit":false,"time":2,"i_long":106.82482},{"station_name":"Jayakarta","i_lat":-6.141205,"time":2,"station_id":"JAY","distance":1080,"is_transit":false,"transit":false,"i_long":106.820901,"line":2},{"line":2,"time":4,"i_long":106.812439,"transit":true,"station_name":"Jakarta Kota","is_transit":true,"i_lat":-6.137569,"station_id":"JAKK","distance":1264},{"station_name":"Kampung Bandan","line":4,"i_lat":-6.132549,"is_transit":true,"i_long":106.826365,"distance":1364,"transit":true,"time":3,"station_id":"KPB"},{"station_id":"AK","distance":4102,"station_name":"Angke","transit":false,"i_lat":-6.144674,"i_long":106.79867,"is_transit":false,"line":1,"time":9},{"distance":1230,"station_id":"DU","line":1,"station_name":"Duri","is_transit":false,"time":4,"i_lat":-6.155215,"transit":false,"i_long":106.800832},{"time":8,"station_name":"Tanah Abang","i_lat":-6.185545,"i_long":106.811091,"station_id":"THB","line":1,"transit":true,"is_transit":true,"distance":3632},{"time":6,"station_id":"PLM","distance":3191,"transit":false,"i_lat":-6.207404,"i_long":106.79689,"station_name":"Palmerah","is_transit":false,"line":6}],[{"station_id":"KLD","distance":0,"transit":false,"is_transit":false,"line":1,"i_long":106.899548,"station_name":"Klender","i_lat":-6.2135,"time":0},{"time":3,"i_long":106.86807400000001,"station_id":"JNG","i_lat":-6.215091,"is_transit":true,"line":1,"station_name":"Jatinegara","distance":3395,"transit":true},{"distance":1236,"line":11,"station_name":"Pondok Jati","i_long":106.861737,"time":2,"i_lat":-6.209188,"is_transit":false,"station_id":"POK","transit":false},{"i_lat":-6.193792,"line":11,"time":2,"station_name":"Kramat","transit":false,"distance":1829,"is_transit":false,"station_id":"KMT","i_long":106.855437},{"distance":973,"transit":false,"is_transit":false,"station_name":"Gang Sentiong","line":11,"i_long":106.850107,"station_id":"GST","time":1,"i_lat":-6.185975},{"station_id":"PSE","transit":false,"i_lat":-6.174784,"line":11,"i_long":106.84368,"is_transit":false,"distance":1567,"station_name":"Pasar Senen","time":8},{"line":11,"time":4,"station_id":"KMO","is_transit":false,"transit":false,"i_long":106.839204,"distance":1436,"i_lat":-6.161728,"station_name":"Kemayoran"},{"is_transit":false,"station_name":"Rajawali","station_id":"RJW","i_lat":-6.14505,"time":5,"i_long":106.836569,"distance":1901,"transit":false,"line":11},{"time":3,"distance":1444,"station_id":"KPB","line":4,"i_long":106.826365,"transit":true,"i_lat":-6.132549,"station_name":"Kampung Bandan","is_transit":true},{"i_lat":-6.137569,"time":3,"is_transit":true,"station_id":"JAKK","distance":1364,"transit":true,"station_name":"Jakarta Kota","i_long":106.812439,"line":2},{"station_name":"Jayakarta","i_lat":-6.141205,"station_id":"JAY","line":2,"time":4,"is_transit":false,"distance":1264,"transit":false,"i_long":106.820901},{"time":2,"distance":1080,"station_id":"MGB","station_name":"Manggabesar","is_transit":false,"i_lat":-6.149769,"transit":false,"i_long":106.82482,"line":2},{"is_transit":false,"transit":false,"i_long":106.827103,"line":2,"i_lat":-6.160725,"time":2,"distance":906,"station_id":"SW","station_name":"Sawah Besar"},{"station_name":"Juanda","distance":1149,"is_transit":false,"station_id":"JUA","transit":false,"i_lat":-6.166716,"i_long":106.828284,"line":2,"time":2},{"line":2,"time":4,"station_id":"GDD","is_transit":false,"distance":2015,"transit":false,"station_name":"Gondangdia","i_lat":-6.186295,"i_long":106.832183},{"transit":false,"i_long":106.840169,"time":3,"station_id":"CKI","is_transit":false,"i_lat":-6.198556,"distance":1750,"station_name":"Cikini","line":2},{"transit":true,"distance":1590,"i_lat":-6.209883,"i_long":106.84912,"line":2,"station_id":"MRI","station_name":"Manggarai","time":4,"is_transit":true},{"i_lat":-6.202263,"time":4,"distance":3186,"station_name":"Sudirman","is_transit":false,"station_id":"SUD","transit":false,"i_long":106.822649,"line":1},{"transit":false,"line":1,"is_transit":false,"distance":280,"station_name":"Sudirman Baru","time":1,"i_lat":-6.201433,"i_long":106.819881,"station_id":"SUDB"},{"distance":471,"transit":false,"is_transit":false,"station_name":"Karet","station_id":"KAT","time":1,"i_lat":-6.20132,"i_long":106.816351,"line":1},{"station_name":"Tanah Abang","transit":true,"distance":2029,"time":5,"line":1,"station_id":"THB","i_lat":-6.185545,"is_transit":true,"i_long":106.811091},{"line":6,"transit":false,"i_long":106.79689,"i_lat":-6.207404,"station_name":"Palmerah","time":6,"is_transit":false,"station_id":"PLM","distance":3191}]]}