{"data":[[{"transit":false,"station_id":"KLD","distance":0,"i_lat":-6.2135,"time":0,"line":1,"is_transit":false,"i_long":106.899548,"station_name":"Klender"},{"station_id":"BUA","distance":3100,"station_name":"Buaran","is_transit":false,"time":2,"transit":false,"i_lat":-6.215568,"i_long":106.922662,"line":0},{"is_transit":false,"i_lat":-6.217455,"line":1,"station_name":"Klenderbaru","station_id":"KLDB","i_long":106.939679,"transit":false,"time":1,"distance":1305},{"station_id":"CUK","time":8,"i_lat":-6.219053,"i_long":106.951283,"station_name":"Cakung","is_transit":false,"distance":1385,"transit":false,"line":0},{"distance":3097,"line":1,"station_name":"Kranji","i_long":106.977657,"time":3,"i_lat":-6.224515,"station_id":"KRI","transit":false,"is_transit":false}]]}