{"data":[[{"transit":false,"station_id":"KLD","line":1,"i_lat":-6.2135,"i_long":106.899548,"station_name":"Klender","distance":0,"time":0,"is_transit":false},{"i_lat":-6.215091,"i_long":106.86807400000001,"time":3,"transit":false,"station_id":"JNG","line":1,"is_transit":false,"distance":3395,"station_name":"Jatinegara"},{"station_name":"Matraman","distance":1377,"transit":false,"i_lat":-6.212485,"i_long":106.858896,"time":2,"station_id":"MTR","is_transit":false,"line":1},{"time":2,"station_id":"MRI","is_transit":true,"distance":1275,"i_lat":-6.209883,"line":2,"station_name":"Manggarai","transit":true,"i_long":106.84912},{"i_long":106.840169,"is_transit":false,"i_lat":-6.198556,"line":2,"transit":false,"station_id":"CKI","time":4,"station_name":"Cikini","distance":1590}],[{"station_name":"Klender","line":1,"i_long":106.899548,"station_id":"KLD","time":0,"distance":0,"transit":false,"i_lat":-6.2135,"is_transit":false},{"time":3,"station_id":"JNG","i_long":106.86807400000001,"station_name":"Jatinegara","distance":3395,"transit":true,"line":1,"is_transit":true,"i_lat":-6.215091},{"station_name":"Pondok Jati","i_lat":-6.209188,"time":2,"is_transit":false,"distance":1236,"i_long":106.861737,"station_id":"POK","line":11,"transit":false},{"distance":1829,"i_lat":-6.193792,"time":2,"station_id":"KMT","i_long":106.855437,"line":11,"transit":false,"station_name":"Kramat","is_transit":false},{"i_long":106.850107,"distance":973,"time":1,"line":11,"transit":false,"i_lat":-6.185975,"is_transit":false,"station_id":"GST","station_name":"Gang Sentiong"},{"transit":false,"time":8,"is_transit":false,"i_long":106.84368,"station_name":"Pasar Senen","i_lat":-6.174784,"line":11,"station_id":"PSE","distance":1567},{"time":4,"transit":false,"station_name":"Kemayoran","is_transit":false,"i_lat":-6.161728,"distance":1436,"i_long":106.839204,"station_id":"KMO","line":11},{"is_transit":false,"line":11,"station_name":"Rajawali","i_long":106.836569,"transit":false,"station_id":"RJW","i_lat":-6.14505,"time":5,"distance":1901},{"i_long":106.826365,"i_lat":-6.132549,"transit":true,"station_name":"Kampung Bandan","line":4,"station_id":"KPB","time":3,"distance":1444,"is_transit":true},{"i_long":106.812439,"station_id":"JAKK","is_transit":true,"transit":true,"time":3,"line":2,"station_name":"Jakarta Kota","distance":1364,"i_lat":-6.137569},{"station_name":"Jayakarta","transit":false,"line":2,"i_long":106.820901,"station_id":"JAY","distance":1264,"i_lat":-6.141205,"time":4,"is_transit":false},{"station_id":"MGB","station_name":"Manggabesar","line":2,"time":2,"transit":false,"i_lat":-6.149769,"distance":1080,"is_transit":false,"i_long":106.82482},{"station_name":"Sawah Besar","line":2,"time":2,"station_id":"SW","is_transit":false,"i_lat":-6.160725,"transit":false,"i_long":106.827103,"distance":906},{"i_lat":-6.166716,"transit":false,"time":2,"is_transit":false,"i_long":106.828284,"distance":1149,"line":2,"station_name":"Juanda","station_id":"JUA"},{"line":2,"i_lat":-6.186295,"time":4,"transit":false,"is_transit":false,"distance":2015,"i_long":106.832183,"station_id":"GDD","station_name":"Gondangdia"},{"time":3,"i_long":106.840169,"is_transit":false,"station_id":"CKI","station_name":"Cikini","distance":1750,"transit":false,"i_lat":-6.198556,"line":2}],[{"i_lat":-6.2135,"i_long":106.899548,"station_name":"Klender","station_id":"KLD","time":0,"line":1,"transit":false,"is_transit":false,"distance":0},{"line":1,"station_id":"JNG","is_transit":true,"i_lat":-6.215091,"station_name":"Jatinegara","transit":true,"time":3,"distance":3395,"i_long":106.86807400000001},{"station_name":"Pondok Jati","is_transit":false,"station_id":"POK","transit":false,"i_lat":-6.209188,"time":2,"i_long":106.861737,"line":11,"distance":1236},{"is_transit":false,"distance":1829,"station_id":"KMT","i_lat":-6.193792,"time":2,"station_name":"Kramat","transit":false,"line":11,"i_long":106.855437},{"station_id":"GST","line":11,"i_long":106.850107,"transit":false,"distance":973,"time":1,"is_transit":false,"station_name":"Gang Sentiong","i_lat":-6.185975},{"is_transit":false,"station_id":"PSE","distance":1567,"line":11,"i_lat":-6.174784,"time":8,"station_name":"Pasar Senen","transit":false,"i_long":106.84368},{"transit":false,"line":11,"station_name":"Kemayoran","i_lat":-6.161728,"is_transit":false,"i_long":106.839204,"time":4,"station_id":"KMO","distance":1436},{"station_id":"RJW","i_lat":-6.14505,"is_transit":false,"i_long":106.836569,"transit":false,"station_name":"Rajawali","line":11,"time":5,"distance":1901},{"is_transit":true,"time":3,"distance":1444,"line":4,"transit":true,"station_name":"Kampung Bandan","i_lat":-6.132549,"i_long":106.826365,"station_id":"KPB"},{"time":9,"distance":4102,"is_transit":false,"station_name":"Angke","line":1,"transit":false,"i_lat":-6.144674,"i_long":106.79867,"station_id":"AK"},{"station_id":"DU","is_transit":false,"station_name":"Duri","distance":1230,"time":4,"line":1,"transit":false,"i_lat":-6.155215,"i_long":106.800832},{"time":8,"i_lat":-6.185545,"station_name":"Tanah Abang","transit":false,"distance":3632,"i_long":106.811091,"station_id":"THB","line":1,"is_transit":false},{"transit":false,"line":1,"distance":2029,"time":5,"is_transit":false,"i_lat":-6.20132,"station_name":"Karet","station_id":"KAT","i_long":106.816351},{"time":1,"distance":471,"transit":false,"i_long":106.819881,"is_transit":false,"station_name":"Sudirman Baru","station_id":"SUDB","i_lat":-6.201433,"line":1},{"i_long":106.822649,"station_name":"Sudirman","station_id":"SUD","time":1,"transit":false,"i_lat":-6.202263,"line":1,"is_transit":false,"distance":280},{"transit":true,"i_long":106.84912,"distance":3186,"station_name":"Manggarai","station_id":"MRI","line":2,"i_lat":-6.209883,"time":4,"is_transit":true},{"station_name":"Cikini","i_long":106.840169,"line":2,"transit":false,"time":4,"station_id":"CKI","i_lat":-6.198556,"is_transit":false,"distance":1590}],[{"transit":false,"i_lat":-6.2135,"i_long":106.899548,"line":1,"station_name":"Klender","distance":0,"time":0,"station_id":"KLD","is_transit":false},{"line":1,"time":3,"station_name":"Jatinegara","distance":3395,"i_lat":-6.215091,"i_long":106.86807400000001,"is_transit":false,"station_id":"JNG","transit":false},{"time":2,"station_name":"Matraman","line":1,"transit":false,"i_long":106.858896,"i_lat":-6.212485,"is_transit":false,"distance":1377,"station_id":"MTR"},{"distance":1275,"transit":false,"time":2,"station_id":"MRI","is_transit":false,"line":2,"station_name":"Manggarai","i_lat":-6.209883,"i_long":106.84912},{"i_lat":-6.202263,"transit":false,"time":4,"station_id":"SUD","line":1,"is_transit":false,"station_name":"Sudirman","i_long":106.822649,"distance":3186},{"station_id":"SUDB","i_lat":-6.201433,"transit":false,"time":1,"is_transit":false,"station_name":"Sudirman Baru","distance":280,"i_long":106.819881,"line":1},{"time":1,"transit":false,"distance":471,"i_lat":-6.20132,"station_name":"Karet","i_long":106.816351,"station_id":"KAT","is_transit":false,"line":1},{"distance":2029,"station_id":"THB","i_long":106.811091,"station_name":"Tanah Abang","time":5,"transit":false,"is_transit":false,"i_lat":-6.185545,"line":1},{"time":8,"i_lat":-6.155215,"distance":3632,"line":1,"station_name":"Duri","station_id":"DU","is_transit":false,"i_long":106.800832,"transit":false},{"transit":false,"line":1,"distance":1230,"i_long":106.79867,"i_lat":-6.144674,"station_id":"AK","is_transit":false,"station_name":"Angke","time":4},{"i_long":106.826365,"transit":true,"i_lat":-6.132549,"time":9,"station_name":"Kampung Bandan","is_transit":true,"line":4,"distance":4102,"station_id":"KPB"},{"line":2,"time":3,"transit":true,"i_lat":-6.137569,"is_transit":true,"station_name":"Jakarta Kota","i_long":106.812439,"station_id":"JAKK","distance":1364},{"distance":1264,"transit":false,"line":2,"time":4,"i_lat":-6.141205,"is_transit":false,"i_long":106.820901,"station_name":"Jayakarta","station_id":"JAY"},{"transit":false,"is_transit":false,"station_name":"Manggabesar","i_long":106.82482,"distance":1080,"time":2,"station_id":"MGB","i_lat":-6.149769,"line":2},{"distance":906,"station_name":"Sawah Besar","time":2,"transit":false,"is_transit":false,"line":2,"station_id":"SW","i_lat":-6.160725,"i_long":106.827103},{"time":2,"transit":false,"station_name":"Juanda","station_id":"JUA","i_long":106.828284,"is_transit":false,"i_lat":-6.166716,"line":2,"distance":1149},{"transit":false,"is_transit":false,"line":2,"i_long":106.832183,"station_id":"GDD","station_name":"Gondangdia","time":4,"distance":2015,"i_lat":-6.186295},{"station_name":"Cikini","is_transit":false,"station_id":"CKI","distance":1750,"i_long":106.840169,"line":2,"i_lat":-6.198556,"time":3,"transit":false}]]}