{"data":[[{"line":1,"station_name":"Klender","time":0,"station_id":"KLD","is_transit":false,"i_long":106.899548,"transit":false,"i_lat":-6.2135,"distance":0},{"distance":3395,"is_transit":false,"line":1,"time":3,"station_name":"Jatinegara","station_id":"JNG","i_long":106.86807400000001,"transit":false,"i_lat":-6.215091},{"time":2,"i_long":106.858896,"is_transit":false,"i_lat":-6.212485,"station_name":"Matraman","station_id":"MTR","distance":1377,"line":1,"transit":false},{"is_transit":true,"i_lat":-6.209883,"station_id":"MRI","distance":1275,"station_name":"Manggarai","transit":true,"time":2,"line":2,"i_long":106.84912},{"i_lat":-6.226659,"i_long":106.857948,"transit":false,"station_name":"Tebet","station_id":"TEB","distance":2610,"line":2,"time":4,"is_transit":false},{"station_id":"CW","is_transit":false,"time":2,"transit":false,"station_name":"Cawang","i_long":106.856607,"i_lat":-6.242512,"line":2,"distance":1230},{"line":2,"i_long":106.85449,"station_name":"Duren Kalibata","i_lat":-6.255332,"station_id":"DRN","transit":false,"is_transit":false,"time":3,"distance":1546},{"i_long":106.851577,"station_id":"PSMB","station_name":"Pasar Minggu Baru","is_transit":false,"time":2,"line":2,"i_lat":-6.263214,"transit":false,"distance":824},{"station_id":"PSM","time":2,"is_transit":false,"transit":false,"i_lat":-6.2842400000000005,"distance":2380,"line":2,"station_name":"Pasar Minggu","i_long":106.843999},{"distance":2820,"station_name":"Tanjung Barat","transit":false,"is_transit":false,"time":4,"i_long":106.838896,"line":2,"station_id":"TNT","i_lat":-6.3080680000000005},{"transit":false,"time":3,"is_transit":false,"distance":2671,"i_long":106.832616,"line":2,"i_lat":-6.330363,"station_name":"Lenteng Agung","station_id":"LNA"},{"distance":1029,"i_lat":-6.339291,"line":2,"station_id":"UP","is_transit":false,"transit":false,"station_name":"Univ. Pancasila","time":2,"i_long":106.834175},{"station_id":"UI","line":2,"i_lat":-6.360749,"station_name":"Univ. Indonesia","transit":false,"is_transit":false,"time":3,"distance":2264,"i_long":106.831474},{"transit":false,"line":2,"distance":1109,"is_transit":false,"time":2,"i_lat":-6.369073,"i_long":106.831114,"station_name":"Pondok Cina","station_id":"POC"}],[{"is_transit":false,"time":0,"distance":0,"station_name":"Klender","station_id":"KLD","i_lat":-6.2135,"line":1,"transit":false,"i_long":106.899548},{"station_name":"Jatinegara","i_lat":-6.215091,"i_long":106.86807400000001,"transit":true,"station_id":"JNG","is_transit":true,"time":3,"line":1,"distance":3395},{"time":2,"transit":false,"i_lat":-6.209188,"line":11,"i_long":106.861737,"station_name":"Pondok Jati","is_transit":false,"station_id":"POK","distance":1236},{"i_lat":-6.193792,"is_transit":false,"distance":1829,"station_name":"Kramat","station_id":"KMT","time":2,"transit":false,"i_long":106.855437,"line":11},{"distance":973,"line":11,"i_lat":-6.185975,"is_transit":false,"time":1,"station_id":"GST","i_long":106.850107,"transit":false,"station_name":"Gang Sentiong"},{"time":8,"i_lat":-6.174784,"i_long":106.84368,"line":11,"distance":1567,"station_name":"Pasar Senen","transit":false,"is_transit":false,"station_id":"PSE"},{"line":11,"transit":false,"distance":1436,"station_name":"Kemayoran","i_lat":-6.161728,"station_id":"KMO","i_long":106.839204,"time":4,"is_transit":false},{"time":5,"i_lat":-6.14505,"is_transit":false,"station_id":"RJW","distance":1901,"i_long":106.836569,"station_name":"Rajawali","line":11,"transit":false},{"is_transit":true,"distance":1444,"i_long":106.826365,"station_id":"KPB","line":4,"station_name":"Kampung Bandan","i_lat":-6.132549,"transit":true,"time":3},{"i_long":106.79867,"distance":4102,"time":9,"is_transit":false,"i_lat":-6.144674,"station_name":"Angke","station_id":"AK","transit":false,"line":1},{"transit":false,"distance":1230,"station_name":"Duri","is_transit":false,"time":4,"i_long":106.800832,"line":1,"i_lat":-6.155215,"station_id":"DU"},{"line":1,"station_name":"Tanah Abang","is_transit":false,"distance":3632,"transit":false,"i_lat":-6.185545,"i_long":106.811091,"time":8,"station_id":"THB"},{"i_long":106.816351,"time":5,"line":1,"is_transit":false,"distance":2029,"i_lat":-6.20132,"station_name":"Karet","transit":false,"station_id":"KAT"},{"station_name":"Sudirman Baru","station_id":"SUDB","time":1,"is_transit":false,"line":1,"distance":471,"i_lat":-6.201433,"transit":false,"i_long":106.819881},{"i_lat":-6.202263,"distance":280,"station_id":"SUD","is_transit":false,"time":1,"i_long":106.822649,"station_name":"Sudirman","transit":false,"line":1},{"line":2,"i_lat":-6.209883,"transit":true,"station_name":"Manggarai","time":4,"station_id":"MRI","is_transit":true,"distance":3186,"i_long":106.84912},{"i_long":106.857948,"i_lat":-6.226659,"line":2,"is_transit":false,"time":4,"station_name":"Tebet","transit":false,"distance":2610,"station_id":"TEB"},{"distance":1230,"transit":false,"station_name":"Cawang","station_id":"CW","time":2,"i_lat":-6.242512,"i_long":106.856607,"is_transit":false,"line":2},{"i_long":106.85449,"is_transit":false,"transit":false,"line":2,"station_name":"Duren Kalibata","time":3,"distance":1546,"i_lat":-6.255332,"station_id":"DRN"},{"station_name":"Pasar Minggu Baru","i_lat":-6.263214,"station_id":"PSMB","distance":824,"i_long":106.851577,"is_transit":false,"time":2,"line":2,"transit":false},{"is_transit":false,"i_lat":-6.2842400000000005,"distance":2380,"station_name":"Pasar Minggu","time":2,"i_long":106.843999,"line":2,"station_id":"PSM","transit":false},{"station_id":"TNT","transit":false,"i_lat":-6.3080680000000005,"line":2,"time":4,"distance":2820,"i_long":106.838896,"station_name":"Tanjung Barat","is_transit":false},{"distance":2671,"i_lat":-6.330363,"station_name":"Lenteng Agung","i_long":106.832616,"transit":false,"is_transit":false,"line":2,"station_id":"LNA","time":3},{"i_lat":-6.339291,"is_transit":false,"distance":1029,"i_long":106.834175,"station_id":"UP","line":2,"transit":false,"station_name":"Univ. Pancasila","time":2},{"station_name":"Univ. Indonesia","distance":2264,"line":2,"transit":false,"i_long":106.831474,"i_lat":-6.360749,"is_transit":false,"time":3,"station_id":"UI"},{"time":2,"station_id":"POC","distance":1109,"i_long":106.831114,"line":2,"i_lat":-6.369073,"transit":false,"station_name":"Pondok Cina","is_transit":false}],[{"station_id":"KLD","is_transit":false,"distance":0,"transit":false,"time":0,"line":1,"i_long":106.899548,"station_name":"Klender","i_lat":-6.2135},{"is_transit":true,"i_long":106.86807400000001,"station_name":"Jatinegara","line":1,"time":3,"i_lat":-6.215091,"station_id":"JNG","transit":true,"distance":3395},{"line":11,"station_id":"POK","time":2,"distance":1236,"transit":false,"station_name":"Pondok Jati","is_transit":false,"i_lat":-6.209188,"i_long":106.861737},{"transit":false,"distance":1829,"is_transit":false,"time":2,"line":11,"station_id":"KMT","i_long":106.855437,"station_name":"Kramat","i_lat":-6.193792},{"is_transit":false,"station_id":"GST","distance":973,"i_long":106.850107,"station_name":"Gang Sentiong","i_lat":-6.185975,"transit":false,"time":1,"line":11},{"transit":false,"station_name":"Pasar Senen","time":8,"distance":1567,"i_lat":-6.174784,"line":11,"station_id":"PSE","i_long":106.84368,"is_transit":false},{"transit":false,"time":4,"distance":1436,"i_long":106.839204,"station_id":"KMO","station_name":"Kemayoran","is_transit":false,"i_lat":-6.161728,"line":11},{"distance":1901,"i_lat":-6.14505,"is_transit":false,"station_name":"Rajawali","station_id":"RJW","i_long":106.836569,"line":11,"time":5,"transit":false},{"line":4,"distance":1444,"station_id":"KPB","station_name":"Kampung Bandan","is_transit":true,"transit":true,"i_lat":-6.132549,"i_long":106.826365,"time":3},{"station_name":"Jakarta Kota","i_long":106.812439,"i_lat":-6.137569,"transit":true,"time":3,"distance":1364,"line":2,"station_id":"JAKK","is_transit":true},{"time":4,"is_transit":false,"i_long":106.820901,"station_id":"JAY","distance":1264,"i_lat":-6.141205,"station_name":"Jayakarta","line":2,"transit":false},{"station_id":"MGB","time":2,"i_lat":-6.149769,"i_long":106.82482,"line":2,"distance":1080,"is_transit":false,"transit":false,"station_name":"Manggabesar"},{"transit":false,"station_id":"SW","distance":906,"time":2,"i_long":106.827103,"line":2,"station_name":"Sawah Besar","is_transit":false,"i_lat":-6.160725},{"i_lat":-6.166716,"line":2,"distance":1149,"station_id":"JUA","transit":false,"i_long":106.828284,"station_name":"Juanda","is_transit":false,"time":2},{"line":2,"transit":false,"time":4,"distance":2015,"i_lat":-6.186295,"is_transit":false,"i_long":106.832183,"station_name":"Gondangdia","station_id":"GDD"},{"transit":false,"time":3,"distance":1750,"line":2,"station_id":"CKI","is_transit":false,"i_lat":-6.198556,"station_name":"Cikini","i_long":106.840169},{"distance":1590,"i_lat":-6.209883,"i_long":106.84912,"line":2,"station_name":"Manggarai","transit":false,"time":4,"station_id":"MRI","is_transit":false},{"time":4,"station_name":"Tebet","i_lat":-6.226659,"transit":false,"i_long":106.857948,"line":2,"distance":2610,"station_id":"TEB","is_transit":false},{"transit":false,"distance":1230,"station_name":"Cawang","i_lat":-6.242512,"station_id":"CW","is_transit":false,"time":2,"line":2,"i_long":106.856607},{"i_long":106.85449,"is_transit":false,"transit":false,"time":3,"station_id":"DRN","distance":1546,"station_name":"Duren Kalibata","i_lat":-6.255332,"line":2},{"station_name":"Pasar Minggu Baru","is_transit":false,"distance":824,"station_id":"PSMB","transit":false,"time":2,"i_lat":-6.263214,"i_long":106.851577,"line":2},{"station_id":"PSM","station_name":"Pasar Minggu","transit":false,"is_transit":false,"i_lat":-6.2842400000000005,"distance":2380,"i_long":106.843999,"line":2,"time":2},{"i_long":106.838896,"i_lat":-6.3080680000000005,"time":4,"distance":2820,"is_transit":false,"line":2,"station_name":"Tanjung Barat","station_id":"TNT","transit":false},{"distance":2671,"station_name":"Lenteng Agung","is_transit":false,"i_lat":-6.330363,"transit":false,"station_id":"LNA","line":2,"i_long":106.832616,"time":3},{"i_lat":-6.339291,"station_name":"Univ. Pancasila","distance":1029,"is_transit":false,"line":2,"station_id":"UP","i_long":106.834175,"time":2,"transit":false},{"transit":false,"station_id":"UI","distance":2264,"i_lat":-6.360749,"time":3,"station_name":"Univ. Indonesia","i_long":106.831474,"line":2,"is_transit":false},{"i_lat":-6.369073,"is_transit":false,"distance":1109,"i_long":106.831114,"station_id":"POC","transit":false,"station_name":"Pondok Cina","time":2,"line":2}]]}