{"data":[[{"transit":false,"station_name":"Klender","i_long":106.899548,"station_id":"KLD","is_transit":false,"line":1,"i_lat":-6.2135,"distance":0,"time":0},{"time":3,"station_id":"JNG","station_name":"Jatinegara","distance":3395,"is_transit":true,"i_lat":-6.215091,"transit":true,"i_long":106.86807400000001,"line":1},{"transit":false,"i_long":106.861737,"distance":1236,"line":11,"station_name":"Pondok Jati","is_transit":false,"station_id":"POK","time":2,"i_lat":-6.209188},{"station_name":"Kramat","station_id":"KMT","transit":false,"i_lat":-6.193792,"time":2,"i_long":106.855437,"is_transit":false,"line":11,"distance":1829}],[{"distance":0,"is_transit":false,"station_name":"Klender","transit":false,"station_id":"KLD","time":0,"line":1,"i_lat":-6.2135,"i_long":106.899548},{"transit":false,"distance":3395,"line":1,"i_lat":-6.215091,"station_id":"JNG","i_long":106.86807400000001,"is_transit":false,"time":3,"station_name":"Jatinegara"},{"line":1,"transit":false,"i_lat":-6.212485,"distance":1377,"i_long":106.858896,"is_transit":false,"station_name":"Matraman","station_id":"MTR","time":2},{"transit":false,"distance":1275,"station_name":"Manggarai","station_id":"MRI","is_transit":false,"line":2,"i_lat":-6.209883,"time":2,"i_long":106.84912},{"is_transit":false,"i_lat":-6.202263,"i_long":106.822649,"station_name":"Sudirman","station_id":"SUD","distance":3186,"line":1,"time":4,"transit":false},{"station_name":"Sudirman Baru","station_id":"SUDB","time":1,"transit":false,"distance":280,"is_transit":false,"line":1,"i_long":106.819881,"i_lat":-6.201433},{"i_long":106.816351,"transit":false,"line":1,"is_transit":false,"station_id":"KAT","time":1,"station_name":"Karet","i_lat":-6.20132,"distance":471},{"transit":false,"distance":2029,"line":1,"station_name":"Tanah Abang","station_id":"THB","is_transit":false,"time":5,"i_long":106.811091,"i_lat":-6.185545},{"i_lat":-6.155215,"transit":false,"is_transit":false,"i_long":106.800832,"distance":3632,"line":1,"time":8,"station_name":"Duri","station_id":"DU"},{"station_name":"Angke","transit":false,"time":4,"line":1,"station_id":"AK","i_lat":-6.144674,"distance":1230,"i_long":106.79867,"is_transit":false},{"transit":true,"i_lat":-6.132549,"is_transit":true,"time":9,"station_id":"KPB","station_name":"Kampung Bandan","line":4,"distance":4102,"i_long":106.826365},{"distance":1444,"is_transit":false,"line":11,"station_id":"RJW","i_lat":-6.14505,"station_name":"Rajawali","i_long":106.836569,"time":3,"transit":false},{"i_long":106.839204,"distance":1901,"transit":false,"is_transit":false,"station_id":"KMO","station_name":"Kemayoran","time":5,"line":11,"i_lat":-6.161728},{"transit":false,"station_name":"Pasar Senen","i_lat":-6.174784,"i_long":106.84368,"distance":1436,"station_id":"PSE","line":11,"is_transit":false,"time":4},{"i_lat":-6.185975,"station_id":"GST","time":8,"i_long":106.850107,"is_transit":false,"transit":false,"station_name":"Gang Sentiong","distance":1567,"line":11},{"station_name":"Kramat","time":1,"is_transit":false,"transit":false,"line":11,"i_lat":-6.193792,"i_long":106.855437,"distance":973,"station_id":"KMT"}],[{"station_id":"KLD","i_long":106.899548,"line":1,"transit":false,"is_transit":false,"time":0,"distance":0,"station_name":"Klender","i_lat":-6.2135},{"time":3,"station_name":"Jatinegara","distance":3395,"i_lat":-6.215091,"station_id":"JNG","i_long":106.86807400000001,"is_transit":false,"line":1,"transit":false},{"distance":1377,"station_id":"MTR","line":1,"transit":false,"is_transit":false,"i_long":106.858896,"i_lat":-6.212485,"station_name":"Matraman","time":2},{"station_id":"MRI","is_transit":true,"time":2,"station_name":"Manggarai","i_long":106.84912,"line":2,"distance":1275,"i_lat":-6.209883,"transit":true},{"distance":1590,"is_transit":false,"time":4,"i_lat":-6.198556,"i_long":106.840169,"station_name":"Cikini","line":2,"station_id":"CKI","transit":false},{"i_long":106.832183,"station_id":"GDD","distance":1750,"time":3,"station_name":"Gondangdia","transit":false,"is_transit":false,"i_lat":-6.186295,"line":2},{"i_long":106.828284,"distance":2015,"station_name":"Juanda","time":4,"station_id":"JUA","i_lat":-6.166716,"line":2,"transit":false,"is_transit":false},{"transit":false,"i_lat":-6.160725,"station_id":"SW","time":2,"station_name":"Sawah Besar","distance":1149,"is_transit":false,"i_long":106.827103,"line":2},{"transit":false,"station_name":"Manggabesar","distance":906,"is_transit":false,"time":2,"station_id":"MGB","i_lat":-6.149769,"line":2,"i_long":106.82482},{"line":2,"station_id":"JAY","station_name":"Jayakarta","transit":false,"time":2,"i_lat":-6.141205,"distance":1080,"i_long":106.820901,"is_transit":false},{"station_name":"Jakarta Kota","time":4,"transit":true,"station_id":"JAKK","distance":1264,"i_lat":-6.137569,"line":2,"i_long":106.812439,"is_transit":true},{"distance":1364,"is_transit":true,"i_lat":-6.132549,"transit":true,"station_id":"KPB","time":3,"station_name":"Kampung Bandan","line":4,"i_long":106.826365},{"station_name":"Rajawali","distance":1444,"time":3,"i_lat":-6.14505,"transit":false,"is_transit":false,"i_long":106.836569,"station_id":"RJW","line":11},{"i_long":106.839204,"station_id":"KMO","time":5,"line":11,"station_name":"Kemayoran","distance":1901,"transit":false,"i_lat":-6.161728,"is_transit":false},{"i_lat":-6.174784,"is_transit":false,"i_long":106.84368,"line":11,"time":4,"station_id":"PSE","distance":1436,"transit":false,"station_name":"Pasar Senen"},{"distance":1567,"transit":false,"is_transit":false,"i_long":106.850107,"station_name":"Gang Sentiong","time":8,"station_id":"GST","line":11,"i_lat":-6.185975},{"i_long":106.855437,"station_name":"Kramat","line":11,"station_id":"KMT","is_transit":false,"transit":false,"time":1,"distance":973,"i_lat":-6.193792}]]}