{"data":[[{"time":0,"station_name":"Klender","i_lat":-6.2135,"transit":false,"distance":0,"i_long":106.899548,"station_id":"KLD","line":1,"is_transit":false},{"i_lat":-6.215568,"station_id":"BUA","line":1,"time":2,"is_transit":false,"transit":false,"i_long":106.922662,"station_name":"Buaran","distance":3100},{"is_transit":false,"transit":false,"i_long":106.939679,"station_name":"Klenderbaru","line":1,"station_id":"KLDB","distance":1305,"i_lat":-6.217455,"time":1},{"transit":false,"is_transit":false,"i_long":106.951283,"station_name":"Cakung","i_lat":-6.219053,"line":1,"time":8,"distance":1385,"station_id":"CUK"},{"line":1,"station_name":"Kranji","distance":3097,"station_id":"KRI","i_lat":-6.224515,"time":3,"is_transit":false,"i_long":106.977657,"transit":false},{"distance":2520,"time":4,"i_long":106.997013,"station_id":"BKS","i_lat":-6.236616,"line":1,"is_transit":false,"station_name":"Bekasi","transit":false},{"distance":2368,"station_id":"BKST","time":2,"transit":false,"is_transit":false,"i_lat":-6.248029,"station_name":"Bekasi Timur","i_long":107.016735,"line":1},{"line":1,"distance":4460,"i_long":107.055722,"station_name":"Tambun","time":7,"is_transit":false,"i_lat":-6.258864,"transit":false,"station_id":"TB"},{"is_transit":false,"i_long":107.083084,"i_lat":-6.261877,"distance":3420,"station_id":"CIT","line":1,"transit":false,"station_name":"Cibitung","time":3},{"i_long":107.093313,"i_lat":-6.262938,"time":2,"is_transit":false,"station_id":"TLM","line":1,"transit":false,"station_name":"Metland Telaga Murni","distance":2800},{"station_name":"Cikarang","station_id":"CKR","transit":false,"i_long":107.144613,"line":1,"time":4,"is_transit":false,"distance":3689,"i_lat":-6.2553149999999995}]]}