{"data":[[{"station_name":"Klender","time":0,"i_lat":-6.2135,"station_id":"KLD","is_transit":false,"distance":0,"i_long":106.899548,"transit":false,"line":1},{"line":1,"distance":3395,"transit":false,"station_name":"Jatinegara","is_transit":false,"i_long":106.86807400000001,"i_lat":-6.215091,"station_id":"JNG","time":3},{"transit":false,"station_id":"MTR","station_name":"Matraman","is_transit":false,"time":2,"line":1,"distance":1377,"i_lat":-6.212485,"i_long":106.858896},{"i_lat":-6.209883,"distance":1275,"time":2,"station_id":"MRI","i_long":106.84912,"station_name":"Manggarai","is_transit":false,"transit":false,"line":2},{"distance":3186,"transit":false,"is_transit":false,"i_long":106.822649,"line":1,"i_lat":-6.202263,"station_name":"Sudirman","station_id":"SUD","time":4},{"station_id":"SUDB","station_name":"Sudirman Baru","is_transit":false,"i_lat":-6.201433,"i_long":106.819881,"line":1,"distance":280,"time":1,"transit":false},{"line":1,"transit":false,"station_id":"KAT","is_transit":false,"station_name":"Karet","i_lat":-6.20132,"i_long":106.816351,"time":1,"distance":471},{"time":5,"transit":false,"distance":2029,"is_transit":false,"line":1,"i_long":106.811091,"station_name":"Tanah Abang","station_id":"THB","i_lat":-6.185545},{"transit":true,"i_lat":-6.155215,"line":1,"station_name":"Duri","station_id":"DU","is_transit":true,"time":8,"distance":3632,"i_long":106.800832},{"is_transit":false,"distance":1700,"station_name":"Grogol","station_id":"GGL","i_lat":-6.162021,"line":5,"time":3,"i_long":106.788277,"transit":false},{"line":5,"time":2,"station_id":"PSG","is_transit":false,"transit":false,"distance":2036,"i_lat":-6.161433,"station_name":"Pesing","i_long":106.771379},{"time":2,"i_lat":-6.1587309999999995,"station_name":"Taman Kota","distance":1614,"i_long":106.756522,"is_transit":false,"station_id":"TKO","transit":false,"line":5}],[{"transit":false,"station_id":"KLD","i_lat":-6.2135,"time":0,"i_long":106.899548,"is_transit":false,"line":1,"distance":0,"station_name":"Klender"},{"distance":3395,"transit":true,"station_name":"Jatinegara","station_id":"JNG","time":3,"i_lat":-6.215091,"i_long":106.86807400000001,"is_transit":true,"line":1},{"i_long":106.861737,"is_transit":false,"transit":false,"line":11,"station_name":"Pondok Jati","time":2,"distance":1236,"i_lat":-6.209188,"station_id":"POK"},{"station_name":"Kramat","i_lat":-6.193792,"station_id":"KMT","distance":1829,"i_long":106.855437,"is_transit":false,"time":2,"line":11,"transit":false},{"is_transit":false,"i_lat":-6.185975,"distance":973,"station_name":"Gang Sentiong","time":1,"i_long":106.850107,"line":11,"station_id":"GST","transit":false},{"station_id":"PSE","transit":false,"i_lat":-6.174784,"line":11,"time":8,"distance":1567,"i_long":106.84368,"station_name":"Pasar Senen","is_transit":false},{"distance":1436,"i_lat":-6.161728,"station_name":"Kemayoran","i_long":106.839204,"transit":false,"is_transit":false,"line":11,"station_id":"KMO","time":4},{"i_lat":-6.14505,"is_transit":false,"distance":1901,"i_long":106.836569,"station_id":"RJW","line":11,"transit":false,"station_name":"Rajawali","time":5},{"station_name":"Kampung Bandan","distance":1444,"line":4,"transit":true,"i_long":106.826365,"i_lat":-6.132549,"is_transit":true,"time":3,"station_id":"KPB"},{"time":9,"station_id":"AK","distance":4102,"i_long":106.79867,"line":1,"i_lat":-6.144674,"transit":false,"station_name":"Angke","is_transit":false},{"station_id":"DU","is_transit":true,"distance":1230,"transit":true,"time":4,"line":1,"i_long":106.800832,"station_name":"Duri","i_lat":-6.155215},{"is_transit":false,"i_long":106.788277,"station_name":"Grogol","line":5,"time":3,"i_lat":-6.162021,"station_id":"GGL","transit":false,"distance":1700},{"line":5,"station_id":"PSG","time":2,"distance":2036,"transit":false,"station_name":"Pesing","is_transit":false,"i_lat":-6.161433,"i_long":106.771379},{"transit":false,"distance":1614,"is_transit":false,"time":2,"line":5,"station_id":"TKO","i_long":106.756522,"station_name":"Taman Kota","i_lat":-6.1587309999999995}],[{"is_transit":false,"station_id":"KLD","distance":0,"i_long":106.899548,"station_name":"Klender","i_lat":-6.2135,"transit":false,"time":0,"line":1},{"transit":false,"station_name":"Jatinegara","time":3,"distance":3395,"i_lat":-6.215091,"line":1,"station_id":"JNG","i_long":106.86807400000001,"is_transit":false},{"transit":false,"time":2,"distance":1377,"i_long":106.858896,"station_id":"MTR","station_name":"Matraman","is_transit":false,"i_lat":-6.212485,"line":1},{"distance":1275,"i_lat":-6.209883,"is_transit":true,"station_name":"Manggarai","station_id":"MRI","i_long":106.84912,"line":2,"time":2,"transit":true},{"line":2,"distance":1590,"station_id":"CKI","station_name":"Cikini","is_transit":false,"transit":false,"i_lat":-6.198556,"i_long":106.840169,"time":4},{"station_name":"Gondangdia","i_long":106.832183,"i_lat":-6.186295,"transit":false,"time":3,"distance":1750,"line":2,"station_id":"GDD","is_transit":false},{"time":4,"is_transit":false,"i_long":106.828284,"station_id":"JUA","distance":2015,"i_lat":-6.166716,"station_name":"Juanda","line":2,"transit":false},{"station_id":"SW","time":2,"i_lat":-6.160725,"i_long":106.827103,"line":2,"distance":1149,"is_transit":false,"transit":false,"station_name":"Sawah Besar"},{"transit":false,"station_id":"MGB","distance":906,"time":2,"i_long":106.82482,"line":2,"station_name":"Manggabesar","is_transit":false,"i_lat":-6.149769},{"i_lat":-6.141205,"line":2,"distance":1080,"station_id":"JAY","transit":false,"i_long":106.820901,"station_name":"Jayakarta","is_transit":false,"time":2},{"line":2,"transit":true,"time":4,"distance":1264,"i_lat":-6.137569,"is_transit":true,"i_long":106.812439,"station_name":"Jakarta Kota","station_id":"JAKK"},{"transit":true,"time":3,"distance":1364,"line":4,"station_id":"KPB","is_transit":true,"i_lat":-6.132549,"station_name":"Kampung Bandan","i_long":106.826365},{"distance":4102,"i_lat":-6.144674,"i_long":106.79867,"line":1,"station_name":"Angke","transit":false,"time":9,"station_id":"AK","is_transit":false},{"transit":true,"time":4,"station_name":"Duri","line":1,"i_lat":-6.155215,"station_id":"DU","distance":1230,"i_long":106.800832,"is_transit":true},{"station_id":"GGL","line":5,"is_transit":false,"time":3,"i_lat":-6.162021,"station_name":"Grogol","i_long":106.788277,"transit":false,"distance":1700},{"distance":2036,"i_long":106.771379,"time":2,"i_lat":-6.161433,"is_transit":false,"station_name":"Pesing","line":5,"station_id":"PSG","transit":false},{"distance":1614,"transit":false,"i_lat":-6.1587309999999995,"i_long":106.756522,"station_id":"TKO","time":2,"station_name":"Taman Kota","is_transit":false,"line":5}],[{"station_id":"KLD","station_name":"Klender","transit":false,"is_transit":false,"i_lat":-6.2135,"distance":0,"i_long":106.899548,"line":1,"time":0},{"i_long":106.86807400000001,"i_lat":-6.215091,"time":3,"distance":3395,"is_transit":true,"line":1,"station_name":"Jatinegara","station_id":"JNG","transit":true},{"distance":1236,"station_name":"Pondok Jati","is_transit":false,"i_lat":-6.209188,"transit":false,"station_id":"POK","line":11,"i_long":106.861737,"time":2},{"i_lat":-6.193792,"station_name":"Kramat","distance":1829,"is_transit":false,"line":11,"station_id":"KMT","i_long":106.855437,"time":2,"transit":false},{"transit":false,"station_id":"GST","distance":973,"i_lat":-6.185975,"time":1,"station_name":"Gang Sentiong","i_long":106.850107,"line":11,"is_transit":false},{"i_lat":-6.174784,"is_transit":false,"distance":1567,"i_long":106.84368,"station_id":"PSE","transit":false,"station_name":"Pasar Senen","time":8,"line":11},{"is_transit":false,"transit":false,"station_id":"KMO","distance":1436,"i_lat":-6.161728,"time":4,"line":11,"i_long":106.839204,"station_name":"Kemayoran"},{"i_long":106.836569,"line":11,"transit":false,"time":5,"station_id":"RJW","station_name":"Rajawali","is_transit":false,"distance":1901,"i_lat":-6.14505},{"distance":1444,"time":3,"i_long":106.826365,"is_transit":true,"transit":true,"station_id":"KPB","line":4,"i_lat":-6.132549,"station_name":"Kampung Bandan"},{"is_transit":true,"i_long":106.812439,"i_lat":-6.137569,"line":2,"transit":true,"station_name":"Jakarta Kota","station_id":"JAKK","distance":1364,"time":3},{"station_id":"JAY","time":4,"distance":1264,"transit":false,"station_name":"Jayakarta","is_transit":false,"i_lat":-6.141205,"line":2,"i_long":106.820901},{"i_lat":-6.149769,"i_long":106.82482,"time":2,"is_transit":false,"line":2,"transit":false,"station_name":"Manggabesar","station_id":"MGB","distance":1080},{"station_id":"SW","transit":false,"distance":906,"i_long":106.827103,"time":2,"station_name":"Sawah Besar","line":2,"is_transit":false,"i_lat":-6.160725},{"distance":1149,"time":2,"station_name":"Juanda","i_lat":-6.166716,"transit":false,"station_id":"JUA","i_long":106.828284,"is_transit":false,"line":2},{"distance":2015,"i_lat":-6.186295,"is_transit":false,"i_long":106.832183,"line":2,"transit":false,"time":4,"station_name":"Gondangdia","station_id":"GDD"},{"station_id":"CKI","is_transit":false,"distance":1750,"line":2,"station_name":"Cikini","transit":false,"i_lat":-6.198556,"i_long":106.840169,"time":3},{"i_lat":-6.209883,"is_transit":true,"station_name":"Manggarai","transit":true,"time":4,"distance":1590,"station_id":"MRI","i_long":106.84912,"line":2},{"distance":3186,"line":1,"i_lat":-6.202263,"time":4,"station_id":"SUD","station_name":"Sudirman","i_long":106.822649,"is_transit":false,"transit":false},{"line":1,"station_name":"Sudirman Baru","station_id":"SUDB","transit":false,"is_transit":false,"time":1,"i_lat":-6.201433,"distance":280,"i_long":106.819881},{"distance":471,"station_name":"Karet","transit":false,"i_long":106.816351,"i_lat":-6.20132,"station_id":"KAT","line":1,"is_transit":false,"time":1},{"time":5,"station_id":"THB","i_long":106.811091,"distance":2029,"i_lat":-6.185545,"line":1,"is_transit":false,"station_name":"Tanah Abang","transit":false},{"i_lat":-6.155215,"distance":3632,"line":1,"transit":true,"is_transit":true,"i_long":106.800832,"station_name":"Duri","station_id":"DU","time":8},{"transit":false,"i_long":106.788277,"line":5,"time":3,"station_name":"Grogol","is_transit":false,"distance":1700,"station_id":"GGL","i_lat":-6.162021},{"station_name":"Pesing","i_long":106.771379,"i_lat":-6.161433,"time":2,"station_id":"PSG","is_transit":false,"distance":2036,"transit":false,"line":5},{"line":5,"station_name":"Taman Kota","i_long":106.756522,"distance":1614,"transit":false,"station_id":"TKO","is_transit":false,"time":2,"i_lat":-6.1587309999999995}]]}