{"data":[[{"station_name":"Klender","distance":0,"is_transit":false,"i_lat":-6.2135,"i_long":106.899548,"station_id":"KLD","line":1,"transit":false,"time":0},{"transit":false,"station_name":"Jatinegara","station_id":"JNG","line":1,"distance":3395,"is_transit":false,"i_lat":-6.215091,"i_long":106.86807400000001,"time":3},{"station_id":"MTR","transit":false,"i_lat":-6.212485,"is_transit":false,"distance":1377,"i_long":106.858896,"time":2,"station_name":"Matraman","line":1},{"transit":false,"line":2,"station_name":"Manggarai","time":2,"distance":1275,"station_id":"MRI","is_transit":false,"i_lat":-6.209883,"i_long":106.84912},{"is_transit":false,"time":4,"i_lat":-6.202263,"station_id":"SUD","line":1,"distance":3186,"transit":false,"i_long":106.822649,"station_name":"Sudirman"},{"line":1,"transit":false,"i_lat":-6.201433,"station_name":"Sudirman Baru","distance":280,"time":1,"station_id":"SUDB","is_transit":false,"i_long":106.819881},{"time":1,"distance":471,"station_name":"Karet","i_lat":-6.20132,"station_id":"KAT","line":1,"is_transit":false,"transit":false,"i_long":106.816351},{"is_transit":false,"distance":2029,"station_name":"Tanah Abang","time":5,"transit":false,"station_id":"THB","line":1,"i_lat":-6.185545,"i_long":106.811091},{"is_transit":true,"time":8,"station_name":"Duri","station_id":"DU","distance":3632,"line":1,"transit":true,"i_lat":-6.155215,"i_long":106.800832},{"time":3,"station_id":"GGL","i_lat":-6.162021,"i_long":106.788277,"line":5,"station_name":"Grogol","transit":false,"is_transit":false,"distance":1700},{"time":2,"station_name":"Pesing","is_transit":false,"i_lat":-6.161433,"line":5,"i_long":106.771379,"distance":2036,"station_id":"PSG","transit":false},{"i_long":106.756522,"time":2,"station_id":"TKO","line":5,"transit":false,"distance":1614,"is_transit":false,"station_name":"Taman Kota","i_lat":-6.1587309999999995}],[{"i_lat":-6.2135,"station_id":"KLD","transit":false,"i_long":106.899548,"line":1,"time":0,"is_transit":false,"station_name":"Klender","distance":0},{"station_id":"JNG","is_transit":true,"station_name":"Jatinegara","time":3,"transit":true,"distance":3395,"i_lat":-6.215091,"i_long":106.86807400000001,"line":1},{"station_name":"Pondok Jati","station_id":"POK","is_transit":false,"distance":1236,"i_lat":-6.209188,"transit":false,"i_long":106.861737,"line":11,"time":2},{"station_name":"Kramat","i_lat":-6.193792,"station_id":"KMT","line":11,"transit":false,"i_long":106.855437,"time":2,"is_transit":false,"distance":1829},{"i_lat":-6.185975,"distance":973,"station_id":"GST","station_name":"Gang Sentiong","i_long":106.850107,"line":11,"transit":false,"is_transit":false,"time":1},{"station_id":"PSE","line":11,"station_name":"Pasar Senen","time":8,"distance":1567,"transit":false,"i_long":106.84368,"is_transit":false,"i_lat":-6.174784},{"line":11,"station_id":"KMO","transit":false,"station_name":"Kemayoran","time":4,"i_lat":-6.161728,"distance":1436,"i_long":106.839204,"is_transit":false},{"i_long":106.836569,"station_id":"RJW","line":11,"is_transit":false,"transit":false,"station_name":"Rajawali","i_lat":-6.14505,"time":5,"distance":1901},{"i_long":106.826365,"station_id":"KPB","line":4,"transit":true,"station_name":"Kampung Bandan","time":3,"is_transit":true,"i_lat":-6.132549,"distance":1444},{"is_transit":false,"distance":4102,"line":1,"i_long":106.79867,"transit":false,"station_name":"Angke","time":9,"i_lat":-6.144674,"station_id":"AK"},{"i_long":106.800832,"station_id":"DU","line":1,"station_name":"Duri","is_transit":true,"time":4,"transit":true,"distance":1230,"i_lat":-6.155215},{"i_lat":-6.162021,"is_transit":false,"transit":false,"distance":1700,"time":3,"station_name":"Grogol","line":5,"i_long":106.788277,"station_id":"GGL"},{"transit":false,"i_long":106.771379,"line":5,"station_name":"Pesing","distance":2036,"time":2,"is_transit":false,"station_id":"PSG","i_lat":-6.161433},{"time":2,"station_name":"Taman Kota","is_transit":false,"distance":1614,"station_id":"TKO","i_long":106.756522,"transit":false,"line":5,"i_lat":-6.1587309999999995}],[{"station_id":"KLD","is_transit":false,"distance":0,"transit":false,"time":0,"line":1,"i_long":106.899548,"i_lat":-6.2135,"station_name":"Klender"},{"i_lat":-6.215091,"i_long":106.86807400000001,"time":3,"transit":false,"station_name":"Jatinegara","line":1,"is_transit":false,"distance":3395,"station_id":"JNG"},{"station_id":"MTR","i_lat":-6.212485,"line":1,"transit":false,"station_name":"Matraman","is_transit":false,"i_long":106.858896,"time":2,"distance":1377},{"time":2,"station_name":"Manggarai","station_id":"MRI","distance":1275,"line":2,"is_transit":true,"transit":true,"i_lat":-6.209883,"i_long":106.84912},{"i_long":106.840169,"is_transit":false,"transit":false,"distance":1590,"station_name":"Cikini","time":4,"line":2,"station_id":"CKI","i_lat":-6.198556},{"line":2,"station_id":"GDD","transit":false,"i_long":106.832183,"is_transit":false,"distance":1750,"station_name":"Gondangdia","time":3,"i_lat":-6.186295},{"time":4,"line":2,"transit":false,"i_long":106.828284,"i_lat":-6.166716,"station_name":"Juanda","distance":2015,"station_id":"JUA","is_transit":false},{"time":2,"station_id":"SW","station_name":"Sawah Besar","is_transit":false,"i_lat":-6.160725,"i_long":106.827103,"transit":false,"line":2,"distance":1149},{"i_lat":-6.149769,"i_long":106.82482,"station_id":"MGB","station_name":"Manggabesar","time":2,"is_transit":false,"line":2,"distance":906,"transit":false},{"transit":false,"i_long":106.820901,"time":2,"station_id":"JAY","is_transit":false,"line":2,"station_name":"Jayakarta","i_lat":-6.141205,"distance":1080},{"distance":1264,"i_long":106.812439,"is_transit":true,"i_lat":-6.137569,"line":2,"station_name":"Jakarta Kota","transit":true,"time":4,"station_id":"JAKK"},{"time":3,"distance":1364,"station_name":"Kampung Bandan","station_id":"KPB","is_transit":true,"i_lat":-6.132549,"transit":true,"i_long":106.826365,"line":4},{"is_transit":false,"i_long":106.79867,"station_id":"AK","line":1,"transit":false,"station_name":"Angke","time":9,"i_lat":-6.144674,"distance":4102},{"line":1,"time":4,"is_transit":true,"station_id":"DU","i_long":106.800832,"station_name":"Duri","transit":true,"i_lat":-6.155215,"distance":1230},{"station_id":"GGL","station_name":"Grogol","distance":1700,"line":5,"time":3,"i_lat":-6.162021,"i_long":106.788277,"transit":false,"is_transit":false},{"transit":false,"is_transit":false,"i_long":106.771379,"line":5,"station_id":"PSG","i_lat":-6.161433,"station_name":"Pesing","distance":2036,"time":2},{"station_id":"TKO","is_transit":false,"transit":false,"time":2,"i_lat":-6.1587309999999995,"i_long":106.756522,"station_name":"Taman Kota","line":5,"distance":1614}],[{"distance":0,"line":1,"station_name":"Klender","i_lat":-6.2135,"transit":false,"time":0,"station_id":"KLD","i_long":106.899548,"is_transit":false},{"station_id":"JNG","is_transit":true,"distance":3395,"i_lat":-6.215091,"time":3,"line":1,"i_long":106.86807400000001,"station_name":"Jatinegara","transit":true},{"line":11,"is_transit":false,"i_long":106.861737,"time":2,"i_lat":-6.209188,"distance":1236,"transit":false,"station_id":"POK","station_name":"Pondok Jati"},{"distance":1829,"station_name":"Kramat","station_id":"KMT","line":11,"is_transit":false,"i_lat":-6.193792,"i_long":106.855437,"time":2,"transit":false},{"distance":973,"time":1,"station_id":"GST","i_long":106.850107,"line":11,"is_transit":false,"transit":false,"station_name":"Gang Sentiong","i_lat":-6.185975},{"i_lat":-6.174784,"station_name":"Pasar Senen","transit":false,"station_id":"PSE","is_transit":false,"i_long":106.84368,"distance":1567,"time":8,"line":11},{"is_transit":false,"time":4,"transit":false,"i_lat":-6.161728,"station_id":"KMO","i_long":106.839204,"station_name":"Kemayoran","distance":1436,"line":11},{"i_lat":-6.14505,"time":5,"distance":1901,"station_id":"RJW","transit":false,"is_transit":false,"station_name":"Rajawali","i_long":106.836569,"line":11},{"time":3,"station_id":"KPB","station_name":"Kampung Bandan","distance":1444,"i_lat":-6.132549,"i_long":106.826365,"transit":true,"is_transit":true,"line":4},{"line":2,"transit":true,"station_id":"JAKK","time":3,"is_transit":true,"distance":1364,"station_name":"Jakarta Kota","i_long":106.812439,"i_lat":-6.137569},{"transit":false,"station_name":"Jayakarta","time":4,"line":2,"distance":1264,"is_transit":false,"station_id":"JAY","i_lat":-6.141205,"i_long":106.820901},{"transit":false,"line":2,"i_lat":-6.149769,"is_transit":false,"time":2,"station_name":"Manggabesar","i_long":106.82482,"distance":1080,"station_id":"MGB"},{"i_lat":-6.160725,"i_long":106.827103,"station_id":"SW","line":2,"distance":906,"station_name":"Sawah Besar","is_transit":false,"transit":false,"time":2},{"is_transit":false,"i_long":106.828284,"transit":false,"i_lat":-6.166716,"station_name":"Juanda","time":2,"line":2,"distance":1149,"station_id":"JUA"},{"station_id":"GDD","transit":false,"is_transit":false,"i_lat":-6.186295,"i_long":106.832183,"line":2,"distance":2015,"station_name":"Gondangdia","time":4},{"distance":1750,"station_name":"Cikini","line":2,"is_transit":false,"transit":false,"time":3,"station_id":"CKI","i_lat":-6.198556,"i_long":106.840169},{"i_long":106.84912,"i_lat":-6.209883,"line":2,"is_transit":true,"transit":true,"station_name":"Manggarai","distance":1590,"station_id":"MRI","time":4},{"distance":3186,"station_name":"Sudirman","station_id":"SUD","is_transit":false,"line":1,"i_lat":-6.202263,"transit":false,"time":4,"i_long":106.822649},{"line":1,"distance":280,"station_name":"Sudirman Baru","transit":false,"time":1,"station_id":"SUDB","is_transit":false,"i_lat":-6.201433,"i_long":106.819881},{"station_name":"Karet","i_long":106.816351,"is_transit":false,"station_id":"KAT","line":1,"time":1,"transit":false,"i_lat":-6.20132,"distance":471},{"i_long":106.811091,"is_transit":false,"time":5,"station_id":"THB","i_lat":-6.185545,"transit":false,"station_name":"Tanah Abang","line":1,"distance":2029},{"i_long":106.800832,"time":8,"distance":3632,"station_name":"Duri","transit":true,"station_id":"DU","is_transit":true,"line":1,"i_lat":-6.155215},{"i_lat":-6.162021,"i_long":106.788277,"line":5,"station_name":"Grogol","is_transit":false,"distance":1700,"time":3,"transit":false,"station_id":"GGL"},{"is_transit":false,"transit":false,"station_id":"PSG","station_name":"Pesing","i_lat":-6.161433,"distance":2036,"line":5,"i_long":106.771379,"time":2},{"i_long":106.756522,"station_name":"Taman Kota","station_id":"TKO","transit":false,"time":2,"line":5,"is_transit":false,"i_lat":-6.1587309999999995,"distance":1614}]]}