{"data":[[{"time":0,"distance":0,"station_name":"Klender","line":1,"is_transit":false,"i_long":106.899548,"i_lat":-6.2135,"transit":false,"station_id":"KLD"},{"station_name":"Jatinegara","distance":3395,"time":3,"is_transit":false,"station_id":"JNG","transit":false,"i_lat":-6.215091,"i_long":106.86807400000001,"line":1},{"station_id":"MTR","is_transit":false,"line":1,"distance":1377,"i_lat":-6.212485,"time":2,"i_long":106.858896,"station_name":"Matraman","transit":false},{"i_long":106.84912,"station_id":"MRI","i_lat":-6.209883,"distance":1275,"transit":true,"line":2,"time":2,"is_transit":true,"station_name":"Manggarai"},{"line":2,"station_name":"Tebet","time":4,"station_id":"TEB","i_long":106.857948,"distance":2610,"is_transit":false,"transit":false,"i_lat":-6.226659},{"distance":1230,"is_transit":false,"station_name":"Cawang","time":2,"i_lat":-6.242512,"line":2,"station_id":"CW","i_long":106.856607,"transit":false},{"line":2,"i_lat":-6.255332,"distance":1546,"time":3,"station_id":"DRN","station_name":"Duren Kalibata","is_transit":false,"i_long":106.85449,"transit":false},{"station_id":"PSMB","line":2,"transit":false,"is_transit":false,"i_long":106.851577,"distance":824,"station_name":"Pasar Minggu Baru","i_lat":-6.263214,"time":2},{"transit":false,"time":2,"i_long":106.843999,"station_id":"PSM","station_name":"Pasar Minggu","distance":2380,"is_transit":false,"i_lat":-6.2842400000000005,"line":2},{"transit":false,"i_lat":-6.3080680000000005,"i_long":106.838896,"distance":2820,"line":2,"time":4,"is_transit":false,"station_name":"Tanjung Barat","station_id":"TNT"},{"i_lat":-6.330363,"distance":2671,"is_transit":false,"line":2,"station_name":"Lenteng Agung","time":3,"transit":false,"i_long":106.832616,"station_id":"LNA"},{"time":2,"station_name":"Univ. Pancasila","i_long":106.834175,"is_transit":false,"transit":false,"i_lat":-6.339291,"line":2,"station_id":"UP","distance":1029},{"distance":2264,"i_long":106.831474,"line":2,"transit":false,"station_name":"Univ. Indonesia","is_transit":false,"station_id":"UI","i_lat":-6.360749,"time":3},{"station_name":"Pondok Cina","is_transit":false,"i_long":106.831114,"transit":false,"i_lat":-6.369073,"line":2,"time":2,"distance":1109,"station_id":"POC"}],[{"time":0,"i_lat":-6.2135,"station_id":"KLD","transit":false,"i_long":106.899548,"is_transit":false,"station_name":"Klender","line":1,"distance":0},{"station_id":"JNG","time":3,"i_lat":-6.215091,"line":1,"station_name":"Jatinegara","is_transit":true,"i_long":106.86807400000001,"distance":3395,"transit":true},{"i_long":106.861737,"time":2,"station_id":"POK","is_transit":false,"transit":false,"line":11,"distance":1236,"station_name":"Pondok Jati","i_lat":-6.209188},{"distance":1829,"station_id":"KMT","is_transit":false,"time":2,"transit":false,"station_name":"Kramat","line":11,"i_lat":-6.193792,"i_long":106.855437},{"transit":false,"station_name":"Gang Sentiong","is_transit":false,"i_long":106.850107,"time":1,"i_lat":-6.185975,"distance":973,"line":11,"station_id":"GST"},{"i_lat":-6.174784,"time":8,"i_long":106.84368,"distance":1567,"line":11,"station_id":"PSE","is_transit":false,"station_name":"Pasar Senen","transit":false},{"i_long":106.839204,"is_transit":false,"transit":false,"line":11,"station_id":"KMO","station_name":"Kemayoran","time":4,"distance":1436,"i_lat":-6.161728},{"station_name":"Rajawali","time":5,"is_transit":false,"i_lat":-6.14505,"transit":false,"distance":1901,"station_id":"RJW","i_long":106.836569,"line":11},{"i_lat":-6.132549,"distance":1444,"is_transit":true,"station_id":"KPB","i_long":106.826365,"line":4,"transit":true,"station_name":"Kampung Bandan","time":3},{"is_transit":false,"station_id":"AK","station_name":"Angke","transit":false,"i_long":106.79867,"i_lat":-6.144674,"line":1,"distance":4102,"time":9},{"station_name":"Duri","i_long":106.800832,"transit":false,"distance":1230,"time":4,"station_id":"DU","i_lat":-6.155215,"is_transit":false,"line":1},{"station_name":"Tanah Abang","i_long":106.811091,"time":8,"station_id":"THB","distance":3632,"transit":false,"i_lat":-6.185545,"line":1,"is_transit":false},{"distance":2029,"station_name":"Karet","i_long":106.816351,"i_lat":-6.20132,"station_id":"KAT","is_transit":false,"line":1,"transit":false,"time":5},{"i_long":106.819881,"station_id":"SUDB","is_transit":false,"time":1,"transit":false,"line":1,"station_name":"Sudirman Baru","i_lat":-6.201433,"distance":471},{"transit":false,"i_lat":-6.202263,"is_transit":false,"i_long":106.822649,"distance":280,"station_id":"SUD","time":1,"station_name":"Sudirman","line":1},{"i_long":106.84912,"time":4,"transit":true,"station_id":"MRI","line":2,"is_transit":true,"distance":3186,"i_lat":-6.209883,"station_name":"Manggarai"},{"distance":2610,"line":2,"i_lat":-6.226659,"i_long":106.857948,"time":4,"station_name":"Tebet","is_transit":false,"transit":false,"station_id":"TEB"},{"i_lat":-6.242512,"i_long":106.856607,"time":2,"is_transit":false,"line":2,"station_id":"CW","station_name":"Cawang","distance":1230,"transit":false},{"is_transit":false,"i_long":106.85449,"transit":false,"time":3,"station_id":"DRN","distance":1546,"station_name":"Duren Kalibata","i_lat":-6.255332,"line":2},{"distance":824,"is_transit":false,"transit":false,"i_lat":-6.263214,"station_name":"Pasar Minggu Baru","line":2,"station_id":"PSMB","time":2,"i_long":106.851577},{"is_transit":false,"i_lat":-6.2842400000000005,"station_name":"Pasar Minggu","i_long":106.843999,"line":2,"transit":false,"distance":2380,"station_id":"PSM","time":2},{"distance":2820,"station_id":"TNT","is_transit":false,"i_lat":-6.3080680000000005,"i_long":106.838896,"transit":false,"line":2,"time":4,"station_name":"Tanjung Barat"},{"line":2,"is_transit":false,"station_name":"Lenteng Agung","distance":2671,"transit":false,"station_id":"LNA","i_lat":-6.330363,"time":3,"i_long":106.832616},{"distance":1029,"time":2,"station_name":"Univ. Pancasila","is_transit":false,"station_id":"UP","i_lat":-6.339291,"line":2,"i_long":106.834175,"transit":false},{"time":3,"line":2,"i_long":106.831474,"station_id":"UI","i_lat":-6.360749,"transit":false,"station_name":"Univ. Indonesia","distance":2264,"is_transit":false},{"station_id":"POC","station_name":"Pondok Cina","transit":false,"distance":1109,"i_lat":-6.369073,"i_long":106.831114,"time":2,"line":2,"is_transit":false}],[{"i_long":106.899548,"line":1,"i_lat":-6.2135,"transit":false,"station_name":"Klender","is_transit":false,"station_id":"KLD","time":0,"distance":0},{"transit":true,"station_id":"JNG","is_transit":true,"i_lat":-6.215091,"time":3,"line":1,"station_name":"Jatinegara","distance":3395,"i_long":106.86807400000001},{"station_name":"Pondok Jati","line":11,"distance":1236,"transit":false,"is_transit":false,"station_id":"POK","time":2,"i_lat":-6.209188,"i_long":106.861737},{"station_id":"KMT","line":11,"distance":1829,"i_lat":-6.193792,"transit":false,"is_transit":false,"i_long":106.855437,"time":2,"station_name":"Kramat"},{"station_name":"Gang Sentiong","i_long":106.850107,"i_lat":-6.185975,"time":1,"transit":false,"distance":973,"is_transit":false,"station_id":"GST","line":11},{"station_name":"Pasar Senen","i_lat":-6.174784,"i_long":106.84368,"is_transit":false,"line":11,"station_id":"PSE","time":8,"transit":false,"distance":1567},{"is_transit":false,"station_id":"KMO","i_long":106.839204,"i_lat":-6.161728,"transit":false,"time":4,"distance":1436,"line":11,"station_name":"Kemayoran"},{"i_lat":-6.14505,"distance":1901,"station_id":"RJW","station_name":"Rajawali","transit":false,"line":11,"i_long":106.836569,"is_transit":false,"time":5},{"time":3,"is_transit":true,"station_id":"KPB","station_name":"Kampung Bandan","distance":1444,"i_lat":-6.132549,"transit":true,"i_long":106.826365,"line":4},{"station_name":"Jakarta Kota","station_id":"JAKK","i_long":106.812439,"time":3,"i_lat":-6.137569,"line":2,"transit":true,"distance":1364,"is_transit":true},{"is_transit":false,"station_id":"JAY","transit":false,"i_lat":-6.141205,"i_long":106.820901,"distance":1264,"time":4,"station_name":"Jayakarta","line":2},{"i_lat":-6.149769,"line":2,"transit":false,"distance":1080,"station_name":"Manggabesar","is_transit":false,"time":2,"station_id":"MGB","i_long":106.82482},{"transit":false,"is_transit":false,"i_long":106.827103,"line":2,"distance":906,"station_id":"SW","i_lat":-6.160725,"time":2,"station_name":"Sawah Besar"},{"transit":false,"distance":1149,"i_long":106.828284,"time":2,"line":2,"station_id":"JUA","i_lat":-6.166716,"is_transit":false,"station_name":"Juanda"},{"station_name":"Gondangdia","station_id":"GDD","time":4,"is_transit":false,"transit":false,"i_lat":-6.186295,"i_long":106.832183,"line":2,"distance":2015},{"station_id":"CKI","time":3,"distance":1750,"is_transit":false,"line":2,"transit":false,"i_lat":-6.198556,"i_long":106.840169,"station_name":"Cikini"},{"transit":false,"time":4,"station_id":"MRI","distance":1590,"station_name":"Manggarai","is_transit":false,"i_long":106.84912,"line":2,"i_lat":-6.209883},{"is_transit":false,"station_name":"Tebet","i_lat":-6.226659,"transit":false,"i_long":106.857948,"line":2,"time":4,"station_id":"TEB","distance":2610},{"i_long":106.856607,"transit":false,"is_transit":false,"station_name":"Cawang","distance":1230,"line":2,"station_id":"CW","time":2,"i_lat":-6.242512},{"is_transit":false,"distance":1546,"i_lat":-6.255332,"i_long":106.85449,"time":3,"station_name":"Duren Kalibata","transit":false,"line":2,"station_id":"DRN"},{"transit":false,"line":2,"station_name":"Pasar Minggu Baru","i_long":106.851577,"station_id":"PSMB","time":2,"i_lat":-6.263214,"distance":824,"is_transit":false},{"i_long":106.843999,"station_id":"PSM","i_lat":-6.2842400000000005,"is_transit":false,"line":2,"distance":2380,"transit":false,"time":2,"station_name":"Pasar Minggu"},{"station_id":"TNT","station_name":"Tanjung Barat","line":2,"distance":2820,"transit":false,"is_transit":false,"i_lat":-6.3080680000000005,"i_long":106.838896,"time":4},{"station_id":"LNA","distance":2671,"is_transit":false,"i_lat":-6.330363,"i_long":106.832616,"transit":false,"station_name":"Lenteng Agung","time":3,"line":2},{"station_name":"Univ. Pancasila","transit":false,"is_transit":false,"i_lat":-6.339291,"line":2,"i_long":106.834175,"station_id":"UP","time":2,"distance":1029},{"station_id":"UI","line":2,"station_name":"Univ. Indonesia","transit":false,"is_transit":false,"time":3,"distance":2264,"i_lat":-6.360749,"i_long":106.831474},{"is_transit":false,"transit":false,"station_name":"Pondok Cina","i_lat":-6.369073,"i_long":106.831114,"time":2,"station_id":"POC","line":2,"distance":1109}]]}