{"data":[[{"time":0,"station_id":"KLD","line":1,"transit":false,"distance":0,"is_transit":false,"i_lat":-6.2135,"station_name":"Klender","i_long":106.899548},{"transit":false,"distance":3395,"i_lat":-6.215091,"i_long":106.86807400000001,"line":1,"is_transit":false,"station_id":"JNG","station_name":"Jatinegara","time":3},{"transit":false,"time":2,"i_lat":-6.212485,"i_long":106.858896,"station_id":"MTR","station_name":"Matraman","line":1,"distance":1377,"is_transit":false},{"time":2,"line":2,"transit":false,"i_long":106.84912,"distance":1275,"station_id":"MRI","is_transit":false,"i_lat":-6.209883,"station_name":"Manggarai"},{"i_lat":-6.202263,"i_long":106.822649,"is_transit":false,"line":1,"station_name":"Sudirman","time":4,"station_id":"SUD","distance":3186,"transit":false},{"station_name":"Sudirman Baru","distance":280,"is_transit":false,"i_lat":-6.201433,"time":1,"i_long":106.819881,"transit":false,"station_id":"SUDB","line":1},{"distance":471,"time":1,"station_name":"Karet","station_id":"KAT","transit":false,"i_long":106.816351,"line":1,"i_lat":-6.20132,"is_transit":false},{"i_lat":-6.185545,"station_id":"THB","i_long":106.811091,"distance":2029,"is_transit":true,"transit":true,"line":1,"station_name":"Tanah Abang","time":5},{"station_id":"PLM","distance":3191,"is_transit":false,"station_name":"Palmerah","time":6,"i_long":106.79689,"line":6,"i_lat":-6.207404,"transit":false},{"line":6,"i_long":106.780334,"time":7,"i_lat":-6.237242,"station_name":"Kebayoran","distance":3737,"is_transit":false,"station_id":"KBY","transit":false},{"i_lat":-6.276362,"distance":6218,"is_transit":false,"time":8,"i_long":106.74273,"transit":false,"station_id":"PDJ","station_name":"Pondokranji","line":6},{"transit":false,"line":6,"is_transit":false,"station_name":"Jurangmangu","time":3,"i_long":106.728916,"distance":2179,"i_lat":-6.288927,"station_id":"JMU"},{"station_name":"Sudimara","is_transit":false,"station_id":"SDM","i_lat":-6.296963,"transit":false,"i_long":106.712277,"distance":1994,"time":4,"line":6},{"i_long":106.675475,"line":6,"i_lat":-6.314823,"is_transit":false,"station_name":"Rawa Buntu","transit":false,"time":6,"station_id":"RU","distance":4566},{"is_transit":false,"i_lat":-6.319871,"station_id":"SRP","line":6,"distance":2413,"station_name":"Serpong","i_long":106.66566,"transit":false,"time":4},{"transit":false,"station_name":"Cisauk","i_lat":-6.32484,"is_transit":false,"station_id":"CSK","time":4,"i_long":106.640411,"distance":1784,"line":3},{"transit":false,"station_id":"CC","station_name":"Cicayur","line":3,"distance":2519,"is_transit":false,"i_lat":-6.329547,"time":4,"i_long":106.617853},{"i_lat":-6.3441410000000005,"station_name":"Parung Panjang","time":8,"station_id":"PRP","transit":false,"line":6,"i_long":106.568863,"distance":5968,"is_transit":false}],[{"i_lat":-6.2135,"station_name":"Klender","line":1,"is_transit":false,"time":0,"transit":false,"station_id":"KLD","i_long":106.899548,"distance":0},{"transit":true,"station_id":"JNG","i_lat":-6.215091,"station_name":"Jatinegara","distance":3395,"is_transit":true,"line":1,"time":3,"i_long":106.86807400000001},{"transit":false,"distance":1236,"line":11,"i_long":106.861737,"time":2,"station_name":"Pondok Jati","is_transit":false,"station_id":"POK","i_lat":-6.209188},{"time":2,"is_transit":false,"distance":1829,"i_lat":-6.193792,"station_name":"Kramat","transit":false,"line":11,"i_long":106.855437,"station_id":"KMT"},{"i_long":106.850107,"i_lat":-6.185975,"transit":false,"line":11,"time":1,"distance":973,"station_id":"GST","station_name":"Gang Sentiong","is_transit":false},{"distance":1567,"i_long":106.84368,"time":8,"station_id":"PSE","line":11,"station_name":"Pasar Senen","is_transit":false,"i_lat":-6.174784,"transit":false},{"is_transit":false,"transit":false,"i_lat":-6.161728,"line":11,"time":4,"station_id":"KMO","i_long":106.839204,"station_name":"Kemayoran","distance":1436},{"line":11,"distance":1901,"transit":false,"time":5,"station_id":"RJW","is_transit":false,"i_lat":-6.14505,"station_name":"Rajawali","i_long":106.836569},{"distance":1444,"time":3,"i_lat":-6.132549,"i_long":106.826365,"station_name":"Kampung Bandan","transit":true,"station_id":"KPB","is_transit":true,"line":4},{"is_transit":false,"i_lat":-6.144674,"station_name":"Angke","time":9,"station_id":"AK","transit":false,"i_long":106.79867,"line":1,"distance":4102},{"station_id":"DU","time":4,"i_lat":-6.155215,"is_transit":false,"i_long":106.800832,"distance":1230,"transit":false,"line":1,"station_name":"Duri"},{"transit":true,"i_lat":-6.185545,"distance":3632,"i_long":106.811091,"is_transit":true,"station_name":"Tanah Abang","station_id":"THB","line":1,"time":8},{"distance":3191,"line":6,"transit":false,"station_id":"PLM","time":6,"is_transit":false,"station_name":"Palmerah","i_lat":-6.207404,"i_long":106.79689},{"i_lat":-6.237242,"station_name":"Kebayoran","is_transit":false,"time":7,"transit":false,"station_id":"KBY","distance":3737,"line":6,"i_long":106.780334},{"i_lat":-6.276362,"is_transit":false,"station_name":"Pondokranji","line":6,"station_id":"PDJ","transit":false,"distance":6218,"time":8,"i_long":106.74273},{"time":3,"is_transit":false,"i_lat":-6.288927,"i_long":106.728916,"line":6,"transit":false,"station_id":"JMU","distance":2179,"station_name":"Jurangmangu"},{"transit":false,"line":6,"i_long":106.712277,"station_name":"Sudimara","station_id":"SDM","distance":1994,"is_transit":false,"i_lat":-6.296963,"time":4},{"i_lat":-6.314823,"station_name":"Rawa Buntu","station_id":"RU","transit":false,"i_long":106.675475,"line":6,"is_transit":false,"time":6,"distance":4566},{"is_transit":false,"i_long":106.66566,"station_id":"SRP","time":4,"distance":2413,"station_name":"Serpong","transit":false,"i_lat":-6.319871,"line":6},{"i_long":106.640411,"station_name":"Cisauk","transit":false,"time":4,"station_id":"CSK","distance":1784,"i_lat":-6.32484,"is_transit":false,"line":3},{"i_lat":-6.329547,"time":4,"distance":2519,"is_transit":false,"station_id":"CC","i_long":106.617853,"transit":false,"station_name":"Cicayur","line":3},{"i_lat":-6.3441410000000005,"time":8,"station_id":"PRP","station_name":"Parung Panjang","distance":5968,"transit":false,"i_long":106.568863,"line":6,"is_transit":false}],[{"distance":0,"line":1,"transit":false,"time":0,"is_transit":false,"i_lat":-6.2135,"i_long":106.899548,"station_name":"Klender","station_id":"KLD"},{"transit":false,"i_long":106.86807400000001,"line":1,"i_lat":-6.215091,"is_transit":false,"time":3,"station_id":"JNG","distance":3395,"station_name":"Jatinegara"},{"i_lat":-6.212485,"i_long":106.858896,"distance":1377,"time":2,"line":1,"transit":false,"station_id":"MTR","is_transit":false,"station_name":"Matraman"},{"distance":1275,"time":2,"i_long":106.84912,"line":2,"i_lat":-6.209883,"is_transit":true,"transit":true,"station_id":"MRI","station_name":"Manggarai"},{"i_lat":-6.198556,"is_transit":false,"i_long":106.840169,"station_id":"CKI","time":4,"distance":1590,"line":2,"station_name":"Cikini","transit":false},{"station_id":"GDD","i_long":106.832183,"transit":false,"time":3,"line":2,"station_name":"Gondangdia","i_lat":-6.186295,"distance":1750,"is_transit":false},{"station_name":"Juanda","i_long":106.828284,"transit":false,"line":2,"distance":2015,"i_lat":-6.166716,"station_id":"JUA","time":4,"is_transit":false},{"is_transit":false,"i_lat":-6.160725,"station_name":"Sawah Besar","station_id":"SW","line":2,"distance":1149,"i_long":106.827103,"time":2,"transit":false},{"time":2,"i_lat":-6.149769,"is_transit":false,"transit":false,"distance":906,"line":2,"station_id":"MGB","station_name":"Manggabesar","i_long":106.82482},{"line":2,"is_transit":false,"i_long":106.820901,"time":2,"station_id":"JAY","transit":false,"distance":1080,"i_lat":-6.141205,"station_name":"Jayakarta"},{"station_id":"JAKK","is_transit":true,"line":2,"distance":1264,"station_name":"Jakarta Kota","i_long":106.812439,"transit":true,"i_lat":-6.137569,"time":4},{"is_transit":true,"i_long":106.826365,"station_name":"Kampung Bandan","transit":true,"time":3,"i_lat":-6.132549,"line":4,"station_id":"KPB","distance":1364},{"station_name":"Angke","line":1,"time":9,"i_lat":-6.144674,"is_transit":false,"transit":false,"distance":4102,"station_id":"AK","i_long":106.79867},{"station_name":"Duri","distance":1230,"transit":false,"station_id":"DU","i_lat":-6.155215,"line":1,"is_transit":false,"time":4,"i_long":106.800832},{"line":1,"time":8,"i_long":106.811091,"transit":true,"is_transit":true,"station_name":"Tanah Abang","station_id":"THB","distance":3632,"i_lat":-6.185545},{"distance":3191,"station_id":"PLM","station_name":"Palmerah","transit":false,"i_long":106.79689,"i_lat":-6.207404,"time":6,"is_transit":false,"line":6},{"i_lat":-6.237242,"time":7,"station_name":"Kebayoran","station_id":"KBY","is_transit":false,"transit":false,"i_long":106.780334,"line":6,"distance":3737},{"i_lat":-6.276362,"time":8,"station_id":"PDJ","line":6,"transit":false,"distance":6218,"is_transit":false,"i_long":106.74273,"station_name":"Pondokranji"},{"transit":false,"distance":2179,"i_long":106.728916,"i_lat":-6.288927,"station_name":"Jurangmangu","line":6,"time":3,"station_id":"JMU","is_transit":false},{"time":4,"distance":1994,"line":6,"station_id":"SDM","station_name":"Sudimara","transit":false,"is_transit":false,"i_lat":-6.296963,"i_long":106.712277},{"distance":4566,"station_id":"RU","i_lat":-6.314823,"transit":false,"is_transit":false,"i_long":106.675475,"line":6,"station_name":"Rawa Buntu","time":6},{"i_long":106.66566,"line":6,"is_transit":false,"distance":2413,"transit":false,"time":4,"station_id":"SRP","i_lat":-6.319871,"station_name":"Serpong"},{"i_long":106.640411,"time":4,"transit":false,"distance":1784,"station_name":"Cisauk","i_lat":-6.32484,"station_id":"CSK","is_transit":false,"line":3},{"station_name":"Cicayur","time":4,"transit":false,"station_id":"CC","distance":2519,"is_transit":false,"line":3,"i_lat":-6.329547,"i_long":106.617853},{"station_name":"Parung Panjang","distance":5968,"time":8,"i_long":106.568863,"station_id":"PRP","is_transit":false,"i_lat":-6.3441410000000005,"transit":false,"line":6}],[{"station_name":"Klender","time":0,"station_id":"KLD","distance":0,"transit":false,"is_transit":false,"i_lat":-6.2135,"line":1,"i_long":106.899548},{"line":1,"station_name":"Jatinegara","i_lat":-6.215091,"is_transit":true,"station_id":"JNG","transit":true,"i_long":106.86807400000001,"time":3,"distance":3395},{"station_id":"POK","transit":false,"i_long":106.861737,"time":2,"line":11,"distance":1236,"is_transit":false,"i_lat":-6.209188,"station_name":"Pondok Jati"},{"transit":false,"station_name":"Kramat","distance":1829,"station_id":"KMT","is_transit":false,"time":2,"i_lat":-6.193792,"i_long":106.855437,"line":11},{"i_lat":-6.185975,"i_long":106.850107,"station_name":"Gang Sentiong","station_id":"GST","line":11,"is_transit":false,"distance":973,"transit":false,"time":1},{"distance":1567,"transit":false,"station_id":"PSE","station_name":"Pasar Senen","is_transit":false,"time":8,"i_lat":-6.174784,"i_long":106.84368,"line":11},{"station_name":"Kemayoran","time":4,"station_id":"KMO","distance":1436,"transit":false,"is_transit":false,"i_long":106.839204,"line":11,"i_lat":-6.161728},{"station_id":"RJW","time":5,"distance":1901,"is_transit":false,"line":11,"transit":false,"i_long":106.836569,"i_lat":-6.14505,"station_name":"Rajawali"},{"line":4,"i_long":106.826365,"station_name":"Kampung Bandan","time":3,"i_lat":-6.132549,"transit":true,"station_id":"KPB","distance":1444,"is_transit":true},{"transit":true,"station_id":"JAKK","is_transit":true,"distance":1364,"time":3,"i_lat":-6.137569,"station_name":"Jakarta Kota","i_long":106.812439,"line":2},{"i_long":106.820901,"line":2,"station_name":"Jayakarta","time":4,"transit":false,"is_transit":false,"i_lat":-6.141205,"station_id":"JAY","distance":1264},{"i_long":106.82482,"line":2,"is_transit":false,"station_name":"Manggabesar","station_id":"MGB","distance":1080,"time":2,"transit":false,"i_lat":-6.149769},{"time":2,"station_id":"SW","transit":false,"station_name":"Sawah Besar","distance":906,"is_transit":false,"i_lat":-6.160725,"i_long":106.827103,"line":2},{"distance":1149,"station_id":"JUA","transit":false,"line":2,"i_long":106.828284,"i_lat":-6.166716,"station_name":"Juanda","is_transit":false,"time":2},{"station_name":"Gondangdia","i_long":106.832183,"line":2,"station_id":"GDD","transit":false,"time":4,"is_transit":false,"distance":2015,"i_lat":-6.186295},{"time":3,"distance":1750,"is_transit":false,"i_lat":-6.198556,"i_long":106.840169,"station_name":"Cikini","transit":false,"station_id":"CKI","line":2},{"station_name":"Manggarai","i_long":106.84912,"transit":true,"i_lat":-6.209883,"is_transit":true,"line":2,"time":4,"station_id":"MRI","distance":1590},{"station_id":"SUD","i_long":106.822649,"line":1,"time":4,"transit":false,"station_name":"Sudirman","distance":3186,"is_transit":false,"i_lat":-6.202263},{"is_transit":false,"station_name":"Sudirman Baru","distance":280,"line":1,"time":1,"transit":false,"i_lat":-6.201433,"i_long":106.819881,"station_id":"SUDB"},{"distance":471,"transit":false,"is_transit":false,"time":1,"i_lat":-6.20132,"station_name":"Karet","station_id":"KAT","i_long":106.816351,"line":1},{"line":1,"transit":true,"distance":2029,"time":5,"station_name":"Tanah Abang","i_lat":-6.185545,"i_long":106.811091,"station_id":"THB","is_transit":true},{"time":6,"i_long":106.79689,"i_lat":-6.207404,"transit":false,"line":6,"distance":3191,"is_transit":false,"station_id":"PLM","station_name":"Palmerah"},{"i_lat":-6.237242,"time":7,"transit":false,"station_name":"Kebayoran","distance":3737,"i_long":106.780334,"is_transit":false,"line":6,"station_id":"KBY"},{"time":8,"transit":false,"station_id":"PDJ","is_transit":false,"i_lat":-6.276362,"station_name":"Pondokranji","i_long":106.74273,"line":6,"distance":6218},{"line":6,"transit":false,"time":3,"i_lat":-6.288927,"station_name":"Jurangmangu","station_id":"JMU","distance":2179,"is_transit":false,"i_long":106.728916},{"station_id":"SDM","time":4,"line":6,"i_long":106.712277,"transit":false,"station_name":"Sudimara","distance":1994,"i_lat":-6.296963,"is_transit":false},{"i_long":106.675475,"distance":4566,"is_transit":false,"i_lat":-6.314823,"line":6,"station_name":"Rawa Buntu","time":6,"transit":false,"station_id":"RU"},{"station_name":"Serpong","transit":false,"time":4,"i_long":106.66566,"line":6,"distance":2413,"is_transit":false,"i_lat":-6.319871,"station_id":"SRP"},{"distance":1784,"is_transit":false,"i_long":106.640411,"line":3,"i_lat":-6.32484,"transit":false,"station_name":"Cisauk","time":4,"station_id":"CSK"},{"distance":2519,"line":3,"station_id":"CC","is_transit":false,"station_name":"Cicayur","time":4,"transit":false,"i_long":106.617853,"i_lat":-6.329547},{"i_lat":-6.3441410000000005,"i_long":106.568863,"transit":false,"station_id":"PRP","time":8,"distance":5968,"is_transit":false,"station_name":"Parung Panjang","line":6}]]}