{"data":[[{"is_transit":false,"station_id":"KLD","distance":0,"station_name":"Klender","i_long":106.899548,"line":1,"transit":false,"time":0,"i_lat":-6.2135},{"distance":3395,"time":3,"is_transit":true,"transit":true,"line":0,"station_name":"Jatinegara","station_id":"JNG","i_lat":-6.215091,"i_long":106.86807400000001},{"i_lat":-6.209188,"is_transit":false,"transit":false,"station_name":"Pondok Jati","distance":1236,"i_long":106.861737,"line":11,"station_id":"POK","time":2},{"i_lat":-6.193792,"station_id":"KMT","time":2,"transit":false,"station_name":"Kramat","line":11,"is_transit":false,"i_long":106.855437,"distance":1829},{"time":1,"distance":973,"transit":false,"line":11,"is_transit":false,"i_lat":-6.185975,"i_long":106.850107,"station_id":"GST","station_name":"Gang Sentiong"},{"transit":false,"distance":1567,"time":8,"station_name":"Pasar Senen","i_lat":-6.174784,"station_id":"PSE","is_transit":false,"i_long":106.84368,"line":11},{"is_transit":false,"station_name":"Kemayoran","i_long":106.839204,"distance":1436,"time":4,"transit":false,"line":11,"station_id":"KMO","i_lat":-6.161728},{"station_name":"Rajawali","station_id":"RJW","is_transit":false,"i_lat":-6.14505,"line":11,"i_long":106.836569,"time":5,"distance":1901,"transit":false},{"distance":1444,"i_lat":-6.132549,"is_transit":true,"time":3,"station_name":"Kampung Bandan","transit":false,"station_id":"KPB","i_long":106.826365,"line":0}],[{"line":1,"station_id":"KLD","is_transit":false,"transit":false,"i_long":106.899548,"distance":0,"i_lat":-6.2135,"time":0,"station_name":"Klender"},{"time":3,"line":0,"station_name":"Jatinegara","distance":3395,"is_transit":true,"station_id":"JNG","transit":false,"i_lat":-6.215091,"i_long":106.86807400000001},{"is_transit":false,"line":1,"i_long":106.858896,"station_id":"MTR","transit":false,"station_name":"Matraman","time":2,"distance":1377,"i_lat":-6.212485},{"time":2,"transit":false,"i_long":106.84912,"i_lat":-6.209883,"line":0,"station_name":"Manggarai","station_id":"MRI","is_transit":true,"distance":1275},{"i_long":106.822649,"i_lat":-6.202263,"time":4,"is_transit":false,"line":1,"station_id":"SUD","distance":3186,"station_name":"Sudirman","transit":false},{"i_long":106.819881,"station_id":"SUDB","is_transit":false,"time":1,"distance":280,"transit":false,"line":1,"station_name":"Sudirman Baru","i_lat":-6.201433},{"line":1,"i_lat":-6.20132,"station_id":"KAT","transit":false,"is_transit":false,"distance":471,"station_name":"Karet","time":1,"i_long":106.816351},{"station_name":"Tanah Abang","line":1,"i_long":106.811091,"station_id":"THB","i_lat":-6.185545,"transit":false,"time":5,"is_transit":true,"distance":2029},{"station_name":"Duri","is_transit":true,"time":8,"transit":true,"station_id":"DU","distance":3632,"i_long":106.800832,"i_lat":-6.155215,"line":1},{"is_transit":false,"station_id":"AK","distance":1230,"time":4,"i_lat":-6.144674,"i_long":106.79867,"station_name":"Angke","transit":false,"line":0},{"time":9,"station_id":"KPB","i_long":106.826365,"is_transit":true,"distance":4102,"i_lat":-6.132549,"station_name":"Kampung Bandan","transit":false,"line":0}],[{"is_transit":false,"time":0,"distance":0,"i_lat":-6.2135,"station_id":"KLD","transit":false,"station_name":"Klender","line":1,"i_long":106.899548},{"time":3,"distance":3395,"station_name":"Jatinegara","line":0,"transit":false,"i_lat":-6.215091,"station_id":"JNG","is_transit":true,"i_long":106.86807400000001},{"station_id":"MTR","transit":false,"time":2,"station_name":"Matraman","i_lat":-6.212485,"is_transit":false,"distance":1377,"i_long":106.858896,"line":1},{"i_lat":-6.209883,"time":2,"distance":1275,"transit":true,"i_long":106.84912,"is_transit":true,"station_id":"MRI","line":0,"station_name":"Manggarai"},{"is_transit":false,"time":4,"station_id":"CKI","line":0,"transit":false,"distance":1590,"station_name":"Cikini","i_lat":-6.198556,"i_long":106.840169},{"transit":false,"i_long":106.832183,"station_name":"Gondangdia","i_lat":-6.186295,"time":3,"distance":1750,"line":2,"is_transit":false,"station_id":"GDD"},{"station_id":"JUA","i_lat":-6.166716,"line":2,"time":4,"station_name":"Juanda","distance":2015,"is_transit":false,"i_long":106.828284,"transit":false},{"distance":1149,"is_transit":false,"station_id":"SW","i_long":106.827103,"station_name":"Sawah Besar","time":2,"line":2,"transit":false,"i_lat":-6.160725},{"distance":906,"time":2,"line":2,"station_name":"Manggabesar","i_lat":-6.149769,"i_long":106.82482,"station_id":"MGB","is_transit":false,"transit":false},{"is_transit":false,"station_id":"JAY","time":2,"i_lat":-6.141205,"distance":1080,"i_long":106.820901,"station_name":"Jayakarta","line":7,"transit":false},{"time":4,"distance":1264,"station_name":"Jakarta Kota","station_id":"JAKK","is_transit":true,"transit":true,"i_lat":-6.137569,"line":0,"i_long":106.812439},{"i_long":106.826365,"transit":false,"line":0,"station_id":"KPB","time":3,"distance":1364,"is_transit":true,"i_lat":-6.132549,"station_name":"Kampung Bandan"}]]}