{"data":[[{"time":0,"station_name":"Klender","i_long":106.899548,"line":1,"station_id":"KLD","is_transit":false,"distance":0,"i_lat":-6.2135,"transit":false},{"is_transit":false,"station_name":"Buaran","line":1,"station_id":"BUA","i_long":106.922662,"time":2,"transit":false,"i_lat":-6.215568,"distance":3100},{"time":1,"i_lat":-6.217455,"i_long":106.939679,"is_transit":false,"distance":1305,"line":1,"station_id":"KLDB","station_name":"Klenderbaru","transit":false},{"station_id":"CUK","i_long":106.951283,"line":1,"i_lat":-6.219053,"transit":false,"station_name":"Cakung","distance":1385,"is_transit":false,"time":8},{"station_id":"KRI","time":3,"i_lat":-6.224515,"i_long":106.977657,"line":1,"is_transit":false,"station_name":"Kranji","distance":3097,"transit":false}]]}