{"data":[[{"distance":0,"i_lat":-6.2135,"time":0,"station_id":"KLD","is_transit":false,"transit":false,"i_long":106.899548,"station_name":"Klender","line":1},{"distance":3395,"station_id":"JNG","i_lat":-6.215091,"i_long":106.86807400000001,"station_name":"Jatinegara","is_transit":false,"line":1,"transit":false,"time":3},{"i_long":106.858896,"i_lat":-6.212485,"line":1,"is_transit":false,"time":2,"distance":1377,"transit":false,"station_name":"Matraman","station_id":"MTR"},{"station_id":"MRI","time":2,"is_transit":true,"i_long":106.84912,"transit":true,"station_name":"Manggarai","i_lat":-6.209883,"line":2,"distance":1275},{"i_long":106.857948,"station_id":"TEB","is_transit":false,"station_name":"Tebet","distance":2610,"i_lat":-6.226659,"transit":false,"line":2,"time":4},{"station_id":"CW","distance":1230,"line":2,"is_transit":false,"i_lat":-6.242512,"transit":false,"station_name":"Cawang","time":2,"i_long":106.856607},{"station_id":"DRN","is_transit":false,"transit":false,"i_long":106.85449,"distance":1546,"time":3,"station_name":"Duren Kalibata","i_lat":-6.255332,"line":2},{"station_id":"PSMB","station_name":"Pasar Minggu Baru","transit":false,"distance":824,"i_lat":-6.263214,"line":2,"time":2,"is_transit":false,"i_long":106.851577},{"line":2,"is_transit":false,"distance":2380,"i_lat":-6.2842400000000005,"station_name":"Pasar Minggu","time":2,"i_long":106.843999,"transit":false,"station_id":"PSM"},{"is_transit":false,"i_lat":-6.3080680000000005,"transit":false,"distance":2820,"i_long":106.838896,"line":2,"station_name":"Tanjung Barat","station_id":"TNT","time":4},{"transit":false,"distance":2671,"line":2,"station_id":"LNA","station_name":"Lenteng Agung","i_lat":-6.330363,"time":3,"i_long":106.832616,"is_transit":false},{"time":2,"is_transit":false,"i_long":106.834175,"station_id":"UP","station_name":"Univ. Pancasila","transit":false,"distance":1029,"i_lat":-6.339291,"line":2},{"line":2,"time":3,"distance":2264,"is_transit":false,"i_lat":-6.360749,"station_name":"Univ. Indonesia","i_long":106.831474,"transit":false,"station_id":"UI"},{"time":2,"line":2,"station_id":"POC","i_long":106.831114,"is_transit":false,"station_name":"Pondok Cina","transit":false,"i_lat":-6.369073,"distance":1109}],[{"station_id":"KLD","i_long":106.899548,"transit":false,"time":0,"station_name":"Klender","distance":0,"i_lat":-6.2135,"is_transit":false,"line":1},{"line":1,"distance":3395,"station_name":"Jatinegara","time":3,"station_id":"JNG","transit":true,"i_long":106.86807400000001,"is_transit":true,"i_lat":-6.215091},{"time":2,"is_transit":false,"station_name":"Pondok Jati","i_lat":-6.209188,"station_id":"POK","transit":false,"distance":1236,"line":11,"i_long":106.861737},{"transit":false,"station_name":"Kramat","is_transit":false,"distance":1829,"i_lat":-6.193792,"i_long":106.855437,"line":11,"time":2,"station_id":"KMT"},{"transit":false,"i_long":106.850107,"distance":973,"station_name":"Gang Sentiong","station_id":"GST","time":1,"line":11,"i_lat":-6.185975,"is_transit":false},{"distance":1567,"line":11,"transit":false,"i_long":106.84368,"is_transit":false,"station_id":"PSE","time":8,"station_name":"Pasar Senen","i_lat":-6.174784},{"station_name":"Kemayoran","distance":1436,"i_lat":-6.161728,"i_long":106.839204,"station_id":"KMO","time":4,"line":11,"is_transit":false,"transit":false},{"station_id":"RJW","i_long":106.836569,"station_name":"Rajawali","distance":1901,"transit":false,"line":11,"i_lat":-6.14505,"time":5,"is_transit":false},{"line":4,"is_transit":true,"transit":true,"station_name":"Kampung Bandan","station_id":"KPB","i_lat":-6.132549,"time":3,"i_long":106.826365,"distance":1444},{"time":9,"line":1,"is_transit":false,"station_name":"Angke","station_id":"AK","distance":4102,"i_long":106.79867,"transit":false,"i_lat":-6.144674},{"i_long":106.800832,"station_name":"Duri","transit":false,"time":4,"is_transit":false,"distance":1230,"line":1,"station_id":"DU","i_lat":-6.155215},{"time":8,"is_transit":false,"line":1,"i_lat":-6.185545,"transit":false,"distance":3632,"station_id":"THB","station_name":"Tanah Abang","i_long":106.811091},{"station_name":"Karet","i_lat":-6.20132,"transit":false,"distance":2029,"station_id":"KAT","line":1,"i_long":106.816351,"time":5,"is_transit":false},{"station_id":"SUDB","distance":471,"i_long":106.819881,"is_transit":false,"transit":false,"line":1,"station_name":"Sudirman Baru","time":1,"i_lat":-6.201433},{"transit":false,"is_transit":false,"time":1,"i_long":106.822649,"line":1,"station_id":"SUD","station_name":"Sudirman","distance":280,"i_lat":-6.202263},{"i_lat":-6.209883,"line":2,"distance":3186,"station_name":"Manggarai","time":4,"station_id":"MRI","is_transit":true,"i_long":106.84912,"transit":true},{"i_long":106.857948,"i_lat":-6.226659,"station_name":"Tebet","station_id":"TEB","transit":false,"is_transit":false,"time":4,"distance":2610,"line":2},{"distance":1230,"is_transit":false,"i_lat":-6.242512,"line":2,"station_id":"CW","time":2,"i_long":106.856607,"transit":false,"station_name":"Cawang"},{"line":2,"i_long":106.85449,"transit":false,"i_lat":-6.255332,"station_id":"DRN","station_name":"Duren Kalibata","time":3,"distance":1546,"is_transit":false},{"station_id":"PSMB","station_name":"Pasar Minggu Baru","line":2,"i_lat":-6.263214,"is_transit":false,"transit":false,"time":2,"distance":824,"i_long":106.851577},{"time":2,"line":2,"station_id":"PSM","i_long":106.843999,"transit":false,"station_name":"Pasar Minggu","distance":2380,"is_transit":false,"i_lat":-6.2842400000000005},{"time":4,"station_id":"TNT","line":2,"is_transit":false,"i_lat":-6.3080680000000005,"station_name":"Tanjung Barat","distance":2820,"transit":false,"i_long":106.838896},{"time":3,"distance":2671,"is_transit":false,"station_id":"LNA","i_long":106.832616,"transit":false,"station_name":"Lenteng Agung","line":2,"i_lat":-6.330363},{"station_name":"Univ. Pancasila","distance":1029,"station_id":"UP","i_long":106.834175,"time":2,"line":2,"is_transit":false,"i_lat":-6.339291,"transit":false},{"i_long":106.831474,"time":3,"distance":2264,"station_name":"Univ. Indonesia","line":2,"transit":false,"i_lat":-6.360749,"station_id":"UI","is_transit":false},{"transit":false,"station_name":"Pondok Cina","station_id":"POC","is_transit":false,"line":2,"i_lat":-6.369073,"i_long":106.831114,"time":2,"distance":1109}],[{"distance":0,"is_transit":false,"line":1,"i_lat":-6.2135,"station_name":"Klender","time":0,"i_long":106.899548,"station_id":"KLD","transit":false},{"station_name":"Jatinegara","time":3,"is_transit":true,"distance":3395,"i_lat":-6.215091,"station_id":"JNG","line":1,"i_long":106.86807400000001,"transit":true},{"distance":1236,"station_id":"POK","station_name":"Pondok Jati","is_transit":false,"i_long":106.861737,"line":11,"time":2,"transit":false,"i_lat":-6.209188},{"transit":false,"distance":1829,"station_name":"Kramat","station_id":"KMT","is_transit":false,"i_long":106.855437,"line":11,"time":2,"i_lat":-6.193792},{"i_long":106.850107,"line":11,"transit":false,"station_id":"GST","station_name":"Gang Sentiong","time":1,"distance":973,"i_lat":-6.185975,"is_transit":false},{"station_id":"PSE","i_lat":-6.174784,"is_transit":false,"transit":false,"distance":1567,"station_name":"Pasar Senen","time":8,"i_long":106.84368,"line":11},{"line":11,"i_lat":-6.161728,"transit":false,"is_transit":false,"i_long":106.839204,"station_name":"Kemayoran","station_id":"KMO","time":4,"distance":1436},{"station_name":"Rajawali","time":5,"distance":1901,"line":11,"station_id":"RJW","is_transit":false,"i_lat":-6.14505,"i_long":106.836569,"transit":false},{"time":3,"station_id":"KPB","distance":1444,"line":4,"is_transit":true,"i_lat":-6.132549,"i_long":106.826365,"transit":true,"station_name":"Kampung Bandan"},{"line":2,"distance":1364,"station_id":"JAKK","transit":true,"time":3,"is_transit":true,"i_lat":-6.137569,"station_name":"Jakarta Kota","i_long":106.812439},{"distance":1264,"station_name":"Jayakarta","i_lat":-6.141205,"transit":false,"line":2,"i_long":106.820901,"station_id":"JAY","is_transit":false,"time":4},{"i_lat":-6.149769,"line":2,"transit":false,"time":2,"is_transit":false,"station_id":"MGB","station_name":"Manggabesar","distance":1080,"i_long":106.82482},{"line":2,"is_transit":false,"transit":false,"time":2,"station_id":"SW","i_lat":-6.160725,"i_long":106.827103,"station_name":"Sawah Besar","distance":906},{"line":2,"time":2,"is_transit":false,"station_id":"JUA","transit":false,"distance":1149,"i_long":106.828284,"i_lat":-6.166716,"station_name":"Juanda"},{"station_name":"Gondangdia","transit":false,"station_id":"GDD","time":4,"is_transit":false,"i_lat":-6.186295,"i_long":106.832183,"line":2,"distance":2015},{"transit":false,"station_name":"Cikini","is_transit":false,"i_lat":-6.198556,"distance":1750,"i_long":106.840169,"line":2,"time":3,"station_id":"CKI"},{"time":4,"station_name":"Manggarai","transit":false,"is_transit":false,"i_long":106.84912,"station_id":"MRI","line":2,"i_lat":-6.209883,"distance":1590},{"transit":false,"station_name":"Tebet","time":4,"is_transit":false,"station_id":"TEB","i_long":106.857948,"i_lat":-6.226659,"line":2,"distance":2610},{"i_long":106.856607,"station_name":"Cawang","is_transit":false,"time":2,"distance":1230,"station_id":"CW","line":2,"i_lat":-6.242512,"transit":false},{"is_transit":false,"transit":false,"station_name":"Duren Kalibata","line":2,"i_lat":-6.255332,"i_long":106.85449,"distance":1546,"station_id":"DRN","time":3},{"station_name":"Pasar Minggu Baru","transit":false,"time":2,"line":2,"i_lat":-6.263214,"distance":824,"station_id":"PSMB","i_long":106.851577,"is_transit":false},{"i_lat":-6.2842400000000005,"time":2,"transit":false,"line":2,"station_id":"PSM","is_transit":false,"distance":2380,"i_long":106.843999,"station_name":"Pasar Minggu"},{"station_id":"TNT","time":4,"line":2,"i_lat":-6.3080680000000005,"distance":2820,"station_name":"Tanjung Barat","transit":false,"is_transit":false,"i_long":106.838896},{"line":2,"station_name":"Lenteng Agung","i_lat":-6.330363,"time":3,"i_long":106.832616,"transit":false,"distance":2671,"is_transit":false,"station_id":"LNA"},{"line":2,"distance":1029,"i_lat":-6.339291,"time":2,"transit":false,"is_transit":false,"i_long":106.834175,"station_name":"Univ. Pancasila","station_id":"UP"},{"is_transit":false,"i_lat":-6.360749,"i_long":106.831474,"station_id":"UI","station_name":"Univ. Indonesia","line":2,"transit":false,"time":3,"distance":2264},{"transit":false,"time":2,"i_lat":-6.369073,"i_long":106.831114,"station_name":"Pondok Cina","is_transit":false,"line":2,"distance":1109,"station_id":"POC"}]]}