{"data":[[{"is_transit":false,"transit":false,"station_name":"Klender","time":0,"distance":0,"line":1,"station_id":"KLD","i_lat":-6.2135,"i_long":106.899548},{"line":1,"station_name":"Jatinegara","i_long":106.86807400000001,"station_id":"JNG","transit":false,"time":3,"distance":3395,"i_lat":-6.215091,"is_transit":false},{"time":2,"station_id":"MTR","i_lat":-6.212485,"station_name":"Matraman","distance":1377,"i_long":106.858896,"line":1,"transit":false,"is_transit":false},{"transit":true,"station_id":"MRI","is_transit":true,"station_name":"Manggarai","i_lat":-6.209883,"distance":1275,"time":2,"line":2,"i_long":106.84912},{"i_long":106.840169,"time":4,"transit":false,"station_id":"CKI","is_transit":false,"distance":1590,"line":2,"station_name":"Cikini","i_lat":-6.198556},{"i_lat":-6.186295,"is_transit":false,"transit":false,"station_id":"GDD","station_name":"Gondangdia","distance":1750,"line":2,"i_long":106.832183,"time":3},{"transit":false,"station_id":"JUA","i_lat":-6.166716,"time":4,"station_name":"Juanda","is_transit":false,"distance":2015,"i_long":106.828284,"line":2},{"station_id":"SW","is_transit":false,"time":2,"distance":1149,"line":2,"station_name":"Sawah Besar","i_long":106.827103,"transit":false,"i_lat":-6.160725},{"station_id":"MGB","is_transit":false,"transit":false,"i_long":106.82482,"line":2,"time":2,"station_name":"Manggabesar","i_lat":-6.149769,"distance":906}],[{"station_name":"Klender","i_lat":-6.2135,"line":1,"i_long":106.899548,"distance":0,"is_transit":false,"transit":false,"station_id":"KLD","time":0},{"i_lat":-6.215091,"station_id":"JNG","station_name":"Jatinegara","distance":3395,"time":3,"i_long":106.86807400000001,"line":1,"transit":true,"is_transit":true},{"station_name":"Pondok Jati","distance":1236,"line":11,"station_id":"POK","time":2,"i_lat":-6.209188,"i_long":106.861737,"is_transit":false,"transit":false},{"time":2,"distance":1829,"is_transit":false,"i_long":106.855437,"line":11,"station_name":"Kramat","station_id":"KMT","i_lat":-6.193792,"transit":false},{"transit":false,"time":1,"distance":973,"i_long":106.850107,"station_name":"Gang Sentiong","station_id":"GST","is_transit":false,"i_lat":-6.185975,"line":11},{"i_lat":-6.174784,"transit":false,"station_name":"Pasar Senen","station_id":"PSE","distance":1567,"is_transit":false,"line":11,"i_long":106.84368,"time":8},{"transit":false,"distance":1436,"station_name":"Kemayoran","station_id":"KMO","time":4,"i_lat":-6.161728,"is_transit":false,"line":11,"i_long":106.839204},{"i_long":106.836569,"line":11,"station_name":"Rajawali","i_lat":-6.14505,"transit":false,"station_id":"RJW","is_transit":false,"time":5,"distance":1901},{"distance":1444,"line":4,"station_name":"Kampung Bandan","station_id":"KPB","transit":true,"time":3,"i_lat":-6.132549,"i_long":106.826365,"is_transit":true},{"i_lat":-6.137569,"is_transit":true,"distance":1364,"time":3,"i_long":106.812439,"station_name":"Jakarta Kota","line":2,"station_id":"JAKK","transit":true},{"station_id":"JAY","station_name":"Jayakarta","distance":1264,"is_transit":false,"i_lat":-6.141205,"time":4,"line":2,"i_long":106.820901,"transit":false},{"transit":false,"time":2,"i_lat":-6.149769,"distance":1080,"i_long":106.82482,"is_transit":false,"station_id":"MGB","line":2,"station_name":"Manggabesar"}],[{"i_long":106.899548,"time":0,"distance":0,"station_id":"KLD","transit":false,"line":1,"station_name":"Klender","is_transit":false,"i_lat":-6.2135},{"station_name":"Jatinegara","station_id":"JNG","time":3,"i_long":106.86807400000001,"line":1,"is_transit":false,"i_lat":-6.215091,"transit":false,"distance":3395},{"i_lat":-6.212485,"is_transit":false,"station_name":"Matraman","distance":1377,"station_id":"MTR","i_long":106.858896,"line":1,"transit":false,"time":2},{"transit":false,"station_name":"Manggarai","is_transit":false,"i_long":106.84912,"line":2,"station_id":"MRI","distance":1275,"i_lat":-6.209883,"time":2},{"i_long":106.822649,"station_id":"SUD","is_transit":false,"transit":false,"station_name":"Sudirman","line":1,"time":4,"distance":3186,"i_lat":-6.202263},{"distance":280,"station_id":"SUDB","is_transit":false,"station_name":"Sudirman Baru","line":1,"transit":false,"time":1,"i_lat":-6.201433,"i_long":106.819881},{"i_lat":-6.20132,"transit":false,"station_name":"Karet","station_id":"KAT","i_long":106.816351,"distance":471,"is_transit":false,"time":1,"line":1},{"station_id":"THB","time":5,"i_long":106.811091,"station_name":"Tanah Abang","line":1,"transit":false,"distance":2029,"is_transit":false,"i_lat":-6.185545},{"i_long":106.800832,"station_id":"DU","i_lat":-6.155215,"distance":3632,"station_name":"Duri","time":8,"is_transit":false,"transit":false,"line":1},{"time":4,"i_lat":-6.144674,"transit":false,"station_id":"AK","station_name":"Angke","i_long":106.79867,"is_transit":false,"line":1,"distance":1230},{"station_name":"Kampung Bandan","i_long":106.826365,"transit":true,"station_id":"KPB","is_transit":true,"distance":4102,"time":9,"line":4,"i_lat":-6.132549},{"is_transit":true,"transit":true,"distance":1364,"station_id":"JAKK","i_lat":-6.137569,"time":3,"line":2,"i_long":106.812439,"station_name":"Jakarta Kota"},{"time":4,"i_long":106.820901,"i_lat":-6.141205,"is_transit":false,"station_name":"Jayakarta","distance":1264,"transit":false,"station_id":"JAY","line":2},{"time":2,"line":2,"distance":1080,"transit":false,"station_name":"Manggabesar","is_transit":false,"i_lat":-6.149769,"station_id":"MGB","i_long":106.82482}],[{"station_name":"Klender","distance":0,"line":1,"time":0,"i_lat":-6.2135,"transit":false,"is_transit":false,"i_long":106.899548,"station_id":"KLD"},{"station_name":"Jatinegara","station_id":"JNG","time":3,"transit":true,"distance":3395,"i_lat":-6.215091,"i_long":106.86807400000001,"line":1,"is_transit":true},{"i_lat":-6.209188,"station_name":"Pondok Jati","distance":1236,"i_long":106.861737,"station_id":"POK","time":2,"line":11,"is_transit":false,"transit":false},{"transit":false,"is_transit":false,"i_long":106.855437,"time":2,"station_name":"Kramat","station_id":"KMT","i_lat":-6.193792,"distance":1829,"line":11},{"i_long":106.850107,"transit":false,"i_lat":-6.185975,"station_id":"GST","line":11,"is_transit":false,"time":1,"distance":973,"station_name":"Gang Sentiong"},{"distance":1567,"line":11,"time":8,"i_lat":-6.174784,"i_long":106.84368,"station_name":"Pasar Senen","transit":false,"station_id":"PSE","is_transit":false},{"distance":1436,"i_long":106.839204,"transit":false,"station_name":"Kemayoran","line":11,"station_id":"KMO","i_lat":-6.161728,"is_transit":false,"time":4},{"station_name":"Rajawali","line":11,"station_id":"RJW","is_transit":false,"transit":false,"i_lat":-6.14505,"distance":1901,"i_long":106.836569,"time":5},{"distance":1444,"time":3,"i_long":106.826365,"transit":true,"station_id":"KPB","is_transit":true,"i_lat":-6.132549,"line":4,"station_name":"Kampung Bandan"},{"is_transit":false,"station_name":"Angke","station_id":"AK","time":9,"i_long":106.79867,"transit":false,"distance":4102,"i_lat":-6.144674,"line":1},{"station_name":"Duri","line":1,"is_transit":false,"distance":1230,"time":4,"i_long":106.800832,"i_lat":-6.155215,"transit":false,"station_id":"DU"},{"i_lat":-6.185545,"i_long":106.811091,"time":8,"line":1,"distance":3632,"station_id":"THB","station_name":"Tanah Abang","is_transit":false,"transit":false},{"i_lat":-6.20132,"line":1,"is_transit":false,"i_long":106.816351,"station_id":"KAT","station_name":"Karet","time":5,"transit":false,"distance":2029},{"i_lat":-6.201433,"station_id":"SUDB","station_name":"Sudirman Baru","time":1,"line":1,"is_transit":false,"i_long":106.819881,"transit":false,"distance":471},{"station_name":"Sudirman","is_transit":false,"time":1,"i_lat":-6.202263,"line":1,"transit":false,"i_long":106.822649,"distance":280,"station_id":"SUD"},{"transit":true,"is_transit":true,"time":4,"distance":3186,"i_lat":-6.209883,"station_id":"MRI","i_long":106.84912,"line":2,"station_name":"Manggarai"},{"is_transit":false,"transit":false,"distance":1590,"i_long":106.840169,"time":4,"i_lat":-6.198556,"station_id":"CKI","station_name":"Cikini","line":2},{"transit":false,"station_name":"Gondangdia","distance":1750,"line":2,"i_long":106.832183,"is_transit":false,"time":3,"i_lat":-6.186295,"station_id":"GDD"},{"is_transit":false,"station_name":"Juanda","time":4,"line":2,"station_id":"JUA","transit":false,"i_lat":-6.166716,"distance":2015,"i_long":106.828284},{"i_long":106.827103,"station_name":"Sawah Besar","station_id":"SW","is_transit":false,"distance":1149,"time":2,"transit":false,"line":2,"i_lat":-6.160725},{"line":2,"i_lat":-6.149769,"is_transit":false,"transit":false,"distance":906,"i_long":106.82482,"station_name":"Manggabesar","time":2,"station_id":"MGB"}]]}