{"data":[[{"station_name":"Klender","i_lat":-6.2135,"distance":0,"is_transit":false,"station_id":"KLD","i_long":106.899548,"time":0,"transit":false,"line":1},{"time":3,"station_name":"Jatinegara","transit":false,"i_long":106.86807400000001,"i_lat":-6.215091,"distance":3395,"station_id":"JNG","is_transit":false,"line":1},{"transit":false,"station_name":"Matraman","line":1,"time":2,"i_lat":-6.212485,"is_transit":false,"i_long":106.858896,"station_id":"MTR","distance":1377},{"is_transit":true,"distance":1275,"station_name":"Manggarai","station_id":"MRI","i_lat":-6.209883,"i_long":106.84912,"time":2,"line":2,"transit":true},{"is_transit":false,"i_lat":-6.226659,"i_long":106.857948,"station_name":"Tebet","line":2,"distance":2610,"station_id":"TEB","time":4,"transit":false},{"is_transit":false,"distance":1230,"station_id":"CW","station_name":"Cawang","transit":false,"i_lat":-6.242512,"i_long":106.856607,"line":2,"time":2},{"is_transit":false,"time":3,"i_long":106.85449,"distance":1546,"station_id":"DRN","station_name":"Duren Kalibata","transit":false,"line":2,"i_lat":-6.255332},{"station_id":"PSMB","transit":false,"time":2,"i_long":106.851577,"distance":824,"line":2,"i_lat":-6.263214,"is_transit":false,"station_name":"Pasar Minggu Baru"},{"distance":2380,"is_transit":false,"station_name":"Pasar Minggu","i_long":106.843999,"line":2,"station_id":"PSM","transit":false,"time":2,"i_lat":-6.2842400000000005},{"distance":2820,"i_lat":-6.3080680000000005,"line":2,"time":4,"transit":false,"is_transit":false,"i_long":106.838896,"station_name":"Tanjung Barat","station_id":"TNT"},{"station_id":"LNA","transit":false,"station_name":"Lenteng Agung","line":2,"i_long":106.832616,"distance":2671,"i_lat":-6.330363,"is_transit":false,"time":3},{"distance":1029,"line":2,"station_name":"Univ. Pancasila","station_id":"UP","time":2,"i_long":106.834175,"transit":false,"is_transit":false,"i_lat":-6.339291},{"i_lat":-6.360749,"station_id":"UI","line":2,"distance":2264,"time":3,"i_long":106.831474,"station_name":"Univ. Indonesia","transit":false,"is_transit":false},{"line":2,"station_id":"POC","time":2,"distance":1109,"is_transit":false,"station_name":"Pondok Cina","transit":false,"i_lat":-6.369073,"i_long":106.831114},{"i_lat":-6.391065,"time":4,"distance":2727,"station_id":"DPB","is_transit":false,"line":2,"station_name":"Depokbaru","transit":false,"i_long":106.819451},{"distance":1584,"transit":false,"i_long":106.816926,"time":3,"station_id":"DP","station_name":"Depok","is_transit":false,"line":2,"i_lat":-6.405256},{"time":6,"station_name":"Citayam","line":2,"distance":5084,"station_id":"CTA","i_long":106.800298,"i_lat":-6.448811,"is_transit":false,"transit":false},{"station_name":"Bojonggede","time":5,"distance":5197,"station_id":"BJD","line":2,"i_lat":-6.493243,"i_long":106.792719,"transit":false,"is_transit":false},{"distance":4331,"transit":false,"i_long":106.800016,"is_transit":false,"station_name":"Cilebut","i_lat":-6.530544,"line":2,"time":5,"station_id":"CLT"}],[{"i_long":106.899548,"is_transit":false,"transit":false,"distance":0,"line":1,"i_lat":-6.2135,"time":0,"station_name":"Klender","station_id":"KLD"},{"i_long":106.86807400000001,"station_name":"Jatinegara","is_transit":true,"i_lat":-6.215091,"transit":true,"time":3,"line":1,"distance":3395,"station_id":"JNG"},{"line":11,"is_transit":false,"station_name":"Pondok Jati","station_id":"POK","i_long":106.861737,"i_lat":-6.209188,"time":2,"distance":1236,"transit":false},{"distance":1829,"station_id":"KMT","is_transit":false,"i_long":106.855437,"transit":false,"time":2,"i_lat":-6.193792,"station_name":"Kramat","line":11},{"is_transit":false,"i_lat":-6.185975,"i_long":106.850107,"time":1,"transit":false,"station_name":"Gang Sentiong","distance":973,"station_id":"GST","line":11},{"line":11,"i_long":106.84368,"is_transit":false,"station_name":"Pasar Senen","i_lat":-6.174784,"time":8,"station_id":"PSE","distance":1567,"transit":false},{"distance":1436,"time":4,"transit":false,"i_long":106.839204,"line":11,"station_name":"Kemayoran","is_transit":false,"i_lat":-6.161728,"station_id":"KMO"},{"i_lat":-6.14505,"i_long":106.836569,"is_transit":false,"transit":false,"distance":1901,"station_name":"Rajawali","line":11,"station_id":"RJW","time":5},{"distance":1444,"is_transit":true,"i_lat":-6.132549,"i_long":106.826365,"transit":true,"time":3,"station_name":"Kampung Bandan","station_id":"KPB","line":4},{"distance":4102,"line":1,"station_name":"Angke","i_long":106.79867,"is_transit":false,"transit":false,"station_id":"AK","i_lat":-6.144674,"time":9},{"distance":1230,"i_long":106.800832,"station_name":"Duri","transit":false,"i_lat":-6.155215,"line":1,"time":4,"station_id":"DU","is_transit":false},{"transit":false,"station_name":"Tanah Abang","line":1,"station_id":"THB","i_long":106.811091,"i_lat":-6.185545,"distance":3632,"time":8,"is_transit":false},{"i_long":106.816351,"line":1,"time":5,"transit":false,"station_name":"Karet","is_transit":false,"i_lat":-6.20132,"distance":2029,"station_id":"KAT"},{"line":1,"station_id":"SUDB","i_long":106.819881,"time":1,"distance":471,"is_transit":false,"i_lat":-6.201433,"transit":false,"station_name":"Sudirman Baru"},{"station_name":"Sudirman","distance":280,"line":1,"i_long":106.822649,"transit":false,"is_transit":false,"i_lat":-6.202263,"station_id":"SUD","time":1},{"transit":true,"distance":3186,"is_transit":true,"station_id":"MRI","station_name":"Manggarai","i_lat":-6.209883,"i_long":106.84912,"line":2,"time":4},{"transit":false,"is_transit":false,"station_name":"Tebet","line":2,"i_long":106.857948,"time":4,"station_id":"TEB","distance":2610,"i_lat":-6.226659},{"i_long":106.856607,"station_id":"CW","line":2,"i_lat":-6.242512,"transit":false,"distance":1230,"is_transit":false,"station_name":"Cawang","time":2},{"station_id":"DRN","i_long":106.85449,"i_lat":-6.255332,"transit":false,"distance":1546,"time":3,"is_transit":false,"line":2,"station_name":"Duren Kalibata"},{"time":2,"i_lat":-6.263214,"line":2,"station_id":"PSMB","transit":false,"i_long":106.851577,"is_transit":false,"distance":824,"station_name":"Pasar Minggu Baru"},{"station_id":"PSM","i_long":106.843999,"is_transit":false,"i_lat":-6.2842400000000005,"line":2,"distance":2380,"transit":false,"station_name":"Pasar Minggu","time":2},{"station_name":"Tanjung Barat","line":2,"transit":false,"i_lat":-6.3080680000000005,"time":4,"i_long":106.838896,"is_transit":false,"distance":2820,"station_id":"TNT"},{"line":2,"i_lat":-6.330363,"distance":2671,"is_transit":false,"station_name":"Lenteng Agung","time":3,"i_long":106.832616,"station_id":"LNA","transit":false},{"i_long":106.834175,"distance":1029,"station_id":"UP","i_lat":-6.339291,"is_transit":false,"transit":false,"time":2,"station_name":"Univ. Pancasila","line":2},{"station_id":"UI","transit":false,"is_transit":false,"i_long":106.831474,"line":2,"i_lat":-6.360749,"time":3,"distance":2264,"station_name":"Univ. Indonesia"},{"time":2,"i_long":106.831114,"line":2,"station_id":"POC","station_name":"Pondok Cina","transit":false,"distance":1109,"is_transit":false,"i_lat":-6.369073},{"station_name":"Depokbaru","i_lat":-6.391065,"distance":2727,"station_id":"DPB","transit":false,"line":2,"time":4,"i_long":106.819451,"is_transit":false},{"station_name":"Depok","is_transit":false,"station_id":"DP","transit":false,"i_lat":-6.405256,"time":3,"line":2,"i_long":106.816926,"distance":1584},{"time":6,"i_long":106.800298,"station_id":"CTA","station_name":"Citayam","is_transit":false,"i_lat":-6.448811,"line":2,"distance":5084,"transit":false},{"transit":false,"distance":5197,"is_transit":false,"i_long":106.792719,"line":2,"station_name":"Bojonggede","i_lat":-6.493243,"station_id":"BJD","time":5},{"distance":4331,"station_name":"Cilebut","i_lat":-6.530544,"i_long":106.800016,"transit":false,"is_transit":false,"station_id":"CLT","line":2,"time":5}],[{"transit":false,"station_id":"KLD","i_long":106.899548,"distance":0,"station_name":"Klender","time":0,"i_lat":-6.2135,"is_transit":false,"line":1},{"station_name":"Jatinegara","distance":3395,"i_lat":-6.215091,"i_long":106.86807400000001,"transit":true,"is_transit":true,"time":3,"station_id":"JNG","line":1},{"distance":1236,"is_transit":false,"station_name":"Pondok Jati","time":2,"i_lat":-6.209188,"station_id":"POK","i_long":106.861737,"transit":false,"line":11},{"is_transit":false,"time":2,"i_lat":-6.193792,"line":11,"distance":1829,"station_id":"KMT","station_name":"Kramat","transit":false,"i_long":106.855437},{"is_transit":false,"i_long":106.850107,"line":11,"station_id":"GST","time":1,"transit":false,"station_name":"Gang Sentiong","i_lat":-6.185975,"distance":973},{"transit":false,"station_id":"PSE","distance":1567,"is_transit":false,"time":8,"i_lat":-6.174784,"i_long":106.84368,"station_name":"Pasar Senen","line":11},{"station_name":"Kemayoran","station_id":"KMO","i_long":106.839204,"is_transit":false,"time":4,"distance":1436,"line":11,"transit":false,"i_lat":-6.161728},{"transit":false,"station_id":"RJW","line":11,"distance":1901,"station_name":"Rajawali","time":5,"is_transit":false,"i_lat":-6.14505,"i_long":106.836569},{"station_name":"Kampung Bandan","transit":true,"distance":1444,"time":3,"line":4,"is_transit":true,"i_lat":-6.132549,"i_long":106.826365,"station_id":"KPB"},{"station_id":"JAKK","is_transit":true,"distance":1364,"transit":true,"station_name":"Jakarta Kota","time":3,"i_lat":-6.137569,"i_long":106.812439,"line":2},{"is_transit":false,"i_long":106.820901,"station_id":"JAY","transit":false,"time":4,"i_lat":-6.141205,"distance":1264,"line":2,"station_name":"Jayakarta"},{"time":2,"distance":1080,"i_lat":-6.149769,"i_long":106.82482,"is_transit":false,"transit":false,"station_id":"MGB","station_name":"Manggabesar","line":2},{"i_lat":-6.160725,"transit":false,"station_name":"Sawah Besar","station_id":"SW","line":2,"time":2,"is_transit":false,"i_long":106.827103,"distance":906},{"station_name":"Juanda","i_long":106.828284,"line":2,"is_transit":false,"distance":1149,"station_id":"JUA","i_lat":-6.166716,"time":2,"transit":false},{"station_id":"GDD","i_lat":-6.186295,"i_long":106.832183,"time":4,"line":2,"station_name":"Gondangdia","transit":false,"is_transit":false,"distance":2015},{"transit":false,"i_lat":-6.198556,"i_long":106.840169,"line":2,"distance":1750,"time":3,"is_transit":false,"station_id":"CKI","station_name":"Cikini"},{"distance":1590,"station_name":"Manggarai","i_long":106.84912,"station_id":"MRI","is_transit":false,"i_lat":-6.209883,"transit":false,"line":2,"time":4},{"distance":2610,"station_name":"Tebet","is_transit":false,"i_long":106.857948,"i_lat":-6.226659,"station_id":"TEB","time":4,"transit":false,"line":2},{"station_name":"Cawang","distance":1230,"i_lat":-6.242512,"time":2,"i_long":106.856607,"is_transit":false,"line":2,"transit":false,"station_id":"CW"},{"i_lat":-6.255332,"is_transit":false,"line":2,"time":3,"station_id":"DRN","i_long":106.85449,"transit":false,"station_name":"Duren Kalibata","distance":1546},{"station_id":"PSMB","time":2,"distance":824,"transit":false,"i_long":106.851577,"i_lat":-6.263214,"line":2,"is_transit":false,"station_name":"Pasar Minggu Baru"},{"distance":2380,"is_transit":false,"station_name":"Pasar Minggu","station_id":"PSM","transit":false,"i_lat":-6.2842400000000005,"i_long":106.843999,"time":2,"line":2},{"is_transit":false,"time":4,"station_id":"TNT","line":2,"distance":2820,"station_name":"Tanjung Barat","i_long":106.838896,"i_lat":-6.3080680000000005,"transit":false},{"i_lat":-6.330363,"transit":false,"station_id":"LNA","station_name":"Lenteng Agung","i_long":106.832616,"line":2,"distance":2671,"is_transit":false,"time":3},{"transit":false,"time":2,"i_lat":-6.339291,"station_id":"UP","station_name":"Univ. Pancasila","is_transit":false,"i_long":106.834175,"line":2,"distance":1029},{"transit":false,"station_name":"Univ. Indonesia","line":2,"station_id":"UI","i_long":106.831474,"distance":2264,"is_transit":false,"time":3,"i_lat":-6.360749},{"transit":false,"i_lat":-6.369073,"line":2,"station_name":"Pondok Cina","distance":1109,"station_id":"POC","i_long":106.831114,"is_transit":false,"time":2},{"station_id":"DPB","i_lat":-6.391065,"is_transit":false,"distance":2727,"time":4,"transit":false,"line":2,"station_name":"Depokbaru","i_long":106.819451},{"station_id":"DP","is_transit":false,"distance":1584,"transit":false,"station_name":"Depok","i_lat":-6.405256,"line":2,"i_long":106.816926,"time":3},{"is_transit":false,"line":2,"time":6,"station_id":"CTA","transit":false,"station_name":"Citayam","i_lat":-6.448811,"i_long":106.800298,"distance":5084},{"i_long":106.792719,"distance":5197,"station_id":"BJD","transit":false,"i_lat":-6.493243,"is_transit":false,"line":2,"station_name":"Bojonggede","time":5},{"station_id":"CLT","i_lat":-6.530544,"time":5,"line":2,"is_transit":false,"transit":false,"i_long":106.800016,"station_name":"Cilebut","distance":4331}]]}