{"data":[[{"is_transit":false,"transit":false,"distance":0,"i_long":106.899548,"i_lat":-6.2135,"time":0,"line":1,"station_name":"Klender","station_id":"KLD"},{"transit":false,"is_transit":false,"station_id":"JNG","time":3,"i_lat":-6.215091,"line":1,"distance":3395,"station_name":"Jatinegara","i_long":106.86807400000001},{"line":1,"station_name":"Matraman","is_transit":false,"i_lat":-6.212485,"distance":1377,"time":2,"station_id":"MTR","i_long":106.858896,"transit":false},{"line":2,"i_lat":-6.209883,"distance":1275,"transit":true,"station_id":"MRI","station_name":"Manggarai","is_transit":true,"time":2,"i_long":106.84912},{"i_lat":-6.198556,"station_name":"Cikini","station_id":"CKI","distance":1590,"line":2,"i_long":106.840169,"transit":false,"is_transit":false,"time":4}],[{"is_transit":false,"station_id":"KLD","station_name":"Klender","time":0,"transit":false,"line":1,"distance":0,"i_lat":-6.2135,"i_long":106.899548},{"station_name":"Jatinegara","time":3,"line":1,"i_long":106.86807400000001,"distance":3395,"i_lat":-6.215091,"is_transit":true,"transit":true,"station_id":"JNG"},{"is_transit":false,"line":11,"i_lat":-6.209188,"station_id":"POK","station_name":"Pondok Jati","transit":false,"distance":1236,"i_long":106.861737,"time":2},{"station_name":"Kramat","distance":1829,"i_lat":-6.193792,"line":11,"time":2,"is_transit":false,"station_id":"KMT","i_long":106.855437,"transit":false},{"line":11,"i_lat":-6.185975,"time":1,"transit":false,"station_id":"GST","station_name":"Gang Sentiong","is_transit":false,"distance":973,"i_long":106.850107},{"time":8,"station_name":"Pasar Senen","transit":false,"distance":1567,"i_long":106.84368,"line":11,"is_transit":false,"i_lat":-6.174784,"station_id":"PSE"},{"i_lat":-6.161728,"station_id":"KMO","is_transit":false,"distance":1436,"line":11,"transit":false,"station_name":"Kemayoran","time":4,"i_long":106.839204},{"transit":false,"station_id":"RJW","i_long":106.836569,"distance":1901,"time":5,"line":11,"is_transit":false,"i_lat":-6.14505,"station_name":"Rajawali"},{"i_long":106.826365,"distance":1444,"line":4,"i_lat":-6.132549,"time":3,"is_transit":true,"transit":true,"station_id":"KPB","station_name":"Kampung Bandan"},{"station_name":"Jakarta Kota","i_long":106.812439,"is_transit":true,"transit":true,"time":3,"distance":1364,"i_lat":-6.137569,"line":2,"station_id":"JAKK"},{"transit":false,"station_id":"JAY","time":4,"is_transit":false,"distance":1264,"i_lat":-6.141205,"station_name":"Jayakarta","i_long":106.820901,"line":2},{"is_transit":false,"i_long":106.82482,"transit":false,"station_name":"Manggabesar","time":2,"distance":1080,"line":2,"i_lat":-6.149769,"station_id":"MGB"},{"distance":906,"is_transit":false,"i_lat":-6.160725,"transit":false,"i_long":106.827103,"station_name":"Sawah Besar","station_id":"SW","line":2,"time":2},{"station_id":"JUA","is_transit":false,"i_long":106.828284,"station_name":"Juanda","line":2,"transit":false,"i_lat":-6.166716,"time":2,"distance":1149},{"distance":2015,"station_id":"GDD","time":4,"i_lat":-6.186295,"i_long":106.832183,"transit":false,"line":2,"is_transit":false,"station_name":"Gondangdia"},{"station_id":"CKI","time":3,"is_transit":false,"line":2,"i_long":106.840169,"i_lat":-6.198556,"transit":false,"station_name":"Cikini","distance":1750}],[{"is_transit":false,"time":0,"distance":0,"station_name":"Klender","i_lat":-6.2135,"station_id":"KLD","line":1,"transit":false,"i_long":106.899548},{"i_lat":-6.215091,"transit":true,"is_transit":true,"i_long":106.86807400000001,"station_id":"JNG","distance":3395,"line":1,"station_name":"Jatinegara","time":3},{"station_id":"POK","transit":false,"i_lat":-6.209188,"station_name":"Pondok Jati","is_transit":false,"time":2,"i_long":106.861737,"distance":1236,"line":11},{"line":11,"station_id":"KMT","i_long":106.855437,"transit":false,"distance":1829,"is_transit":false,"i_lat":-6.193792,"station_name":"Kramat","time":2},{"station_name":"Gang Sentiong","station_id":"GST","line":11,"is_transit":false,"distance":973,"i_long":106.850107,"transit":false,"time":1,"i_lat":-6.185975},{"i_long":106.84368,"line":11,"transit":false,"station_id":"PSE","i_lat":-6.174784,"time":8,"is_transit":false,"station_name":"Pasar Senen","distance":1567},{"time":4,"station_id":"KMO","distance":1436,"transit":false,"station_name":"Kemayoran","line":11,"is_transit":false,"i_lat":-6.161728,"i_long":106.839204},{"is_transit":false,"distance":1901,"station_id":"RJW","time":5,"line":11,"i_lat":-6.14505,"station_name":"Rajawali","transit":false,"i_long":106.836569},{"time":3,"distance":1444,"station_id":"KPB","transit":true,"station_name":"Kampung Bandan","is_transit":true,"i_lat":-6.132549,"i_long":106.826365,"line":4},{"is_transit":false,"i_lat":-6.144674,"line":1,"time":9,"transit":false,"station_id":"AK","distance":4102,"i_long":106.79867,"station_name":"Angke"},{"station_name":"Duri","is_transit":false,"time":4,"distance":1230,"i_lat":-6.155215,"transit":false,"i_long":106.800832,"station_id":"DU","line":1},{"transit":false,"time":8,"distance":3632,"i_lat":-6.185545,"line":1,"is_transit":false,"station_name":"Tanah Abang","station_id":"THB","i_long":106.811091},{"is_transit":false,"distance":2029,"i_lat":-6.20132,"time":5,"line":1,"transit":false,"station_name":"Karet","station_id":"KAT","i_long":106.816351},{"distance":471,"i_long":106.819881,"transit":false,"time":1,"station_name":"Sudirman Baru","line":1,"i_lat":-6.201433,"station_id":"SUDB","is_transit":false},{"time":1,"i_lat":-6.202263,"station_id":"SUD","transit":false,"is_transit":false,"i_long":106.822649,"line":1,"distance":280,"station_name":"Sudirman"},{"distance":3186,"is_transit":true,"line":2,"transit":true,"station_id":"MRI","i_lat":-6.209883,"i_long":106.84912,"station_name":"Manggarai","time":4},{"station_id":"CKI","distance":1590,"line":2,"time":4,"i_lat":-6.198556,"i_long":106.840169,"is_transit":false,"transit":false,"station_name":"Cikini"}],[{"time":0,"station_name":"Klender","i_long":106.899548,"transit":false,"station_id":"KLD","is_transit":false,"i_lat":-6.2135,"distance":0,"line":1},{"station_id":"JNG","station_name":"Jatinegara","time":3,"i_long":106.86807400000001,"transit":false,"line":1,"i_lat":-6.215091,"is_transit":false,"distance":3395},{"distance":1377,"i_long":106.858896,"is_transit":false,"line":1,"station_id":"MTR","time":2,"i_lat":-6.212485,"station_name":"Matraman","transit":false},{"i_long":106.84912,"transit":false,"line":2,"distance":1275,"station_name":"Manggarai","time":2,"i_lat":-6.209883,"station_id":"MRI","is_transit":false},{"is_transit":false,"line":1,"transit":false,"station_name":"Sudirman","station_id":"SUD","time":4,"i_long":106.822649,"i_lat":-6.202263,"distance":3186},{"station_id":"SUDB","line":1,"i_lat":-6.201433,"transit":false,"station_name":"Sudirman Baru","time":1,"is_transit":false,"distance":280,"i_long":106.819881},{"is_transit":false,"distance":471,"time":1,"i_long":106.816351,"transit":false,"station_name":"Karet","station_id":"KAT","i_lat":-6.20132,"line":1},{"time":5,"i_lat":-6.185545,"station_id":"THB","transit":false,"is_transit":false,"i_long":106.811091,"station_name":"Tanah Abang","line":1,"distance":2029},{"i_long":106.800832,"station_name":"Duri","transit":false,"line":1,"station_id":"DU","is_transit":false,"time":8,"distance":3632,"i_lat":-6.155215},{"time":4,"station_id":"AK","transit":false,"station_name":"Angke","i_lat":-6.144674,"is_transit":false,"i_long":106.79867,"line":1,"distance":1230},{"i_long":106.826365,"station_name":"Kampung Bandan","line":4,"station_id":"KPB","transit":true,"distance":4102,"i_lat":-6.132549,"is_transit":true,"time":9},{"station_name":"Jakarta Kota","station_id":"JAKK","is_transit":true,"time":3,"distance":1364,"line":2,"i_lat":-6.137569,"i_long":106.812439,"transit":true},{"distance":1264,"is_transit":false,"station_id":"JAY","i_lat":-6.141205,"line":2,"time":4,"transit":false,"station_name":"Jayakarta","i_long":106.820901},{"transit":false,"time":2,"i_long":106.82482,"line":2,"station_name":"Manggabesar","distance":1080,"is_transit":false,"i_lat":-6.149769,"station_id":"MGB"},{"station_id":"SW","distance":906,"i_long":106.827103,"transit":false,"line":2,"time":2,"i_lat":-6.160725,"station_name":"Sawah Besar","is_transit":false},{"i_lat":-6.166716,"i_long":106.828284,"station_id":"JUA","is_transit":false,"line":2,"time":2,"transit":false,"station_name":"Juanda","distance":1149},{"i_lat":-6.186295,"i_long":106.832183,"line":2,"distance":2015,"time":4,"transit":false,"station_name":"Gondangdia","station_id":"GDD","is_transit":false},{"station_id":"CKI","station_name":"Cikini","distance":1750,"is_transit":false,"i_lat":-6.198556,"time":3,"line":2,"i_long":106.840169,"transit":false}]]}