{"data":[[{"i_lat":-6.2135,"distance":0,"transit":false,"is_transit":false,"i_long":106.899548,"line":1,"time":0,"station_name":"Klender","station_id":"KLD"},{"i_lat":-6.215091,"transit":true,"line":1,"i_long":106.86807400000001,"time":3,"station_name":"Jatinegara","distance":3395,"station_id":"JNG","is_transit":true},{"is_transit":false,"i_lat":-6.209188,"distance":1236,"station_id":"POK","time":2,"station_name":"Pondok Jati","transit":false,"i_long":106.861737,"line":11},{"line":11,"station_name":"Kramat","i_lat":-6.193792,"transit":false,"i_long":106.855437,"is_transit":false,"station_id":"KMT","time":2,"distance":1829},{"time":1,"i_long":106.850107,"station_name":"Gang Sentiong","transit":false,"station_id":"GST","i_lat":-6.185975,"is_transit":false,"distance":973,"line":11},{"line":11,"time":8,"i_lat":-6.174784,"distance":1567,"station_id":"PSE","is_transit":false,"transit":false,"station_name":"Pasar Senen","i_long":106.84368},{"i_lat":-6.161728,"line":11,"station_id":"KMO","distance":1436,"transit":false,"i_long":106.839204,"time":4,"is_transit":false,"station_name":"Kemayoran"},{"station_id":"RJW","i_long":106.836569,"station_name":"Rajawali","i_lat":-6.14505,"distance":1901,"transit":false,"time":5,"line":11,"is_transit":false},{"distance":1444,"station_id":"KPB","i_long":106.826365,"time":3,"transit":false,"is_transit":false,"i_lat":-6.132549,"station_name":"Kampung Bandan","line":4}],[{"station_name":"Klender","transit":false,"i_lat":-6.2135,"line":1,"time":0,"is_transit":false,"station_id":"KLD","i_long":106.899548,"distance":0},{"station_name":"Jatinegara","i_lat":-6.215091,"transit":false,"is_transit":false,"i_long":106.86807400000001,"time":3,"distance":3395,"line":1,"station_id":"JNG"},{"i_long":106.858896,"i_lat":-6.212485,"station_name":"Matraman","line":1,"transit":false,"distance":1377,"station_id":"MTR","time":2,"is_transit":false},{"time":2,"station_id":"MRI","distance":1275,"station_name":"Manggarai","i_lat":-6.209883,"line":2,"transit":false,"is_transit":false,"i_long":106.84912},{"i_long":106.822649,"time":4,"transit":false,"is_transit":false,"station_name":"Sudirman","distance":3186,"station_id":"SUD","line":1,"i_lat":-6.202263},{"transit":false,"is_transit":false,"i_lat":-6.201433,"time":1,"station_id":"SUDB","station_name":"Sudirman Baru","distance":280,"i_long":106.819881,"line":1},{"i_lat":-6.20132,"station_name":"Karet","station_id":"KAT","distance":471,"i_long":106.816351,"time":1,"transit":false,"line":1,"is_transit":false},{"transit":false,"line":1,"distance":2029,"i_lat":-6.185545,"is_transit":false,"time":5,"station_id":"THB","station_name":"Tanah Abang","i_long":106.811091},{"distance":3632,"i_lat":-6.155215,"transit":false,"time":8,"is_transit":false,"i_long":106.800832,"station_name":"Duri","line":1,"station_id":"DU"},{"i_lat":-6.144674,"i_long":106.79867,"transit":false,"line":1,"time":4,"station_name":"Angke","distance":1230,"station_id":"AK","is_transit":false},{"is_transit":false,"time":9,"station_name":"Kampung Bandan","distance":4102,"i_lat":-6.132549,"line":4,"i_long":106.826365,"transit":false,"station_id":"KPB"}],[{"i_long":106.899548,"station_id":"KLD","station_name":"Klender","time":0,"i_lat":-6.2135,"distance":0,"transit":false,"is_transit":false,"line":1},{"i_lat":-6.215091,"is_transit":false,"i_long":106.86807400000001,"transit":false,"station_id":"JNG","time":3,"station_name":"Jatinegara","distance":3395,"line":1},{"line":1,"i_long":106.858896,"i_lat":-6.212485,"distance":1377,"transit":false,"station_name":"Matraman","station_id":"MTR","time":2,"is_transit":false},{"i_lat":-6.209883,"line":2,"station_name":"Manggarai","station_id":"MRI","distance":1275,"transit":true,"i_long":106.84912,"time":2,"is_transit":true},{"transit":false,"station_id":"CKI","is_transit":false,"time":4,"station_name":"Cikini","i_lat":-6.198556,"line":2,"distance":1590,"i_long":106.840169},{"distance":1750,"station_id":"GDD","station_name":"Gondangdia","i_long":106.832183,"line":2,"transit":false,"is_transit":false,"time":3,"i_lat":-6.186295},{"station_name":"Juanda","station_id":"JUA","is_transit":false,"i_lat":-6.166716,"distance":2015,"time":4,"i_long":106.828284,"transit":false,"line":2},{"station_name":"Sawah Besar","i_long":106.827103,"time":2,"station_id":"SW","transit":false,"line":2,"i_lat":-6.160725,"is_transit":false,"distance":1149},{"station_id":"MGB","station_name":"Manggabesar","time":2,"distance":906,"line":2,"transit":false,"is_transit":false,"i_lat":-6.149769,"i_long":106.82482},{"i_lat":-6.141205,"transit":false,"time":2,"line":2,"is_transit":false,"i_long":106.820901,"station_name":"Jayakarta","distance":1080,"station_id":"JAY"},{"is_transit":true,"i_lat":-6.137569,"station_name":"Jakarta Kota","transit":true,"distance":1264,"station_id":"JAKK","i_long":106.812439,"line":2,"time":4},{"i_lat":-6.132549,"line":4,"distance":1364,"i_long":106.826365,"is_transit":false,"station_name":"Kampung Bandan","transit":false,"station_id":"KPB","time":3}]]}