{"data":[[{"transit":false,"i_long":106.899548,"is_transit":false,"time":0,"i_lat":-6.2135,"line":1,"station_name":"Klender","distance":0,"station_id":"KLD"},{"i_long":106.86807400000001,"station_id":"JNG","transit":false,"line":0,"station_name":"Jatinegara","is_transit":true,"distance":3395,"time":3,"i_lat":-6.215091},{"station_id":"MTR","time":2,"i_long":106.858896,"is_transit":false,"line":1,"station_name":"Matraman","distance":1377,"i_lat":-6.212485,"transit":false},{"line":0,"transit":false,"station_name":"Manggarai","time":2,"distance":1275,"station_id":"MRI","is_transit":true,"i_lat":-6.209883,"i_long":106.84912},{"station_id":"SUD","line":1,"time":4,"station_name":"Sudirman","transit":false,"distance":3186,"is_transit":false,"i_lat":-6.202263,"i_long":106.822649},{"station_name":"Sudirman Baru","i_long":106.819881,"distance":280,"time":1,"transit":false,"is_transit":false,"i_lat":-6.201433,"line":1,"station_id":"SUDB"},{"line":1,"station_id":"KAT","transit":false,"station_name":"Karet","i_long":106.816351,"is_transit":false,"time":1,"distance":471,"i_lat":-6.20132},{"i_long":106.811091,"transit":true,"is_transit":true,"station_id":"THB","time":5,"station_name":"Tanah Abang","i_lat":-6.185545,"distance":2029,"line":1},{"station_name":"Palmerah","i_lat":-6.207404,"distance":3191,"transit":false,"i_long":106.79689,"station_id":"PLM","is_transit":false,"line":6,"time":6},{"time":7,"transit":false,"distance":3737,"line":6,"station_id":"KBY","station_name":"Kebayoran","is_transit":false,"i_lat":-6.237242,"i_long":106.780334},{"station_name":"Pondokranji","transit":false,"line":6,"is_transit":false,"station_id":"PDJ","i_long":106.74273,"time":8,"i_lat":-6.276362,"distance":6218},{"is_transit":false,"time":3,"transit":false,"distance":2179,"station_id":"JMU","i_long":106.728916,"i_lat":-6.288927,"station_name":"Jurangmangu","line":6},{"i_long":106.712277,"line":6,"transit":false,"station_name":"Sudimara","is_transit":false,"station_id":"SDM","time":4,"distance":1994,"i_lat":-6.296963},{"time":6,"line":6,"station_name":"Rawa Buntu","transit":false,"station_id":"RU","i_lat":-6.314823,"is_transit":false,"distance":4566,"i_long":106.675475},{"transit":false,"is_transit":false,"line":6,"station_name":"Serpong","i_lat":-6.319871,"i_long":106.66566,"distance":2413,"time":4,"station_id":"SRP"},{"i_long":106.640411,"is_transit":false,"transit":false,"line":0,"i_lat":-6.32484,"station_id":"CSK","station_name":"Cisauk","time":4,"distance":1784},{"i_lat":-6.329547,"i_long":106.617853,"is_transit":false,"station_name":"Cicayur","time":4,"distance":2519,"transit":false,"line":0,"station_id":"CC"},{"time":8,"station_name":"Parung Panjang","is_transit":false,"transit":false,"station_id":"PRP","line":6,"i_lat":-6.3441410000000005,"i_long":106.568863,"distance":5968},{"station_name":"Cilejit","station_id":"CJT","time":9,"i_long":106.508482,"transit":false,"is_transit":false,"line":0,"distance":7025,"i_lat":-6.354349},{"station_id":"DAR","is_transit":false,"distance":2675,"transit":false,"station_name":"Daru","i_lat":-6.338021,"i_long":106.491338,"time":6,"line":0},{"is_transit":false,"station_id":"TEJ","time":5,"transit":false,"i_long":106.460812,"station_name":"Tenjo","distance":3902,"i_lat":-6.327251,"line":6}],[{"i_long":106.899548,"line":1,"distance":0,"is_transit":false,"station_name":"Klender","station_id":"KLD","time":0,"transit":false,"i_lat":-6.2135},{"line":0,"station_id":"JNG","station_name":"Jatinegara","transit":true,"is_transit":true,"distance":3395,"i_lat":-6.215091,"time":3,"i_long":106.86807400000001},{"distance":1236,"station_name":"Pondok Jati","line":11,"station_id":"POK","transit":false,"is_transit":false,"time":2,"i_long":106.861737,"i_lat":-6.209188},{"station_id":"KMT","i_long":106.855437,"line":11,"i_lat":-6.193792,"transit":false,"time":2,"distance":1829,"station_name":"Kramat","is_transit":false},{"station_name":"Gang Sentiong","transit":false,"station_id":"GST","time":1,"distance":973,"i_long":106.850107,"i_lat":-6.185975,"line":11,"is_transit":false},{"is_transit":false,"distance":1567,"i_lat":-6.174784,"i_long":106.84368,"time":8,"line":11,"station_id":"PSE","transit":false,"station_name":"Pasar Senen"},{"is_transit":false,"i_long":106.839204,"line":11,"transit":false,"station_name":"Kemayoran","i_lat":-6.161728,"station_id":"KMO","time":4,"distance":1436},{"transit":false,"distance":1901,"station_id":"RJW","station_name":"Rajawali","is_transit":false,"line":11,"time":5,"i_lat":-6.14505,"i_long":106.836569},{"time":3,"i_long":106.826365,"i_lat":-6.132549,"station_id":"KPB","is_transit":true,"distance":1444,"line":0,"station_name":"Kampung Bandan","transit":true},{"line":0,"station_name":"Angke","i_lat":-6.144674,"distance":4102,"time":9,"station_id":"AK","i_long":106.79867,"transit":false,"is_transit":false},{"line":1,"i_long":106.800832,"time":4,"is_transit":true,"distance":1230,"station_id":"DU","transit":true,"station_name":"Duri","i_lat":-6.155215},{"distance":3632,"station_id":"THB","time":8,"station_name":"Tanah Abang","transit":true,"i_lat":-6.185545,"i_long":106.811091,"line":1,"is_transit":true},{"station_id":"PLM","station_name":"Palmerah","transit":false,"i_lat":-6.207404,"i_long":106.79689,"line":6,"is_transit":false,"time":6,"distance":3191},{"line":6,"transit":false,"station_name":"Kebayoran","i_long":106.780334,"station_id":"KBY","distance":3737,"is_transit":false,"time":7,"i_lat":-6.237242},{"station_id":"PDJ","i_long":106.74273,"line":6,"transit":false,"station_name":"Pondokranji","distance":6218,"is_transit":false,"i_lat":-6.276362,"time":8},{"station_name":"Jurangmangu","line":6,"i_lat":-6.288927,"transit":false,"station_id":"JMU","is_transit":false,"time":3,"distance":2179,"i_long":106.728916},{"station_name":"Sudimara","time":4,"transit":false,"station_id":"SDM","i_lat":-6.296963,"is_transit":false,"distance":1994,"line":6,"i_long":106.712277},{"i_lat":-6.314823,"i_long":106.675475,"transit":false,"is_transit":false,"station_name":"Rawa Buntu","line":6,"station_id":"RU","time":6,"distance":4566},{"is_transit":false,"time":4,"line":6,"station_id":"SRP","i_lat":-6.319871,"i_long":106.66566,"distance":2413,"station_name":"Serpong","transit":false},{"station_id":"CSK","station_name":"Cisauk","i_lat":-6.32484,"line":0,"i_long":106.640411,"is_transit":false,"time":4,"transit":false,"distance":1784},{"i_lat":-6.329547,"is_transit":false,"time":4,"station_id":"CC","station_name":"Cicayur","distance":2519,"i_long":106.617853,"line":0,"transit":false},{"distance":5968,"transit":false,"i_lat":-6.3441410000000005,"i_long":106.568863,"line":6,"station_id":"PRP","time":8,"is_transit":false,"station_name":"Parung Panjang"},{"is_transit":false,"i_long":106.508482,"time":9,"station_name":"Cilejit","distance":7025,"transit":false,"line":0,"i_lat":-6.354349,"station_id":"CJT"},{"station_id":"DAR","transit":false,"station_name":"Daru","is_transit":false,"time":6,"distance":2675,"i_lat":-6.338021,"i_long":106.491338,"line":0},{"transit":false,"i_lat":-6.327251,"i_long":106.460812,"distance":3902,"line":6,"station_name":"Tenjo","is_transit":false,"time":5,"station_id":"TEJ"}],[{"i_lat":-6.2135,"station_name":"Klender","line":1,"time":0,"is_transit":false,"distance":0,"transit":false,"station_id":"KLD","i_long":106.899548},{"is_transit":true,"transit":false,"line":0,"i_long":106.86807400000001,"station_id":"JNG","time":3,"i_lat":-6.215091,"distance":3395,"station_name":"Jatinegara"},{"station_name":"Matraman","is_transit":false,"distance":1377,"i_lat":-6.212485,"transit":false,"time":2,"i_long":106.858896,"line":1,"station_id":"MTR"},{"i_long":106.84912,"time":2,"i_lat":-6.209883,"station_id":"MRI","is_transit":true,"distance":1275,"transit":true,"station_name":"Manggarai","line":0},{"time":4,"line":0,"is_transit":false,"station_name":"Cikini","transit":false,"i_long":106.840169,"station_id":"CKI","distance":1590,"i_lat":-6.198556},{"i_long":106.832183,"station_id":"GDD","distance":1750,"is_transit":false,"station_name":"Gondangdia","line":2,"transit":false,"i_lat":-6.186295,"time":3},{"is_transit":false,"station_name":"Juanda","station_id":"JUA","line":2,"transit":false,"i_lat":-6.166716,"distance":2015,"i_long":106.828284,"time":4},{"time":2,"i_lat":-6.160725,"transit":false,"station_id":"SW","station_name":"Sawah Besar","is_transit":false,"line":2,"distance":1149,"i_long":106.827103},{"time":2,"line":2,"station_id":"MGB","is_transit":false,"transit":false,"station_name":"Manggabesar","distance":906,"i_long":106.82482,"i_lat":-6.149769},{"time":2,"station_id":"JAY","distance":1080,"line":7,"station_name":"Jayakarta","transit":false,"i_lat":-6.141205,"i_long":106.820901,"is_transit":false},{"i_lat":-6.137569,"station_name":"Jakarta Kota","line":0,"is_transit":true,"station_id":"JAKK","time":4,"distance":1264,"transit":true,"i_long":106.812439},{"time":3,"i_lat":-6.132549,"station_name":"Kampung Bandan","transit":false,"station_id":"KPB","distance":1364,"i_long":106.826365,"line":0,"is_transit":true},{"distance":4102,"is_transit":false,"station_name":"Angke","i_long":106.79867,"line":0,"station_id":"AK","time":9,"transit":false,"i_lat":-6.144674},{"distance":1230,"i_long":106.800832,"time":4,"station_id":"DU","transit":true,"line":1,"station_name":"Duri","i_lat":-6.155215,"is_transit":true},{"i_long":106.811091,"is_transit":true,"time":8,"distance":3632,"station_name":"Tanah Abang","transit":true,"line":1,"station_id":"THB","i_lat":-6.185545},{"i_long":106.79689,"time":6,"transit":false,"line":6,"i_lat":-6.207404,"station_id":"PLM","station_name":"Palmerah","is_transit":false,"distance":3191},{"transit":false,"i_lat":-6.237242,"is_transit":false,"station_id":"KBY","time":7,"i_long":106.780334,"station_name":"Kebayoran","line":6,"distance":3737},{"i_lat":-6.276362,"time":8,"line":6,"station_name":"Pondokranji","distance":6218,"is_transit":false,"transit":false,"i_long":106.74273,"station_id":"PDJ"},{"station_id":"JMU","distance":2179,"i_long":106.728916,"station_name":"Jurangmangu","time":3,"i_lat":-6.288927,"line":6,"is_transit":false,"transit":false},{"line":6,"time":4,"transit":false,"is_transit":false,"i_lat":-6.296963,"station_id":"SDM","i_long":106.712277,"station_name":"Sudimara","distance":1994},{"is_transit":false,"station_name":"Rawa Buntu","i_long":106.675475,"line":6,"distance":4566,"transit":false,"i_lat":-6.314823,"station_id":"RU","time":6},{"is_transit":false,"line":6,"i_long":106.66566,"distance":2413,"station_id":"SRP","station_name":"Serpong","transit":false,"i_lat":-6.319871,"time":4},{"time":4,"i_long":106.640411,"station_id":"CSK","line":0,"transit":false,"station_name":"Cisauk","distance":1784,"i_lat":-6.32484,"is_transit":false},{"is_transit":false,"transit":false,"line":0,"station_id":"CC","time":4,"i_long":106.617853,"distance":2519,"station_name":"Cicayur","i_lat":-6.329547},{"line":6,"station_id":"PRP","is_transit":false,"time":8,"station_name":"Parung Panjang","i_long":106.568863,"distance":5968,"transit":false,"i_lat":-6.3441410000000005},{"is_transit":false,"station_name":"Cilejit","time":9,"distance":7025,"i_long":106.508482,"station_id":"CJT","i_lat":-6.354349,"transit":false,"line":0},{"station_name":"Daru","station_id":"DAR","time":6,"is_transit":false,"distance":2675,"i_long":106.491338,"transit":false,"line":0,"i_lat":-6.338021},{"time":5,"transit":false,"station_name":"Tenjo","distance":3902,"is_transit":false,"line":6,"station_id":"TEJ","i_long":106.460812,"i_lat":-6.327251}],[{"i_long":106.899548,"transit":false,"line":1,"i_lat":-6.2135,"distance":0,"station_name":"Klender","station_id":"KLD","is_transit":false,"time":0},{"distance":3395,"i_lat":-6.215091,"i_long":106.86807400000001,"line":0,"station_id":"JNG","station_name":"Jatinegara","is_transit":true,"transit":true,"time":3},{"i_long":106.861737,"station_name":"Pondok Jati","station_id":"POK","distance":1236,"time":2,"i_lat":-6.209188,"line":11,"is_transit":false,"transit":false},{"i_lat":-6.193792,"line":11,"transit":false,"station_name":"Kramat","is_transit":false,"station_id":"KMT","distance":1829,"i_long":106.855437,"time":2},{"i_long":106.850107,"distance":973,"station_id":"GST","time":1,"transit":false,"station_name":"Gang Sentiong","is_transit":false,"i_lat":-6.185975,"line":11},{"distance":1567,"time":8,"is_transit":false,"i_lat":-6.174784,"station_name":"Pasar Senen","i_long":106.84368,"station_id":"PSE","transit":false,"line":11},{"transit":false,"i_long":106.839204,"line":11,"station_name":"Kemayoran","distance":1436,"i_lat":-6.161728,"is_transit":false,"time":4,"station_id":"KMO"},{"time":5,"distance":1901,"transit":false,"i_long":106.836569,"station_id":"RJW","line":11,"is_transit":false,"i_lat":-6.14505,"station_name":"Rajawali"},{"station_id":"KPB","i_lat":-6.132549,"transit":true,"is_transit":true,"i_long":106.826365,"line":0,"distance":1444,"station_name":"Kampung Bandan","time":3},{"i_long":106.812439,"station_name":"Jakarta Kota","distance":1364,"transit":true,"station_id":"JAKK","time":3,"i_lat":-6.137569,"line":0,"is_transit":true},{"station_id":"JAY","distance":1264,"i_long":106.820901,"station_name":"Jayakarta","is_transit":false,"transit":false,"time":4,"i_lat":-6.141205,"line":7},{"i_long":106.82482,"distance":1080,"i_lat":-6.149769,"line":2,"station_name":"Manggabesar","time":2,"is_transit":false,"station_id":"MGB","transit":false},{"transit":false,"i_lat":-6.160725,"station_name":"Sawah Besar","i_long":106.827103,"time":2,"station_id":"SW","line":2,"distance":906,"is_transit":false},{"station_id":"JUA","transit":false,"line":2,"i_lat":-6.166716,"is_transit":false,"distance":1149,"station_name":"Juanda","i_long":106.828284,"time":2},{"station_id":"GDD","station_name":"Gondangdia","line":2,"transit":false,"time":4,"distance":2015,"is_transit":false,"i_lat":-6.186295,"i_long":106.832183},{"i_long":106.840169,"time":3,"distance":1750,"line":0,"is_transit":false,"i_lat":-6.198556,"station_name":"Cikini","transit":false,"station_id":"CKI"},{"time":4,"i_lat":-6.209883,"station_name":"Manggarai","i_long":106.84912,"line":0,"station_id":"MRI","distance":1590,"is_transit":true,"transit":true},{"is_transit":false,"i_lat":-6.202263,"i_long":106.822649,"time":4,"line":1,"station_id":"SUD","distance":3186,"transit":false,"station_name":"Sudirman"},{"is_transit":false,"i_long":106.819881,"station_name":"Sudirman Baru","line":1,"distance":280,"i_lat":-6.201433,"time":1,"station_id":"SUDB","transit":false},{"i_long":106.816351,"distance":471,"time":1,"transit":false,"station_name":"Karet","is_transit":false,"station_id":"KAT","line":1,"i_lat":-6.20132},{"transit":true,"is_transit":true,"i_long":106.811091,"distance":2029,"line":1,"time":5,"station_name":"Tanah Abang","i_lat":-6.185545,"station_id":"THB"},{"line":6,"station_name":"Palmerah","station_id":"PLM","is_transit":false,"distance":3191,"transit":false,"i_lat":-6.207404,"i_long":106.79689,"time":6},{"i_long":106.780334,"station_id":"KBY","is_transit":false,"time":7,"distance":3737,"line":6,"transit":false,"station_name":"Kebayoran","i_lat":-6.237242},{"line":6,"i_lat":-6.276362,"is_transit":false,"i_long":106.74273,"station_id":"PDJ","station_name":"Pondokranji","time":8,"distance":6218,"transit":false},{"station_id":"JMU","line":6,"i_lat":-6.288927,"time":3,"distance":2179,"i_long":106.728916,"station_name":"Jurangmangu","is_transit":false,"transit":false},{"transit":false,"station_name":"Sudimara","line":6,"i_lat":-6.296963,"i_long":106.712277,"time":4,"distance":1994,"station_id":"SDM","is_transit":false},{"transit":false,"i_lat":-6.314823,"station_id":"RU","distance":4566,"time":6,"line":6,"i_long":106.675475,"station_name":"Rawa Buntu","is_transit":false},{"station_id":"SRP","time":4,"transit":false,"i_long":106.66566,"is_transit":false,"station_name":"Serpong","distance":2413,"line":6,"i_lat":-6.319871},{"station_id":"CSK","line":0,"i_lat":-6.32484,"i_long":106.640411,"time":4,"transit":false,"station_name":"Cisauk","is_transit":false,"distance":1784},{"i_lat":-6.329547,"station_id":"CC","transit":false,"time":4,"i_long":106.617853,"line":0,"is_transit":false,"station_name":"Cicayur","distance":2519},{"time":8,"station_id":"PRP","i_lat":-6.3441410000000005,"i_long":106.568863,"line":6,"distance":5968,"station_name":"Parung Panjang","transit":false,"is_transit":false},{"i_lat":-6.354349,"station_id":"CJT","distance":7025,"time":9,"is_transit":false,"line":0,"station_name":"Cilejit","transit":false,"i_long":106.508482},{"time":6,"distance":2675,"i_lat":-6.338021,"line":0,"i_long":106.491338,"transit":false,"is_transit":false,"station_id":"DAR","station_name":"Daru"},{"i_long":106.460812,"line":6,"time":5,"i_lat":-6.327251,"transit":false,"station_id":"TEJ","is_transit":false,"station_name":"Tenjo","distance":3902}]]}