{"data":[[{"is_transit":false,"transit":false,"i_lat":-6.2135,"i_long":106.899548,"station_id":"KLD","time":0,"distance":0,"line":1,"station_name":"Klender"},{"station_id":"JNG","i_lat":-6.215091,"i_long":106.86807400000001,"time":3,"line":0,"is_transit":true,"distance":3395,"transit":false,"station_name":"Jatinegara"},{"line":1,"station_id":"MTR","station_name":"Matraman","i_long":106.858896,"time":2,"is_transit":false,"distance":1377,"transit":false,"i_lat":-6.212485},{"transit":false,"distance":1275,"station_id":"MRI","i_lat":-6.209883,"i_long":106.84912,"time":2,"station_name":"Manggarai","is_transit":true,"line":0},{"line":1,"distance":3186,"station_name":"Sudirman","time":4,"is_transit":false,"i_lat":-6.202263,"i_long":106.822649,"station_id":"SUD","transit":false},{"station_name":"Sudirman Baru","time":1,"transit":false,"i_lat":-6.201433,"i_long":106.819881,"distance":280,"is_transit":false,"line":1,"station_id":"SUDB"},{"is_transit":false,"i_long":106.816351,"station_name":"Karet","distance":471,"station_id":"KAT","transit":false,"time":1,"line":1,"i_lat":-6.20132},{"i_lat":-6.185545,"station_id":"THB","time":5,"station_name":"Tanah Abang","is_transit":true,"i_long":106.811091,"distance":2029,"transit":true,"line":1},{"time":6,"station_id":"PLM","i_lat":-6.207404,"line":6,"is_transit":false,"i_long":106.79689,"distance":3191,"transit":false,"station_name":"Palmerah"},{"station_name":"Kebayoran","is_transit":false,"distance":3737,"i_long":106.780334,"station_id":"KBY","time":7,"line":6,"i_lat":-6.237242,"transit":false},{"transit":false,"station_id":"PDJ","station_name":"Pondokranji","is_transit":false,"time":8,"distance":6218,"line":6,"i_lat":-6.276362,"i_long":106.74273},{"i_long":106.728916,"station_id":"JMU","is_transit":false,"transit":false,"time":3,"station_name":"Jurangmangu","distance":2179,"i_lat":-6.288927,"line":6},{"transit":false,"distance":1994,"i_lat":-6.296963,"is_transit":false,"station_id":"SDM","station_name":"Sudimara","i_long":106.712277,"time":4,"line":6},{"transit":false,"station_name":"Rawa Buntu","i_lat":-6.314823,"line":6,"station_id":"RU","distance":4566,"is_transit":false,"time":6,"i_long":106.675475},{"station_name":"Serpong","is_transit":false,"i_long":106.66566,"distance":2413,"i_lat":-6.319871,"line":6,"time":4,"station_id":"SRP","transit":false},{"station_name":"Cisauk","transit":false,"i_lat":-6.32484,"time":4,"line":0,"station_id":"CSK","is_transit":false,"i_long":106.640411,"distance":1784},{"i_long":106.617853,"i_lat":-6.329547,"line":0,"station_name":"Cicayur","station_id":"CC","transit":false,"is_transit":false,"time":4,"distance":2519},{"distance":5968,"i_lat":-6.3441410000000005,"i_long":106.568863,"line":6,"transit":false,"station_id":"PRP","station_name":"Parung Panjang","is_transit":false,"time":8}],[{"transit":false,"line":1,"i_lat":-6.2135,"station_name":"Klender","distance":0,"station_id":"KLD","time":0,"i_long":106.899548,"is_transit":false},{"distance":3395,"i_long":106.86807400000001,"line":0,"station_id":"JNG","is_transit":true,"time":3,"i_lat":-6.215091,"station_name":"Jatinegara","transit":true},{"i_long":106.861737,"is_transit":false,"transit":false,"line":11,"station_id":"POK","time":2,"i_lat":-6.209188,"distance":1236,"station_name":"Pondok Jati"},{"station_name":"Kramat","is_transit":false,"transit":false,"i_lat":-6.193792,"distance":1829,"station_id":"KMT","line":11,"time":2,"i_long":106.855437},{"time":1,"is_transit":false,"distance":973,"station_id":"GST","transit":false,"i_lat":-6.185975,"i_long":106.850107,"station_name":"Gang Sentiong","line":11},{"i_lat":-6.174784,"i_long":106.84368,"distance":1567,"station_name":"Pasar Senen","transit":false,"is_transit":false,"station_id":"PSE","line":11,"time":8},{"i_lat":-6.161728,"is_transit":false,"i_long":106.839204,"line":11,"station_name":"Kemayoran","time":4,"distance":1436,"station_id":"KMO","transit":false},{"line":11,"transit":false,"is_transit":false,"station_name":"Rajawali","time":5,"distance":1901,"i_lat":-6.14505,"i_long":106.836569,"station_id":"RJW"},{"station_name":"Kampung Bandan","time":3,"transit":true,"line":0,"station_id":"KPB","is_transit":true,"i_long":106.826365,"distance":1444,"i_lat":-6.132549},{"station_name":"Angke","time":9,"i_lat":-6.144674,"i_long":106.79867,"line":0,"station_id":"AK","is_transit":false,"distance":4102,"transit":false},{"transit":true,"is_transit":true,"i_lat":-6.155215,"time":4,"distance":1230,"line":1,"station_id":"DU","station_name":"Duri","i_long":106.800832},{"is_transit":true,"transit":true,"time":8,"distance":3632,"i_long":106.811091,"station_id":"THB","station_name":"Tanah Abang","i_lat":-6.185545,"line":1},{"i_lat":-6.207404,"line":6,"time":6,"transit":false,"is_transit":false,"station_id":"PLM","i_long":106.79689,"station_name":"Palmerah","distance":3191},{"station_id":"KBY","station_name":"Kebayoran","i_long":106.780334,"time":7,"is_transit":false,"transit":false,"i_lat":-6.237242,"line":6,"distance":3737},{"station_id":"PDJ","line":6,"i_lat":-6.276362,"time":8,"i_long":106.74273,"transit":false,"station_name":"Pondokranji","distance":6218,"is_transit":false},{"station_id":"JMU","station_name":"Jurangmangu","line":6,"transit":false,"time":3,"is_transit":false,"i_lat":-6.288927,"distance":2179,"i_long":106.728916},{"transit":false,"is_transit":false,"i_long":106.712277,"time":4,"line":6,"station_id":"SDM","distance":1994,"i_lat":-6.296963,"station_name":"Sudimara"},{"i_lat":-6.314823,"i_long":106.675475,"time":6,"distance":4566,"transit":false,"station_id":"RU","line":6,"station_name":"Rawa Buntu","is_transit":false},{"station_id":"SRP","line":6,"station_name":"Serpong","transit":false,"distance":2413,"i_lat":-6.319871,"time":4,"i_long":106.66566,"is_transit":false},{"i_long":106.640411,"transit":false,"is_transit":false,"time":4,"station_name":"Cisauk","distance":1784,"station_id":"CSK","line":0,"i_lat":-6.32484},{"time":4,"station_name":"Cicayur","distance":2519,"station_id":"CC","line":0,"i_lat":-6.329547,"i_long":106.617853,"is_transit":false,"transit":false},{"station_name":"Parung Panjang","station_id":"PRP","transit":false,"is_transit":false,"line":6,"i_lat":-6.3441410000000005,"i_long":106.568863,"time":8,"distance":5968}],[{"time":0,"distance":0,"station_name":"Klender","is_transit":false,"i_long":106.899548,"transit":false,"line":1,"station_id":"KLD","i_lat":-6.2135},{"line":0,"i_long":106.86807400000001,"is_transit":true,"station_id":"JNG","transit":false,"distance":3395,"station_name":"Jatinegara","i_lat":-6.215091,"time":3},{"i_long":106.858896,"line":1,"transit":false,"station_id":"MTR","station_name":"Matraman","is_transit":false,"time":2,"i_lat":-6.212485,"distance":1377},{"transit":true,"is_transit":true,"time":2,"i_long":106.84912,"distance":1275,"line":0,"station_name":"Manggarai","i_lat":-6.209883,"station_id":"MRI"},{"line":0,"station_name":"Cikini","station_id":"CKI","transit":false,"time":4,"i_lat":-6.198556,"i_long":106.840169,"distance":1590,"is_transit":false},{"line":2,"i_long":106.832183,"is_transit":false,"distance":1750,"i_lat":-6.186295,"station_id":"GDD","transit":false,"station_name":"Gondangdia","time":3},{"distance":2015,"transit":false,"i_long":106.828284,"is_transit":false,"line":2,"i_lat":-6.166716,"station_id":"JUA","station_name":"Juanda","time":4},{"i_lat":-6.160725,"station_id":"SW","transit":false,"i_long":106.827103,"station_name":"Sawah Besar","is_transit":false,"time":2,"distance":1149,"line":2},{"distance":906,"i_long":106.82482,"is_transit":false,"station_id":"MGB","station_name":"Manggabesar","transit":false,"time":2,"i_lat":-6.149769,"line":2},{"i_lat":-6.141205,"i_long":106.820901,"line":7,"station_name":"Jayakarta","time":2,"transit":false,"is_transit":false,"station_id":"JAY","distance":1080},{"line":0,"transit":true,"i_long":106.812439,"station_id":"JAKK","time":4,"station_name":"Jakarta Kota","distance":1264,"i_lat":-6.137569,"is_transit":true},{"transit":false,"time":3,"is_transit":true,"distance":1364,"station_name":"Kampung Bandan","i_long":106.826365,"line":0,"i_lat":-6.132549,"station_id":"KPB"},{"i_long":106.79867,"station_id":"AK","station_name":"Angke","line":0,"transit":false,"distance":4102,"time":9,"i_lat":-6.144674,"is_transit":false},{"station_name":"Duri","transit":true,"station_id":"DU","is_transit":true,"distance":1230,"line":1,"i_lat":-6.155215,"time":4,"i_long":106.800832},{"i_lat":-6.185545,"station_id":"THB","transit":true,"i_long":106.811091,"line":1,"station_name":"Tanah Abang","time":8,"distance":3632,"is_transit":true},{"station_id":"PLM","station_name":"Palmerah","i_long":106.79689,"time":6,"is_transit":false,"i_lat":-6.207404,"line":6,"transit":false,"distance":3191},{"i_long":106.780334,"station_id":"KBY","transit":false,"time":7,"distance":3737,"station_name":"Kebayoran","line":6,"i_lat":-6.237242,"is_transit":false},{"distance":6218,"time":8,"station_id":"PDJ","station_name":"Pondokranji","transit":false,"i_lat":-6.276362,"i_long":106.74273,"line":6,"is_transit":false},{"time":3,"distance":2179,"i_lat":-6.288927,"station_id":"JMU","is_transit":false,"station_name":"Jurangmangu","transit":false,"i_long":106.728916,"line":6},{"i_long":106.712277,"distance":1994,"line":6,"i_lat":-6.296963,"transit":false,"time":4,"station_name":"Sudimara","station_id":"SDM","is_transit":false},{"time":6,"transit":false,"is_transit":false,"i_long":106.675475,"station_id":"RU","station_name":"Rawa Buntu","distance":4566,"i_lat":-6.314823,"line":6},{"station_id":"SRP","transit":false,"i_long":106.66566,"line":6,"is_transit":false,"distance":2413,"station_name":"Serpong","time":4,"i_lat":-6.319871},{"i_long":106.640411,"time":4,"distance":1784,"is_transit":false,"i_lat":-6.32484,"line":0,"station_id":"CSK","station_name":"Cisauk","transit":false},{"is_transit":false,"distance":2519,"i_lat":-6.329547,"i_long":106.617853,"line":0,"time":4,"station_name":"Cicayur","station_id":"CC","transit":false},{"station_name":"Parung Panjang","i_lat":-6.3441410000000005,"line":6,"is_transit":false,"transit":false,"time":8,"distance":5968,"station_id":"PRP","i_long":106.568863}],[{"i_long":106.899548,"transit":false,"i_lat":-6.2135,"distance":0,"station_name":"Klender","station_id":"KLD","is_transit":false,"time":0,"line":1},{"line":0,"distance":3395,"i_long":106.86807400000001,"station_id":"JNG","i_lat":-6.215091,"transit":true,"is_transit":true,"time":3,"station_name":"Jatinegara"},{"line":11,"i_long":106.861737,"is_transit":false,"distance":1236,"station_name":"Pondok Jati","i_lat":-6.209188,"transit":false,"station_id":"POK","time":2},{"distance":1829,"station_name":"Kramat","i_long":106.855437,"is_transit":false,"transit":false,"line":11,"time":2,"i_lat":-6.193792,"station_id":"KMT"},{"station_id":"GST","time":1,"distance":973,"transit":false,"station_name":"Gang Sentiong","i_lat":-6.185975,"i_long":106.850107,"is_transit":false,"line":11},{"station_id":"PSE","is_transit":false,"distance":1567,"line":11,"i_lat":-6.174784,"station_name":"Pasar Senen","transit":false,"i_long":106.84368,"time":8},{"i_lat":-6.161728,"line":11,"station_id":"KMO","is_transit":false,"station_name":"Kemayoran","transit":false,"distance":1436,"i_long":106.839204,"time":4},{"transit":false,"is_transit":false,"line":11,"distance":1901,"station_name":"Rajawali","station_id":"RJW","time":5,"i_lat":-6.14505,"i_long":106.836569},{"station_id":"KPB","station_name":"Kampung Bandan","is_transit":true,"i_lat":-6.132549,"line":0,"transit":true,"i_long":106.826365,"distance":1444,"time":3},{"line":0,"station_id":"JAKK","i_lat":-6.137569,"transit":true,"station_name":"Jakarta Kota","is_transit":true,"distance":1364,"i_long":106.812439,"time":3},{"transit":false,"station_name":"Jayakarta","is_transit":false,"time":4,"distance":1264,"i_lat":-6.141205,"i_long":106.820901,"line":7,"station_id":"JAY"},{"time":2,"i_lat":-6.149769,"station_name":"Manggabesar","line":2,"station_id":"MGB","is_transit":false,"i_long":106.82482,"transit":false,"distance":1080},{"is_transit":false,"distance":906,"transit":false,"time":2,"station_name":"Sawah Besar","i_long":106.827103,"station_id":"SW","i_lat":-6.160725,"line":2},{"station_id":"JUA","is_transit":false,"i_lat":-6.166716,"line":2,"transit":false,"station_name":"Juanda","time":2,"i_long":106.828284,"distance":1149},{"is_transit":false,"line":2,"distance":2015,"transit":false,"i_long":106.832183,"station_id":"GDD","i_lat":-6.186295,"time":4,"station_name":"Gondangdia"},{"is_transit":false,"distance":1750,"i_lat":-6.198556,"line":0,"station_id":"CKI","transit":false,"time":3,"station_name":"Cikini","i_long":106.840169},{"distance":1590,"station_name":"Manggarai","time":4,"station_id":"MRI","transit":true,"is_transit":true,"i_lat":-6.209883,"i_long":106.84912,"line":0},{"station_id":"SUD","transit":false,"station_name":"Sudirman","time":4,"i_lat":-6.202263,"is_transit":false,"i_long":106.822649,"line":1,"distance":3186},{"i_lat":-6.201433,"is_transit":false,"station_name":"Sudirman Baru","time":1,"distance":280,"transit":false,"i_long":106.819881,"line":1,"station_id":"SUDB"},{"station_name":"Karet","is_transit":false,"distance":471,"i_lat":-6.20132,"time":1,"station_id":"KAT","transit":false,"line":1,"i_long":106.816351},{"station_name":"Tanah Abang","i_lat":-6.185545,"station_id":"THB","line":1,"i_long":106.811091,"is_transit":true,"transit":true,"time":5,"distance":2029},{"i_lat":-6.207404,"transit":false,"station_id":"PLM","is_transit":false,"distance":3191,"time":6,"line":6,"station_name":"Palmerah","i_long":106.79689},{"is_transit":false,"i_lat":-6.237242,"transit":false,"distance":3737,"line":6,"station_id":"KBY","time":7,"station_name":"Kebayoran","i_long":106.780334},{"i_long":106.74273,"distance":6218,"time":8,"station_name":"Pondokranji","i_lat":-6.276362,"station_id":"PDJ","is_transit":false,"transit":false,"line":6},{"is_transit":false,"station_id":"JMU","time":3,"i_lat":-6.288927,"i_long":106.728916,"station_name":"Jurangmangu","transit":false,"distance":2179,"line":6},{"station_name":"Sudimara","time":4,"transit":false,"i_lat":-6.296963,"i_long":106.712277,"line":6,"station_id":"SDM","is_transit":false,"distance":1994},{"i_long":106.675475,"distance":4566,"station_name":"Rawa Buntu","time":6,"transit":false,"is_transit":false,"station_id":"RU","line":6,"i_lat":-6.314823},{"distance":2413,"line":6,"is_transit":false,"station_id":"SRP","i_long":106.66566,"i_lat":-6.319871,"transit":false,"station_name":"Serpong","time":4},{"is_transit":false,"distance":1784,"line":0,"time":4,"station_id":"CSK","i_long":106.640411,"i_lat":-6.32484,"station_name":"Cisauk","transit":false},{"i_lat":-6.329547,"line":0,"station_id":"CC","i_long":106.617853,"station_name":"Cicayur","transit":false,"distance":2519,"is_transit":false,"time":4},{"station_name":"Parung Panjang","transit":false,"i_long":106.568863,"i_lat":-6.3441410000000005,"is_transit":false,"station_id":"PRP","distance":5968,"time":8,"line":6}]]}