{"data":[[{"transit":false,"i_lat":-6.2135,"station_id":"KLD","is_transit":false,"time":0,"station_name":"Klender","i_long":106.899548,"distance":0,"line":1},{"time":3,"line":0,"i_long":106.86807400000001,"transit":true,"distance":3395,"station_name":"Jatinegara","i_lat":-6.215091,"station_id":"JNG","is_transit":true},{"transit":false,"station_id":"POK","time":2,"line":11,"is_transit":false,"i_long":106.861737,"station_name":"Pondok Jati","distance":1236,"i_lat":-6.209188},{"station_id":"KMT","station_name":"Kramat","is_transit":false,"i_long":106.855437,"time":2,"distance":1829,"transit":false,"i_lat":-6.193792,"line":11}],[{"i_lat":-6.2135,"time":0,"i_long":106.899548,"station_name":"Klender","line":1,"station_id":"KLD","transit":false,"is_transit":false,"distance":0},{"i_long":106.86807400000001,"is_transit":true,"time":3,"station_id":"JNG","distance":3395,"i_lat":-6.215091,"line":0,"station_name":"Jatinegara","transit":false},{"distance":1377,"i_long":106.858896,"i_lat":-6.212485,"is_transit":false,"line":1,"transit":false,"station_name":"Matraman","station_id":"MTR","time":2},{"transit":false,"distance":1275,"i_lat":-6.209883,"is_transit":true,"station_name":"Manggarai","time":2,"i_long":106.84912,"line":0,"station_id":"MRI"},{"time":4,"i_long":106.822649,"station_name":"Sudirman","i_lat":-6.202263,"distance":3186,"transit":false,"station_id":"SUD","is_transit":false,"line":1},{"line":1,"transit":false,"station_id":"SUDB","i_long":106.819881,"station_name":"Sudirman Baru","time":1,"i_lat":-6.201433,"distance":280,"is_transit":false},{"i_lat":-6.20132,"i_long":106.816351,"transit":false,"is_transit":false,"distance":471,"time":1,"station_name":"Karet","line":1,"station_id":"KAT"},{"i_long":106.811091,"line":1,"time":5,"transit":false,"station_name":"Tanah Abang","distance":2029,"is_transit":true,"i_lat":-6.185545,"station_id":"THB"},{"transit":true,"i_lat":-6.155215,"station_id":"DU","station_name":"Duri","time":8,"distance":3632,"i_long":106.800832,"line":1,"is_transit":true},{"i_lat":-6.144674,"station_id":"AK","i_long":106.79867,"station_name":"Angke","is_transit":false,"time":4,"transit":false,"line":0,"distance":1230},{"station_id":"KPB","station_name":"Kampung Bandan","i_long":106.826365,"distance":4102,"line":0,"transit":true,"is_transit":true,"i_lat":-6.132549,"time":9},{"station_id":"RJW","i_long":106.836569,"time":3,"distance":1444,"station_name":"Rajawali","transit":false,"i_lat":-6.14505,"line":11,"is_transit":false},{"transit":false,"station_id":"KMO","station_name":"Kemayoran","time":5,"i_lat":-6.161728,"is_transit":false,"distance":1901,"i_long":106.839204,"line":11},{"i_long":106.84368,"transit":false,"station_id":"PSE","i_lat":-6.174784,"line":11,"is_transit":false,"station_name":"Pasar Senen","time":4,"distance":1436},{"transit":false,"station_name":"Gang Sentiong","distance":1567,"station_id":"GST","i_lat":-6.185975,"is_transit":false,"i_long":106.850107,"time":8,"line":11},{"i_lat":-6.193792,"line":11,"i_long":106.855437,"station_name":"Kramat","time":1,"transit":false,"station_id":"KMT","is_transit":false,"distance":973}],[{"distance":0,"time":0,"transit":false,"station_id":"KLD","i_long":106.899548,"station_name":"Klender","i_lat":-6.2135,"line":1,"is_transit":false},{"distance":3395,"station_name":"Jatinegara","transit":false,"station_id":"JNG","time":3,"i_long":106.86807400000001,"line":0,"is_transit":true,"i_lat":-6.215091},{"is_transit":false,"distance":1377,"time":2,"station_name":"Matraman","i_lat":-6.212485,"transit":false,"i_long":106.858896,"line":1,"station_id":"MTR"},{"i_long":106.84912,"station_name":"Manggarai","is_transit":true,"line":0,"time":2,"station_id":"MRI","i_lat":-6.209883,"transit":true,"distance":1275},{"is_transit":false,"distance":1590,"line":0,"i_long":106.840169,"transit":false,"station_name":"Cikini","time":4,"station_id":"CKI","i_lat":-6.198556},{"station_name":"Gondangdia","line":2,"time":3,"transit":false,"i_long":106.832183,"i_lat":-6.186295,"is_transit":false,"station_id":"GDD","distance":1750},{"time":4,"is_transit":false,"i_long":106.828284,"i_lat":-6.166716,"transit":false,"distance":2015,"station_id":"JUA","line":2,"station_name":"Juanda"},{"is_transit":false,"time":2,"distance":1149,"station_id":"SW","transit":false,"station_name":"Sawah Besar","i_long":106.827103,"line":2,"i_lat":-6.160725},{"i_long":106.82482,"station_name":"Manggabesar","time":2,"line":2,"distance":906,"i_lat":-6.149769,"transit":false,"is_transit":false,"station_id":"MGB"},{"station_id":"JAY","is_transit":false,"line":7,"transit":false,"distance":1080,"i_long":106.820901,"time":2,"i_lat":-6.141205,"station_name":"Jayakarta"},{"transit":true,"i_lat":-6.137569,"is_transit":true,"station_name":"Jakarta Kota","time":4,"i_long":106.812439,"station_id":"JAKK","distance":1264,"line":0},{"distance":1364,"i_long":106.826365,"transit":true,"is_transit":true,"station_id":"KPB","i_lat":-6.132549,"line":0,"station_name":"Kampung Bandan","time":3},{"is_transit":false,"i_long":106.836569,"station_id":"RJW","i_lat":-6.14505,"station_name":"Rajawali","time":3,"transit":false,"line":11,"distance":1444},{"is_transit":false,"transit":false,"time":5,"line":11,"station_name":"Kemayoran","station_id":"KMO","i_long":106.839204,"distance":1901,"i_lat":-6.161728},{"station_name":"Pasar Senen","i_long":106.84368,"station_id":"PSE","i_lat":-6.174784,"transit":false,"time":4,"line":11,"distance":1436,"is_transit":false},{"station_id":"GST","time":8,"station_name":"Gang Sentiong","distance":1567,"i_lat":-6.185975,"line":11,"transit":false,"is_transit":false,"i_long":106.850107},{"station_name":"Kramat","distance":973,"i_long":106.855437,"line":11,"time":1,"transit":false,"station_id":"KMT","is_transit":false,"i_lat":-6.193792}]]}