{"data":[[{"i_lat":-6.2135,"station_name":"Klender","is_transit":false,"distance":0,"line":1,"time":0,"station_id":"KLD","i_long":106.899548,"transit":false},{"i_lat":-6.215091,"station_id":"JNG","distance":3395,"transit":false,"i_long":106.86807400000001,"time":3,"line":1,"is_transit":false,"station_name":"Jatinegara"},{"i_long":106.858896,"time":2,"line":1,"is_transit":false,"station_name":"Matraman","i_lat":-6.212485,"transit":false,"station_id":"MTR","distance":1377},{"transit":false,"i_long":106.84912,"time":2,"distance":1275,"station_id":"MRI","station_name":"Manggarai","i_lat":-6.209883,"line":2,"is_transit":false},{"station_id":"SUD","time":4,"i_long":106.822649,"transit":false,"distance":3186,"i_lat":-6.202263,"line":1,"station_name":"Sudirman","is_transit":false},{"distance":280,"i_lat":-6.201433,"is_transit":false,"transit":false,"time":1,"station_id":"SUDB","line":1,"i_long":106.819881,"station_name":"Sudirman Baru"}],[{"i_long":106.899548,"station_name":"Klender","is_transit":false,"transit":false,"i_lat":-6.2135,"distance":0,"time":0,"station_id":"KLD","line":1},{"i_lat":-6.215091,"is_transit":true,"transit":true,"time":3,"line":1,"distance":3395,"station_id":"JNG","i_long":106.86807400000001,"station_name":"Jatinegara"},{"is_transit":false,"line":11,"distance":1236,"station_name":"Pondok Jati","transit":false,"station_id":"POK","time":2,"i_lat":-6.209188,"i_long":106.861737},{"i_long":106.855437,"transit":false,"line":11,"station_name":"Kramat","is_transit":false,"time":2,"distance":1829,"i_lat":-6.193792,"station_id":"KMT"},{"time":1,"is_transit":false,"i_lat":-6.185975,"transit":false,"station_name":"Gang Sentiong","distance":973,"line":11,"i_long":106.850107,"station_id":"GST"},{"line":11,"station_id":"PSE","time":8,"station_name":"Pasar Senen","is_transit":false,"transit":false,"i_long":106.84368,"distance":1567,"i_lat":-6.174784},{"i_long":106.839204,"station_id":"KMO","transit":false,"line":11,"station_name":"Kemayoran","time":4,"is_transit":false,"distance":1436,"i_lat":-6.161728},{"distance":1901,"station_id":"RJW","i_long":106.836569,"i_lat":-6.14505,"line":11,"is_transit":false,"time":5,"station_name":"Rajawali","transit":false},{"distance":1444,"is_transit":true,"i_long":106.826365,"transit":true,"time":3,"station_id":"KPB","line":4,"i_lat":-6.132549,"station_name":"Kampung Bandan"},{"i_lat":-6.144674,"station_id":"AK","is_transit":false,"i_long":106.79867,"station_name":"Angke","transit":false,"time":9,"line":1,"distance":4102},{"i_lat":-6.155215,"station_name":"Duri","i_long":106.800832,"is_transit":false,"station_id":"DU","line":1,"transit":false,"distance":1230,"time":4},{"distance":3632,"transit":false,"station_name":"Tanah Abang","is_transit":false,"i_lat":-6.185545,"station_id":"THB","time":8,"line":1,"i_long":106.811091},{"station_name":"Karet","distance":2029,"transit":false,"i_lat":-6.20132,"line":1,"i_long":106.816351,"is_transit":false,"station_id":"KAT","time":5},{"distance":471,"transit":false,"time":1,"i_long":106.819881,"i_lat":-6.201433,"station_name":"Sudirman Baru","station_id":"SUDB","is_transit":false,"line":1}],[{"i_long":106.899548,"station_name":"Klender","distance":0,"station_id":"KLD","is_transit":false,"line":1,"transit":false,"i_lat":-6.2135,"time":0},{"transit":false,"is_transit":false,"station_id":"JNG","time":3,"i_lat":-6.215091,"distance":3395,"i_long":106.86807400000001,"station_name":"Jatinegara","line":1},{"station_id":"MTR","station_name":"Matraman","time":2,"transit":false,"line":1,"distance":1377,"i_long":106.858896,"i_lat":-6.212485,"is_transit":false},{"station_name":"Manggarai","is_transit":true,"distance":1275,"transit":true,"i_long":106.84912,"time":2,"station_id":"MRI","line":2,"i_lat":-6.209883},{"distance":1590,"i_long":106.840169,"station_name":"Cikini","transit":false,"is_transit":false,"station_id":"CKI","time":4,"line":2,"i_lat":-6.198556},{"i_lat":-6.186295,"distance":1750,"station_name":"Gondangdia","i_long":106.832183,"line":2,"time":3,"transit":false,"is_transit":false,"station_id":"GDD"},{"station_id":"JUA","transit":false,"station_name":"Juanda","is_transit":false,"line":2,"distance":2015,"i_long":106.828284,"i_lat":-6.166716,"time":4},{"station_name":"Sawah Besar","i_lat":-6.160725,"transit":false,"distance":1149,"station_id":"SW","line":2,"time":2,"is_transit":false,"i_long":106.827103},{"line":2,"transit":false,"time":2,"i_lat":-6.149769,"station_name":"Manggabesar","is_transit":false,"distance":906,"i_long":106.82482,"station_id":"MGB"},{"time":2,"station_id":"JAY","distance":1080,"i_long":106.820901,"station_name":"Jayakarta","i_lat":-6.141205,"is_transit":false,"transit":false,"line":2},{"distance":1264,"i_long":106.812439,"station_id":"JAKK","time":4,"station_name":"Jakarta Kota","i_lat":-6.137569,"line":2,"transit":true,"is_transit":true},{"is_transit":true,"time":3,"distance":1364,"transit":true,"station_id":"KPB","i_long":106.826365,"station_name":"Kampung Bandan","i_lat":-6.132549,"line":4},{"transit":false,"line":1,"i_lat":-6.144674,"i_long":106.79867,"distance":4102,"station_name":"Angke","time":9,"is_transit":false,"station_id":"AK"},{"i_lat":-6.155215,"is_transit":false,"station_name":"Duri","transit":false,"time":4,"distance":1230,"line":1,"i_long":106.800832,"station_id":"DU"},{"is_transit":false,"i_lat":-6.185545,"time":8,"distance":3632,"station_id":"THB","transit":false,"station_name":"Tanah Abang","i_long":106.811091,"line":1},{"station_id":"KAT","station_name":"Karet","transit":false,"distance":2029,"time":5,"i_lat":-6.20132,"line":1,"i_long":106.816351,"is_transit":false},{"transit":false,"i_long":106.819881,"line":1,"is_transit":false,"station_id":"SUDB","time":1,"station_name":"Sudirman Baru","i_lat":-6.201433,"distance":471}],[{"distance":0,"transit":false,"station_name":"Klender","is_transit":false,"station_id":"KLD","time":0,"i_lat":-6.2135,"i_long":106.899548,"line":1},{"distance":3395,"line":1,"transit":true,"i_long":106.86807400000001,"time":3,"station_id":"JNG","station_name":"Jatinegara","i_lat":-6.215091,"is_transit":true},{"is_transit":false,"i_lat":-6.209188,"transit":false,"i_long":106.861737,"time":2,"distance":1236,"line":11,"station_id":"POK","station_name":"Pondok Jati"},{"line":11,"transit":false,"i_long":106.855437,"station_name":"Kramat","distance":1829,"is_transit":false,"station_id":"KMT","time":2,"i_lat":-6.193792},{"time":1,"station_name":"Gang Sentiong","station_id":"GST","transit":false,"i_long":106.850107,"is_transit":false,"line":11,"distance":973,"i_lat":-6.185975},{"i_long":106.84368,"time":8,"line":11,"station_id":"PSE","is_transit":false,"transit":false,"distance":1567,"station_name":"Pasar Senen","i_lat":-6.174784},{"station_name":"Kemayoran","station_id":"KMO","is_transit":false,"transit":false,"i_lat":-6.161728,"i_long":106.839204,"line":11,"time":4,"distance":1436},{"line":11,"station_id":"RJW","station_name":"Rajawali","transit":false,"i_long":106.836569,"time":5,"distance":1901,"is_transit":false,"i_lat":-6.14505},{"station_name":"Kampung Bandan","i_lat":-6.132549,"transit":true,"is_transit":true,"i_long":106.826365,"distance":1444,"time":3,"station_id":"KPB","line":4},{"distance":1364,"is_transit":true,"time":3,"i_lat":-6.137569,"station_id":"JAKK","i_long":106.812439,"transit":true,"line":2,"station_name":"Jakarta Kota"},{"i_long":106.820901,"time":4,"station_id":"JAY","distance":1264,"i_lat":-6.141205,"line":2,"is_transit":false,"transit":false,"station_name":"Jayakarta"},{"is_transit":false,"transit":false,"time":2,"i_lat":-6.149769,"distance":1080,"i_long":106.82482,"station_name":"Manggabesar","line":2,"station_id":"MGB"},{"is_transit":false,"transit":false,"time":2,"i_lat":-6.160725,"i_long":106.827103,"distance":906,"station_name":"Sawah Besar","station_id":"SW","line":2},{"i_long":106.828284,"line":2,"station_id":"JUA","transit":false,"is_transit":false,"time":2,"station_name":"Juanda","distance":1149,"i_lat":-6.166716},{"distance":2015,"i_lat":-6.186295,"transit":false,"i_long":106.832183,"station_name":"Gondangdia","is_transit":false,"line":2,"time":4,"station_id":"GDD"},{"station_name":"Cikini","time":3,"distance":1750,"station_id":"CKI","i_long":106.840169,"i_lat":-6.198556,"transit":false,"line":2,"is_transit":false},{"station_name":"Manggarai","distance":1590,"transit":true,"i_long":106.84912,"time":4,"is_transit":true,"station_id":"MRI","line":2,"i_lat":-6.209883},{"time":4,"transit":false,"line":1,"i_long":106.822649,"is_transit":false,"i_lat":-6.202263,"station_name":"Sudirman","distance":3186,"station_id":"SUD"},{"station_id":"SUDB","station_name":"Sudirman Baru","is_transit":false,"transit":false,"i_lat":-6.201433,"line":1,"time":1,"distance":280,"i_long":106.819881}]]}