{"data":[[{"i_long":106.899548,"line":1,"station_id":"KLD","is_transit":false,"station_name":"Klender","time":0,"transit":false,"i_lat":-6.2135,"distance":0},{"station_name":"Jatinegara","distance":3395,"is_transit":true,"line":1,"i_lat":-6.215091,"station_id":"JNG","time":3,"i_long":106.86807400000001,"transit":true},{"time":2,"i_long":106.861737,"transit":false,"station_id":"POK","distance":1236,"is_transit":false,"station_name":"Pondok Jati","i_lat":-6.209188,"line":11},{"station_id":"KMT","transit":false,"i_lat":-6.193792,"station_name":"Kramat","line":11,"is_transit":false,"distance":1829,"time":2,"i_long":106.855437},{"station_id":"GST","is_transit":false,"station_name":"Gang Sentiong","i_lat":-6.185975,"line":11,"i_long":106.850107,"distance":973,"time":1,"transit":false},{"is_transit":false,"distance":1567,"time":8,"station_name":"Pasar Senen","i_lat":-6.174784,"line":11,"station_id":"PSE","transit":false,"i_long":106.84368},{"station_name":"Kemayoran","i_lat":-6.161728,"i_long":106.839204,"transit":false,"is_transit":false,"station_id":"KMO","line":11,"time":4,"distance":1436}],[{"time":0,"i_long":106.899548,"i_lat":-6.2135,"line":1,"transit":false,"station_id":"KLD","distance":0,"is_transit":false,"station_name":"Klender"},{"is_transit":false,"line":1,"transit":false,"station_id":"JNG","i_lat":-6.215091,"station_name":"Jatinegara","distance":3395,"i_long":106.86807400000001,"time":3},{"line":1,"station_name":"Matraman","station_id":"MTR","is_transit":false,"transit":false,"i_lat":-6.212485,"i_long":106.858896,"distance":1377,"time":2},{"station_id":"MRI","time":2,"line":2,"is_transit":false,"transit":false,"i_lat":-6.209883,"distance":1275,"i_long":106.84912,"station_name":"Manggarai"},{"i_long":106.822649,"station_name":"Sudirman","transit":false,"time":4,"line":1,"distance":3186,"is_transit":false,"station_id":"SUD","i_lat":-6.202263},{"station_name":"Sudirman Baru","time":1,"transit":false,"distance":280,"is_transit":false,"line":1,"station_id":"SUDB","i_long":106.819881,"i_lat":-6.201433},{"station_name":"Karet","station_id":"KAT","time":1,"i_long":106.816351,"is_transit":false,"distance":471,"transit":false,"i_lat":-6.20132,"line":1},{"time":5,"i_lat":-6.185545,"station_id":"THB","distance":2029,"station_name":"Tanah Abang","transit":false,"i_long":106.811091,"line":1,"is_transit":false},{"distance":3632,"i_long":106.800832,"time":8,"transit":false,"station_id":"DU","station_name":"Duri","i_lat":-6.155215,"line":1,"is_transit":false},{"i_lat":-6.144674,"transit":false,"station_id":"AK","distance":1230,"is_transit":false,"station_name":"Angke","i_long":106.79867,"line":1,"time":4},{"is_transit":true,"station_name":"Kampung Bandan","i_lat":-6.132549,"station_id":"KPB","time":9,"i_long":106.826365,"line":4,"transit":true,"distance":4102},{"is_transit":false,"time":3,"i_long":106.836569,"station_name":"Rajawali","i_lat":-6.14505,"distance":1444,"line":11,"station_id":"RJW","transit":false},{"i_long":106.839204,"station_name":"Kemayoran","distance":1901,"i_lat":-6.161728,"station_id":"KMO","line":11,"transit":false,"is_transit":false,"time":5}],[{"transit":false,"time":0,"i_lat":-6.2135,"station_id":"KLD","is_transit":false,"i_long":106.899548,"line":1,"station_name":"Klender","distance":0},{"station_id":"JNG","line":1,"transit":false,"i_long":106.86807400000001,"distance":3395,"is_transit":false,"station_name":"Jatinegara","time":3,"i_lat":-6.215091},{"i_lat":-6.212485,"time":2,"i_long":106.858896,"station_id":"MTR","transit":false,"line":1,"distance":1377,"is_transit":false,"station_name":"Matraman"},{"is_transit":true,"i_lat":-6.209883,"transit":true,"i_long":106.84912,"line":2,"station_id":"MRI","station_name":"Manggarai","time":2,"distance":1275},{"i_long":106.840169,"station_name":"Cikini","i_lat":-6.198556,"distance":1590,"is_transit":false,"station_id":"CKI","line":2,"transit":false,"time":4},{"transit":false,"distance":1750,"time":3,"is_transit":false,"i_lat":-6.186295,"station_id":"GDD","station_name":"Gondangdia","i_long":106.832183,"line":2},{"station_name":"Juanda","station_id":"JUA","is_transit":false,"i_long":106.828284,"distance":2015,"transit":false,"time":4,"line":2,"i_lat":-6.166716},{"line":2,"time":2,"distance":1149,"station_name":"Sawah Besar","i_long":106.827103,"transit":false,"station_id":"SW","is_transit":false,"i_lat":-6.160725},{"i_long":106.82482,"line":2,"transit":false,"is_transit":false,"station_id":"MGB","station_name":"Manggabesar","time":2,"i_lat":-6.149769,"distance":906},{"is_transit":false,"station_name":"Jayakarta","transit":false,"i_lat":-6.141205,"i_long":106.820901,"distance":1080,"line":2,"station_id":"JAY","time":2},{"transit":true,"station_id":"JAKK","distance":1264,"time":4,"station_name":"Jakarta Kota","i_long":106.812439,"line":2,"i_lat":-6.137569,"is_transit":true},{"time":3,"station_name":"Kampung Bandan","distance":1364,"station_id":"KPB","i_lat":-6.132549,"is_transit":true,"line":4,"transit":true,"i_long":106.826365},{"time":3,"station_id":"RJW","station_name":"Rajawali","i_lat":-6.14505,"is_transit":false,"transit":false,"i_long":106.836569,"line":11,"distance":1444},{"is_transit":false,"i_lat":-6.161728,"station_name":"Kemayoran","station_id":"KMO","i_long":106.839204,"line":11,"transit":false,"distance":1901,"time":5}]]}