{"data":[[{"i_lat":-6.2135,"line":1,"is_transit":false,"station_name":"Klender","transit":false,"station_id":"KLD","time":0,"distance":0,"i_long":106.899548},{"is_transit":true,"time":3,"transit":true,"distance":3395,"station_name":"Jatinegara","line":0,"station_id":"JNG","i_lat":-6.215091,"i_long":106.86807400000001},{"distance":1236,"station_name":"Pondok Jati","time":2,"transit":false,"line":11,"i_lat":-6.209188,"is_transit":false,"station_id":"POK","i_long":106.861737},{"station_name":"Kramat","transit":false,"is_transit":false,"time":2,"line":11,"station_id":"KMT","i_long":106.855437,"i_lat":-6.193792,"distance":1829},{"station_name":"Gang Sentiong","distance":973,"i_long":106.850107,"transit":false,"station_id":"GST","time":1,"i_lat":-6.185975,"line":11,"is_transit":false},{"is_transit":false,"time":8,"station_name":"Pasar Senen","i_long":106.84368,"distance":1567,"line":11,"station_id":"PSE","i_lat":-6.174784,"transit":false},{"i_long":106.839204,"station_name":"Kemayoran","time":4,"line":11,"transit":false,"is_transit":false,"distance":1436,"i_lat":-6.161728,"station_id":"KMO"},{"is_transit":false,"i_long":106.836569,"distance":1901,"station_name":"Rajawali","transit":false,"i_lat":-6.14505,"line":11,"time":5,"station_id":"RJW"},{"line":0,"station_id":"KPB","distance":1444,"station_name":"Kampung Bandan","transit":true,"i_lat":-6.132549,"i_long":106.826365,"time":3,"is_transit":true},{"is_transit":false,"line":0,"time":4,"transit":false,"i_lat":-6.128023,"i_long":106.84464,"distance":2185,"station_id":"AC","station_name":"Ancol"},{"station_name":"Tanjung Priuk","distance":4566,"i_long":106.880089,"line":4,"i_lat":-6.1109480000000005,"station_id":"TPK","is_transit":false,"time":9,"transit":false}],[{"station_id":"KLD","i_long":106.899548,"time":0,"distance":0,"i_lat":-6.2135,"is_transit":false,"line":1,"station_name":"Klender","transit":false},{"transit":false,"i_lat":-6.215091,"i_long":106.86807400000001,"station_id":"JNG","station_name":"Jatinegara","is_transit":true,"time":3,"distance":3395,"line":0},{"station_name":"Matraman","transit":false,"line":1,"i_lat":-6.212485,"i_long":106.858896,"time":2,"station_id":"MTR","distance":1377,"is_transit":false},{"time":2,"i_long":106.84912,"station_name":"Manggarai","i_lat":-6.209883,"distance":1275,"station_id":"MRI","is_transit":true,"transit":false,"line":0},{"transit":false,"is_transit":false,"station_id":"SUD","distance":3186,"i_lat":-6.202263,"station_name":"Sudirman","time":4,"i_long":106.822649,"line":1},{"distance":280,"i_lat":-6.201433,"i_long":106.819881,"line":1,"station_id":"SUDB","station_name":"Sudirman Baru","is_transit":false,"transit":false,"time":1},{"time":1,"is_transit":false,"distance":471,"i_lat":-6.20132,"i_long":106.816351,"line":1,"station_id":"KAT","station_name":"Karet","transit":false},{"distance":2029,"station_name":"Tanah Abang","i_long":106.811091,"is_transit":true,"line":1,"station_id":"THB","time":5,"transit":false,"i_lat":-6.185545},{"line":1,"transit":true,"station_id":"DU","distance":3632,"is_transit":true,"time":8,"station_name":"Duri","i_lat":-6.155215,"i_long":106.800832},{"line":0,"i_long":106.79867,"is_transit":false,"time":4,"station_id":"AK","distance":1230,"station_name":"Angke","transit":false,"i_lat":-6.144674},{"i_lat":-6.132549,"distance":4102,"station_id":"KPB","time":9,"is_transit":true,"line":0,"station_name":"Kampung Bandan","i_long":106.826365,"transit":false},{"i_long":106.84464,"line":0,"i_lat":-6.128023,"time":4,"transit":false,"is_transit":false,"station_name":"Ancol","station_id":"AC","distance":2185},{"transit":false,"time":9,"i_long":106.880089,"i_lat":-6.1109480000000005,"station_id":"TPK","distance":4566,"is_transit":false,"line":4,"station_name":"Tanjung Priuk"}],[{"is_transit":false,"line":1,"distance":0,"time":0,"station_name":"Klender","station_id":"KLD","transit":false,"i_lat":-6.2135,"i_long":106.899548},{"i_lat":-6.215091,"is_transit":true,"time":3,"transit":false,"distance":3395,"station_id":"JNG","i_long":106.86807400000001,"station_name":"Jatinegara","line":0},{"time":2,"station_name":"Matraman","is_transit":false,"distance":1377,"i_lat":-6.212485,"transit":false,"i_long":106.858896,"line":1,"station_id":"MTR"},{"time":2,"is_transit":true,"transit":true,"station_id":"MRI","line":0,"i_lat":-6.209883,"i_long":106.84912,"station_name":"Manggarai","distance":1275},{"station_id":"CKI","distance":1590,"i_long":106.840169,"transit":false,"line":0,"time":4,"station_name":"Cikini","is_transit":false,"i_lat":-6.198556},{"distance":1750,"i_long":106.832183,"time":3,"i_lat":-6.186295,"line":2,"station_name":"Gondangdia","is_transit":false,"transit":false,"station_id":"GDD"},{"transit":false,"time":4,"distance":2015,"station_name":"Juanda","i_lat":-6.166716,"i_long":106.828284,"is_transit":false,"station_id":"JUA","line":2},{"station_name":"Sawah Besar","transit":false,"is_transit":false,"i_long":106.827103,"time":2,"line":2,"i_lat":-6.160725,"distance":1149,"station_id":"SW"},{"i_lat":-6.149769,"is_transit":false,"time":2,"distance":906,"transit":false,"line":2,"station_id":"MGB","station_name":"Manggabesar","i_long":106.82482},{"i_lat":-6.141205,"transit":false,"is_transit":false,"line":7,"distance":1080,"station_name":"Jayakarta","station_id":"JAY","time":2,"i_long":106.820901},{"time":4,"station_id":"JAKK","transit":true,"is_transit":true,"i_lat":-6.137569,"station_name":"Jakarta Kota","i_long":106.812439,"line":0,"distance":1264},{"is_transit":true,"i_lat":-6.132549,"i_long":106.826365,"line":0,"distance":1364,"station_id":"KPB","time":3,"transit":false,"station_name":"Kampung Bandan"},{"is_transit":false,"i_lat":-6.128023,"line":0,"station_id":"AC","station_name":"Ancol","transit":false,"i_long":106.84464,"distance":2185,"time":4},{"station_id":"TPK","line":4,"i_lat":-6.1109480000000005,"transit":false,"is_transit":false,"time":9,"i_long":106.880089,"distance":4566,"station_name":"Tanjung Priuk"}]]}