{"data":[[{"time":0,"i_lat":-6.2135,"transit":false,"station_id":"KLD","distance":0,"station_name":"Klender","is_transit":false,"line":1,"i_long":106.899548},{"i_long":106.922662,"line":1,"is_transit":false,"station_name":"Buaran","station_id":"BUA","transit":false,"time":2,"i_lat":-6.215568,"distance":3100},{"i_lat":-6.217455,"is_transit":false,"distance":1305,"station_name":"Klenderbaru","i_long":106.939679,"transit":false,"line":1,"station_id":"KLDB","time":1},{"distance":1385,"line":1,"is_transit":false,"station_name":"Cakung","time":8,"transit":false,"station_id":"CUK","i_lat":-6.219053,"i_long":106.951283},{"time":3,"transit":false,"station_id":"KRI","line":1,"i_lat":-6.224515,"station_name":"Kranji","is_transit":false,"distance":3097,"i_long":106.977657},{"i_long":106.997013,"station_name":"Bekasi","is_transit":false,"time":4,"station_id":"BKS","transit":false,"distance":2520,"i_lat":-6.236616,"line":1},{"station_name":"Bekasi Timur","line":1,"i_lat":-6.248029,"station_id":"BKST","is_transit":false,"transit":false,"time":2,"distance":2368,"i_long":107.016735}]]}