{"data":[[{"line":1,"time":0,"i_long":106.939679,"station_id":"KLDB","transit":false,"is_transit":false,"distance":0,"station_name":"Klenderbaru","i_lat":-6.217455},{"distance":1305,"is_transit":false,"station_id":"BUA","time":1,"i_lat":-6.215568,"station_name":"Buaran","i_long":106.922662,"line":0,"transit":false},{"time":2,"transit":false,"i_lat":-6.2135,"station_name":"Klender","distance":3100,"is_transit":false,"i_long":106.899548,"line":1,"station_id":"KLD"},{"i_lat":-6.215091,"station_id":"JNG","distance":3395,"i_long":106.86807400000001,"line":0,"is_transit":true,"transit":false,"time":3,"station_name":"Jatinegara"},{"distance":1377,"line":1,"time":2,"i_long":106.858896,"station_id":"MTR","is_transit":false,"i_lat":-6.212485,"transit":false,"station_name":"Matraman"},{"transit":true,"i_long":106.84912,"line":0,"time":2,"i_lat":-6.209883,"is_transit":true,"station_id":"MRI","distance":1275,"station_name":"Manggarai"},{"i_long":106.857948,"distance":2610,"station_name":"Tebet","transit":false,"time":4,"station_id":"TEB","i_lat":-6.226659,"line":2,"is_transit":false},{"i_long":106.856607,"station_name":"Cawang","time":2,"station_id":"CW","distance":1230,"i_lat":-6.242512,"is_transit":false,"line":0,"transit":false},{"line":0,"station_name":"Duren Kalibata","station_id":"DRN","distance":1546,"transit":false,"i_lat":-6.255332,"is_transit":false,"i_long":106.85449,"time":3}],[{"i_long":106.939679,"is_transit":false,"station_id":"KLDB","distance":0,"transit":false,"i_lat":-6.217455,"line":1,"time":0,"station_name":"Klenderbaru"},{"i_lat":-6.215568,"distance":1305,"station_name":"Buaran","transit":false,"i_long":106.922662,"is_transit":false,"line":0,"station_id":"BUA","time":1},{"transit":false,"is_transit":false,"distance":3100,"i_lat":-6.2135,"time":2,"station_name":"Klender","line":1,"station_id":"KLD","i_long":106.899548},{"station_name":"Jatinegara","time":3,"distance":3395,"is_transit":true,"i_long":106.86807400000001,"i_lat":-6.215091,"line":0,"station_id":"JNG","transit":true},{"station_name":"Pondok Jati","station_id":"POK","i_lat":-6.209188,"i_long":106.861737,"is_transit":false,"time":2,"line":11,"distance":1236,"transit":false},{"i_long":106.855437,"station_id":"KMT","i_lat":-6.193792,"line":11,"station_name":"Kramat","transit":false,"is_transit":false,"time":2,"distance":1829},{"distance":973,"station_name":"Gang Sentiong","time":1,"transit":false,"is_transit":false,"i_long":106.850107,"i_lat":-6.185975,"line":11,"station_id":"GST"},{"transit":false,"time":8,"station_name":"Pasar Senen","distance":1567,"i_lat":-6.174784,"i_long":106.84368,"line":11,"is_transit":false,"station_id":"PSE"},{"i_long":106.839204,"station_name":"Kemayoran","i_lat":-6.161728,"line":11,"is_transit":false,"time":4,"transit":false,"distance":1436,"station_id":"KMO"},{"distance":1901,"station_name":"Rajawali","i_lat":-6.14505,"time":5,"line":11,"is_transit":false,"i_long":106.836569,"transit":false,"station_id":"RJW"},{"distance":1444,"transit":true,"i_long":106.826365,"line":0,"time":3,"is_transit":true,"i_lat":-6.132549,"station_id":"KPB","station_name":"Kampung Bandan"},{"is_transit":false,"station_id":"AK","distance":4102,"station_name":"Angke","i_long":106.79867,"line":0,"i_lat":-6.144674,"transit":false,"time":9},{"station_id":"DU","time":4,"i_lat":-6.155215,"i_long":106.800832,"line":1,"distance":1230,"is_transit":true,"station_name":"Duri","transit":true},{"station_name":"Tanah Abang","transit":false,"is_transit":true,"time":8,"station_id":"THB","distance":3632,"i_lat":-6.185545,"i_long":106.811091,"line":1},{"i_lat":-6.20132,"line":1,"distance":2029,"time":5,"i_long":106.816351,"station_name":"Karet","station_id":"KAT","transit":false,"is_transit":false},{"is_transit":false,"station_name":"Sudirman Baru","i_long":106.819881,"transit":false,"i_lat":-6.201433,"line":1,"time":1,"station_id":"SUDB","distance":471},{"is_transit":false,"time":1,"distance":280,"i_long":106.822649,"station_id":"SUD","transit":false,"line":1,"station_name":"Sudirman","i_lat":-6.202263},{"line":0,"time":4,"station_id":"MRI","station_name":"Manggarai","i_long":106.84912,"is_transit":true,"distance":3186,"i_lat":-6.209883,"transit":true},{"time":4,"station_id":"TEB","is_transit":false,"distance":2610,"line":2,"transit":false,"station_name":"Tebet","i_lat":-6.226659,"i_long":106.857948},{"station_name":"Cawang","i_long":106.856607,"transit":false,"is_transit":false,"time":2,"line":0,"i_lat":-6.242512,"distance":1230,"station_id":"CW"},{"distance":1546,"i_lat":-6.255332,"i_long":106.85449,"station_id":"DRN","time":3,"transit":false,"is_transit":false,"line":0,"station_name":"Duren Kalibata"}],[{"transit":false,"time":0,"distance":0,"station_name":"Klenderbaru","line":1,"is_transit":false,"i_lat":-6.217455,"i_long":106.939679,"station_id":"KLDB"},{"station_id":"BUA","transit":false,"i_lat":-6.215568,"is_transit":false,"station_name":"Buaran","line":0,"i_long":106.922662,"distance":1305,"time":1},{"distance":3100,"i_long":106.899548,"time":2,"station_name":"Klender","transit":false,"i_lat":-6.2135,"is_transit":false,"station_id":"KLD","line":1},{"transit":true,"line":0,"distance":3395,"time":3,"i_lat":-6.215091,"is_transit":true,"i_long":106.86807400000001,"station_name":"Jatinegara","station_id":"JNG"},{"time":2,"is_transit":false,"distance":1236,"transit":false,"i_lat":-6.209188,"line":11,"station_id":"POK","i_long":106.861737,"station_name":"Pondok Jati"},{"i_lat":-6.193792,"station_id":"KMT","is_transit":false,"distance":1829,"i_long":106.855437,"line":11,"transit":false,"station_name":"Kramat","time":2},{"station_id":"GST","i_long":106.850107,"distance":973,"line":11,"is_transit":false,"i_lat":-6.185975,"time":1,"transit":false,"station_name":"Gang Sentiong"},{"time":8,"station_id":"PSE","i_lat":-6.174784,"distance":1567,"station_name":"Pasar Senen","i_long":106.84368,"is_transit":false,"transit":false,"line":11},{"station_name":"Kemayoran","is_transit":false,"line":11,"distance":1436,"time":4,"station_id":"KMO","transit":false,"i_lat":-6.161728,"i_long":106.839204},{"distance":1901,"transit":false,"station_id":"RJW","line":11,"i_lat":-6.14505,"time":5,"station_name":"Rajawali","i_long":106.836569,"is_transit":false},{"is_transit":true,"transit":true,"line":0,"station_name":"Kampung Bandan","i_lat":-6.132549,"station_id":"KPB","time":3,"distance":1444,"i_long":106.826365},{"station_id":"JAKK","transit":true,"station_name":"Jakarta Kota","i_lat":-6.137569,"is_transit":true,"line":0,"distance":1364,"time":3,"i_long":106.812439},{"line":7,"station_name":"Jayakarta","i_lat":-6.141205,"i_long":106.820901,"station_id":"JAY","is_transit":false,"time":4,"distance":1264,"transit":false},{"time":2,"distance":1080,"station_name":"Manggabesar","station_id":"MGB","is_transit":false,"i_long":106.82482,"line":2,"transit":false,"i_lat":-6.149769},{"distance":906,"i_lat":-6.160725,"is_transit":false,"station_name":"Sawah Besar","time":2,"i_long":106.827103,"transit":false,"line":2,"station_id":"SW"},{"is_transit":false,"distance":1149,"time":2,"transit":false,"line":2,"station_name":"Juanda","i_lat":-6.166716,"station_id":"JUA","i_long":106.828284},{"station_id":"GDD","is_transit":false,"transit":false,"distance":2015,"station_name":"Gondangdia","i_long":106.832183,"line":2,"i_lat":-6.186295,"time":4},{"i_lat":-6.198556,"time":3,"distance":1750,"station_name":"Cikini","station_id":"CKI","i_long":106.840169,"transit":false,"line":0,"is_transit":false},{"station_name":"Manggarai","is_transit":true,"distance":1590,"line":0,"time":4,"i_long":106.84912,"station_id":"MRI","transit":true,"i_lat":-6.209883},{"station_name":"Tebet","transit":false,"line":2,"station_id":"TEB","i_long":106.857948,"i_lat":-6.226659,"time":4,"is_transit":false,"distance":2610},{"station_name":"Cawang","line":0,"distance":1230,"station_id":"CW","i_lat":-6.242512,"is_transit":false,"time":2,"i_long":106.856607,"transit":false},{"time":3,"i_lat":-6.255332,"station_name":"Duren Kalibata","i_long":106.85449,"station_id":"DRN","line":0,"distance":1546,"is_transit":false,"transit":false}]]}