{"data":[[{"time":0,"i_lat":-6.217455,"is_transit":false,"station_id":"KLDB","distance":0,"transit":false,"i_long":106.939679,"station_name":"Klenderbaru","line":1},{"is_transit":false,"i_long":106.922662,"station_name":"Buaran","transit":false,"station_id":"BUA","distance":1305,"time":1,"i_lat":-6.215568,"line":1},{"station_id":"KLD","station_name":"Klender","line":1,"i_lat":-6.2135,"time":2,"distance":3100,"is_transit":false,"i_long":106.899548,"transit":false},{"time":3,"station_id":"JNG","distance":3395,"is_transit":false,"i_lat":-6.215091,"station_name":"Jatinegara","transit":false,"i_long":106.86807400000001,"line":1},{"is_transit":false,"line":1,"i_long":106.858896,"time":2,"i_lat":-6.212485,"distance":1377,"station_id":"MTR","transit":false,"station_name":"Matraman"},{"distance":1275,"time":2,"station_id":"MRI","transit":false,"is_transit":false,"station_name":"Manggarai","i_lat":-6.209883,"i_long":106.84912,"line":2},{"transit":false,"line":1,"is_transit":false,"station_id":"SUD","distance":3186,"i_lat":-6.202263,"time":4,"i_long":106.822649,"station_name":"Sudirman"},{"i_lat":-6.201433,"is_transit":false,"transit":false,"i_long":106.819881,"station_id":"SUDB","line":1,"station_name":"Sudirman Baru","distance":280,"time":1},{"i_lat":-6.20132,"distance":471,"i_long":106.816351,"station_name":"Karet","line":1,"time":1,"is_transit":false,"transit":false,"station_id":"KAT"},{"station_id":"THB","is_transit":false,"distance":2029,"i_long":106.811091,"i_lat":-6.185545,"transit":false,"time":5,"station_name":"Tanah Abang","line":1},{"transit":true,"station_name":"Duri","time":8,"line":1,"i_long":106.800832,"distance":3632,"station_id":"DU","i_lat":-6.155215,"is_transit":true},{"i_long":106.788277,"station_id":"GRG","line":5,"station_name":"Grogol","time":3,"is_transit":false,"transit":false,"i_lat":-6.162021,"distance":1700},{"line":5,"transit":false,"i_lat":-6.161433,"station_name":"Pesing","i_long":106.771379,"distance":2036,"time":2,"station_id":"PSG","is_transit":false},{"time":2,"i_long":106.756522,"station_name":"Taman Kota","transit":false,"distance":1614,"station_id":"TKO","is_transit":false,"line":5,"i_lat":-6.1587309999999995},{"line":5,"distance":2334,"transit":false,"i_lat":-6.159876,"station_id":"BOI","is_transit":false,"i_long":106.737035,"time":2,"station_name":"Bojongindah"},{"time":4,"distance":1152,"station_name":"Rawa Buaya","station_id":"RW","is_transit":false,"transit":false,"line":5,"i_lat":-6.162758,"i_long":106.723064},{"time":3,"i_long":106.701612,"distance":2504,"station_name":"Kalideres","transit":false,"is_transit":false,"i_lat":-6.166068,"line":5,"station_id":"KDS"}],[{"i_long":106.939679,"transit":false,"line":1,"station_id":"KLDB","time":0,"distance":0,"i_lat":-6.217455,"is_transit":false,"station_name":"Klenderbaru"},{"line":1,"station_name":"Buaran","distance":1305,"station_id":"BUA","time":1,"transit":false,"i_long":106.922662,"is_transit":false,"i_lat":-6.215568},{"i_lat":-6.2135,"transit":false,"station_id":"KLD","station_name":"Klender","line":1,"is_transit":false,"distance":3100,"i_long":106.899548,"time":2},{"station_id":"JNG","i_lat":-6.215091,"transit":true,"i_long":106.86807400000001,"station_name":"Jatinegara","time":3,"line":1,"distance":3395,"is_transit":true},{"distance":1236,"transit":false,"line":11,"time":2,"station_id":"POK","i_lat":-6.209188,"is_transit":false,"station_name":"Pondok Jati","i_long":106.861737},{"station_name":"Kramat","distance":1829,"time":2,"transit":false,"i_lat":-6.193792,"is_transit":false,"i_long":106.855437,"line":11,"station_id":"KMT"},{"station_id":"GST","line":11,"transit":false,"station_name":"Gang Sentiong","i_long":106.850107,"is_transit":false,"i_lat":-6.185975,"distance":973,"time":1},{"station_id":"PSE","station_name":"Pasar Senen","is_transit":false,"i_lat":-6.174784,"transit":false,"distance":1567,"i_long":106.84368,"time":8,"line":11},{"is_transit":false,"transit":false,"distance":1436,"station_id":"KMO","i_lat":-6.161728,"time":4,"station_name":"Kemayoran","line":11,"i_long":106.839204},{"distance":1901,"is_transit":false,"transit":false,"station_name":"Rajawali","line":11,"station_id":"RJW","time":5,"i_long":106.836569,"i_lat":-6.14505},{"is_transit":true,"time":3,"i_long":106.826365,"transit":true,"i_lat":-6.132549,"distance":1444,"line":4,"station_id":"KPB","station_name":"Kampung Bandan"},{"time":9,"i_lat":-6.144674,"distance":4102,"is_transit":false,"transit":false,"i_long":106.79867,"station_id":"AK","line":1,"station_name":"Angke"},{"time":4,"distance":1230,"line":1,"i_lat":-6.155215,"i_long":106.800832,"station_id":"DU","is_transit":true,"station_name":"Duri","transit":true},{"is_transit":false,"line":5,"distance":1700,"station_id":"GRG","transit":false,"time":3,"i_lat":-6.162021,"station_name":"Grogol","i_long":106.788277},{"time":2,"transit":false,"is_transit":false,"i_lat":-6.161433,"line":5,"station_id":"PSG","station_name":"Pesing","i_long":106.771379,"distance":2036},{"i_lat":-6.1587309999999995,"line":5,"i_long":106.756522,"time":2,"is_transit":false,"distance":1614,"station_name":"Taman Kota","station_id":"TKO","transit":false},{"line":5,"time":2,"station_id":"BOI","distance":2334,"transit":false,"is_transit":false,"i_lat":-6.159876,"i_long":106.737035,"station_name":"Bojongindah"},{"time":4,"distance":1152,"i_lat":-6.162758,"i_long":106.723064,"is_transit":false,"station_id":"RW","station_name":"Rawa Buaya","line":5,"transit":false},{"is_transit":false,"time":3,"line":5,"station_id":"KDS","distance":2504,"transit":false,"i_long":106.701612,"station_name":"Kalideres","i_lat":-6.166068}],[{"station_name":"Klenderbaru","transit":false,"station_id":"KLDB","i_lat":-6.217455,"is_transit":false,"distance":0,"line":1,"i_long":106.939679,"time":0},{"i_lat":-6.215568,"distance":1305,"station_id":"BUA","time":1,"line":1,"station_name":"Buaran","transit":false,"is_transit":false,"i_long":106.922662},{"distance":3100,"station_id":"KLD","line":1,"transit":false,"is_transit":false,"time":2,"station_name":"Klender","i_long":106.899548,"i_lat":-6.2135},{"time":3,"is_transit":false,"station_id":"JNG","i_lat":-6.215091,"station_name":"Jatinegara","distance":3395,"i_long":106.86807400000001,"line":1,"transit":false},{"station_name":"Matraman","transit":false,"i_lat":-6.212485,"time":2,"i_long":106.858896,"is_transit":false,"distance":1377,"line":1,"station_id":"MTR"},{"station_name":"Manggarai","line":2,"station_id":"MRI","i_long":106.84912,"distance":1275,"transit":true,"i_lat":-6.209883,"is_transit":true,"time":2},{"line":2,"station_id":"CKI","i_lat":-6.198556,"station_name":"Cikini","time":4,"is_transit":false,"i_long":106.840169,"distance":1590,"transit":false},{"station_id":"GDD","line":2,"distance":1750,"time":3,"is_transit":false,"i_long":106.832183,"i_lat":-6.186295,"station_name":"Gondangdia","transit":false},{"time":4,"i_long":106.828284,"distance":2015,"station_name":"Juanda","station_id":"JUA","i_lat":-6.166716,"line":2,"is_transit":false,"transit":false},{"distance":1149,"transit":false,"station_name":"Sawah Besar","i_lat":-6.160725,"station_id":"SW","i_long":106.827103,"time":2,"is_transit":false,"line":2},{"time":2,"line":2,"distance":906,"transit":false,"is_transit":false,"station_name":"Manggabesar","i_long":106.82482,"station_id":"MGB","i_lat":-6.149769},{"is_transit":false,"line":2,"distance":1080,"i_long":106.820901,"station_id":"JAY","station_name":"Jayakarta","time":2,"transit":false,"i_lat":-6.141205},{"is_transit":true,"transit":true,"time":4,"station_name":"Jakarta Kota","station_id":"JAKK","i_lat":-6.137569,"distance":1264,"i_long":106.812439,"line":2},{"i_lat":-6.132549,"station_name":"Kampung Bandan","line":4,"transit":true,"i_long":106.826365,"distance":1364,"time":3,"is_transit":true,"station_id":"KPB"},{"transit":false,"is_transit":false,"i_lat":-6.144674,"time":9,"station_id":"AK","line":1,"i_long":106.79867,"distance":4102,"station_name":"Angke"},{"time":4,"station_name":"Duri","is_transit":true,"station_id":"DU","transit":true,"line":1,"i_lat":-6.155215,"i_long":106.800832,"distance":1230},{"i_long":106.788277,"line":5,"station_name":"Grogol","station_id":"GRG","is_transit":false,"transit":false,"distance":1700,"time":3,"i_lat":-6.162021},{"is_transit":false,"station_id":"PSG","transit":false,"station_name":"Pesing","time":2,"i_lat":-6.161433,"distance":2036,"line":5,"i_long":106.771379},{"i_long":106.756522,"station_id":"TKO","is_transit":false,"line":5,"transit":false,"station_name":"Taman Kota","distance":1614,"time":2,"i_lat":-6.1587309999999995},{"is_transit":false,"station_id":"BOI","time":2,"i_long":106.737035,"station_name":"Bojongindah","i_lat":-6.159876,"distance":2334,"line":5,"transit":false},{"is_transit":false,"line":5,"station_name":"Rawa Buaya","time":4,"i_long":106.723064,"transit":false,"station_id":"RW","distance":1152,"i_lat":-6.162758},{"station_name":"Kalideres","i_lat":-6.166068,"time":3,"station_id":"KDS","i_long":106.701612,"line":5,"distance":2504,"is_transit":false,"transit":false}],[{"line":1,"is_transit":false,"time":0,"station_name":"Klenderbaru","distance":0,"station_id":"KLDB","transit":false,"i_lat":-6.217455,"i_long":106.939679},{"station_name":"Buaran","line":1,"time":1,"distance":1305,"is_transit":false,"transit":false,"i_lat":-6.215568,"station_id":"BUA","i_long":106.922662},{"distance":3100,"time":2,"station_id":"KLD","i_lat":-6.2135,"is_transit":false,"transit":false,"line":1,"station_name":"Klender","i_long":106.899548},{"distance":3395,"time":3,"line":1,"is_transit":true,"transit":true,"i_long":106.86807400000001,"station_id":"JNG","i_lat":-6.215091,"station_name":"Jatinegara"},{"is_transit":false,"time":2,"station_id":"POK","distance":1236,"line":11,"i_long":106.861737,"station_name":"Pondok Jati","i_lat":-6.209188,"transit":false},{"i_lat":-6.193792,"transit":false,"station_id":"KMT","station_name":"Kramat","distance":1829,"time":2,"is_transit":false,"i_long":106.855437,"line":11},{"is_transit":false,"transit":false,"time":1,"station_name":"Gang Sentiong","station_id":"GST","i_lat":-6.185975,"i_long":106.850107,"line":11,"distance":973},{"station_id":"PSE","time":8,"is_transit":false,"station_name":"Pasar Senen","i_lat":-6.174784,"distance":1567,"transit":false,"line":11,"i_long":106.84368},{"i_lat":-6.161728,"line":11,"distance":1436,"is_transit":false,"transit":false,"station_name":"Kemayoran","station_id":"KMO","time":4,"i_long":106.839204},{"time":5,"station_name":"Rajawali","station_id":"RJW","i_lat":-6.14505,"distance":1901,"is_transit":false,"i_long":106.836569,"transit":false,"line":11},{"line":4,"i_lat":-6.132549,"station_name":"Kampung Bandan","is_transit":true,"station_id":"KPB","i_long":106.826365,"time":3,"transit":true,"distance":1444},{"station_id":"JAKK","transit":true,"i_long":106.812439,"line":2,"distance":1364,"is_transit":true,"station_name":"Jakarta Kota","time":3,"i_lat":-6.137569},{"transit":false,"station_name":"Jayakarta","distance":1264,"station_id":"JAY","time":4,"i_lat":-6.141205,"i_long":106.820901,"is_transit":false,"line":2},{"is_transit":false,"station_id":"MGB","transit":false,"line":2,"distance":1080,"time":2,"station_name":"Manggabesar","i_long":106.82482,"i_lat":-6.149769},{"line":2,"transit":false,"is_transit":false,"i_long":106.827103,"distance":906,"station_id":"SW","i_lat":-6.160725,"station_name":"Sawah Besar","time":2},{"time":2,"distance":1149,"station_name":"Juanda","i_long":106.828284,"transit":false,"station_id":"JUA","line":2,"i_lat":-6.166716,"is_transit":false},{"transit":false,"is_transit":false,"station_id":"GDD","i_long":106.832183,"line":2,"time":4,"i_lat":-6.186295,"distance":2015,"station_name":"Gondangdia"},{"distance":1750,"station_id":"CKI","line":2,"station_name":"Cikini","time":3,"is_transit":false,"i_lat":-6.198556,"transit":false,"i_long":106.840169},{"time":4,"line":2,"i_lat":-6.209883,"i_long":106.84912,"transit":true,"is_transit":true,"station_name":"Manggarai","station_id":"MRI","distance":1590},{"transit":false,"line":1,"station_name":"Sudirman","distance":3186,"station_id":"SUD","is_transit":false,"time":4,"i_lat":-6.202263,"i_long":106.822649},{"transit":false,"i_lat":-6.201433,"line":1,"station_name":"Sudirman Baru","distance":280,"time":1,"station_id":"SUDB","is_transit":false,"i_long":106.819881},{"transit":false,"line":1,"station_id":"KAT","is_transit":false,"i_long":106.816351,"station_name":"Karet","time":1,"distance":471,"i_lat":-6.20132},{"station_name":"Tanah Abang","i_lat":-6.185545,"transit":false,"is_transit":false,"i_long":106.811091,"time":5,"distance":2029,"station_id":"THB","line":1},{"i_lat":-6.155215,"is_transit":true,"i_long":106.800832,"line":1,"distance":3632,"transit":true,"station_name":"Duri","time":8,"station_id":"DU"},{"transit":false,"i_lat":-6.162021,"time":3,"line":5,"i_long":106.788277,"is_transit":false,"station_id":"GRG","distance":1700,"station_name":"Grogol"},{"i_long":106.771379,"i_lat":-6.161433,"is_transit":false,"station_id":"PSG","line":5,"distance":2036,"station_name":"Pesing","transit":false,"time":2},{"station_id":"TKO","line":5,"is_transit":false,"station_name":"Taman Kota","time":2,"i_long":106.756522,"i_lat":-6.1587309999999995,"distance":1614,"transit":false},{"station_name":"Bojongindah","is_transit":false,"i_long":106.737035,"line":5,"transit":false,"distance":2334,"i_lat":-6.159876,"station_id":"BOI","time":2},{"i_lat":-6.162758,"is_transit":false,"station_name":"Rawa Buaya","distance":1152,"transit":false,"i_long":106.723064,"station_id":"RW","time":4,"line":5},{"transit":false,"time":3,"i_lat":-6.166068,"distance":2504,"station_name":"Kalideres","is_transit":false,"station_id":"KDS","i_long":106.701612,"line":5}]]}