{"data":[[{"distance":0,"i_lat":-6.217455,"line":1,"transit":false,"station_id":"KLDB","time":0,"station_name":"Klenderbaru","is_transit":false,"i_long":106.939679},{"station_id":"BUA","i_long":106.922662,"time":1,"i_lat":-6.215568,"is_transit":false,"station_name":"Buaran","distance":1305,"transit":false,"line":1},{"line":1,"transit":false,"station_name":"Klender","station_id":"KLD","distance":3100,"i_long":106.899548,"is_transit":false,"time":2,"i_lat":-6.2135},{"station_name":"Jatinegara","distance":3395,"i_long":106.86807400000001,"station_id":"JNG","line":1,"i_lat":-6.215091,"time":3,"transit":false,"is_transit":false},{"line":1,"is_transit":false,"distance":1377,"station_id":"MTR","i_lat":-6.212485,"i_long":106.858896,"transit":false,"station_name":"Matraman","time":2},{"transit":false,"time":2,"distance":1275,"is_transit":false,"i_lat":-6.209883,"station_name":"Manggarai","station_id":"MRI","line":2,"i_long":106.84912},{"station_id":"SUD","time":4,"i_lat":-6.202263,"distance":3186,"i_long":106.822649,"is_transit":false,"station_name":"Sudirman","line":1,"transit":false},{"i_long":106.819881,"line":1,"station_name":"Sudirman Baru","transit":false,"time":1,"distance":280,"is_transit":false,"station_id":"SUDB","i_lat":-6.201433},{"i_long":106.816351,"distance":471,"transit":false,"station_name":"Karet","station_id":"KAT","time":1,"line":1,"is_transit":false,"i_lat":-6.20132},{"station_id":"THB","distance":2029,"is_transit":false,"i_lat":-6.185545,"station_name":"Tanah Abang","transit":false,"time":5,"i_long":106.811091,"line":1},{"distance":3632,"is_transit":true,"time":8,"i_lat":-6.155215,"i_long":106.800832,"station_name":"Duri","line":1,"transit":true,"station_id":"DU"},{"transit":false,"i_lat":-6.162021,"is_transit":false,"i_long":106.788277,"station_name":"Grogol","station_id":"GGL","time":3,"distance":1700,"line":5},{"time":2,"distance":2036,"i_long":106.771379,"line":5,"i_lat":-6.161433,"transit":false,"station_name":"Pesing","station_id":"PSG","is_transit":false},{"i_long":106.756522,"is_transit":false,"transit":false,"station_name":"Taman Kota","i_lat":-6.1587309999999995,"line":5,"time":2,"station_id":"TKO","distance":1614},{"i_long":106.737035,"station_name":"Bojongindah","time":2,"distance":2334,"line":5,"i_lat":-6.159876,"station_id":"BOI","is_transit":false,"transit":false}],[{"station_name":"Klenderbaru","station_id":"KLDB","is_transit":false,"time":0,"i_lat":-6.217455,"transit":false,"distance":0,"i_long":106.939679,"line":1},{"i_long":106.922662,"transit":false,"station_name":"Buaran","distance":1305,"time":1,"i_lat":-6.215568,"station_id":"BUA","is_transit":false,"line":1},{"distance":3100,"station_name":"Klender","i_lat":-6.2135,"line":1,"transit":false,"i_long":106.899548,"time":2,"is_transit":false,"station_id":"KLD"},{"i_lat":-6.215091,"time":3,"transit":true,"distance":3395,"i_long":106.86807400000001,"station_name":"Jatinegara","is_transit":true,"station_id":"JNG","line":1},{"transit":false,"station_id":"POK","time":2,"is_transit":false,"i_long":106.861737,"station_name":"Pondok Jati","line":11,"i_lat":-6.209188,"distance":1236},{"is_transit":false,"line":11,"time":2,"distance":1829,"i_long":106.855437,"i_lat":-6.193792,"station_name":"Kramat","transit":false,"station_id":"KMT"},{"station_name":"Gang Sentiong","is_transit":false,"i_lat":-6.185975,"transit":false,"station_id":"GST","line":11,"i_long":106.850107,"time":1,"distance":973},{"line":11,"transit":false,"i_lat":-6.174784,"distance":1567,"station_id":"PSE","time":8,"i_long":106.84368,"station_name":"Pasar Senen","is_transit":false},{"is_transit":false,"transit":false,"i_lat":-6.161728,"line":11,"station_id":"KMO","distance":1436,"station_name":"Kemayoran","i_long":106.839204,"time":4},{"station_id":"RJW","is_transit":false,"time":5,"distance":1901,"line":11,"i_long":106.836569,"i_lat":-6.14505,"station_name":"Rajawali","transit":false},{"i_lat":-6.132549,"station_id":"KPB","line":4,"station_name":"Kampung Bandan","is_transit":true,"i_long":106.826365,"transit":true,"time":3,"distance":1444},{"station_id":"AK","is_transit":false,"station_name":"Angke","distance":4102,"line":1,"transit":false,"time":9,"i_lat":-6.144674,"i_long":106.79867},{"i_long":106.800832,"station_name":"Duri","line":1,"time":4,"station_id":"DU","transit":true,"is_transit":true,"i_lat":-6.155215,"distance":1230},{"station_name":"Grogol","time":3,"is_transit":false,"distance":1700,"i_lat":-6.162021,"transit":false,"station_id":"GGL","i_long":106.788277,"line":5},{"station_name":"Pesing","line":5,"is_transit":false,"time":2,"station_id":"PSG","distance":2036,"i_long":106.771379,"transit":false,"i_lat":-6.161433},{"time":2,"line":5,"transit":false,"station_name":"Taman Kota","i_lat":-6.1587309999999995,"is_transit":false,"distance":1614,"i_long":106.756522,"station_id":"TKO"},{"line":5,"is_transit":false,"station_id":"BOI","distance":2334,"transit":false,"station_name":"Bojongindah","time":2,"i_lat":-6.159876,"i_long":106.737035}],[{"time":0,"i_lat":-6.217455,"transit":false,"station_name":"Klenderbaru","is_transit":false,"station_id":"KLDB","distance":0,"line":1,"i_long":106.939679},{"is_transit":false,"i_lat":-6.215568,"i_long":106.922662,"station_id":"BUA","line":1,"transit":false,"time":1,"distance":1305,"station_name":"Buaran"},{"i_lat":-6.2135,"is_transit":false,"time":2,"distance":3100,"i_long":106.899548,"transit":false,"station_id":"KLD","station_name":"Klender","line":1},{"transit":false,"station_id":"JNG","time":3,"i_lat":-6.215091,"station_name":"Jatinegara","is_transit":false,"distance":3395,"line":1,"i_long":106.86807400000001},{"line":1,"time":2,"transit":false,"i_lat":-6.212485,"is_transit":false,"station_name":"Matraman","distance":1377,"i_long":106.858896,"station_id":"MTR"},{"distance":1275,"transit":true,"i_long":106.84912,"time":2,"station_name":"Manggarai","line":2,"station_id":"MRI","is_transit":true,"i_lat":-6.209883},{"transit":false,"distance":1590,"station_name":"Cikini","time":4,"i_lat":-6.198556,"is_transit":false,"line":2,"i_long":106.840169,"station_id":"CKI"},{"transit":false,"distance":1750,"line":2,"time":3,"station_id":"GDD","station_name":"Gondangdia","is_transit":false,"i_lat":-6.186295,"i_long":106.832183},{"line":2,"i_lat":-6.166716,"station_name":"Juanda","i_long":106.828284,"station_id":"JUA","transit":false,"distance":2015,"is_transit":false,"time":4},{"distance":1149,"line":2,"transit":false,"is_transit":false,"station_id":"SW","time":2,"i_lat":-6.160725,"station_name":"Sawah Besar","i_long":106.827103},{"i_lat":-6.149769,"time":2,"distance":906,"station_name":"Manggabesar","station_id":"MGB","i_long":106.82482,"transit":false,"is_transit":false,"line":2},{"i_lat":-6.141205,"line":2,"station_id":"JAY","i_long":106.820901,"distance":1080,"transit":false,"station_name":"Jayakarta","time":2,"is_transit":false},{"i_lat":-6.137569,"station_name":"Jakarta Kota","station_id":"JAKK","i_long":106.812439,"line":2,"time":4,"is_transit":true,"transit":true,"distance":1264},{"transit":true,"station_id":"KPB","time":3,"distance":1364,"i_long":106.826365,"i_lat":-6.132549,"line":4,"is_transit":true,"station_name":"Kampung Bandan"},{"time":9,"transit":false,"i_long":106.79867,"distance":4102,"line":1,"station_name":"Angke","is_transit":false,"i_lat":-6.144674,"station_id":"AK"},{"station_id":"DU","distance":1230,"line":1,"i_lat":-6.155215,"transit":true,"is_transit":true,"i_long":106.800832,"station_name":"Duri","time":4},{"i_long":106.788277,"line":5,"distance":1700,"station_name":"Grogol","station_id":"GGL","is_transit":false,"i_lat":-6.162021,"transit":false,"time":3},{"i_lat":-6.161433,"distance":2036,"line":5,"station_name":"Pesing","is_transit":false,"transit":false,"time":2,"station_id":"PSG","i_long":106.771379},{"transit":false,"distance":1614,"station_id":"TKO","i_lat":-6.1587309999999995,"station_name":"Taman Kota","line":5,"time":2,"i_long":106.756522,"is_transit":false},{"distance":2334,"station_name":"Bojongindah","time":2,"i_lat":-6.159876,"transit":false,"station_id":"BOI","is_transit":false,"line":5,"i_long":106.737035}],[{"transit":false,"time":0,"i_lat":-6.217455,"station_id":"KLDB","distance":0,"i_long":106.939679,"line":1,"station_name":"Klenderbaru","is_transit":false},{"station_id":"BUA","transit":false,"station_name":"Buaran","i_lat":-6.215568,"i_long":106.922662,"distance":1305,"is_transit":false,"line":1,"time":1},{"distance":3100,"i_lat":-6.2135,"line":1,"is_transit":false,"time":2,"transit":false,"station_name":"Klender","station_id":"KLD","i_long":106.899548},{"station_name":"Jatinegara","is_transit":true,"i_long":106.86807400000001,"distance":3395,"station_id":"JNG","time":3,"transit":true,"i_lat":-6.215091,"line":1},{"line":11,"i_lat":-6.209188,"station_id":"POK","transit":false,"station_name":"Pondok Jati","distance":1236,"time":2,"i_long":106.861737,"is_transit":false},{"station_name":"Kramat","station_id":"KMT","line":11,"transit":false,"is_transit":false,"time":2,"i_long":106.855437,"distance":1829,"i_lat":-6.193792},{"i_lat":-6.185975,"i_long":106.850107,"line":11,"is_transit":false,"time":1,"transit":false,"station_name":"Gang Sentiong","station_id":"GST","distance":973},{"time":8,"transit":false,"i_lat":-6.174784,"line":11,"station_name":"Pasar Senen","distance":1567,"station_id":"PSE","i_long":106.84368,"is_transit":false},{"line":11,"is_transit":false,"station_id":"KMO","station_name":"Kemayoran","i_lat":-6.161728,"time":4,"distance":1436,"transit":false,"i_long":106.839204},{"i_long":106.836569,"transit":false,"station_name":"Rajawali","line":11,"distance":1901,"i_lat":-6.14505,"station_id":"RJW","time":5,"is_transit":false},{"i_long":106.826365,"is_transit":true,"transit":true,"station_name":"Kampung Bandan","i_lat":-6.132549,"line":4,"distance":1444,"station_id":"KPB","time":3},{"is_transit":true,"i_lat":-6.137569,"line":2,"i_long":106.812439,"transit":true,"time":3,"distance":1364,"station_name":"Jakarta Kota","station_id":"JAKK"},{"station_id":"JAY","is_transit":false,"time":4,"i_lat":-6.141205,"station_name":"Jayakarta","distance":1264,"transit":false,"i_long":106.820901,"line":2},{"i_long":106.82482,"time":2,"station_id":"MGB","is_transit":false,"distance":1080,"station_name":"Manggabesar","line":2,"transit":false,"i_lat":-6.149769},{"station_id":"SW","transit":false,"line":2,"distance":906,"i_lat":-6.160725,"station_name":"Sawah Besar","i_long":106.827103,"time":2,"is_transit":false},{"time":2,"station_name":"Juanda","station_id":"JUA","distance":1149,"i_lat":-6.166716,"i_long":106.828284,"line":2,"is_transit":false,"transit":false},{"transit":false,"time":4,"distance":2015,"station_name":"Gondangdia","is_transit":false,"line":2,"station_id":"GDD","i_lat":-6.186295,"i_long":106.832183},{"distance":1750,"i_lat":-6.198556,"line":2,"time":3,"i_long":106.840169,"is_transit":false,"station_name":"Cikini","station_id":"CKI","transit":false},{"line":2,"station_name":"Manggarai","transit":true,"distance":1590,"station_id":"MRI","is_transit":true,"time":4,"i_lat":-6.209883,"i_long":106.84912},{"station_name":"Sudirman","station_id":"SUD","line":1,"time":4,"distance":3186,"transit":false,"is_transit":false,"i_long":106.822649,"i_lat":-6.202263},{"time":1,"distance":280,"i_long":106.819881,"i_lat":-6.201433,"is_transit":false,"line":1,"transit":false,"station_id":"SUDB","station_name":"Sudirman Baru"},{"station_name":"Karet","distance":471,"line":1,"i_lat":-6.20132,"is_transit":false,"transit":false,"i_long":106.816351,"time":1,"station_id":"KAT"},{"station_name":"Tanah Abang","transit":false,"station_id":"THB","line":1,"time":5,"i_lat":-6.185545,"distance":2029,"is_transit":false,"i_long":106.811091},{"station_name":"Duri","distance":3632,"line":1,"transit":true,"station_id":"DU","i_lat":-6.155215,"is_transit":true,"time":8,"i_long":106.800832},{"time":3,"i_lat":-6.162021,"station_name":"Grogol","station_id":"GGL","is_transit":false,"line":5,"distance":1700,"i_long":106.788277,"transit":false},{"line":5,"transit":false,"station_name":"Pesing","i_long":106.771379,"i_lat":-6.161433,"station_id":"PSG","time":2,"is_transit":false,"distance":2036},{"i_long":106.756522,"time":2,"is_transit":false,"distance":1614,"i_lat":-6.1587309999999995,"line":5,"station_id":"TKO","transit":false,"station_name":"Taman Kota"},{"is_transit":false,"station_name":"Bojongindah","i_long":106.737035,"line":5,"distance":2334,"time":2,"i_lat":-6.159876,"transit":false,"station_id":"BOI"}]]}