{"data":[[{"i_long":106.939679,"time":0,"is_transit":false,"distance":0,"station_name":"Klenderbaru","line":1,"station_id":"KLDB","transit":false,"i_lat":-6.217455},{"is_transit":false,"distance":1305,"transit":false,"time":1,"i_lat":-6.215568,"station_id":"BUA","line":1,"i_long":106.922662,"station_name":"Buaran"},{"station_name":"Klender","i_lat":-6.2135,"transit":false,"is_transit":false,"distance":3100,"station_id":"KLD","line":1,"time":2,"i_long":106.899548},{"distance":3395,"time":3,"station_id":"JNG","station_name":"Jatinegara","is_transit":false,"i_long":106.86807400000001,"line":1,"i_lat":-6.215091,"transit":false},{"station_name":"Matraman","transit":false,"i_lat":-6.212485,"line":1,"is_transit":false,"station_id":"MTR","time":2,"i_long":106.858896,"distance":1377},{"distance":1275,"i_long":106.84912,"is_transit":false,"i_lat":-6.209883,"station_id":"MRI","transit":false,"line":2,"station_name":"Manggarai","time":2},{"station_name":"Sudirman","transit":false,"i_lat":-6.202263,"station_id":"SUD","line":1,"i_long":106.822649,"time":4,"is_transit":false,"distance":3186},{"time":1,"line":1,"station_name":"Sudirman Baru","distance":280,"transit":false,"i_long":106.819881,"i_lat":-6.201433,"station_id":"SUDB","is_transit":false},{"distance":471,"i_long":106.816351,"station_name":"Karet","is_transit":false,"line":1,"time":1,"transit":false,"station_id":"KAT","i_lat":-6.20132},{"station_name":"Tanah Abang","i_long":106.811091,"distance":2029,"time":5,"i_lat":-6.185545,"line":1,"station_id":"THB","transit":false,"is_transit":false},{"transit":true,"station_id":"DU","line":1,"time":8,"i_long":106.800832,"is_transit":true,"station_name":"Duri","distance":3632,"i_lat":-6.155215},{"distance":1700,"line":5,"is_transit":false,"transit":false,"station_id":"GGL","station_name":"Grogol","i_long":106.788277,"time":3,"i_lat":-6.162021},{"transit":false,"time":2,"station_id":"PSG","station_name":"Pesing","i_lat":-6.161433,"i_long":106.771379,"line":5,"distance":2036,"is_transit":false},{"station_name":"Taman Kota","is_transit":false,"i_lat":-6.1587309999999995,"line":5,"station_id":"TKO","transit":false,"i_long":106.756522,"time":2,"distance":1614}],[{"time":0,"transit":false,"i_lat":-6.217455,"station_id":"KLDB","station_name":"Klenderbaru","distance":0,"is_transit":false,"i_long":106.939679,"line":1},{"is_transit":false,"transit":false,"distance":1305,"i_lat":-6.215568,"time":1,"line":1,"station_id":"BUA","i_long":106.922662,"station_name":"Buaran"},{"distance":3100,"station_id":"KLD","station_name":"Klender","i_long":106.899548,"line":1,"is_transit":false,"transit":false,"time":2,"i_lat":-6.2135},{"station_id":"JNG","transit":true,"i_lat":-6.215091,"i_long":106.86807400000001,"time":3,"station_name":"Jatinegara","distance":3395,"is_transit":true,"line":1},{"line":11,"time":2,"distance":1236,"station_name":"Pondok Jati","i_lat":-6.209188,"i_long":106.861737,"is_transit":false,"transit":false,"station_id":"POK"},{"distance":1829,"station_id":"KMT","line":11,"station_name":"Kramat","is_transit":false,"time":2,"i_long":106.855437,"transit":false,"i_lat":-6.193792},{"i_long":106.850107,"time":1,"line":11,"distance":973,"station_id":"GST","station_name":"Gang Sentiong","is_transit":false,"transit":false,"i_lat":-6.185975},{"i_lat":-6.174784,"i_long":106.84368,"station_name":"Pasar Senen","transit":false,"line":11,"distance":1567,"station_id":"PSE","time":8,"is_transit":false},{"station_id":"KMO","line":11,"i_long":106.839204,"time":4,"is_transit":false,"station_name":"Kemayoran","transit":false,"distance":1436,"i_lat":-6.161728},{"i_lat":-6.14505,"is_transit":false,"station_id":"RJW","i_long":106.836569,"distance":1901,"time":5,"line":11,"station_name":"Rajawali","transit":false},{"time":3,"distance":1444,"i_lat":-6.132549,"i_long":106.826365,"is_transit":true,"transit":true,"station_id":"KPB","station_name":"Kampung Bandan","line":4},{"distance":4102,"i_lat":-6.144674,"station_id":"AK","transit":false,"line":1,"is_transit":false,"station_name":"Angke","i_long":106.79867,"time":9},{"station_name":"Duri","is_transit":true,"i_long":106.800832,"time":4,"distance":1230,"station_id":"DU","transit":true,"i_lat":-6.155215,"line":1},{"time":3,"transit":false,"station_id":"GGL","i_long":106.788277,"is_transit":false,"i_lat":-6.162021,"distance":1700,"station_name":"Grogol","line":5},{"transit":false,"time":2,"i_lat":-6.161433,"station_id":"PSG","distance":2036,"i_long":106.771379,"line":5,"station_name":"Pesing","is_transit":false},{"is_transit":false,"i_long":106.756522,"time":2,"line":5,"i_lat":-6.1587309999999995,"station_id":"TKO","transit":false,"station_name":"Taman Kota","distance":1614}],[{"distance":0,"station_name":"Klenderbaru","time":0,"station_id":"KLDB","transit":false,"i_lat":-6.217455,"is_transit":false,"i_long":106.939679,"line":1},{"station_id":"BUA","time":1,"is_transit":false,"i_long":106.922662,"transit":false,"line":1,"station_name":"Buaran","i_lat":-6.215568,"distance":1305},{"time":2,"line":1,"station_id":"KLD","i_lat":-6.2135,"station_name":"Klender","is_transit":false,"transit":false,"i_long":106.899548,"distance":3100},{"station_id":"JNG","transit":false,"i_lat":-6.215091,"is_transit":false,"i_long":106.86807400000001,"distance":3395,"time":3,"station_name":"Jatinegara","line":1},{"i_long":106.858896,"distance":1377,"transit":false,"is_transit":false,"i_lat":-6.212485,"station_id":"MTR","station_name":"Matraman","time":2,"line":1},{"line":2,"station_name":"Manggarai","time":2,"i_long":106.84912,"transit":true,"distance":1275,"station_id":"MRI","is_transit":true,"i_lat":-6.209883},{"station_name":"Cikini","station_id":"CKI","line":2,"i_long":106.840169,"is_transit":false,"distance":1590,"transit":false,"i_lat":-6.198556,"time":4},{"line":2,"distance":1750,"i_long":106.832183,"station_name":"Gondangdia","station_id":"GDD","transit":false,"time":3,"is_transit":false,"i_lat":-6.186295},{"time":4,"distance":2015,"station_id":"JUA","is_transit":false,"transit":false,"station_name":"Juanda","i_lat":-6.166716,"i_long":106.828284,"line":2},{"time":2,"transit":false,"i_lat":-6.160725,"distance":1149,"station_id":"SW","station_name":"Sawah Besar","is_transit":false,"line":2,"i_long":106.827103},{"line":2,"station_id":"MGB","is_transit":false,"transit":false,"station_name":"Manggabesar","time":2,"i_long":106.82482,"distance":906,"i_lat":-6.149769},{"distance":1080,"is_transit":false,"time":2,"i_long":106.820901,"station_id":"JAY","transit":false,"station_name":"Jayakarta","i_lat":-6.141205,"line":2},{"station_id":"JAKK","time":4,"is_transit":true,"i_long":106.812439,"transit":true,"i_lat":-6.137569,"distance":1264,"station_name":"Jakarta Kota","line":2},{"transit":true,"is_transit":true,"time":3,"i_lat":-6.132549,"i_long":106.826365,"station_name":"Kampung Bandan","line":4,"distance":1364,"station_id":"KPB"},{"i_long":106.79867,"is_transit":false,"line":1,"station_id":"AK","station_name":"Angke","transit":false,"i_lat":-6.144674,"distance":4102,"time":9},{"line":1,"i_long":106.800832,"distance":1230,"station_id":"DU","time":4,"station_name":"Duri","transit":true,"i_lat":-6.155215,"is_transit":true},{"station_id":"GGL","distance":1700,"i_lat":-6.162021,"line":5,"station_name":"Grogol","time":3,"transit":false,"is_transit":false,"i_long":106.788277},{"line":5,"station_id":"PSG","i_lat":-6.161433,"distance":2036,"is_transit":false,"time":2,"transit":false,"station_name":"Pesing","i_long":106.771379},{"i_long":106.756522,"time":2,"distance":1614,"station_name":"Taman Kota","line":5,"i_lat":-6.1587309999999995,"is_transit":false,"station_id":"TKO","transit":false}],[{"station_name":"Klenderbaru","distance":0,"is_transit":false,"i_lat":-6.217455,"i_long":106.939679,"line":1,"station_id":"KLDB","transit":false,"time":0},{"distance":1305,"i_lat":-6.215568,"i_long":106.922662,"line":1,"transit":false,"is_transit":false,"station_id":"BUA","station_name":"Buaran","time":1},{"distance":3100,"line":1,"i_lat":-6.2135,"transit":false,"station_id":"KLD","i_long":106.899548,"time":2,"is_transit":false,"station_name":"Klender"},{"station_name":"Jatinegara","distance":3395,"is_transit":true,"i_lat":-6.215091,"transit":true,"station_id":"JNG","line":1,"time":3,"i_long":106.86807400000001},{"i_long":106.861737,"station_name":"Pondok Jati","is_transit":false,"i_lat":-6.209188,"line":11,"time":2,"transit":false,"distance":1236,"station_id":"POK"},{"distance":1829,"line":11,"i_lat":-6.193792,"transit":false,"is_transit":false,"station_name":"Kramat","i_long":106.855437,"time":2,"station_id":"KMT"},{"station_id":"GST","i_long":106.850107,"line":11,"distance":973,"time":1,"transit":false,"i_lat":-6.185975,"is_transit":false,"station_name":"Gang Sentiong"},{"i_lat":-6.174784,"line":11,"i_long":106.84368,"time":8,"is_transit":false,"distance":1567,"station_name":"Pasar Senen","transit":false,"station_id":"PSE"},{"time":4,"transit":false,"station_id":"KMO","i_long":106.839204,"station_name":"Kemayoran","is_transit":false,"line":11,"i_lat":-6.161728,"distance":1436},{"station_name":"Rajawali","i_lat":-6.14505,"distance":1901,"transit":false,"i_long":106.836569,"line":11,"is_transit":false,"station_id":"RJW","time":5},{"time":3,"transit":true,"i_lat":-6.132549,"i_long":106.826365,"station_name":"Kampung Bandan","line":4,"is_transit":true,"station_id":"KPB","distance":1444},{"is_transit":true,"station_name":"Jakarta Kota","i_lat":-6.137569,"i_long":106.812439,"line":2,"station_id":"JAKK","transit":true,"distance":1364,"time":3},{"line":2,"station_name":"Jayakarta","time":4,"i_long":106.820901,"transit":false,"i_lat":-6.141205,"distance":1264,"is_transit":false,"station_id":"JAY"},{"i_lat":-6.149769,"is_transit":false,"line":2,"distance":1080,"station_id":"MGB","time":2,"transit":false,"i_long":106.82482,"station_name":"Manggabesar"},{"i_long":106.827103,"line":2,"distance":906,"station_id":"SW","transit":false,"time":2,"station_name":"Sawah Besar","is_transit":false,"i_lat":-6.160725},{"i_lat":-6.166716,"time":2,"is_transit":false,"station_id":"JUA","i_long":106.828284,"station_name":"Juanda","line":2,"distance":1149,"transit":false},{"i_lat":-6.186295,"line":2,"distance":2015,"is_transit":false,"station_id":"GDD","transit":false,"i_long":106.832183,"time":4,"station_name":"Gondangdia"},{"distance":1750,"i_lat":-6.198556,"station_name":"Cikini","transit":false,"time":3,"station_id":"CKI","i_long":106.840169,"line":2,"is_transit":false},{"station_id":"MRI","line":2,"time":4,"i_lat":-6.209883,"distance":1590,"station_name":"Manggarai","i_long":106.84912,"is_transit":true,"transit":true},{"i_long":106.822649,"line":1,"is_transit":false,"station_name":"Sudirman","i_lat":-6.202263,"time":4,"station_id":"SUD","distance":3186,"transit":false},{"i_long":106.819881,"station_name":"Sudirman Baru","time":1,"distance":280,"i_lat":-6.201433,"line":1,"transit":false,"is_transit":false,"station_id":"SUDB"},{"is_transit":false,"transit":false,"station_id":"KAT","i_lat":-6.20132,"i_long":106.816351,"time":1,"station_name":"Karet","distance":471,"line":1},{"line":1,"time":5,"station_id":"THB","transit":false,"i_long":106.811091,"distance":2029,"station_name":"Tanah Abang","i_lat":-6.185545,"is_transit":false},{"station_id":"DU","i_lat":-6.155215,"is_transit":true,"distance":3632,"transit":true,"time":8,"station_name":"Duri","line":1,"i_long":106.800832},{"is_transit":false,"distance":1700,"station_id":"GGL","i_long":106.788277,"transit":false,"station_name":"Grogol","line":5,"time":3,"i_lat":-6.162021},{"station_id":"PSG","time":2,"distance":2036,"is_transit":false,"i_lat":-6.161433,"i_long":106.771379,"transit":false,"station_name":"Pesing","line":5},{"time":2,"station_name":"Taman Kota","i_lat":-6.1587309999999995,"is_transit":false,"distance":1614,"transit":false,"i_long":106.756522,"station_id":"TKO","line":5}]]}