{"data":[[{"i_lat":-6.217455,"time":0,"transit":false,"is_transit":false,"i_long":106.939679,"line":1,"station_name":"Klenderbaru","station_id":"KLDB","distance":0},{"time":1,"distance":1305,"station_id":"BUA","is_transit":false,"i_lat":-6.215568,"line":1,"station_name":"Buaran","transit":false,"i_long":106.922662},{"transit":false,"i_lat":-6.2135,"station_name":"Klender","time":2,"line":1,"distance":3100,"station_id":"KLD","is_transit":false,"i_long":106.899548},{"is_transit":false,"distance":3395,"time":3,"station_id":"JNG","transit":false,"i_long":106.86807400000001,"station_name":"Jatinegara","i_lat":-6.215091,"line":1},{"station_id":"MTR","is_transit":false,"time":2,"i_long":106.858896,"line":1,"station_name":"Matraman","distance":1377,"transit":false,"i_lat":-6.212485},{"station_name":"Manggarai","station_id":"MRI","is_transit":false,"transit":false,"i_lat":-6.209883,"distance":1275,"time":2,"i_long":106.84912,"line":2},{"station_id":"SUD","i_long":106.822649,"line":1,"distance":3186,"station_name":"Sudirman","is_transit":false,"transit":false,"i_lat":-6.202263,"time":4},{"i_lat":-6.201433,"station_id":"SUDB","i_long":106.819881,"station_name":"Sudirman Baru","is_transit":false,"time":1,"line":1,"transit":false,"distance":280},{"station_id":"KAT","time":1,"distance":471,"is_transit":false,"transit":false,"i_lat":-6.20132,"line":1,"station_name":"Karet","i_long":106.816351},{"distance":2029,"transit":true,"line":1,"i_long":106.811091,"i_lat":-6.185545,"time":5,"station_id":"THB","station_name":"Tanah Abang","is_transit":true},{"station_name":"Palmerah","station_id":"PLM","i_long":106.79689,"distance":3191,"transit":false,"line":6,"is_transit":false,"i_lat":-6.207404,"time":6},{"is_transit":false,"distance":3737,"line":6,"time":7,"i_long":106.780334,"station_id":"KBY","station_name":"Kebayoran","transit":false,"i_lat":-6.237242},{"transit":false,"station_id":"PDJ","is_transit":false,"line":6,"station_name":"Pondokranji","i_lat":-6.276362,"time":8,"distance":6218,"i_long":106.74273},{"distance":2179,"i_lat":-6.288927,"station_id":"JMU","is_transit":false,"line":6,"station_name":"Jurangmangu","time":3,"i_long":106.728916,"transit":false},{"is_transit":false,"transit":false,"distance":1994,"station_name":"Sudimara","station_id":"SDM","i_long":106.712277,"time":4,"i_lat":-6.296963,"line":6},{"transit":false,"time":6,"i_lat":-6.314823,"line":6,"distance":4566,"i_long":106.675475,"station_name":"Rawa Buntu","station_id":"RU","is_transit":false},{"station_name":"Serpong","line":6,"time":4,"distance":2413,"i_long":106.66566,"is_transit":false,"transit":false,"i_lat":-6.319871,"station_id":"SRP"}],[{"is_transit":false,"i_long":106.939679,"time":0,"distance":0,"transit":false,"station_name":"Klenderbaru","i_lat":-6.217455,"line":1,"station_id":"KLDB"},{"line":1,"transit":false,"i_long":106.922662,"distance":1305,"time":1,"station_name":"Buaran","i_lat":-6.215568,"is_transit":false,"station_id":"BUA"},{"i_long":106.899548,"station_name":"Klender","time":2,"distance":3100,"station_id":"KLD","line":1,"transit":false,"is_transit":false,"i_lat":-6.2135},{"i_long":106.86807400000001,"is_transit":true,"transit":true,"i_lat":-6.215091,"time":3,"station_name":"Jatinegara","line":1,"distance":3395,"station_id":"JNG"},{"i_long":106.861737,"distance":1236,"station_name":"Pondok Jati","is_transit":false,"i_lat":-6.209188,"time":2,"station_id":"POK","line":11,"transit":false},{"distance":1829,"line":11,"time":2,"is_transit":false,"transit":false,"i_lat":-6.193792,"station_name":"Kramat","station_id":"KMT","i_long":106.855437},{"is_transit":false,"line":11,"i_long":106.850107,"i_lat":-6.185975,"transit":false,"distance":973,"station_name":"Gang Sentiong","time":1,"station_id":"GST"},{"line":11,"distance":1567,"is_transit":false,"i_long":106.84368,"time":8,"i_lat":-6.174784,"transit":false,"station_id":"PSE","station_name":"Pasar Senen"},{"distance":1436,"station_id":"KMO","time":4,"transit":false,"is_transit":false,"i_lat":-6.161728,"line":11,"station_name":"Kemayoran","i_long":106.839204},{"station_id":"RJW","distance":1901,"transit":false,"is_transit":false,"i_long":106.836569,"station_name":"Rajawali","i_lat":-6.14505,"time":5,"line":11},{"station_id":"KPB","time":3,"is_transit":true,"station_name":"Kampung Bandan","i_lat":-6.132549,"i_long":106.826365,"line":4,"distance":1444,"transit":true},{"i_lat":-6.144674,"line":1,"is_transit":false,"transit":false,"time":9,"distance":4102,"station_name":"Angke","station_id":"AK","i_long":106.79867},{"i_lat":-6.155215,"transit":false,"distance":1230,"line":1,"station_name":"Duri","station_id":"DU","time":4,"is_transit":false,"i_long":106.800832},{"transit":true,"time":8,"is_transit":true,"i_lat":-6.185545,"distance":3632,"station_name":"Tanah Abang","i_long":106.811091,"line":1,"station_id":"THB"},{"is_transit":false,"station_name":"Palmerah","line":6,"time":6,"distance":3191,"transit":false,"i_long":106.79689,"station_id":"PLM","i_lat":-6.207404},{"transit":false,"station_name":"Kebayoran","station_id":"KBY","is_transit":false,"line":6,"time":7,"i_lat":-6.237242,"distance":3737,"i_long":106.780334},{"time":8,"is_transit":false,"i_long":106.74273,"distance":6218,"station_name":"Pondokranji","station_id":"PDJ","i_lat":-6.276362,"transit":false,"line":6},{"i_long":106.728916,"line":6,"transit":false,"i_lat":-6.288927,"station_name":"Jurangmangu","distance":2179,"station_id":"JMU","time":3,"is_transit":false},{"is_transit":false,"station_id":"SDM","i_lat":-6.296963,"distance":1994,"transit":false,"station_name":"Sudimara","time":4,"line":6,"i_long":106.712277},{"i_lat":-6.314823,"distance":4566,"transit":false,"time":6,"station_name":"Rawa Buntu","i_long":106.675475,"station_id":"RU","is_transit":false,"line":6},{"i_long":106.66566,"station_id":"SRP","time":4,"distance":2413,"is_transit":false,"line":6,"i_lat":-6.319871,"station_name":"Serpong","transit":false}],[{"distance":0,"station_name":"Klenderbaru","i_long":106.939679,"line":1,"time":0,"i_lat":-6.217455,"station_id":"KLDB","transit":false,"is_transit":false},{"i_long":106.922662,"station_id":"BUA","is_transit":false,"transit":false,"station_name":"Buaran","time":1,"i_lat":-6.215568,"distance":1305,"line":1},{"i_long":106.899548,"is_transit":false,"station_id":"KLD","line":1,"transit":false,"distance":3100,"time":2,"station_name":"Klender","i_lat":-6.2135},{"station_id":"JNG","i_long":106.86807400000001,"is_transit":false,"time":3,"station_name":"Jatinegara","transit":false,"i_lat":-6.215091,"line":1,"distance":3395},{"station_name":"Matraman","transit":false,"line":1,"time":2,"i_lat":-6.212485,"is_transit":false,"distance":1377,"station_id":"MTR","i_long":106.858896},{"i_lat":-6.209883,"transit":true,"station_name":"Manggarai","i_long":106.84912,"is_transit":true,"time":2,"distance":1275,"line":2,"station_id":"MRI"},{"time":4,"station_name":"Cikini","i_long":106.840169,"is_transit":false,"transit":false,"i_lat":-6.198556,"station_id":"CKI","line":2,"distance":1590},{"distance":1750,"station_name":"Gondangdia","is_transit":false,"i_lat":-6.186295,"transit":false,"line":2,"time":3,"station_id":"GDD","i_long":106.832183},{"station_name":"Juanda","i_lat":-6.166716,"time":4,"distance":2015,"is_transit":false,"line":2,"transit":false,"i_long":106.828284,"station_id":"JUA"},{"transit":false,"distance":1149,"line":2,"i_lat":-6.160725,"station_name":"Sawah Besar","station_id":"SW","i_long":106.827103,"is_transit":false,"time":2},{"time":2,"transit":false,"station_name":"Manggabesar","is_transit":false,"i_long":106.82482,"distance":906,"station_id":"MGB","i_lat":-6.149769,"line":2},{"station_id":"JAY","is_transit":false,"i_lat":-6.141205,"station_name":"Jayakarta","distance":1080,"time":2,"i_long":106.820901,"transit":false,"line":2},{"distance":1264,"line":2,"time":4,"station_id":"JAKK","transit":true,"station_name":"Jakarta Kota","i_long":106.812439,"i_lat":-6.137569,"is_transit":true},{"i_lat":-6.132549,"line":4,"station_name":"Kampung Bandan","station_id":"KPB","time":3,"distance":1364,"transit":true,"is_transit":true,"i_long":106.826365},{"transit":false,"i_lat":-6.144674,"time":9,"station_id":"AK","i_long":106.79867,"station_name":"Angke","line":1,"is_transit":false,"distance":4102},{"distance":1230,"i_lat":-6.155215,"station_name":"Duri","i_long":106.800832,"transit":false,"is_transit":false,"line":1,"station_id":"DU","time":4},{"distance":3632,"time":8,"station_name":"Tanah Abang","is_transit":true,"i_lat":-6.185545,"station_id":"THB","transit":true,"line":1,"i_long":106.811091},{"line":6,"station_id":"PLM","transit":false,"station_name":"Palmerah","is_transit":false,"i_long":106.79689,"time":6,"distance":3191,"i_lat":-6.207404},{"is_transit":false,"transit":false,"i_long":106.780334,"line":6,"station_name":"Kebayoran","station_id":"KBY","time":7,"i_lat":-6.237242,"distance":3737},{"station_name":"Pondokranji","i_lat":-6.276362,"station_id":"PDJ","i_long":106.74273,"distance":6218,"line":6,"is_transit":false,"time":8,"transit":false},{"transit":false,"distance":2179,"time":3,"station_id":"JMU","station_name":"Jurangmangu","is_transit":false,"line":6,"i_long":106.728916,"i_lat":-6.288927},{"i_lat":-6.296963,"distance":1994,"station_id":"SDM","transit":false,"time":4,"station_name":"Sudimara","is_transit":false,"i_long":106.712277,"line":6},{"line":6,"distance":4566,"i_long":106.675475,"is_transit":false,"time":6,"station_name":"Rawa Buntu","i_lat":-6.314823,"transit":false,"station_id":"RU"},{"is_transit":false,"line":6,"transit":false,"station_id":"SRP","i_lat":-6.319871,"i_long":106.66566,"distance":2413,"time":4,"station_name":"Serpong"}],[{"is_transit":false,"i_long":106.939679,"time":0,"distance":0,"i_lat":-6.217455,"line":1,"station_name":"Klenderbaru","transit":false,"station_id":"KLDB"},{"is_transit":false,"i_lat":-6.215568,"line":1,"i_long":106.922662,"distance":1305,"station_name":"Buaran","time":1,"transit":false,"station_id":"BUA"},{"station_name":"Klender","station_id":"KLD","is_transit":false,"i_long":106.899548,"transit":false,"time":2,"line":1,"distance":3100,"i_lat":-6.2135},{"line":1,"is_transit":true,"station_name":"Jatinegara","time":3,"station_id":"JNG","transit":true,"i_lat":-6.215091,"distance":3395,"i_long":106.86807400000001},{"station_id":"POK","distance":1236,"i_long":106.861737,"i_lat":-6.209188,"line":11,"transit":false,"station_name":"Pondok Jati","is_transit":false,"time":2},{"distance":1829,"time":2,"transit":false,"is_transit":false,"line":11,"station_id":"KMT","i_long":106.855437,"station_name":"Kramat","i_lat":-6.193792},{"transit":false,"is_transit":false,"distance":973,"i_long":106.850107,"line":11,"i_lat":-6.185975,"time":1,"station_id":"GST","station_name":"Gang Sentiong"},{"station_name":"Pasar Senen","station_id":"PSE","is_transit":false,"i_lat":-6.174784,"distance":1567,"transit":false,"line":11,"i_long":106.84368,"time":8},{"station_id":"KMO","is_transit":false,"time":4,"distance":1436,"i_lat":-6.161728,"line":11,"transit":false,"i_long":106.839204,"station_name":"Kemayoran"},{"transit":false,"station_id":"RJW","i_lat":-6.14505,"time":5,"distance":1901,"is_transit":false,"station_name":"Rajawali","i_long":106.836569,"line":11},{"i_long":106.826365,"distance":1444,"i_lat":-6.132549,"time":3,"transit":true,"station_id":"KPB","station_name":"Kampung Bandan","is_transit":true,"line":4},{"is_transit":true,"i_lat":-6.137569,"distance":1364,"station_id":"JAKK","time":3,"i_long":106.812439,"transit":true,"line":2,"station_name":"Jakarta Kota"},{"is_transit":false,"line":2,"i_lat":-6.141205,"distance":1264,"station_id":"JAY","i_long":106.820901,"station_name":"Jayakarta","time":4,"transit":false},{"is_transit":false,"i_long":106.82482,"distance":1080,"i_lat":-6.149769,"time":2,"station_name":"Manggabesar","transit":false,"line":2,"station_id":"MGB"},{"line":2,"station_name":"Sawah Besar","i_long":106.827103,"station_id":"SW","time":2,"is_transit":false,"transit":false,"i_lat":-6.160725,"distance":906},{"is_transit":false,"station_id":"JUA","i_long":106.828284,"station_name":"Juanda","transit":false,"i_lat":-6.166716,"line":2,"distance":1149,"time":2},{"transit":false,"time":4,"is_transit":false,"line":2,"station_name":"Gondangdia","station_id":"GDD","distance":2015,"i_long":106.832183,"i_lat":-6.186295},{"station_id":"CKI","distance":1750,"is_transit":false,"line":2,"station_name":"Cikini","i_lat":-6.198556,"transit":false,"time":3,"i_long":106.840169},{"line":2,"station_id":"MRI","i_lat":-6.209883,"distance":1590,"is_transit":true,"i_long":106.84912,"time":4,"transit":true,"station_name":"Manggarai"},{"distance":3186,"transit":false,"station_name":"Sudirman","i_lat":-6.202263,"i_long":106.822649,"station_id":"SUD","time":4,"is_transit":false,"line":1},{"time":1,"i_long":106.819881,"station_name":"Sudirman Baru","line":1,"transit":false,"distance":280,"station_id":"SUDB","i_lat":-6.201433,"is_transit":false},{"station_name":"Karet","is_transit":false,"transit":false,"i_lat":-6.20132,"line":1,"i_long":106.816351,"time":1,"station_id":"KAT","distance":471},{"is_transit":true,"i_lat":-6.185545,"i_long":106.811091,"transit":true,"time":5,"distance":2029,"line":1,"station_id":"THB","station_name":"Tanah Abang"},{"i_lat":-6.207404,"time":6,"transit":false,"station_name":"Palmerah","i_long":106.79689,"line":6,"station_id":"PLM","distance":3191,"is_transit":false},{"station_name":"Kebayoran","i_lat":-6.237242,"time":7,"line":6,"transit":false,"i_long":106.780334,"is_transit":false,"distance":3737,"station_id":"KBY"},{"transit":false,"time":8,"i_long":106.74273,"station_id":"PDJ","is_transit":false,"i_lat":-6.276362,"distance":6218,"station_name":"Pondokranji","line":6},{"time":3,"station_id":"JMU","station_name":"Jurangmangu","i_long":106.728916,"distance":2179,"i_lat":-6.288927,"transit":false,"is_transit":false,"line":6},{"station_id":"SDM","distance":1994,"transit":false,"i_lat":-6.296963,"i_long":106.712277,"station_name":"Sudimara","is_transit":false,"line":6,"time":4},{"line":6,"i_lat":-6.314823,"time":6,"station_name":"Rawa Buntu","transit":false,"station_id":"RU","distance":4566,"is_transit":false,"i_long":106.675475},{"is_transit":false,"line":6,"time":4,"distance":2413,"station_name":"Serpong","station_id":"SRP","transit":false,"i_long":106.66566,"i_lat":-6.319871}]]}