{"data":[[{"time":0,"distance":0,"station_id":"KLDB","is_transit":false,"line":1,"transit":false,"station_name":"Klenderbaru","i_long":106.939679,"i_lat":-6.217455},{"transit":false,"station_name":"Buaran","distance":1305,"i_lat":-6.215568,"i_long":106.922662,"line":1,"is_transit":false,"time":1,"station_id":"BUA"},{"line":1,"i_lat":-6.2135,"distance":3100,"time":2,"station_id":"KLD","is_transit":false,"station_name":"Klender","transit":false,"i_long":106.899548},{"i_long":106.86807400000001,"time":3,"station_id":"JNG","line":1,"transit":false,"station_name":"Jatinegara","is_transit":false,"distance":3395,"i_lat":-6.215091},{"station_name":"Matraman","i_lat":-6.212485,"i_long":106.858896,"transit":false,"line":1,"station_id":"MTR","is_transit":false,"time":2,"distance":1377},{"i_long":106.84912,"time":2,"line":2,"is_transit":true,"distance":1275,"station_id":"MRI","transit":true,"station_name":"Manggarai","i_lat":-6.209883},{"is_transit":false,"line":2,"i_lat":-6.226659,"station_id":"TEB","time":4,"distance":2610,"i_long":106.857948,"transit":false,"station_name":"Tebet"},{"is_transit":false,"time":2,"line":2,"station_id":"CW","i_lat":-6.242512,"distance":1230,"transit":false,"i_long":106.856607,"station_name":"Cawang"},{"distance":1546,"i_lat":-6.255332,"i_long":106.85449,"line":2,"transit":false,"time":3,"station_name":"Duren Kalibata","is_transit":false,"station_id":"DRN"},{"time":2,"is_transit":false,"transit":false,"station_name":"Pasar Minggu Baru","distance":824,"i_long":106.851577,"station_id":"PSMB","line":2,"i_lat":-6.263214},{"station_id":"PSM","distance":2380,"i_long":106.843999,"time":2,"is_transit":false,"line":2,"station_name":"Pasar Minggu","transit":false,"i_lat":-6.2842400000000005},{"station_name":"Tanjung Barat","i_lat":-6.3080680000000005,"time":4,"distance":2820,"is_transit":false,"transit":false,"station_id":"TNT","line":2,"i_long":106.838896},{"distance":2671,"station_name":"Lenteng Agung","station_id":"LNA","is_transit":false,"i_lat":-6.330363,"line":2,"i_long":106.832616,"time":3,"transit":false},{"i_lat":-6.339291,"station_id":"UP","i_long":106.834175,"station_name":"Univ. Pancasila","time":2,"line":2,"is_transit":false,"distance":1029,"transit":false},{"time":3,"is_transit":false,"station_id":"UI","distance":2264,"line":2,"station_name":"Univ. Indonesia","i_lat":-6.360749,"i_long":106.831474,"transit":false},{"time":2,"distance":1109,"station_id":"POC","line":2,"is_transit":false,"i_long":106.831114,"station_name":"Pondok Cina","transit":false,"i_lat":-6.369073},{"distance":2727,"i_long":106.819451,"line":2,"transit":false,"station_id":"DPB","station_name":"Depokbaru","time":4,"is_transit":false,"i_lat":-6.391065},{"distance":1584,"transit":false,"station_id":"DP","i_lat":-6.405256,"station_name":"Depok","line":2,"time":3,"is_transit":false,"i_long":106.816926},{"station_name":"Citayam","is_transit":false,"station_id":"CTA","i_lat":-6.448811,"i_long":106.800298,"line":2,"time":6,"distance":5084,"transit":false},{"time":5,"i_long":106.792719,"station_name":"Bojonggede","station_id":"BJD","i_lat":-6.493243,"distance":5197,"transit":false,"is_transit":false,"line":2}],[{"i_lat":-6.217455,"distance":0,"is_transit":false,"transit":false,"station_name":"Klenderbaru","i_long":106.939679,"line":1,"time":0,"station_id":"KLDB"},{"i_long":106.922662,"distance":1305,"is_transit":false,"i_lat":-6.215568,"station_id":"BUA","transit":false,"time":1,"station_name":"Buaran","line":1},{"distance":3100,"station_name":"Klender","station_id":"KLD","line":1,"time":2,"is_transit":false,"transit":false,"i_long":106.899548,"i_lat":-6.2135},{"is_transit":true,"i_lat":-6.215091,"line":1,"i_long":106.86807400000001,"transit":true,"time":3,"distance":3395,"station_name":"Jatinegara","station_id":"JNG"},{"station_name":"Pondok Jati","i_long":106.861737,"distance":1236,"i_lat":-6.209188,"line":11,"station_id":"POK","is_transit":false,"time":2,"transit":false},{"line":11,"station_id":"KMT","i_long":106.855437,"distance":1829,"i_lat":-6.193792,"time":2,"is_transit":false,"station_name":"Kramat","transit":false},{"station_id":"GST","distance":973,"line":11,"transit":false,"station_name":"Gang Sentiong","time":1,"i_long":106.850107,"i_lat":-6.185975,"is_transit":false},{"time":8,"station_name":"Pasar Senen","distance":1567,"station_id":"PSE","i_long":106.84368,"i_lat":-6.174784,"transit":false,"line":11,"is_transit":false},{"distance":1436,"i_long":106.839204,"line":11,"time":4,"transit":false,"station_name":"Kemayoran","station_id":"KMO","i_lat":-6.161728,"is_transit":false},{"distance":1901,"time":5,"is_transit":false,"station_id":"RJW","i_long":106.836569,"line":11,"station_name":"Rajawali","i_lat":-6.14505,"transit":false},{"i_long":106.826365,"distance":1444,"is_transit":true,"transit":true,"station_id":"KPB","time":3,"i_lat":-6.132549,"line":4,"station_name":"Kampung Bandan"},{"station_id":"AK","is_transit":false,"line":1,"time":9,"transit":false,"distance":4102,"station_name":"Angke","i_lat":-6.144674,"i_long":106.79867},{"distance":1230,"i_lat":-6.155215,"is_transit":false,"station_name":"Duri","line":1,"i_long":106.800832,"transit":false,"time":4,"station_id":"DU"},{"station_id":"THB","station_name":"Tanah Abang","i_long":106.811091,"line":1,"i_lat":-6.185545,"time":8,"is_transit":false,"transit":false,"distance":3632},{"line":1,"is_transit":false,"transit":false,"distance":2029,"i_long":106.816351,"time":5,"i_lat":-6.20132,"station_name":"Karet","station_id":"KAT"},{"line":1,"is_transit":false,"station_id":"SUDB","distance":471,"time":1,"transit":false,"i_lat":-6.201433,"station_name":"Sudirman Baru","i_long":106.819881},{"distance":280,"is_transit":false,"time":1,"transit":false,"station_name":"Sudirman","station_id":"SUD","i_lat":-6.202263,"line":1,"i_long":106.822649},{"transit":true,"station_name":"Manggarai","i_lat":-6.209883,"line":2,"time":4,"i_long":106.84912,"is_transit":true,"distance":3186,"station_id":"MRI"},{"is_transit":false,"distance":2610,"i_long":106.857948,"station_name":"Tebet","station_id":"TEB","transit":false,"time":4,"line":2,"i_lat":-6.226659},{"station_name":"Cawang","transit":false,"i_lat":-6.242512,"distance":1230,"station_id":"CW","is_transit":false,"line":2,"time":2,"i_long":106.856607},{"time":3,"line":2,"is_transit":false,"distance":1546,"i_lat":-6.255332,"i_long":106.85449,"station_id":"DRN","station_name":"Duren Kalibata","transit":false},{"time":2,"line":2,"distance":824,"is_transit":false,"transit":false,"i_long":106.851577,"i_lat":-6.263214,"station_name":"Pasar Minggu Baru","station_id":"PSMB"},{"line":2,"time":2,"station_id":"PSM","distance":2380,"transit":false,"is_transit":false,"station_name":"Pasar Minggu","i_lat":-6.2842400000000005,"i_long":106.843999},{"station_name":"Tanjung Barat","transit":false,"i_lat":-6.3080680000000005,"line":2,"station_id":"TNT","time":4,"distance":2820,"is_transit":false,"i_long":106.838896},{"time":3,"i_lat":-6.330363,"transit":false,"is_transit":false,"station_name":"Lenteng Agung","station_id":"LNA","distance":2671,"i_long":106.832616,"line":2},{"line":2,"transit":false,"time":2,"is_transit":false,"station_id":"UP","i_long":106.834175,"i_lat":-6.339291,"distance":1029,"station_name":"Univ. Pancasila"},{"transit":false,"is_transit":false,"i_lat":-6.360749,"line":2,"time":3,"station_id":"UI","distance":2264,"i_long":106.831474,"station_name":"Univ. Indonesia"},{"i_lat":-6.369073,"time":2,"station_id":"POC","line":2,"station_name":"Pondok Cina","transit":false,"distance":1109,"is_transit":false,"i_long":106.831114},{"station_name":"Depokbaru","distance":2727,"transit":false,"i_lat":-6.391065,"line":2,"time":4,"is_transit":false,"i_long":106.819451,"station_id":"DPB"},{"line":2,"is_transit":false,"i_long":106.816926,"station_id":"DP","i_lat":-6.405256,"distance":1584,"transit":false,"time":3,"station_name":"Depok"},{"i_long":106.800298,"i_lat":-6.448811,"distance":5084,"transit":false,"time":6,"is_transit":false,"station_id":"CTA","line":2,"station_name":"Citayam"},{"i_lat":-6.493243,"i_long":106.792719,"is_transit":false,"time":5,"distance":5197,"station_id":"BJD","transit":false,"line":2,"station_name":"Bojonggede"}],[{"station_id":"KLDB","is_transit":false,"distance":0,"i_lat":-6.217455,"i_long":106.939679,"station_name":"Klenderbaru","transit":false,"line":1,"time":0},{"is_transit":false,"transit":false,"i_lat":-6.215568,"line":1,"station_name":"Buaran","time":1,"station_id":"BUA","i_long":106.922662,"distance":1305},{"transit":false,"i_lat":-6.2135,"i_long":106.899548,"station_name":"Klender","distance":3100,"is_transit":false,"station_id":"KLD","line":1,"time":2},{"station_name":"Jatinegara","i_long":106.86807400000001,"distance":3395,"is_transit":true,"station_id":"JNG","transit":true,"time":3,"i_lat":-6.215091,"line":1},{"i_long":106.861737,"distance":1236,"station_name":"Pondok Jati","station_id":"POK","transit":false,"is_transit":false,"i_lat":-6.209188,"time":2,"line":11},{"i_long":106.855437,"distance":1829,"transit":false,"time":2,"line":11,"is_transit":false,"station_name":"Kramat","i_lat":-6.193792,"station_id":"KMT"},{"station_id":"GST","transit":false,"station_name":"Gang Sentiong","is_transit":false,"time":1,"distance":973,"i_long":106.850107,"line":11,"i_lat":-6.185975},{"line":11,"transit":false,"is_transit":false,"i_lat":-6.174784,"station_name":"Pasar Senen","distance":1567,"station_id":"PSE","i_long":106.84368,"time":8},{"is_transit":false,"station_name":"Kemayoran","transit":false,"i_lat":-6.161728,"distance":1436,"i_long":106.839204,"line":11,"station_id":"KMO","time":4},{"line":11,"distance":1901,"transit":false,"is_transit":false,"station_name":"Rajawali","i_lat":-6.14505,"i_long":106.836569,"time":5,"station_id":"RJW"},{"distance":1444,"is_transit":true,"i_long":106.826365,"station_name":"Kampung Bandan","time":3,"transit":true,"line":4,"i_lat":-6.132549,"station_id":"KPB"},{"station_name":"Jakarta Kota","line":2,"transit":true,"distance":1364,"station_id":"JAKK","is_transit":true,"i_long":106.812439,"i_lat":-6.137569,"time":3},{"station_name":"Jayakarta","i_lat":-6.141205,"time":4,"station_id":"JAY","line":2,"distance":1264,"i_long":106.820901,"transit":false,"is_transit":false},{"station_name":"Manggabesar","i_long":106.82482,"time":2,"line":2,"is_transit":false,"transit":false,"i_lat":-6.149769,"distance":1080,"station_id":"MGB"},{"line":2,"time":2,"transit":false,"station_id":"SW","station_name":"Sawah Besar","is_transit":false,"distance":906,"i_lat":-6.160725,"i_long":106.827103},{"distance":1149,"i_lat":-6.166716,"station_name":"Juanda","transit":false,"is_transit":false,"time":2,"station_id":"JUA","i_long":106.828284,"line":2},{"transit":false,"station_name":"Gondangdia","station_id":"GDD","i_lat":-6.186295,"is_transit":false,"line":2,"time":4,"distance":2015,"i_long":106.832183},{"time":3,"station_id":"CKI","transit":false,"is_transit":false,"distance":1750,"station_name":"Cikini","i_lat":-6.198556,"i_long":106.840169,"line":2},{"i_lat":-6.209883,"station_id":"MRI","i_long":106.84912,"line":2,"transit":false,"is_transit":false,"station_name":"Manggarai","time":4,"distance":1590},{"i_long":106.857948,"time":4,"transit":false,"station_id":"TEB","is_transit":false,"station_name":"Tebet","i_lat":-6.226659,"distance":2610,"line":2},{"i_long":106.856607,"time":2,"distance":1230,"transit":false,"line":2,"i_lat":-6.242512,"station_name":"Cawang","station_id":"CW","is_transit":false},{"i_long":106.85449,"station_id":"DRN","distance":1546,"i_lat":-6.255332,"time":3,"transit":false,"is_transit":false,"line":2,"station_name":"Duren Kalibata"},{"is_transit":false,"station_id":"PSMB","distance":824,"station_name":"Pasar Minggu Baru","time":2,"i_lat":-6.263214,"transit":false,"i_long":106.851577,"line":2},{"transit":false,"i_long":106.843999,"station_id":"PSM","i_lat":-6.2842400000000005,"time":2,"is_transit":false,"distance":2380,"station_name":"Pasar Minggu","line":2},{"distance":2820,"station_id":"TNT","transit":false,"i_long":106.838896,"is_transit":false,"i_lat":-6.3080680000000005,"station_name":"Tanjung Barat","time":4,"line":2},{"line":2,"i_long":106.832616,"is_transit":false,"station_name":"Lenteng Agung","station_id":"LNA","time":3,"transit":false,"distance":2671,"i_lat":-6.330363},{"station_id":"UP","i_lat":-6.339291,"line":2,"i_long":106.834175,"transit":false,"is_transit":false,"time":2,"station_name":"Univ. Pancasila","distance":1029},{"time":3,"i_lat":-6.360749,"line":2,"station_name":"Univ. Indonesia","station_id":"UI","transit":false,"i_long":106.831474,"distance":2264,"is_transit":false},{"station_id":"POC","line":2,"is_transit":false,"transit":false,"station_name":"Pondok Cina","time":2,"distance":1109,"i_long":106.831114,"i_lat":-6.369073},{"transit":false,"time":4,"distance":2727,"is_transit":false,"i_long":106.819451,"station_id":"DPB","i_lat":-6.391065,"line":2,"station_name":"Depokbaru"},{"i_lat":-6.405256,"transit":false,"station_name":"Depok","line":2,"is_transit":false,"i_long":106.816926,"time":3,"distance":1584,"station_id":"DP"},{"station_name":"Citayam","is_transit":false,"station_id":"CTA","i_long":106.800298,"line":2,"transit":false,"time":6,"i_lat":-6.448811,"distance":5084},{"i_long":106.792719,"distance":5197,"is_transit":false,"station_name":"Bojonggede","time":5,"transit":false,"i_lat":-6.493243,"line":2,"station_id":"BJD"}]]}