{"data":[[{"i_lat":-6.217455,"transit":false,"station_name":"Klenderbaru","line":1,"i_long":106.939679,"is_transit":false,"station_id":"KLDB","time":0,"distance":0},{"i_lat":-6.215568,"line":1,"i_long":106.922662,"station_id":"BUA","station_name":"Buaran","transit":false,"time":1,"distance":1305,"is_transit":false},{"i_long":106.899548,"transit":false,"distance":3100,"is_transit":false,"line":1,"i_lat":-6.2135,"station_name":"Klender","station_id":"KLD","time":2},{"i_lat":-6.215091,"is_transit":false,"line":1,"time":3,"station_id":"JNG","station_name":"Jatinegara","distance":3395,"transit":false,"i_long":106.86807400000001},{"line":1,"i_lat":-6.212485,"transit":false,"station_name":"Matraman","station_id":"MTR","distance":1377,"is_transit":false,"time":2,"i_long":106.858896},{"distance":1275,"i_lat":-6.209883,"line":2,"i_long":106.84912,"time":2,"station_id":"MRI","is_transit":false,"transit":false,"station_name":"Manggarai"},{"time":4,"is_transit":false,"station_name":"Sudirman","i_lat":-6.202263,"transit":false,"i_long":106.822649,"line":1,"distance":3186,"station_id":"SUD"},{"transit":false,"station_id":"SUDB","time":1,"i_long":106.819881,"distance":280,"is_transit":false,"station_name":"Sudirman Baru","line":1,"i_lat":-6.201433},{"station_name":"Karet","i_lat":-6.20132,"distance":471,"line":1,"transit":false,"station_id":"KAT","time":1,"i_long":106.816351,"is_transit":false},{"i_lat":-6.185545,"station_name":"Tanah Abang","line":1,"station_id":"THB","transit":false,"time":5,"distance":2029,"is_transit":false,"i_long":106.811091},{"transit":true,"station_id":"DU","line":1,"is_transit":true,"time":8,"distance":3632,"station_name":"Duri","i_lat":-6.155215,"i_long":106.800832},{"i_lat":-6.162021,"transit":false,"station_id":"GGL","distance":1700,"station_name":"Grogol","is_transit":false,"line":5,"i_long":106.788277,"time":3},{"transit":false,"i_lat":-6.161433,"station_id":"PSG","is_transit":false,"time":2,"station_name":"Pesing","line":5,"distance":2036,"i_long":106.771379},{"station_name":"Taman Kota","is_transit":false,"line":5,"transit":false,"station_id":"TKO","time":2,"distance":1614,"i_lat":-6.1587309999999995,"i_long":106.756522},{"transit":false,"station_id":"BOI","i_long":106.737035,"line":5,"i_lat":-6.159876,"station_name":"Bojongindah","is_transit":false,"distance":2334,"time":2},{"station_id":"RW","transit":false,"station_name":"Rawa Buaya","distance":1152,"i_lat":-6.162758,"is_transit":false,"time":4,"i_long":106.723064,"line":5},{"i_lat":-6.166068,"station_id":"KDS","distance":2504,"i_long":106.701612,"is_transit":false,"line":5,"transit":false,"time":3,"station_name":"Kalideres"}],[{"is_transit":false,"time":0,"line":1,"distance":0,"i_lat":-6.217455,"i_long":106.939679,"transit":false,"station_id":"KLDB","station_name":"Klenderbaru"},{"i_lat":-6.215568,"transit":false,"station_name":"Buaran","line":1,"time":1,"is_transit":false,"station_id":"BUA","i_long":106.922662,"distance":1305},{"time":2,"i_lat":-6.2135,"distance":3100,"i_long":106.899548,"station_name":"Klender","station_id":"KLD","transit":false,"is_transit":false,"line":1},{"transit":true,"time":3,"is_transit":true,"distance":3395,"i_lat":-6.215091,"i_long":106.86807400000001,"station_id":"JNG","line":1,"station_name":"Jatinegara"},{"station_id":"POK","station_name":"Pondok Jati","transit":false,"is_transit":false,"distance":1236,"i_lat":-6.209188,"i_long":106.861737,"time":2,"line":11},{"station_id":"KMT","line":11,"station_name":"Kramat","distance":1829,"is_transit":false,"i_long":106.855437,"time":2,"i_lat":-6.193792,"transit":false},{"distance":973,"i_lat":-6.185975,"transit":false,"station_name":"Gang Sentiong","station_id":"GST","line":11,"is_transit":false,"time":1,"i_long":106.850107},{"station_id":"PSE","distance":1567,"line":11,"is_transit":false,"i_lat":-6.174784,"transit":false,"i_long":106.84368,"station_name":"Pasar Senen","time":8},{"i_lat":-6.161728,"station_id":"KMO","station_name":"Kemayoran","distance":1436,"transit":false,"is_transit":false,"i_long":106.839204,"line":11,"time":4},{"time":5,"i_lat":-6.14505,"is_transit":false,"i_long":106.836569,"transit":false,"line":11,"station_name":"Rajawali","distance":1901,"station_id":"RJW"},{"station_id":"KPB","transit":true,"i_long":106.826365,"i_lat":-6.132549,"line":4,"distance":1444,"station_name":"Kampung Bandan","is_transit":true,"time":3},{"station_name":"Angke","i_lat":-6.144674,"transit":false,"distance":4102,"time":9,"i_long":106.79867,"station_id":"AK","is_transit":false,"line":1},{"is_transit":true,"transit":true,"distance":1230,"line":1,"station_id":"DU","i_lat":-6.155215,"time":4,"i_long":106.800832,"station_name":"Duri"},{"distance":1700,"line":5,"time":3,"is_transit":false,"i_lat":-6.162021,"station_name":"Grogol","transit":false,"i_long":106.788277,"station_id":"GGL"},{"distance":2036,"station_name":"Pesing","is_transit":false,"station_id":"PSG","time":2,"line":5,"transit":false,"i_lat":-6.161433,"i_long":106.771379},{"i_long":106.756522,"station_id":"TKO","is_transit":false,"line":5,"distance":1614,"time":2,"station_name":"Taman Kota","transit":false,"i_lat":-6.1587309999999995},{"distance":2334,"transit":false,"station_id":"BOI","is_transit":false,"i_long":106.737035,"line":5,"station_name":"Bojongindah","time":2,"i_lat":-6.159876},{"transit":false,"time":4,"distance":1152,"line":5,"is_transit":false,"station_id":"RW","station_name":"Rawa Buaya","i_lat":-6.162758,"i_long":106.723064},{"station_name":"Kalideres","transit":false,"distance":2504,"line":5,"time":3,"i_lat":-6.166068,"station_id":"KDS","i_long":106.701612,"is_transit":false}],[{"time":0,"transit":false,"i_lat":-6.217455,"i_long":106.939679,"station_id":"KLDB","station_name":"Klenderbaru","is_transit":false,"distance":0,"line":1},{"station_id":"BUA","transit":false,"line":1,"time":1,"i_lat":-6.215568,"i_long":106.922662,"distance":1305,"station_name":"Buaran","is_transit":false},{"transit":false,"station_name":"Klender","is_transit":false,"time":2,"line":1,"station_id":"KLD","distance":3100,"i_lat":-6.2135,"i_long":106.899548},{"distance":3395,"station_id":"JNG","is_transit":false,"station_name":"Jatinegara","i_long":106.86807400000001,"time":3,"i_lat":-6.215091,"line":1,"transit":false},{"transit":false,"distance":1377,"time":2,"station_id":"MTR","i_lat":-6.212485,"is_transit":false,"station_name":"Matraman","i_long":106.858896,"line":1},{"transit":true,"is_transit":true,"station_name":"Manggarai","distance":1275,"i_lat":-6.209883,"time":2,"line":2,"i_long":106.84912,"station_id":"MRI"},{"station_id":"CKI","is_transit":false,"distance":1590,"i_long":106.840169,"time":4,"i_lat":-6.198556,"station_name":"Cikini","transit":false,"line":2},{"station_id":"GDD","station_name":"Gondangdia","transit":false,"distance":1750,"line":2,"time":3,"is_transit":false,"i_lat":-6.186295,"i_long":106.832183},{"i_long":106.828284,"station_name":"Juanda","station_id":"JUA","transit":false,"i_lat":-6.166716,"is_transit":false,"line":2,"time":4,"distance":2015},{"station_id":"SW","i_lat":-6.160725,"distance":1149,"transit":false,"is_transit":false,"station_name":"Sawah Besar","line":2,"time":2,"i_long":106.827103},{"station_id":"MGB","time":2,"station_name":"Manggabesar","distance":906,"i_long":106.82482,"line":2,"transit":false,"i_lat":-6.149769,"is_transit":false},{"is_transit":false,"i_long":106.820901,"time":2,"station_name":"Jayakarta","i_lat":-6.141205,"station_id":"JAY","distance":1080,"line":2,"transit":false},{"transit":true,"is_transit":true,"station_name":"Jakarta Kota","time":4,"i_lat":-6.137569,"line":2,"i_long":106.812439,"station_id":"JAKK","distance":1264},{"transit":true,"i_long":106.826365,"i_lat":-6.132549,"line":4,"time":3,"station_id":"KPB","is_transit":true,"station_name":"Kampung Bandan","distance":1364},{"transit":false,"i_long":106.79867,"time":9,"station_name":"Angke","is_transit":false,"i_lat":-6.144674,"distance":4102,"line":1,"station_id":"AK"},{"i_long":106.800832,"distance":1230,"transit":true,"station_name":"Duri","i_lat":-6.155215,"is_transit":true,"time":4,"station_id":"DU","line":1},{"station_id":"GGL","distance":1700,"i_lat":-6.162021,"transit":false,"is_transit":false,"station_name":"Grogol","time":3,"i_long":106.788277,"line":5},{"is_transit":false,"station_name":"Pesing","line":5,"station_id":"PSG","time":2,"i_long":106.771379,"transit":false,"distance":2036,"i_lat":-6.161433},{"station_id":"TKO","distance":1614,"line":5,"is_transit":false,"i_long":106.756522,"transit":false,"time":2,"i_lat":-6.1587309999999995,"station_name":"Taman Kota"},{"station_name":"Bojongindah","station_id":"BOI","line":5,"time":2,"i_long":106.737035,"is_transit":false,"transit":false,"i_lat":-6.159876,"distance":2334},{"i_long":106.723064,"station_name":"Rawa Buaya","line":5,"station_id":"RW","is_transit":false,"i_lat":-6.162758,"time":4,"transit":false,"distance":1152},{"time":3,"i_long":106.701612,"line":5,"station_name":"Kalideres","i_lat":-6.166068,"distance":2504,"is_transit":false,"station_id":"KDS","transit":false}],[{"line":1,"i_lat":-6.217455,"time":0,"i_long":106.939679,"station_id":"KLDB","distance":0,"station_name":"Klenderbaru","transit":false,"is_transit":false},{"station_name":"Buaran","distance":1305,"is_transit":false,"transit":false,"station_id":"BUA","i_long":106.922662,"time":1,"line":1,"i_lat":-6.215568},{"i_lat":-6.2135,"transit":false,"is_transit":false,"station_name":"Klender","time":2,"distance":3100,"i_long":106.899548,"line":1,"station_id":"KLD"},{"is_transit":true,"station_name":"Jatinegara","transit":true,"time":3,"distance":3395,"line":1,"station_id":"JNG","i_lat":-6.215091,"i_long":106.86807400000001},{"line":11,"time":2,"is_transit":false,"i_lat":-6.209188,"transit":false,"distance":1236,"station_name":"Pondok Jati","i_long":106.861737,"station_id":"POK"},{"is_transit":false,"station_id":"KMT","transit":false,"distance":1829,"i_lat":-6.193792,"time":2,"i_long":106.855437,"station_name":"Kramat","line":11},{"station_name":"Gang Sentiong","line":11,"is_transit":false,"distance":973,"station_id":"GST","transit":false,"i_lat":-6.185975,"time":1,"i_long":106.850107},{"station_id":"PSE","is_transit":false,"i_long":106.84368,"distance":1567,"i_lat":-6.174784,"transit":false,"time":8,"line":11,"station_name":"Pasar Senen"},{"distance":1436,"i_lat":-6.161728,"transit":false,"is_transit":false,"time":4,"station_name":"Kemayoran","line":11,"station_id":"KMO","i_long":106.839204},{"station_id":"RJW","i_lat":-6.14505,"is_transit":false,"transit":false,"time":5,"i_long":106.836569,"distance":1901,"line":11,"station_name":"Rajawali"},{"i_long":106.826365,"time":3,"distance":1444,"i_lat":-6.132549,"is_transit":true,"station_id":"KPB","transit":true,"line":4,"station_name":"Kampung Bandan"},{"line":2,"station_id":"JAKK","transit":true,"distance":1364,"station_name":"Jakarta Kota","i_long":106.812439,"is_transit":true,"time":3,"i_lat":-6.137569},{"station_name":"Jayakarta","station_id":"JAY","distance":1264,"is_transit":false,"i_lat":-6.141205,"line":2,"time":4,"i_long":106.820901,"transit":false},{"distance":1080,"i_long":106.82482,"station_name":"Manggabesar","station_id":"MGB","transit":false,"time":2,"is_transit":false,"i_lat":-6.149769,"line":2},{"i_lat":-6.160725,"transit":false,"station_name":"Sawah Besar","is_transit":false,"station_id":"SW","distance":906,"i_long":106.827103,"time":2,"line":2},{"is_transit":false,"time":2,"station_name":"Juanda","i_long":106.828284,"distance":1149,"station_id":"JUA","transit":false,"i_lat":-6.166716,"line":2},{"station_id":"GDD","transit":false,"time":4,"i_lat":-6.186295,"station_name":"Gondangdia","distance":2015,"i_long":106.832183,"line":2,"is_transit":false},{"is_transit":false,"time":3,"transit":false,"distance":1750,"i_long":106.840169,"station_id":"CKI","i_lat":-6.198556,"line":2,"station_name":"Cikini"},{"line":2,"distance":1590,"i_long":106.84912,"time":4,"station_id":"MRI","i_lat":-6.209883,"station_name":"Manggarai","transit":true,"is_transit":true},{"station_id":"SUD","is_transit":false,"i_lat":-6.202263,"line":1,"station_name":"Sudirman","transit":false,"time":4,"i_long":106.822649,"distance":3186},{"station_name":"Sudirman Baru","is_transit":false,"station_id":"SUDB","i_lat":-6.201433,"distance":280,"line":1,"transit":false,"i_long":106.819881,"time":1},{"transit":false,"i_lat":-6.20132,"i_long":106.816351,"is_transit":false,"distance":471,"time":1,"station_name":"Karet","station_id":"KAT","line":1},{"time":5,"station_name":"Tanah Abang","i_lat":-6.185545,"i_long":106.811091,"distance":2029,"station_id":"THB","is_transit":false,"line":1,"transit":false},{"line":1,"station_name":"Duri","time":8,"i_lat":-6.155215,"i_long":106.800832,"distance":3632,"is_transit":true,"station_id":"DU","transit":true},{"is_transit":false,"transit":false,"station_name":"Grogol","line":5,"i_lat":-6.162021,"station_id":"GGL","time":3,"i_long":106.788277,"distance":1700},{"is_transit":false,"transit":false,"line":5,"station_id":"PSG","station_name":"Pesing","distance":2036,"i_lat":-6.161433,"i_long":106.771379,"time":2},{"station_id":"TKO","i_long":106.756522,"line":5,"i_lat":-6.1587309999999995,"is_transit":false,"time":2,"station_name":"Taman Kota","distance":1614,"transit":false},{"station_name":"Bojongindah","i_long":106.737035,"line":5,"station_id":"BOI","is_transit":false,"time":2,"i_lat":-6.159876,"distance":2334,"transit":false},{"i_long":106.723064,"is_transit":false,"station_id":"RW","line":5,"distance":1152,"i_lat":-6.162758,"time":4,"transit":false,"station_name":"Rawa Buaya"},{"transit":false,"time":3,"station_id":"KDS","station_name":"Kalideres","distance":2504,"line":5,"is_transit":false,"i_lat":-6.166068,"i_long":106.701612}]]}