{"data":[[{"time":0,"station_id":"KLDB","transit":false,"is_transit":false,"i_lat":-6.217455,"i_long":106.939679,"line":1,"station_name":"Klenderbaru","distance":0},{"line":0,"station_name":"Buaran","transit":false,"is_transit":false,"i_lat":-6.215568,"distance":1305,"time":1,"station_id":"BUA","i_long":106.922662},{"is_transit":false,"station_name":"Klender","station_id":"KLD","time":2,"distance":3100,"line":1,"i_long":106.899548,"transit":false,"i_lat":-6.2135},{"is_transit":true,"distance":3395,"transit":false,"i_lat":-6.215091,"time":3,"station_name":"Jatinegara","i_long":106.86807400000001,"station_id":"JNG","line":0},{"i_long":106.858896,"station_id":"MTR","transit":false,"station_name":"Matraman","is_transit":false,"i_lat":-6.212485,"line":1,"distance":1377,"time":2},{"i_lat":-6.209883,"i_long":106.84912,"station_id":"MRI","station_name":"Manggarai","distance":1275,"is_transit":true,"transit":false,"time":2,"line":0},{"is_transit":false,"distance":3186,"i_long":106.822649,"line":1,"time":4,"i_lat":-6.202263,"station_name":"Sudirman","station_id":"SUD","transit":false},{"line":1,"is_transit":false,"i_lat":-6.201433,"time":1,"station_name":"Sudirman Baru","distance":280,"i_long":106.819881,"transit":false,"station_id":"SUDB"},{"time":1,"station_name":"Karet","distance":471,"i_lat":-6.20132,"station_id":"KAT","is_transit":false,"transit":false,"i_long":106.816351,"line":1},{"is_transit":true,"distance":2029,"station_name":"Tanah Abang","time":5,"i_long":106.811091,"line":1,"station_id":"THB","transit":true,"i_lat":-6.185545},{"i_lat":-6.207404,"station_id":"PLM","distance":3191,"i_long":106.79689,"station_name":"Palmerah","transit":false,"is_transit":false,"time":6,"line":6},{"station_name":"Kebayoran","i_lat":-6.237242,"line":6,"time":7,"distance":3737,"i_long":106.780334,"station_id":"KBY","is_transit":false,"transit":false},{"i_long":106.74273,"line":6,"station_id":"PDJ","station_name":"Pondokranji","i_lat":-6.276362,"is_transit":false,"time":8,"distance":6218,"transit":false},{"station_id":"JMU","distance":2179,"i_lat":-6.288927,"i_long":106.728916,"line":6,"time":3,"transit":false,"is_transit":false,"station_name":"Jurangmangu"},{"is_transit":false,"i_lat":-6.296963,"transit":false,"line":6,"time":4,"station_name":"Sudimara","distance":1994,"station_id":"SDM","i_long":106.712277},{"i_lat":-6.314823,"station_name":"Rawa Buntu","i_long":106.675475,"line":6,"station_id":"RU","distance":4566,"time":6,"transit":false,"is_transit":false},{"station_name":"Serpong","line":6,"distance":2413,"transit":false,"i_long":106.66566,"is_transit":false,"station_id":"SRP","time":4,"i_lat":-6.319871}],[{"i_long":106.939679,"station_name":"Klenderbaru","i_lat":-6.217455,"time":0,"transit":false,"is_transit":false,"distance":0,"station_id":"KLDB","line":1},{"line":0,"station_id":"BUA","is_transit":false,"distance":1305,"transit":false,"i_long":106.922662,"time":1,"station_name":"Buaran","i_lat":-6.215568},{"distance":3100,"time":2,"transit":false,"station_id":"KLD","line":1,"i_lat":-6.2135,"i_long":106.899548,"station_name":"Klender","is_transit":false},{"is_transit":true,"i_long":106.86807400000001,"station_id":"JNG","station_name":"Jatinegara","i_lat":-6.215091,"time":3,"line":0,"transit":true,"distance":3395},{"transit":false,"station_id":"POK","station_name":"Pondok Jati","time":2,"i_long":106.861737,"line":11,"is_transit":false,"distance":1236,"i_lat":-6.209188},{"i_lat":-6.193792,"distance":1829,"time":2,"transit":false,"station_id":"KMT","station_name":"Kramat","is_transit":false,"i_long":106.855437,"line":11},{"station_name":"Gang Sentiong","is_transit":false,"distance":973,"station_id":"GST","transit":false,"i_lat":-6.185975,"i_long":106.850107,"time":1,"line":11},{"transit":false,"i_lat":-6.174784,"line":11,"station_id":"PSE","time":8,"station_name":"Pasar Senen","i_long":106.84368,"distance":1567,"is_transit":false},{"station_name":"Kemayoran","station_id":"KMO","distance":1436,"time":4,"i_long":106.839204,"is_transit":false,"i_lat":-6.161728,"line":11,"transit":false},{"distance":1901,"station_id":"RJW","i_long":106.836569,"line":11,"station_name":"Rajawali","i_lat":-6.14505,"time":5,"is_transit":false,"transit":false},{"distance":1444,"transit":true,"i_long":106.826365,"line":0,"i_lat":-6.132549,"is_transit":true,"station_id":"KPB","time":3,"station_name":"Kampung Bandan"},{"i_lat":-6.144674,"time":9,"transit":false,"station_id":"AK","i_long":106.79867,"line":0,"distance":4102,"station_name":"Angke","is_transit":false},{"time":4,"line":1,"i_long":106.800832,"i_lat":-6.155215,"station_id":"DU","distance":1230,"station_name":"Duri","is_transit":true,"transit":true},{"station_id":"THB","station_name":"Tanah Abang","distance":3632,"i_lat":-6.185545,"is_transit":true,"time":8,"transit":true,"i_long":106.811091,"line":1},{"i_long":106.79689,"line":6,"station_name":"Palmerah","is_transit":false,"i_lat":-6.207404,"transit":false,"time":6,"station_id":"PLM","distance":3191},{"i_long":106.780334,"station_id":"KBY","line":6,"distance":3737,"i_lat":-6.237242,"time":7,"station_name":"Kebayoran","is_transit":false,"transit":false},{"line":6,"is_transit":false,"station_name":"Pondokranji","transit":false,"distance":6218,"i_lat":-6.276362,"station_id":"PDJ","time":8,"i_long":106.74273},{"is_transit":false,"time":3,"i_long":106.728916,"line":6,"transit":false,"station_name":"Jurangmangu","station_id":"JMU","distance":2179,"i_lat":-6.288927},{"transit":false,"time":4,"distance":1994,"station_id":"SDM","i_long":106.712277,"is_transit":false,"station_name":"Sudimara","i_lat":-6.296963,"line":6},{"is_transit":false,"time":6,"station_id":"RU","i_lat":-6.314823,"i_long":106.675475,"line":6,"distance":4566,"transit":false,"station_name":"Rawa Buntu"},{"transit":false,"i_lat":-6.319871,"i_long":106.66566,"line":6,"station_id":"SRP","distance":2413,"is_transit":false,"time":4,"station_name":"Serpong"}],[{"i_lat":-6.217455,"line":1,"transit":false,"is_transit":false,"i_long":106.939679,"time":0,"station_id":"KLDB","station_name":"Klenderbaru","distance":0},{"is_transit":false,"time":1,"i_long":106.922662,"distance":1305,"station_name":"Buaran","station_id":"BUA","line":0,"transit":false,"i_lat":-6.215568},{"i_lat":-6.2135,"is_transit":false,"distance":3100,"time":2,"i_long":106.899548,"transit":false,"station_id":"KLD","station_name":"Klender","line":1},{"is_transit":true,"i_lat":-6.215091,"transit":false,"station_id":"JNG","i_long":106.86807400000001,"station_name":"Jatinegara","time":3,"line":0,"distance":3395},{"is_transit":false,"line":1,"time":2,"i_lat":-6.212485,"station_name":"Matraman","i_long":106.858896,"transit":false,"distance":1377,"station_id":"MTR"},{"is_transit":true,"i_long":106.84912,"station_name":"Manggarai","distance":1275,"transit":true,"station_id":"MRI","time":2,"i_lat":-6.209883,"line":0},{"i_lat":-6.198556,"i_long":106.840169,"station_id":"CKI","distance":1590,"transit":false,"line":0,"time":4,"is_transit":false,"station_name":"Cikini"},{"station_name":"Gondangdia","transit":false,"i_long":106.832183,"distance":1750,"time":3,"line":2,"is_transit":false,"station_id":"GDD","i_lat":-6.186295},{"is_transit":false,"time":4,"station_name":"Juanda","i_long":106.828284,"transit":false,"i_lat":-6.166716,"distance":2015,"station_id":"JUA","line":2},{"station_id":"SW","i_long":106.827103,"station_name":"Sawah Besar","i_lat":-6.160725,"line":2,"is_transit":false,"time":2,"transit":false,"distance":1149},{"time":2,"i_long":106.82482,"station_name":"Manggabesar","station_id":"MGB","line":2,"transit":false,"is_transit":false,"i_lat":-6.149769,"distance":906},{"line":7,"station_id":"JAY","distance":1080,"time":2,"station_name":"Jayakarta","i_lat":-6.141205,"i_long":106.820901,"transit":false,"is_transit":false},{"is_transit":true,"time":4,"station_name":"Jakarta Kota","transit":true,"station_id":"JAKK","i_lat":-6.137569,"i_long":106.812439,"line":0,"distance":1264},{"transit":false,"line":0,"is_transit":true,"time":3,"station_name":"Kampung Bandan","station_id":"KPB","i_lat":-6.132549,"distance":1364,"i_long":106.826365},{"time":9,"transit":false,"station_name":"Angke","i_long":106.79867,"i_lat":-6.144674,"distance":4102,"line":0,"is_transit":false,"station_id":"AK"},{"station_id":"DU","distance":1230,"i_long":106.800832,"is_transit":true,"transit":true,"time":4,"i_lat":-6.155215,"station_name":"Duri","line":1},{"i_lat":-6.185545,"station_name":"Tanah Abang","time":8,"is_transit":true,"i_long":106.811091,"line":1,"station_id":"THB","distance":3632,"transit":true},{"distance":3191,"time":6,"is_transit":false,"line":6,"station_name":"Palmerah","station_id":"PLM","i_lat":-6.207404,"transit":false,"i_long":106.79689},{"station_id":"KBY","station_name":"Kebayoran","distance":3737,"line":6,"time":7,"is_transit":false,"transit":false,"i_lat":-6.237242,"i_long":106.780334},{"is_transit":false,"line":6,"station_name":"Pondokranji","i_lat":-6.276362,"i_long":106.74273,"distance":6218,"station_id":"PDJ","time":8,"transit":false},{"is_transit":false,"station_id":"JMU","station_name":"Jurangmangu","transit":false,"time":3,"i_lat":-6.288927,"i_long":106.728916,"line":6,"distance":2179},{"station_name":"Sudimara","transit":false,"i_lat":-6.296963,"time":4,"line":6,"is_transit":false,"station_id":"SDM","i_long":106.712277,"distance":1994},{"distance":4566,"i_long":106.675475,"is_transit":false,"line":6,"transit":false,"time":6,"i_lat":-6.314823,"station_name":"Rawa Buntu","station_id":"RU"},{"time":4,"is_transit":false,"station_name":"Serpong","transit":false,"i_long":106.66566,"station_id":"SRP","distance":2413,"line":6,"i_lat":-6.319871}],[{"station_name":"Klenderbaru","station_id":"KLDB","line":1,"i_long":106.939679,"distance":0,"is_transit":false,"time":0,"transit":false,"i_lat":-6.217455},{"distance":1305,"station_name":"Buaran","time":1,"i_long":106.922662,"station_id":"BUA","i_lat":-6.215568,"is_transit":false,"line":0,"transit":false},{"distance":3100,"i_lat":-6.2135,"station_name":"Klender","line":1,"station_id":"KLD","is_transit":false,"time":2,"transit":false,"i_long":106.899548},{"i_lat":-6.215091,"transit":true,"distance":3395,"station_name":"Jatinegara","station_id":"JNG","i_long":106.86807400000001,"is_transit":true,"line":0,"time":3},{"station_name":"Pondok Jati","distance":1236,"station_id":"POK","is_transit":false,"i_lat":-6.209188,"line":11,"i_long":106.861737,"transit":false,"time":2},{"station_id":"KMT","i_long":106.855437,"station_name":"Kramat","is_transit":false,"transit":false,"time":2,"line":11,"distance":1829,"i_lat":-6.193792},{"distance":973,"transit":false,"station_id":"GST","i_long":106.850107,"time":1,"line":11,"station_name":"Gang Sentiong","is_transit":false,"i_lat":-6.185975},{"transit":false,"line":11,"is_transit":false,"time":8,"station_name":"Pasar Senen","distance":1567,"i_long":106.84368,"station_id":"PSE","i_lat":-6.174784},{"is_transit":false,"line":11,"station_name":"Kemayoran","time":4,"i_lat":-6.161728,"station_id":"KMO","i_long":106.839204,"distance":1436,"transit":false},{"time":5,"station_name":"Rajawali","distance":1901,"line":11,"i_long":106.836569,"is_transit":false,"transit":false,"i_lat":-6.14505,"station_id":"RJW"},{"i_lat":-6.132549,"station_id":"KPB","i_long":106.826365,"transit":true,"line":0,"is_transit":true,"station_name":"Kampung Bandan","time":3,"distance":1444},{"transit":true,"station_id":"JAKK","distance":1364,"line":0,"i_lat":-6.137569,"station_name":"Jakarta Kota","time":3,"i_long":106.812439,"is_transit":true},{"station_name":"Jayakarta","i_lat":-6.141205,"distance":1264,"line":7,"time":4,"transit":false,"station_id":"JAY","is_transit":false,"i_long":106.820901},{"time":2,"distance":1080,"line":2,"i_lat":-6.149769,"station_name":"Manggabesar","is_transit":false,"station_id":"MGB","i_long":106.82482,"transit":false},{"distance":906,"time":2,"i_long":106.827103,"i_lat":-6.160725,"line":2,"station_name":"Sawah Besar","is_transit":false,"station_id":"SW","transit":false},{"is_transit":false,"time":2,"station_name":"Juanda","distance":1149,"station_id":"JUA","i_lat":-6.166716,"transit":false,"i_long":106.828284,"line":2},{"station_name":"Gondangdia","i_lat":-6.186295,"distance":2015,"is_transit":false,"station_id":"GDD","transit":false,"i_long":106.832183,"line":2,"time":4},{"distance":1750,"station_id":"CKI","i_long":106.840169,"i_lat":-6.198556,"line":0,"is_transit":false,"transit":false,"time":3,"station_name":"Cikini"},{"is_transit":true,"station_name":"Manggarai","transit":true,"i_lat":-6.209883,"i_long":106.84912,"station_id":"MRI","line":0,"time":4,"distance":1590},{"distance":3186,"line":1,"i_lat":-6.202263,"time":4,"transit":false,"is_transit":false,"i_long":106.822649,"station_id":"SUD","station_name":"Sudirman"},{"distance":280,"i_long":106.819881,"is_transit":false,"time":1,"station_name":"Sudirman Baru","transit":false,"station_id":"SUDB","i_lat":-6.201433,"line":1},{"i_long":106.816351,"distance":471,"is_transit":false,"time":1,"transit":false,"line":1,"i_lat":-6.20132,"station_name":"Karet","station_id":"KAT"},{"i_long":106.811091,"is_transit":true,"line":1,"station_name":"Tanah Abang","transit":true,"station_id":"THB","time":5,"distance":2029,"i_lat":-6.185545},{"time":6,"i_lat":-6.207404,"line":6,"is_transit":false,"station_name":"Palmerah","distance":3191,"i_long":106.79689,"station_id":"PLM","transit":false},{"station_id":"KBY","i_long":106.780334,"i_lat":-6.237242,"station_name":"Kebayoran","distance":3737,"line":6,"transit":false,"time":7,"is_transit":false},{"transit":false,"station_name":"Pondokranji","distance":6218,"station_id":"PDJ","time":8,"is_transit":false,"i_long":106.74273,"i_lat":-6.276362,"line":6},{"transit":false,"i_long":106.728916,"station_id":"JMU","line":6,"distance":2179,"time":3,"is_transit":false,"i_lat":-6.288927,"station_name":"Jurangmangu"},{"is_transit":false,"station_name":"Sudimara","i_lat":-6.296963,"station_id":"SDM","time":4,"transit":false,"i_long":106.712277,"line":6,"distance":1994},{"i_lat":-6.314823,"i_long":106.675475,"transit":false,"line":6,"station_name":"Rawa Buntu","station_id":"RU","is_transit":false,"time":6,"distance":4566},{"is_transit":false,"distance":2413,"transit":false,"i_lat":-6.319871,"i_long":106.66566,"time":4,"station_name":"Serpong","station_id":"SRP","line":6}]]}