{"data":[[{"time":0,"station_id":"KLDB","line":1,"i_long":106.939679,"station_name":"Klenderbaru","i_lat":-6.217455,"is_transit":false,"distance":0,"transit":false},{"transit":false,"station_id":"BUA","station_name":"Buaran","distance":1305,"is_transit":false,"line":1,"time":1,"i_lat":-6.215568,"i_long":106.922662},{"transit":false,"i_lat":-6.2135,"distance":3100,"i_long":106.899548,"station_id":"KLD","line":1,"is_transit":false,"time":2,"station_name":"Klender"},{"i_long":106.86807400000001,"station_id":"JNG","is_transit":false,"time":3,"station_name":"Jatinegara","i_lat":-6.215091,"transit":false,"distance":3395,"line":1},{"i_lat":-6.212485,"line":1,"station_id":"MTR","i_long":106.858896,"distance":1377,"transit":false,"is_transit":false,"station_name":"Matraman","time":2},{"time":2,"is_transit":false,"transit":false,"i_lat":-6.209883,"station_name":"Manggarai","line":2,"distance":1275,"station_id":"MRI","i_long":106.84912},{"line":1,"time":4,"station_name":"Sudirman","distance":3186,"station_id":"SUD","transit":false,"is_transit":false,"i_lat":-6.202263,"i_long":106.822649},{"i_long":106.819881,"i_lat":-6.201433,"line":1,"station_id":"SUDB","station_name":"Sudirman Baru","transit":false,"is_transit":false,"time":1,"distance":280},{"is_transit":false,"i_long":106.816351,"station_name":"Karet","time":1,"distance":471,"i_lat":-6.20132,"transit":false,"line":1,"station_id":"KAT"},{"transit":false,"station_name":"Tanah Abang","i_lat":-6.185545,"is_transit":false,"station_id":"THB","i_long":106.811091,"distance":2029,"time":5,"line":1},{"time":8,"i_lat":-6.155215,"distance":3632,"station_id":"DU","is_transit":true,"i_long":106.800832,"line":1,"transit":true,"station_name":"Duri"},{"station_name":"Grogol","time":3,"line":5,"station_id":"GGL","i_lat":-6.162021,"distance":1700,"is_transit":false,"transit":false,"i_long":106.788277},{"transit":false,"time":2,"is_transit":false,"distance":2036,"i_lat":-6.161433,"line":5,"station_name":"Pesing","station_id":"PSG","i_long":106.771379},{"i_long":106.756522,"transit":false,"i_lat":-6.1587309999999995,"line":5,"station_name":"Taman Kota","station_id":"TKO","distance":1614,"is_transit":false,"time":2},{"line":5,"distance":2334,"transit":false,"station_id":"BOI","i_long":106.737035,"is_transit":false,"time":2,"i_lat":-6.159876,"station_name":"Bojongindah"},{"line":5,"transit":false,"station_name":"Rawa Buaya","distance":1152,"i_long":106.723064,"station_id":"RW","time":4,"is_transit":false,"i_lat":-6.162758},{"is_transit":false,"station_id":"KDS","i_lat":-6.166068,"i_long":106.701612,"station_name":"Kalideres","time":3,"line":5,"distance":2504,"transit":false},{"transit":false,"station_id":"PI","distance":2548,"i_lat":-6.169933,"time":3,"line":5,"station_name":"Poris","i_long":106.679458,"is_transit":false},{"i_lat":-6.171811,"line":5,"i_long":106.665036,"distance":1834,"transit":false,"time":3,"station_id":"BPR","is_transit":false,"station_name":"Batuceper"}],[{"i_lat":-6.217455,"station_id":"KLDB","i_long":106.939679,"station_name":"Klenderbaru","transit":false,"is_transit":false,"distance":0,"line":1,"time":0},{"i_lat":-6.215568,"station_name":"Buaran","station_id":"BUA","is_transit":false,"line":1,"transit":false,"i_long":106.922662,"distance":1305,"time":1},{"transit":false,"is_transit":false,"i_lat":-6.2135,"line":1,"i_long":106.899548,"station_id":"KLD","distance":3100,"time":2,"station_name":"Klender"},{"is_transit":true,"distance":3395,"transit":true,"station_id":"JNG","line":1,"i_long":106.86807400000001,"station_name":"Jatinegara","time":3,"i_lat":-6.215091},{"is_transit":false,"time":2,"station_id":"POK","line":11,"i_lat":-6.209188,"i_long":106.861737,"distance":1236,"transit":false,"station_name":"Pondok Jati"},{"i_lat":-6.193792,"i_long":106.855437,"line":11,"distance":1829,"station_name":"Kramat","is_transit":false,"station_id":"KMT","time":2,"transit":false},{"distance":973,"is_transit":false,"time":1,"transit":false,"i_long":106.850107,"station_id":"GST","i_lat":-6.185975,"line":11,"station_name":"Gang Sentiong"},{"transit":false,"is_transit":false,"i_long":106.84368,"station_name":"Pasar Senen","line":11,"time":8,"i_lat":-6.174784,"distance":1567,"station_id":"PSE"},{"station_id":"KMO","i_lat":-6.161728,"i_long":106.839204,"is_transit":false,"station_name":"Kemayoran","transit":false,"line":11,"distance":1436,"time":4},{"time":5,"station_name":"Rajawali","i_lat":-6.14505,"station_id":"RJW","i_long":106.836569,"is_transit":false,"distance":1901,"line":11,"transit":false},{"i_long":106.826365,"station_name":"Kampung Bandan","is_transit":true,"station_id":"KPB","time":3,"distance":1444,"line":4,"transit":true,"i_lat":-6.132549},{"i_lat":-6.144674,"station_name":"Angke","distance":4102,"transit":false,"i_long":106.79867,"time":9,"line":1,"is_transit":false,"station_id":"AK"},{"time":4,"i_lat":-6.155215,"line":1,"station_name":"Duri","is_transit":true,"distance":1230,"station_id":"DU","transit":true,"i_long":106.800832},{"is_transit":false,"station_id":"GGL","distance":1700,"i_lat":-6.162021,"transit":false,"station_name":"Grogol","time":3,"i_long":106.788277,"line":5},{"is_transit":false,"distance":2036,"i_lat":-6.161433,"line":5,"station_id":"PSG","station_name":"Pesing","time":2,"i_long":106.771379,"transit":false},{"is_transit":false,"station_id":"TKO","time":2,"distance":1614,"i_long":106.756522,"station_name":"Taman Kota","line":5,"transit":false,"i_lat":-6.1587309999999995},{"i_lat":-6.159876,"is_transit":false,"transit":false,"station_id":"BOI","i_long":106.737035,"line":5,"station_name":"Bojongindah","time":2,"distance":2334},{"transit":false,"line":5,"time":4,"distance":1152,"i_long":106.723064,"station_name":"Rawa Buaya","is_transit":false,"i_lat":-6.162758,"station_id":"RW"},{"i_long":106.701612,"transit":false,"is_transit":false,"i_lat":-6.166068,"time":3,"line":5,"distance":2504,"station_name":"Kalideres","station_id":"KDS"},{"station_name":"Poris","station_id":"PI","line":5,"i_lat":-6.169933,"time":3,"distance":2548,"i_long":106.679458,"is_transit":false,"transit":false},{"line":5,"distance":1834,"i_long":106.665036,"station_id":"BPR","transit":false,"station_name":"Batuceper","i_lat":-6.171811,"is_transit":false,"time":3}],[{"i_lat":-6.217455,"station_id":"KLDB","distance":0,"line":1,"i_long":106.939679,"transit":false,"is_transit":false,"time":0,"station_name":"Klenderbaru"},{"time":1,"distance":1305,"is_transit":false,"transit":false,"station_name":"Buaran","i_lat":-6.215568,"i_long":106.922662,"line":1,"station_id":"BUA"},{"i_long":106.899548,"is_transit":false,"distance":3100,"time":2,"transit":false,"line":1,"station_id":"KLD","station_name":"Klender","i_lat":-6.2135},{"transit":false,"distance":3395,"line":1,"i_long":106.86807400000001,"time":3,"is_transit":false,"i_lat":-6.215091,"station_name":"Jatinegara","station_id":"JNG"},{"is_transit":false,"station_id":"MTR","distance":1377,"i_lat":-6.212485,"transit":false,"time":2,"i_long":106.858896,"station_name":"Matraman","line":1},{"is_transit":true,"i_lat":-6.209883,"station_name":"Manggarai","line":2,"i_long":106.84912,"transit":true,"distance":1275,"station_id":"MRI","time":2},{"time":4,"distance":1590,"i_long":106.840169,"line":2,"transit":false,"station_name":"Cikini","i_lat":-6.198556,"station_id":"CKI","is_transit":false},{"i_long":106.832183,"line":2,"distance":1750,"station_name":"Gondangdia","station_id":"GDD","i_lat":-6.186295,"time":3,"transit":false,"is_transit":false},{"i_long":106.828284,"station_name":"Juanda","i_lat":-6.166716,"line":2,"is_transit":false,"station_id":"JUA","time":4,"transit":false,"distance":2015},{"station_id":"SW","station_name":"Sawah Besar","is_transit":false,"transit":false,"distance":1149,"time":2,"i_lat":-6.160725,"i_long":106.827103,"line":2},{"transit":false,"i_long":106.82482,"time":2,"line":2,"station_id":"MGB","station_name":"Manggabesar","distance":906,"i_lat":-6.149769,"is_transit":false},{"i_long":106.820901,"time":2,"line":2,"transit":false,"distance":1080,"station_id":"JAY","station_name":"Jayakarta","is_transit":false,"i_lat":-6.141205},{"station_id":"JAKK","station_name":"Jakarta Kota","time":4,"i_long":106.812439,"transit":true,"distance":1264,"is_transit":true,"i_lat":-6.137569,"line":2},{"distance":1364,"station_name":"Kampung Bandan","time":3,"i_long":106.826365,"station_id":"KPB","line":4,"is_transit":true,"transit":true,"i_lat":-6.132549},{"time":9,"i_lat":-6.144674,"station_id":"AK","station_name":"Angke","distance":4102,"i_long":106.79867,"is_transit":false,"line":1,"transit":false},{"station_id":"DU","i_lat":-6.155215,"distance":1230,"i_long":106.800832,"time":4,"station_name":"Duri","is_transit":true,"line":1,"transit":true},{"distance":1700,"transit":false,"i_lat":-6.162021,"is_transit":false,"time":3,"i_long":106.788277,"station_id":"GGL","line":5,"station_name":"Grogol"},{"is_transit":false,"station_name":"Pesing","time":2,"i_lat":-6.161433,"line":5,"transit":false,"station_id":"PSG","i_long":106.771379,"distance":2036},{"i_lat":-6.1587309999999995,"i_long":106.756522,"is_transit":false,"station_name":"Taman Kota","transit":false,"line":5,"station_id":"TKO","distance":1614,"time":2},{"i_lat":-6.159876,"transit":false,"station_name":"Bojongindah","station_id":"BOI","i_long":106.737035,"line":5,"time":2,"distance":2334,"is_transit":false},{"station_name":"Rawa Buaya","line":5,"i_lat":-6.162758,"transit":false,"is_transit":false,"station_id":"RW","i_long":106.723064,"time":4,"distance":1152},{"i_long":106.701612,"distance":2504,"transit":false,"station_name":"Kalideres","station_id":"KDS","is_transit":false,"i_lat":-6.166068,"time":3,"line":5},{"station_name":"Poris","i_long":106.679458,"i_lat":-6.169933,"is_transit":false,"time":3,"station_id":"PI","distance":2548,"line":5,"transit":false},{"distance":1834,"line":5,"station_name":"Batuceper","transit":false,"is_transit":false,"time":3,"i_long":106.665036,"station_id":"BPR","i_lat":-6.171811}],[{"transit":false,"station_id":"KLDB","distance":0,"i_long":106.939679,"line":1,"is_transit":false,"time":0,"i_lat":-6.217455,"station_name":"Klenderbaru"},{"transit":false,"is_transit":false,"line":1,"time":1,"station_name":"Buaran","i_lat":-6.215568,"distance":1305,"station_id":"BUA","i_long":106.922662},{"station_name":"Klender","i_long":106.899548,"station_id":"KLD","distance":3100,"i_lat":-6.2135,"is_transit":false,"line":1,"transit":false,"time":2},{"time":3,"station_name":"Jatinegara","station_id":"JNG","is_transit":true,"distance":3395,"i_long":106.86807400000001,"transit":true,"line":1,"i_lat":-6.215091},{"transit":false,"time":2,"station_name":"Pondok Jati","is_transit":false,"station_id":"POK","distance":1236,"i_long":106.861737,"line":11,"i_lat":-6.209188},{"transit":false,"station_name":"Kramat","is_transit":false,"distance":1829,"i_lat":-6.193792,"i_long":106.855437,"station_id":"KMT","time":2,"line":11},{"station_name":"Gang Sentiong","station_id":"GST","is_transit":false,"time":1,"i_lat":-6.185975,"distance":973,"transit":false,"i_long":106.850107,"line":11},{"i_long":106.84368,"is_transit":false,"station_name":"Pasar Senen","i_lat":-6.174784,"transit":false,"time":8,"line":11,"station_id":"PSE","distance":1567},{"transit":false,"line":11,"distance":1436,"station_name":"Kemayoran","is_transit":false,"i_lat":-6.161728,"time":4,"i_long":106.839204,"station_id":"KMO"},{"station_name":"Rajawali","station_id":"RJW","time":5,"i_lat":-6.14505,"line":11,"transit":false,"distance":1901,"i_long":106.836569,"is_transit":false},{"distance":1444,"line":4,"transit":true,"station_name":"Kampung Bandan","time":3,"i_long":106.826365,"station_id":"KPB","is_transit":true,"i_lat":-6.132549},{"station_name":"Jakarta Kota","station_id":"JAKK","distance":1364,"time":3,"transit":true,"line":2,"is_transit":true,"i_lat":-6.137569,"i_long":106.812439},{"distance":1264,"station_id":"JAY","station_name":"Jayakarta","is_transit":false,"transit":false,"time":4,"i_lat":-6.141205,"i_long":106.820901,"line":2},{"station_id":"MGB","distance":1080,"is_transit":false,"station_name":"Manggabesar","i_long":106.82482,"line":2,"transit":false,"i_lat":-6.149769,"time":2},{"i_long":106.827103,"transit":false,"station_name":"Sawah Besar","is_transit":false,"distance":906,"time":2,"i_lat":-6.160725,"station_id":"SW","line":2},{"is_transit":false,"station_name":"Juanda","transit":false,"distance":1149,"i_long":106.828284,"line":2,"time":2,"i_lat":-6.166716,"station_id":"JUA"},{"i_long":106.832183,"transit":false,"i_lat":-6.186295,"distance":2015,"station_id":"GDD","station_name":"Gondangdia","line":2,"is_transit":false,"time":4},{"i_lat":-6.198556,"i_long":106.840169,"is_transit":false,"transit":false,"station_id":"CKI","time":3,"distance":1750,"line":2,"station_name":"Cikini"},{"time":4,"station_id":"MRI","station_name":"Manggarai","i_lat":-6.209883,"i_long":106.84912,"line":2,"transit":true,"distance":1590,"is_transit":true},{"line":1,"distance":3186,"i_long":106.822649,"transit":false,"station_id":"SUD","time":4,"is_transit":false,"i_lat":-6.202263,"station_name":"Sudirman"},{"i_long":106.819881,"is_transit":false,"station_name":"Sudirman Baru","time":1,"i_lat":-6.201433,"line":1,"station_id":"SUDB","distance":280,"transit":false},{"i_long":106.816351,"station_id":"KAT","distance":471,"station_name":"Karet","time":1,"line":1,"is_transit":false,"transit":false,"i_lat":-6.20132},{"distance":2029,"i_long":106.811091,"station_name":"Tanah Abang","transit":false,"line":1,"i_lat":-6.185545,"station_id":"THB","is_transit":false,"time":5},{"transit":true,"station_name":"Duri","is_transit":true,"time":8,"line":1,"i_lat":-6.155215,"distance":3632,"i_long":106.800832,"station_id":"DU"},{"time":3,"i_lat":-6.162021,"station_name":"Grogol","station_id":"GGL","is_transit":false,"line":5,"transit":false,"i_long":106.788277,"distance":1700},{"transit":false,"line":5,"is_transit":false,"time":2,"i_lat":-6.161433,"distance":2036,"station_id":"PSG","station_name":"Pesing","i_long":106.771379},{"transit":false,"line":5,"station_name":"Taman Kota","time":2,"station_id":"TKO","is_transit":false,"i_lat":-6.1587309999999995,"i_long":106.756522,"distance":1614},{"i_long":106.737035,"time":2,"distance":2334,"station_name":"Bojongindah","i_lat":-6.159876,"line":5,"station_id":"BOI","transit":false,"is_transit":false},{"transit":false,"is_transit":false,"time":4,"station_id":"RW","i_lat":-6.162758,"distance":1152,"station_name":"Rawa Buaya","i_long":106.723064,"line":5},{"station_name":"Kalideres","is_transit":false,"distance":2504,"i_long":106.701612,"station_id":"KDS","transit":false,"time":3,"i_lat":-6.166068,"line":5},{"station_name":"Poris","line":5,"transit":false,"distance":2548,"i_lat":-6.169933,"i_long":106.679458,"is_transit":false,"time":3,"station_id":"PI"},{"is_transit":false,"station_name":"Batuceper","time":3,"line":5,"i_lat":-6.171811,"i_long":106.665036,"distance":1834,"transit":false,"station_id":"BPR"}]]}