{"data":[[{"distance":0,"i_lat":-6.217455,"line":1,"transit":false,"i_long":106.939679,"station_name":"Klenderbaru","station_id":"KLDB","is_transit":false,"time":0},{"time":1,"station_name":"Buaran","line":0,"is_transit":false,"i_long":106.922662,"transit":false,"station_id":"BUA","i_lat":-6.215568,"distance":1305},{"station_name":"Klender","line":1,"i_long":106.899548,"distance":3100,"station_id":"KLD","is_transit":false,"time":2,"transit":false,"i_lat":-6.2135},{"station_id":"JNG","i_lat":-6.215091,"i_long":106.86807400000001,"line":0,"is_transit":true,"time":3,"distance":3395,"station_name":"Jatinegara","transit":false},{"distance":1377,"transit":false,"i_long":106.858896,"station_name":"Matraman","line":1,"is_transit":false,"i_lat":-6.212485,"station_id":"MTR","time":2},{"is_transit":true,"time":2,"station_name":"Manggarai","transit":true,"i_long":106.84912,"distance":1275,"line":0,"i_lat":-6.209883,"station_id":"MRI"},{"is_transit":false,"transit":false,"time":4,"i_long":106.840169,"line":0,"station_name":"Cikini","station_id":"CKI","i_lat":-6.198556,"distance":1590},{"is_transit":false,"i_lat":-6.186295,"i_long":106.832183,"station_id":"GDD","line":2,"station_name":"Gondangdia","transit":false,"time":3,"distance":1750},{"station_name":"Juanda","line":2,"is_transit":false,"station_id":"JUA","transit":false,"i_long":106.828284,"i_lat":-6.166716,"time":4,"distance":2015},{"transit":false,"i_long":106.827103,"i_lat":-6.160725,"line":2,"is_transit":false,"time":2,"distance":1149,"station_name":"Sawah Besar","station_id":"SW"}],[{"time":0,"line":1,"i_long":106.939679,"station_name":"Klenderbaru","is_transit":false,"station_id":"KLDB","distance":0,"transit":false,"i_lat":-6.217455},{"time":1,"transit":false,"i_lat":-6.215568,"distance":1305,"station_id":"BUA","i_long":106.922662,"is_transit":false,"station_name":"Buaran","line":0},{"i_long":106.899548,"distance":3100,"transit":false,"line":1,"time":2,"station_name":"Klender","i_lat":-6.2135,"station_id":"KLD","is_transit":false},{"is_transit":true,"station_id":"JNG","distance":3395,"i_lat":-6.215091,"i_long":106.86807400000001,"line":0,"transit":true,"station_name":"Jatinegara","time":3},{"time":2,"i_lat":-6.209188,"transit":false,"station_id":"POK","distance":1236,"station_name":"Pondok Jati","i_long":106.861737,"line":11,"is_transit":false},{"is_transit":false,"distance":1829,"line":11,"station_id":"KMT","transit":false,"i_long":106.855437,"i_lat":-6.193792,"time":2,"station_name":"Kramat"},{"transit":false,"is_transit":false,"distance":973,"station_name":"Gang Sentiong","time":1,"i_long":106.850107,"station_id":"GST","i_lat":-6.185975,"line":11},{"is_transit":false,"station_name":"Pasar Senen","time":8,"distance":1567,"line":11,"transit":false,"i_long":106.84368,"i_lat":-6.174784,"station_id":"PSE"},{"time":4,"i_long":106.839204,"transit":false,"line":11,"i_lat":-6.161728,"distance":1436,"station_name":"Kemayoran","is_transit":false,"station_id":"KMO"},{"i_lat":-6.14505,"transit":false,"line":11,"is_transit":false,"station_name":"Rajawali","distance":1901,"time":5,"station_id":"RJW","i_long":106.836569},{"transit":true,"station_id":"KPB","station_name":"Kampung Bandan","time":3,"distance":1444,"line":0,"i_lat":-6.132549,"i_long":106.826365,"is_transit":true},{"station_id":"JAKK","is_transit":true,"time":3,"line":0,"station_name":"Jakarta Kota","distance":1364,"transit":true,"i_lat":-6.137569,"i_long":106.812439},{"line":7,"time":4,"transit":false,"distance":1264,"station_id":"JAY","i_long":106.820901,"is_transit":false,"station_name":"Jayakarta","i_lat":-6.141205},{"station_id":"MGB","time":2,"is_transit":false,"distance":1080,"transit":false,"i_lat":-6.149769,"i_long":106.82482,"station_name":"Manggabesar","line":2},{"time":2,"i_lat":-6.160725,"i_long":106.827103,"distance":906,"station_name":"Sawah Besar","transit":false,"line":2,"is_transit":false,"station_id":"SW"}],[{"line":1,"i_long":106.939679,"transit":false,"time":0,"is_transit":false,"i_lat":-6.217455,"station_name":"Klenderbaru","station_id":"KLDB","distance":0},{"line":0,"station_id":"BUA","is_transit":false,"time":1,"distance":1305,"transit":false,"i_lat":-6.215568,"i_long":106.922662,"station_name":"Buaran"},{"i_lat":-6.2135,"is_transit":false,"distance":3100,"line":1,"station_id":"KLD","station_name":"Klender","i_long":106.899548,"time":2,"transit":false},{"distance":3395,"time":3,"is_transit":true,"transit":false,"station_name":"Jatinegara","i_lat":-6.215091,"i_long":106.86807400000001,"station_id":"JNG","line":0},{"i_long":106.858896,"i_lat":-6.212485,"distance":1377,"station_name":"Matraman","line":1,"transit":false,"time":2,"is_transit":false,"station_id":"MTR"},{"is_transit":true,"i_long":106.84912,"line":0,"i_lat":-6.209883,"distance":1275,"transit":false,"station_name":"Manggarai","station_id":"MRI","time":2},{"i_lat":-6.202263,"station_name":"Sudirman","i_long":106.822649,"line":1,"transit":false,"distance":3186,"station_id":"SUD","is_transit":false,"time":4},{"i_long":106.819881,"transit":false,"line":1,"station_id":"SUDB","time":1,"i_lat":-6.201433,"distance":280,"is_transit":false,"station_name":"Sudirman Baru"},{"transit":false,"distance":471,"station_id":"KAT","i_lat":-6.20132,"line":1,"time":1,"i_long":106.816351,"station_name":"Karet","is_transit":false},{"transit":false,"station_name":"Tanah Abang","station_id":"THB","i_long":106.811091,"i_lat":-6.185545,"line":1,"is_transit":true,"time":5,"distance":2029},{"station_id":"DU","distance":3632,"transit":true,"is_transit":true,"station_name":"Duri","time":8,"i_long":106.800832,"i_lat":-6.155215,"line":1},{"transit":false,"station_name":"Angke","line":0,"i_lat":-6.144674,"station_id":"AK","is_transit":false,"time":4,"distance":1230,"i_long":106.79867},{"i_lat":-6.132549,"time":9,"distance":4102,"i_long":106.826365,"station_name":"Kampung Bandan","is_transit":true,"transit":false,"station_id":"KPB","line":0},{"i_lat":-6.137569,"is_transit":true,"station_name":"Jakarta Kota","distance":1364,"i_long":106.812439,"station_id":"JAKK","line":0,"time":3,"transit":true},{"time":4,"distance":1264,"station_name":"Jayakarta","i_lat":-6.141205,"is_transit":false,"transit":false,"i_long":106.820901,"station_id":"JAY","line":7},{"time":2,"station_id":"MGB","line":2,"station_name":"Manggabesar","distance":1080,"i_long":106.82482,"i_lat":-6.149769,"is_transit":false,"transit":false},{"is_transit":false,"i_lat":-6.160725,"transit":false,"station_name":"Sawah Besar","station_id":"SW","time":2,"distance":906,"i_long":106.827103,"line":2}],[{"transit":false,"line":1,"station_name":"Klenderbaru","i_lat":-6.217455,"distance":0,"station_id":"KLDB","is_transit":false,"i_long":106.939679,"time":0},{"i_lat":-6.215568,"i_long":106.922662,"station_id":"BUA","line":0,"time":1,"station_name":"Buaran","distance":1305,"transit":false,"is_transit":false},{"i_long":106.899548,"station_id":"KLD","transit":false,"is_transit":false,"distance":3100,"line":1,"i_lat":-6.2135,"station_name":"Klender","time":2},{"is_transit":true,"i_long":106.86807400000001,"station_name":"Jatinegara","time":3,"distance":3395,"transit":true,"station_id":"JNG","line":0,"i_lat":-6.215091},{"station_id":"POK","distance":1236,"transit":false,"line":11,"is_transit":false,"i_long":106.861737,"station_name":"Pondok Jati","i_lat":-6.209188,"time":2},{"station_name":"Kramat","i_lat":-6.193792,"transit":false,"distance":1829,"is_transit":false,"i_long":106.855437,"station_id":"KMT","line":11,"time":2},{"station_name":"Gang Sentiong","is_transit":false,"station_id":"GST","time":1,"line":11,"i_long":106.850107,"distance":973,"transit":false,"i_lat":-6.185975},{"i_long":106.84368,"transit":false,"station_id":"PSE","i_lat":-6.174784,"time":8,"is_transit":false,"station_name":"Pasar Senen","distance":1567,"line":11},{"station_id":"KMO","transit":false,"time":4,"i_lat":-6.161728,"i_long":106.839204,"is_transit":false,"line":11,"station_name":"Kemayoran","distance":1436},{"distance":1901,"i_lat":-6.14505,"station_id":"RJW","line":11,"time":5,"transit":false,"i_long":106.836569,"is_transit":false,"station_name":"Rajawali"},{"distance":1444,"i_lat":-6.132549,"transit":true,"time":3,"station_id":"KPB","station_name":"Kampung Bandan","is_transit":true,"i_long":106.826365,"line":0},{"time":9,"i_lat":-6.144674,"distance":4102,"transit":false,"i_long":106.79867,"station_name":"Angke","station_id":"AK","is_transit":false,"line":0},{"time":4,"distance":1230,"i_lat":-6.155215,"is_transit":true,"transit":true,"i_long":106.800832,"line":1,"station_id":"DU","station_name":"Duri"},{"i_lat":-6.185545,"station_name":"Tanah Abang","distance":3632,"transit":false,"i_long":106.811091,"station_id":"THB","is_transit":true,"time":8,"line":1},{"time":5,"transit":false,"station_id":"KAT","station_name":"Karet","i_long":106.816351,"i_lat":-6.20132,"distance":2029,"is_transit":false,"line":1},{"time":1,"i_long":106.819881,"i_lat":-6.201433,"station_id":"SUDB","is_transit":false,"distance":471,"station_name":"Sudirman Baru","transit":false,"line":1},{"station_id":"SUD","transit":false,"is_transit":false,"i_long":106.822649,"time":1,"i_lat":-6.202263,"line":1,"distance":280,"station_name":"Sudirman"},{"station_name":"Manggarai","distance":3186,"i_lat":-6.209883,"i_long":106.84912,"transit":true,"line":0,"time":4,"station_id":"MRI","is_transit":true},{"station_name":"Cikini","is_transit":false,"station_id":"CKI","distance":1590,"line":0,"i_long":106.840169,"transit":false,"time":4,"i_lat":-6.198556},{"i_lat":-6.186295,"time":3,"station_name":"Gondangdia","line":2,"distance":1750,"is_transit":false,"transit":false,"i_long":106.832183,"station_id":"GDD"},{"station_id":"JUA","is_transit":false,"i_lat":-6.166716,"time":4,"station_name":"Juanda","line":2,"transit":false,"distance":2015,"i_long":106.828284},{"line":2,"station_id":"SW","station_name":"Sawah Besar","time":2,"distance":1149,"i_lat":-6.160725,"transit":false,"is_transit":false,"i_long":106.827103}]]}