{"data":[[{"i_long":106.939679,"station_name":"Klenderbaru","is_transit":false,"time":0,"distance":0,"line":1,"station_id":"KLDB","i_lat":-6.217455,"transit":false},{"distance":1305,"station_name":"Buaran","transit":false,"is_transit":false,"time":1,"line":1,"station_id":"BUA","i_lat":-6.215568,"i_long":106.922662},{"station_id":"KLD","distance":3100,"station_name":"Klender","i_lat":-6.2135,"line":1,"i_long":106.899548,"time":2,"transit":false,"is_transit":false},{"station_name":"Jatinegara","station_id":"JNG","i_long":106.86807400000001,"i_lat":-6.215091,"time":3,"is_transit":false,"distance":3395,"transit":false,"line":1},{"transit":false,"line":1,"is_transit":false,"i_long":106.858896,"distance":1377,"station_name":"Matraman","station_id":"MTR","time":2,"i_lat":-6.212485},{"transit":false,"distance":1275,"station_name":"Manggarai","i_lat":-6.209883,"i_long":106.84912,"line":2,"station_id":"MRI","time":2,"is_transit":false},{"i_long":106.822649,"station_name":"Sudirman","is_transit":false,"i_lat":-6.202263,"station_id":"SUD","line":1,"time":4,"transit":false,"distance":3186},{"i_lat":-6.201433,"station_name":"Sudirman Baru","is_transit":false,"station_id":"SUDB","line":1,"transit":false,"distance":280,"i_long":106.819881,"time":1},{"station_name":"Karet","line":1,"time":1,"is_transit":false,"distance":471,"station_id":"KAT","transit":false,"i_lat":-6.20132,"i_long":106.816351},{"i_lat":-6.185545,"station_id":"THB","is_transit":false,"distance":2029,"station_name":"Tanah Abang","line":1,"i_long":106.811091,"transit":false,"time":5}],[{"transit":false,"station_name":"Klenderbaru","line":1,"is_transit":false,"i_lat":-6.217455,"time":0,"station_id":"KLDB","i_long":106.939679,"distance":0},{"station_id":"BUA","i_lat":-6.215568,"distance":1305,"time":1,"i_long":106.922662,"transit":false,"line":1,"station_name":"Buaran","is_transit":false},{"is_transit":false,"station_id":"KLD","line":1,"distance":3100,"i_lat":-6.2135,"transit":false,"station_name":"Klender","time":2,"i_long":106.899548},{"i_lat":-6.215091,"transit":true,"is_transit":true,"station_name":"Jatinegara","time":3,"i_long":106.86807400000001,"distance":3395,"line":1,"station_id":"JNG"},{"i_long":106.861737,"distance":1236,"is_transit":false,"line":11,"station_id":"POK","i_lat":-6.209188,"transit":false,"station_name":"Pondok Jati","time":2},{"i_lat":-6.193792,"line":11,"station_name":"Kramat","is_transit":false,"station_id":"KMT","i_long":106.855437,"distance":1829,"transit":false,"time":2},{"i_lat":-6.185975,"is_transit":false,"transit":false,"station_name":"Gang Sentiong","distance":973,"station_id":"GST","time":1,"i_long":106.850107,"line":11},{"is_transit":false,"line":11,"station_name":"Pasar Senen","station_id":"PSE","i_lat":-6.174784,"i_long":106.84368,"transit":false,"distance":1567,"time":8},{"i_lat":-6.161728,"station_name":"Kemayoran","distance":1436,"is_transit":false,"station_id":"KMO","line":11,"time":4,"i_long":106.839204,"transit":false},{"i_lat":-6.14505,"station_name":"Rajawali","distance":1901,"i_long":106.836569,"station_id":"RJW","time":5,"line":11,"transit":false,"is_transit":false},{"transit":true,"line":4,"distance":1444,"station_name":"Kampung Bandan","time":3,"i_lat":-6.132549,"station_id":"KPB","is_transit":true,"i_long":106.826365},{"transit":false,"station_name":"Angke","distance":4102,"station_id":"AK","time":9,"i_long":106.79867,"is_transit":false,"line":1,"i_lat":-6.144674},{"line":1,"station_id":"DU","transit":false,"distance":1230,"i_lat":-6.155215,"time":4,"station_name":"Duri","is_transit":false,"i_long":106.800832},{"distance":3632,"is_transit":false,"line":1,"transit":false,"station_name":"Tanah Abang","station_id":"THB","time":8,"i_long":106.811091,"i_lat":-6.185545}],[{"line":1,"is_transit":false,"i_lat":-6.217455,"transit":false,"distance":0,"station_name":"Klenderbaru","station_id":"KLDB","time":0,"i_long":106.939679},{"i_lat":-6.215568,"time":1,"station_id":"BUA","transit":false,"is_transit":false,"station_name":"Buaran","distance":1305,"i_long":106.922662,"line":1},{"i_lat":-6.2135,"line":1,"station_id":"KLD","distance":3100,"time":2,"is_transit":false,"station_name":"Klender","transit":false,"i_long":106.899548},{"transit":false,"time":3,"is_transit":false,"i_long":106.86807400000001,"station_id":"JNG","station_name":"Jatinegara","i_lat":-6.215091,"line":1,"distance":3395},{"station_name":"Matraman","distance":1377,"station_id":"MTR","time":2,"i_lat":-6.212485,"i_long":106.858896,"transit":false,"line":1,"is_transit":false},{"i_long":106.84912,"transit":true,"time":2,"distance":1275,"station_name":"Manggarai","station_id":"MRI","line":2,"is_transit":true,"i_lat":-6.209883},{"distance":1590,"station_id":"CKI","is_transit":false,"i_long":106.840169,"line":2,"time":4,"i_lat":-6.198556,"transit":false,"station_name":"Cikini"},{"station_id":"GDD","time":3,"is_transit":false,"i_lat":-6.186295,"transit":false,"station_name":"Gondangdia","i_long":106.832183,"line":2,"distance":1750},{"i_long":106.828284,"station_name":"Juanda","line":2,"time":4,"i_lat":-6.166716,"transit":false,"distance":2015,"station_id":"JUA","is_transit":false},{"i_lat":-6.160725,"distance":1149,"time":2,"is_transit":false,"i_long":106.827103,"line":2,"station_id":"SW","transit":false,"station_name":"Sawah Besar"},{"i_long":106.82482,"i_lat":-6.149769,"station_name":"Manggabesar","is_transit":false,"station_id":"MGB","distance":906,"transit":false,"line":2,"time":2},{"is_transit":false,"station_name":"Jayakarta","i_long":106.820901,"distance":1080,"i_lat":-6.141205,"station_id":"JAY","transit":false,"time":2,"line":2},{"line":2,"i_long":106.812439,"station_id":"JAKK","is_transit":true,"distance":1264,"i_lat":-6.137569,"transit":true,"time":4,"station_name":"Jakarta Kota"},{"distance":1364,"time":3,"station_id":"KPB","i_lat":-6.132549,"i_long":106.826365,"line":4,"is_transit":true,"transit":true,"station_name":"Kampung Bandan"},{"transit":false,"i_lat":-6.144674,"i_long":106.79867,"station_id":"AK","line":1,"time":9,"is_transit":false,"distance":4102,"station_name":"Angke"},{"station_name":"Duri","time":4,"is_transit":false,"line":1,"i_long":106.800832,"transit":false,"station_id":"DU","distance":1230,"i_lat":-6.155215},{"transit":false,"time":8,"station_id":"THB","i_long":106.811091,"is_transit":false,"distance":3632,"station_name":"Tanah Abang","i_lat":-6.185545,"line":1}],[{"line":1,"station_name":"Klenderbaru","station_id":"KLDB","is_transit":false,"i_lat":-6.217455,"transit":false,"distance":0,"time":0,"i_long":106.939679},{"i_lat":-6.215568,"time":1,"station_name":"Buaran","transit":false,"distance":1305,"i_long":106.922662,"line":1,"station_id":"BUA","is_transit":false},{"is_transit":false,"station_id":"KLD","i_lat":-6.2135,"transit":false,"i_long":106.899548,"time":2,"distance":3100,"station_name":"Klender","line":1},{"station_id":"JNG","time":3,"i_long":106.86807400000001,"transit":true,"i_lat":-6.215091,"line":1,"distance":3395,"station_name":"Jatinegara","is_transit":true},{"time":2,"i_lat":-6.209188,"is_transit":false,"line":11,"station_id":"POK","i_long":106.861737,"transit":false,"distance":1236,"station_name":"Pondok Jati"},{"station_id":"KMT","station_name":"Kramat","distance":1829,"i_lat":-6.193792,"is_transit":false,"i_long":106.855437,"time":2,"line":11,"transit":false},{"station_name":"Gang Sentiong","transit":false,"i_long":106.850107,"i_lat":-6.185975,"station_id":"GST","time":1,"line":11,"distance":973,"is_transit":false},{"transit":false,"distance":1567,"station_id":"PSE","is_transit":false,"time":8,"i_lat":-6.174784,"i_long":106.84368,"line":11,"station_name":"Pasar Senen"},{"distance":1436,"station_id":"KMO","line":11,"transit":false,"station_name":"Kemayoran","time":4,"i_lat":-6.161728,"i_long":106.839204,"is_transit":false},{"i_lat":-6.14505,"distance":1901,"station_name":"Rajawali","time":5,"i_long":106.836569,"station_id":"RJW","line":11,"transit":false,"is_transit":false},{"transit":true,"is_transit":true,"time":3,"i_lat":-6.132549,"i_long":106.826365,"line":4,"station_name":"Kampung Bandan","distance":1444,"station_id":"KPB"},{"distance":1364,"station_id":"JAKK","i_long":106.812439,"transit":true,"i_lat":-6.137569,"line":2,"time":3,"station_name":"Jakarta Kota","is_transit":true},{"is_transit":false,"time":4,"station_id":"JAY","i_lat":-6.141205,"station_name":"Jayakarta","i_long":106.820901,"line":2,"transit":false,"distance":1264},{"i_long":106.82482,"time":2,"i_lat":-6.149769,"transit":false,"distance":1080,"station_name":"Manggabesar","is_transit":false,"line":2,"station_id":"MGB"},{"station_name":"Sawah Besar","i_long":106.827103,"line":2,"time":2,"i_lat":-6.160725,"station_id":"SW","is_transit":false,"transit":false,"distance":906},{"station_id":"JUA","station_name":"Juanda","i_long":106.828284,"line":2,"distance":1149,"transit":false,"is_transit":false,"time":2,"i_lat":-6.166716},{"i_lat":-6.186295,"distance":2015,"time":4,"station_name":"Gondangdia","transit":false,"line":2,"station_id":"GDD","is_transit":false,"i_long":106.832183},{"i_lat":-6.198556,"station_id":"CKI","transit":false,"time":3,"is_transit":false,"line":2,"station_name":"Cikini","distance":1750,"i_long":106.840169},{"station_id":"MRI","time":4,"station_name":"Manggarai","line":2,"i_lat":-6.209883,"transit":true,"i_long":106.84912,"is_transit":true,"distance":1590},{"station_name":"Sudirman","is_transit":false,"transit":false,"i_lat":-6.202263,"i_long":106.822649,"line":1,"station_id":"SUD","distance":3186,"time":4},{"time":1,"i_long":106.819881,"transit":false,"distance":280,"line":1,"i_lat":-6.201433,"station_id":"SUDB","station_name":"Sudirman Baru","is_transit":false},{"line":1,"transit":false,"time":1,"distance":471,"station_id":"KAT","i_lat":-6.20132,"i_long":106.816351,"station_name":"Karet","is_transit":false},{"transit":false,"i_lat":-6.185545,"time":5,"i_long":106.811091,"line":1,"station_id":"THB","distance":2029,"is_transit":false,"station_name":"Tanah Abang"}]]}