{"data":[[{"station_id":"KLDB","line":1,"i_long":106.939679,"distance":0,"i_lat":-6.217455,"transit":false,"time":0,"is_transit":false,"station_name":"Klenderbaru"},{"station_name":"Buaran","i_long":106.922662,"line":1,"distance":1305,"is_transit":false,"time":1,"i_lat":-6.215568,"transit":false,"station_id":"BUA"},{"transit":false,"is_transit":false,"line":1,"time":2,"station_name":"Klender","i_lat":-6.2135,"distance":3100,"i_long":106.899548,"station_id":"KLD"},{"station_name":"Jatinegara","time":3,"distance":3395,"line":1,"is_transit":false,"station_id":"JNG","transit":false,"i_lat":-6.215091,"i_long":106.86807400000001},{"line":1,"transit":false,"i_long":106.858896,"station_id":"MTR","time":2,"distance":1377,"is_transit":false,"station_name":"Matraman","i_lat":-6.212485},{"distance":1275,"station_id":"MRI","i_lat":-6.209883,"i_long":106.84912,"time":2,"station_name":"Manggarai","transit":true,"is_transit":true,"line":2},{"distance":1590,"is_transit":false,"station_name":"Cikini","station_id":"CKI","i_long":106.840169,"line":2,"transit":false,"i_lat":-6.198556,"time":4},{"transit":false,"time":3,"i_lat":-6.186295,"line":2,"is_transit":false,"distance":1750,"station_id":"GDD","station_name":"Gondangdia","i_long":106.832183},{"distance":2015,"i_lat":-6.166716,"transit":false,"line":2,"station_id":"JUA","station_name":"Juanda","time":4,"i_long":106.828284,"is_transit":false},{"station_id":"SW","is_transit":false,"distance":1149,"line":2,"transit":false,"i_lat":-6.160725,"i_long":106.827103,"time":2,"station_name":"Sawah Besar"}],[{"station_name":"Klenderbaru","i_lat":-6.217455,"i_long":106.939679,"distance":0,"line":1,"transit":false,"is_transit":false,"station_id":"KLDB","time":0},{"i_long":106.922662,"line":1,"time":1,"i_lat":-6.215568,"transit":false,"is_transit":false,"distance":1305,"station_name":"Buaran","station_id":"BUA"},{"station_name":"Klender","line":1,"is_transit":false,"time":2,"i_lat":-6.2135,"station_id":"KLD","distance":3100,"transit":false,"i_long":106.899548},{"i_long":106.86807400000001,"i_lat":-6.215091,"is_transit":true,"station_name":"Jatinegara","line":1,"transit":true,"station_id":"JNG","distance":3395,"time":3},{"line":11,"is_transit":false,"distance":1236,"transit":false,"station_name":"Pondok Jati","time":2,"station_id":"POK","i_lat":-6.209188,"i_long":106.861737},{"is_transit":false,"line":11,"distance":1829,"time":2,"i_lat":-6.193792,"i_long":106.855437,"transit":false,"station_name":"Kramat","station_id":"KMT"},{"station_id":"GST","is_transit":false,"line":11,"i_lat":-6.185975,"transit":false,"time":1,"i_long":106.850107,"distance":973,"station_name":"Gang Sentiong"},{"station_id":"PSE","transit":false,"distance":1567,"i_lat":-6.174784,"station_name":"Pasar Senen","time":8,"is_transit":false,"line":11,"i_long":106.84368},{"i_long":106.839204,"is_transit":false,"transit":false,"line":11,"station_id":"KMO","time":4,"station_name":"Kemayoran","distance":1436,"i_lat":-6.161728},{"i_lat":-6.14505,"distance":1901,"station_name":"Rajawali","station_id":"RJW","is_transit":false,"i_long":106.836569,"line":11,"time":5,"transit":false},{"transit":true,"distance":1444,"time":3,"line":4,"station_name":"Kampung Bandan","station_id":"KPB","i_lat":-6.132549,"is_transit":true,"i_long":106.826365},{"distance":1364,"time":3,"i_long":106.812439,"i_lat":-6.137569,"is_transit":true,"station_id":"JAKK","transit":true,"station_name":"Jakarta Kota","line":2},{"station_name":"Jayakarta","i_lat":-6.141205,"time":4,"transit":false,"i_long":106.820901,"distance":1264,"station_id":"JAY","is_transit":false,"line":2},{"distance":1080,"station_name":"Manggabesar","transit":false,"station_id":"MGB","i_long":106.82482,"line":2,"is_transit":false,"i_lat":-6.149769,"time":2},{"i_long":106.827103,"line":2,"is_transit":false,"time":2,"i_lat":-6.160725,"transit":false,"distance":906,"station_name":"Sawah Besar","station_id":"SW"}],[{"station_id":"KLDB","is_transit":false,"time":0,"line":1,"station_name":"Klenderbaru","i_long":106.939679,"i_lat":-6.217455,"distance":0,"transit":false},{"transit":false,"time":1,"is_transit":false,"i_long":106.922662,"station_name":"Buaran","distance":1305,"i_lat":-6.215568,"station_id":"BUA","line":1},{"station_name":"Klender","transit":false,"distance":3100,"i_long":106.899548,"time":2,"is_transit":false,"line":1,"i_lat":-6.2135,"station_id":"KLD"},{"transit":false,"time":3,"station_id":"JNG","i_lat":-6.215091,"station_name":"Jatinegara","is_transit":false,"i_long":106.86807400000001,"line":1,"distance":3395},{"i_lat":-6.212485,"i_long":106.858896,"line":1,"station_id":"MTR","distance":1377,"transit":false,"is_transit":false,"time":2,"station_name":"Matraman"},{"line":2,"transit":false,"distance":1275,"station_id":"MRI","is_transit":false,"i_lat":-6.209883,"time":2,"station_name":"Manggarai","i_long":106.84912},{"line":1,"transit":false,"i_lat":-6.202263,"i_long":106.822649,"station_id":"SUD","station_name":"Sudirman","is_transit":false,"distance":3186,"time":4},{"distance":280,"transit":false,"i_lat":-6.201433,"station_name":"Sudirman Baru","station_id":"SUDB","is_transit":false,"time":1,"i_long":106.819881,"line":1},{"time":1,"i_lat":-6.20132,"station_name":"Karet","is_transit":false,"i_long":106.816351,"transit":false,"station_id":"KAT","line":1,"distance":471},{"is_transit":false,"distance":2029,"time":5,"transit":false,"i_lat":-6.185545,"i_long":106.811091,"station_name":"Tanah Abang","line":1,"station_id":"THB"},{"distance":3632,"time":8,"i_lat":-6.155215,"i_long":106.800832,"transit":false,"station_id":"DU","line":1,"station_name":"Duri","is_transit":false},{"transit":false,"station_id":"AK","distance":1230,"i_long":106.79867,"i_lat":-6.144674,"line":1,"time":4,"station_name":"Angke","is_transit":false},{"line":4,"transit":true,"station_name":"Kampung Bandan","is_transit":true,"time":9,"distance":4102,"i_lat":-6.132549,"i_long":106.826365,"station_id":"KPB"},{"i_lat":-6.137569,"is_transit":true,"time":3,"transit":true,"i_long":106.812439,"station_name":"Jakarta Kota","distance":1364,"line":2,"station_id":"JAKK"},{"transit":false,"is_transit":false,"station_name":"Jayakarta","i_long":106.820901,"distance":1264,"time":4,"line":2,"i_lat":-6.141205,"station_id":"JAY"},{"transit":false,"i_long":106.82482,"line":2,"distance":1080,"station_id":"MGB","station_name":"Manggabesar","time":2,"is_transit":false,"i_lat":-6.149769},{"station_id":"SW","distance":906,"transit":false,"station_name":"Sawah Besar","time":2,"line":2,"i_lat":-6.160725,"i_long":106.827103,"is_transit":false}],[{"i_lat":-6.217455,"distance":0,"station_id":"KLDB","transit":false,"station_name":"Klenderbaru","is_transit":false,"i_long":106.939679,"line":1,"time":0},{"i_long":106.922662,"distance":1305,"station_id":"BUA","is_transit":false,"transit":false,"i_lat":-6.215568,"line":1,"station_name":"Buaran","time":1},{"station_id":"KLD","distance":3100,"i_lat":-6.2135,"is_transit":false,"time":2,"line":1,"station_name":"Klender","i_long":106.899548,"transit":false},{"is_transit":true,"i_long":106.86807400000001,"transit":true,"time":3,"i_lat":-6.215091,"station_id":"JNG","station_name":"Jatinegara","distance":3395,"line":1},{"line":11,"station_id":"POK","transit":false,"station_name":"Pondok Jati","distance":1236,"is_transit":false,"time":2,"i_lat":-6.209188,"i_long":106.861737},{"i_long":106.855437,"line":11,"distance":1829,"is_transit":false,"time":2,"i_lat":-6.193792,"transit":false,"station_name":"Kramat","station_id":"KMT"},{"time":1,"distance":973,"i_lat":-6.185975,"i_long":106.850107,"transit":false,"line":11,"is_transit":false,"station_id":"GST","station_name":"Gang Sentiong"},{"station_id":"PSE","transit":false,"distance":1567,"station_name":"Pasar Senen","i_lat":-6.174784,"is_transit":false,"line":11,"time":8,"i_long":106.84368},{"is_transit":false,"station_name":"Kemayoran","station_id":"KMO","i_long":106.839204,"distance":1436,"time":4,"line":11,"i_lat":-6.161728,"transit":false},{"distance":1901,"is_transit":false,"i_long":106.836569,"station_id":"RJW","station_name":"Rajawali","time":5,"line":11,"i_lat":-6.14505,"transit":false},{"station_id":"KPB","is_transit":true,"time":3,"i_lat":-6.132549,"i_long":106.826365,"transit":true,"station_name":"Kampung Bandan","line":4,"distance":1444},{"i_lat":-6.144674,"transit":false,"station_name":"Angke","station_id":"AK","is_transit":false,"i_long":106.79867,"distance":4102,"time":9,"line":1},{"i_lat":-6.155215,"time":4,"line":1,"is_transit":false,"transit":false,"station_id":"DU","i_long":106.800832,"distance":1230,"station_name":"Duri"},{"transit":false,"i_long":106.811091,"line":1,"is_transit":false,"i_lat":-6.185545,"time":8,"station_id":"THB","station_name":"Tanah Abang","distance":3632},{"station_id":"KAT","time":5,"distance":2029,"is_transit":false,"i_long":106.816351,"line":1,"i_lat":-6.20132,"station_name":"Karet","transit":false},{"i_long":106.819881,"station_id":"SUDB","transit":false,"station_name":"Sudirman Baru","i_lat":-6.201433,"is_transit":false,"time":1,"line":1,"distance":471},{"i_lat":-6.202263,"line":1,"station_name":"Sudirman","i_long":106.822649,"time":1,"station_id":"SUD","transit":false,"is_transit":false,"distance":280},{"i_long":106.84912,"time":4,"line":2,"transit":true,"station_id":"MRI","distance":3186,"station_name":"Manggarai","i_lat":-6.209883,"is_transit":true},{"i_lat":-6.198556,"station_id":"CKI","distance":1590,"is_transit":false,"transit":false,"time":4,"i_long":106.840169,"line":2,"station_name":"Cikini"},{"station_id":"GDD","line":2,"station_name":"Gondangdia","is_transit":false,"time":3,"i_lat":-6.186295,"i_long":106.832183,"transit":false,"distance":1750},{"i_lat":-6.166716,"distance":2015,"transit":false,"i_long":106.828284,"is_transit":false,"time":4,"line":2,"station_id":"JUA","station_name":"Juanda"},{"station_name":"Sawah Besar","transit":false,"time":2,"line":2,"is_transit":false,"i_long":106.827103,"i_lat":-6.160725,"station_id":"SW","distance":1149}]]}