{"data":[[{"transit":false,"is_transit":false,"time":0,"station_name":"Klenderbaru","i_long":106.939679,"station_id":"KLDB","i_lat":-6.217455,"line":1,"distance":0},{"line":0,"time":1,"transit":false,"i_long":106.922662,"is_transit":false,"station_id":"BUA","station_name":"Buaran","i_lat":-6.215568,"distance":1305},{"station_id":"KLD","station_name":"Klender","transit":false,"distance":3100,"line":1,"is_transit":false,"time":2,"i_lat":-6.2135,"i_long":106.899548},{"i_long":106.86807400000001,"distance":3395,"station_name":"Jatinegara","transit":false,"line":0,"time":3,"is_transit":true,"i_lat":-6.215091,"station_id":"JNG"},{"is_transit":false,"transit":false,"i_long":106.858896,"line":1,"distance":1377,"station_id":"MTR","time":2,"station_name":"Matraman","i_lat":-6.212485},{"line":0,"distance":1275,"station_name":"Manggarai","i_lat":-6.209883,"station_id":"MRI","is_transit":true,"time":2,"i_long":106.84912,"transit":true},{"station_id":"TEB","time":4,"station_name":"Tebet","i_long":106.857948,"line":2,"is_transit":false,"distance":2610,"i_lat":-6.226659,"transit":false},{"distance":1230,"i_lat":-6.242512,"line":0,"station_id":"CW","station_name":"Cawang","i_long":106.856607,"transit":false,"is_transit":false,"time":2},{"i_long":106.85449,"station_id":"DRN","is_transit":false,"i_lat":-6.255332,"station_name":"Duren Kalibata","transit":false,"time":3,"line":0,"distance":1546},{"i_long":106.851577,"line":2,"station_name":"Pasar Minggu Baru","distance":824,"transit":false,"time":2,"i_lat":-6.263214,"is_transit":false,"station_id":"PSMB"},{"is_transit":false,"transit":false,"i_long":106.843999,"line":2,"time":2,"station_id":"PSM","distance":2380,"station_name":"Pasar Minggu","i_lat":-6.2842400000000005},{"transit":false,"line":2,"station_id":"TNT","i_long":106.838896,"is_transit":false,"station_name":"Tanjung Barat","distance":2820,"i_lat":-6.3080680000000005,"time":4},{"line":2,"station_name":"Lenteng Agung","transit":false,"i_lat":-6.330363,"station_id":"LNA","distance":2671,"i_long":106.832616,"time":3,"is_transit":false},{"time":2,"station_name":"Univ. Pancasila","station_id":"UP","line":2,"i_long":106.834175,"transit":false,"i_lat":-6.339291,"distance":1029,"is_transit":false},{"i_long":106.831474,"is_transit":false,"time":3,"i_lat":-6.360749,"station_name":"Univ. Indonesia","distance":2264,"station_id":"UI","transit":false,"line":2},{"transit":false,"i_lat":-6.369073,"line":2,"i_long":106.831114,"distance":1109,"is_transit":false,"station_name":"Pondok Cina","time":2,"station_id":"POC"},{"time":4,"i_lat":-6.391065,"station_id":"DPB","i_long":106.819451,"transit":false,"is_transit":false,"station_name":"Depokbaru","distance":2727,"line":0},{"is_transit":false,"i_long":106.816926,"time":3,"transit":false,"station_name":"Depok","i_lat":-6.405256,"distance":1584,"station_id":"DP","line":0},{"time":6,"i_long":106.800298,"line":1,"station_name":"Citayam","i_lat":-6.448811,"is_transit":true,"distance":5084,"station_id":"CTA","transit":false},{"i_long":106.851978,"is_transit":false,"transit":false,"station_id":"CBN","time":10,"station_name":"Cibinong","line":0,"distance":6740,"i_lat":-6.46424}],[{"is_transit":false,"time":0,"distance":0,"line":1,"station_name":"Klenderbaru","transit":false,"station_id":"KLDB","i_lat":-6.217455,"i_long":106.939679},{"transit":false,"distance":1305,"is_transit":false,"station_name":"Buaran","line":0,"time":1,"i_lat":-6.215568,"station_id":"BUA","i_long":106.922662},{"time":2,"transit":false,"distance":3100,"station_id":"KLD","i_long":106.899548,"is_transit":false,"i_lat":-6.2135,"station_name":"Klender","line":1},{"i_lat":-6.215091,"line":0,"station_id":"JNG","station_name":"Jatinegara","i_long":106.86807400000001,"is_transit":true,"transit":true,"time":3,"distance":3395},{"line":11,"time":2,"transit":false,"station_name":"Pondok Jati","is_transit":false,"distance":1236,"i_long":106.861737,"station_id":"POK","i_lat":-6.209188},{"line":11,"station_id":"KMT","transit":false,"i_lat":-6.193792,"distance":1829,"i_long":106.855437,"is_transit":false,"station_name":"Kramat","time":2},{"transit":false,"line":11,"is_transit":false,"time":1,"station_name":"Gang Sentiong","i_lat":-6.185975,"i_long":106.850107,"station_id":"GST","distance":973},{"i_long":106.84368,"line":11,"station_name":"Pasar Senen","is_transit":false,"time":8,"distance":1567,"i_lat":-6.174784,"transit":false,"station_id":"PSE"},{"line":11,"time":4,"is_transit":false,"station_name":"Kemayoran","station_id":"KMO","i_lat":-6.161728,"transit":false,"distance":1436,"i_long":106.839204},{"is_transit":false,"transit":false,"station_name":"Rajawali","i_lat":-6.14505,"distance":1901,"station_id":"RJW","i_long":106.836569,"line":11,"time":5},{"i_long":106.826365,"line":0,"station_id":"KPB","distance":1444,"time":3,"i_lat":-6.132549,"station_name":"Kampung Bandan","transit":true,"is_transit":true},{"station_name":"Angke","transit":false,"i_lat":-6.144674,"time":9,"distance":4102,"station_id":"AK","line":0,"i_long":106.79867,"is_transit":false},{"i_long":106.800832,"distance":1230,"i_lat":-6.155215,"line":1,"is_transit":true,"station_name":"Duri","transit":true,"time":4,"station_id":"DU"},{"line":1,"i_long":106.811091,"distance":3632,"station_id":"THB","time":8,"station_name":"Tanah Abang","i_lat":-6.185545,"is_transit":true,"transit":false},{"i_lat":-6.20132,"i_long":106.816351,"distance":2029,"time":5,"station_name":"Karet","is_transit":false,"station_id":"KAT","line":1,"transit":false},{"is_transit":false,"line":1,"transit":false,"time":1,"station_name":"Sudirman Baru","i_long":106.819881,"distance":471,"i_lat":-6.201433,"station_id":"SUDB"},{"station_name":"Sudirman","i_long":106.822649,"station_id":"SUD","distance":280,"i_lat":-6.202263,"line":1,"transit":false,"is_transit":false,"time":1},{"distance":3186,"i_lat":-6.209883,"station_id":"MRI","line":0,"time":4,"i_long":106.84912,"station_name":"Manggarai","is_transit":true,"transit":true},{"station_name":"Tebet","station_id":"TEB","transit":false,"i_lat":-6.226659,"i_long":106.857948,"time":4,"distance":2610,"is_transit":false,"line":2},{"station_name":"Cawang","transit":false,"i_lat":-6.242512,"station_id":"CW","time":2,"distance":1230,"line":0,"i_long":106.856607,"is_transit":false},{"time":3,"i_lat":-6.255332,"station_id":"DRN","i_long":106.85449,"line":0,"station_name":"Duren Kalibata","transit":false,"is_transit":false,"distance":1546},{"line":2,"is_transit":false,"i_lat":-6.263214,"station_id":"PSMB","time":2,"distance":824,"station_name":"Pasar Minggu Baru","transit":false,"i_long":106.851577},{"station_id":"PSM","time":2,"is_transit":false,"i_lat":-6.2842400000000005,"station_name":"Pasar Minggu","transit":false,"i_long":106.843999,"line":2,"distance":2380},{"station_id":"TNT","i_long":106.838896,"line":2,"is_transit":false,"distance":2820,"station_name":"Tanjung Barat","i_lat":-6.3080680000000005,"transit":false,"time":4},{"distance":2671,"transit":false,"i_lat":-6.330363,"i_long":106.832616,"line":2,"is_transit":false,"time":3,"station_id":"LNA","station_name":"Lenteng Agung"},{"station_name":"Univ. Pancasila","time":2,"i_long":106.834175,"transit":false,"i_lat":-6.339291,"station_id":"UP","is_transit":false,"line":2,"distance":1029},{"distance":2264,"line":2,"station_name":"Univ. Indonesia","i_long":106.831474,"station_id":"UI","transit":false,"is_transit":false,"i_lat":-6.360749,"time":3},{"station_name":"Pondok Cina","transit":false,"station_id":"POC","is_transit":false,"time":2,"distance":1109,"i_lat":-6.369073,"i_long":106.831114,"line":2},{"time":4,"line":0,"distance":2727,"transit":false,"station_id":"DPB","i_lat":-6.391065,"i_long":106.819451,"is_transit":false,"station_name":"Depokbaru"},{"distance":1584,"line":0,"transit":false,"time":3,"station_name":"Depok","i_long":106.816926,"is_transit":false,"station_id":"DP","i_lat":-6.405256},{"is_transit":true,"distance":5084,"line":1,"station_id":"CTA","transit":false,"i_lat":-6.448811,"i_long":106.800298,"time":6,"station_name":"Citayam"},{"station_id":"CBN","time":10,"station_name":"Cibinong","transit":false,"i_lat":-6.46424,"i_long":106.851978,"is_transit":false,"distance":6740,"line":0}],[{"is_transit":false,"time":0,"transit":false,"line":1,"i_lat":-6.217455,"distance":0,"i_long":106.939679,"station_id":"KLDB","station_name":"Klenderbaru"},{"time":1,"station_name":"Buaran","transit":false,"i_lat":-6.215568,"station_id":"BUA","is_transit":false,"line":0,"i_long":106.922662,"distance":1305},{"is_transit":false,"distance":3100,"line":1,"transit":false,"station_id":"KLD","station_name":"Klender","i_lat":-6.2135,"time":2,"i_long":106.899548},{"transit":true,"station_id":"JNG","i_lat":-6.215091,"i_long":106.86807400000001,"is_transit":true,"time":3,"station_name":"Jatinegara","line":0,"distance":3395},{"station_name":"Pondok Jati","i_long":106.861737,"distance":1236,"time":2,"station_id":"POK","transit":false,"i_lat":-6.209188,"line":11,"is_transit":false},{"station_id":"KMT","is_transit":false,"i_lat":-6.193792,"transit":false,"time":2,"i_long":106.855437,"station_name":"Kramat","line":11,"distance":1829},{"station_id":"GST","is_transit":false,"i_long":106.850107,"time":1,"i_lat":-6.185975,"line":11,"distance":973,"transit":false,"station_name":"Gang Sentiong"},{"i_lat":-6.174784,"distance":1567,"station_name":"Pasar Senen","line":11,"time":8,"is_transit":false,"transit":false,"station_id":"PSE","i_long":106.84368},{"is_transit":false,"distance":1436,"i_long":106.839204,"i_lat":-6.161728,"line":11,"station_id":"KMO","time":4,"transit":false,"station_name":"Kemayoran"},{"transit":false,"station_name":"Rajawali","time":5,"i_lat":-6.14505,"station_id":"RJW","i_long":106.836569,"distance":1901,"line":11,"is_transit":false},{"station_name":"Kampung Bandan","i_lat":-6.132549,"i_long":106.826365,"line":0,"distance":1444,"transit":true,"is_transit":true,"station_id":"KPB","time":3},{"line":0,"is_transit":true,"station_id":"JAKK","i_lat":-6.137569,"distance":1364,"station_name":"Jakarta Kota","time":3,"transit":true,"i_long":106.812439},{"time":4,"i_lat":-6.141205,"distance":1264,"is_transit":false,"i_long":106.820901,"line":7,"station_id":"JAY","station_name":"Jayakarta","transit":false},{"is_transit":false,"station_id":"MGB","distance":1080,"i_lat":-6.149769,"time":2,"transit":false,"line":2,"station_name":"Manggabesar","i_long":106.82482},{"transit":false,"station_id":"SW","is_transit":false,"distance":906,"i_lat":-6.160725,"line":2,"i_long":106.827103,"station_name":"Sawah Besar","time":2},{"station_name":"Juanda","transit":false,"distance":1149,"i_lat":-6.166716,"is_transit":false,"line":2,"station_id":"JUA","time":2,"i_long":106.828284},{"i_long":106.832183,"transit":false,"station_id":"GDD","is_transit":false,"distance":2015,"i_lat":-6.186295,"time":4,"station_name":"Gondangdia","line":2},{"station_id":"CKI","is_transit":false,"station_name":"Cikini","transit":false,"i_lat":-6.198556,"line":0,"time":3,"distance":1750,"i_long":106.840169},{"time":4,"transit":true,"distance":1590,"station_name":"Manggarai","station_id":"MRI","line":0,"i_lat":-6.209883,"i_long":106.84912,"is_transit":true},{"station_name":"Tebet","line":2,"station_id":"TEB","is_transit":false,"i_lat":-6.226659,"time":4,"distance":2610,"i_long":106.857948,"transit":false},{"station_id":"CW","distance":1230,"time":2,"station_name":"Cawang","i_lat":-6.242512,"is_transit":false,"line":0,"transit":false,"i_long":106.856607},{"line":0,"i_long":106.85449,"time":3,"distance":1546,"transit":false,"station_id":"DRN","station_name":"Duren Kalibata","is_transit":false,"i_lat":-6.255332},{"time":2,"station_id":"PSMB","is_transit":false,"distance":824,"station_name":"Pasar Minggu Baru","transit":false,"i_lat":-6.263214,"i_long":106.851577,"line":2},{"i_lat":-6.2842400000000005,"time":2,"station_name":"Pasar Minggu","transit":false,"station_id":"PSM","distance":2380,"i_long":106.843999,"is_transit":false,"line":2},{"station_name":"Tanjung Barat","distance":2820,"station_id":"TNT","transit":false,"i_lat":-6.3080680000000005,"i_long":106.838896,"line":2,"is_transit":false,"time":4},{"is_transit":false,"station_name":"Lenteng Agung","i_long":106.832616,"time":3,"transit":false,"i_lat":-6.330363,"station_id":"LNA","distance":2671,"line":2},{"line":2,"station_id":"UP","is_transit":false,"transit":false,"i_long":106.834175,"distance":1029,"time":2,"station_name":"Univ. Pancasila","i_lat":-6.339291},{"time":3,"i_long":106.831474,"distance":2264,"i_lat":-6.360749,"station_name":"Univ. Indonesia","line":2,"transit":false,"is_transit":false,"station_id":"UI"},{"is_transit":false,"station_name":"Pondok Cina","distance":1109,"transit":false,"i_lat":-6.369073,"i_long":106.831114,"time":2,"station_id":"POC","line":2},{"station_id":"DPB","time":4,"transit":false,"is_transit":false,"i_lat":-6.391065,"i_long":106.819451,"distance":2727,"station_name":"Depokbaru","line":0},{"line":0,"distance":1584,"i_lat":-6.405256,"station_name":"Depok","transit":false,"is_transit":false,"time":3,"i_long":106.816926,"station_id":"DP"},{"distance":5084,"station_name":"Citayam","i_lat":-6.448811,"i_long":106.800298,"line":1,"transit":false,"station_id":"CTA","time":6,"is_transit":true},{"station_id":"CBN","transit":false,"line":0,"is_transit":false,"time":10,"distance":6740,"station_name":"Cibinong","i_lat":-6.46424,"i_long":106.851978}]]}