{"data":[[{"i_long":106.939679,"i_lat":-6.217455,"station_id":"KLDB","line":1,"station_name":"Klenderbaru","distance":0,"is_transit":false,"time":0,"transit":false},{"i_long":106.922662,"distance":1305,"station_name":"Buaran","transit":false,"time":1,"is_transit":false,"i_lat":-6.215568,"station_id":"BUA","line":0},{"i_long":106.899548,"transit":false,"station_name":"Klender","time":2,"i_lat":-6.2135,"station_id":"KLD","is_transit":false,"distance":3100,"line":1},{"line":0,"station_id":"JNG","transit":false,"is_transit":true,"i_long":106.86807400000001,"distance":3395,"station_name":"Jatinegara","i_lat":-6.215091,"time":3},{"line":1,"time":2,"i_long":106.858896,"distance":1377,"transit":false,"station_id":"MTR","is_transit":false,"i_lat":-6.212485,"station_name":"Matraman"},{"station_id":"MRI","station_name":"Manggarai","is_transit":true,"i_lat":-6.209883,"i_long":106.84912,"line":0,"time":2,"distance":1275,"transit":false},{"transit":false,"is_transit":false,"station_name":"Sudirman","i_lat":-6.202263,"line":1,"station_id":"SUD","time":4,"distance":3186,"i_long":106.822649},{"station_id":"SUDB","transit":false,"time":1,"station_name":"Sudirman Baru","line":1,"is_transit":false,"distance":280,"i_long":106.819881,"i_lat":-6.201433},{"time":1,"transit":false,"station_name":"Karet","distance":471,"i_lat":-6.20132,"i_long":106.816351,"line":1,"station_id":"KAT","is_transit":false},{"is_transit":true,"i_long":106.811091,"i_lat":-6.185545,"line":1,"station_name":"Tanah Abang","distance":2029,"transit":false,"station_id":"THB","time":5},{"station_name":"Duri","station_id":"DU","is_transit":true,"i_lat":-6.155215,"line":1,"time":8,"transit":true,"distance":3632,"i_long":106.800832},{"transit":false,"line":5,"time":3,"station_name":"Grogol","i_lat":-6.162021,"i_long":106.788277,"station_id":"GGL","distance":1700,"is_transit":false},{"line":5,"i_long":106.771379,"station_id":"PSG","is_transit":false,"time":2,"distance":2036,"station_name":"Pesing","transit":false,"i_lat":-6.161433},{"distance":1614,"i_long":106.756522,"line":5,"transit":false,"i_lat":-6.1587309999999995,"time":2,"station_name":"Taman Kota","station_id":"TKO","is_transit":false},{"time":2,"distance":2334,"is_transit":false,"line":0,"station_name":"Bojongindah","i_long":106.737035,"i_lat":-6.159876,"transit":false,"station_id":"BOI"}],[{"station_name":"Klenderbaru","i_long":106.939679,"time":0,"transit":false,"i_lat":-6.217455,"station_id":"KLDB","is_transit":false,"line":1,"distance":0},{"is_transit":false,"line":0,"station_id":"BUA","station_name":"Buaran","transit":false,"distance":1305,"time":1,"i_lat":-6.215568,"i_long":106.922662},{"distance":3100,"i_long":106.899548,"transit":false,"is_transit":false,"i_lat":-6.2135,"line":1,"station_id":"KLD","time":2,"station_name":"Klender"},{"station_id":"JNG","is_transit":true,"time":3,"i_lat":-6.215091,"line":0,"station_name":"Jatinegara","transit":true,"i_long":106.86807400000001,"distance":3395},{"is_transit":false,"line":11,"station_name":"Pondok Jati","i_long":106.861737,"i_lat":-6.209188,"time":2,"distance":1236,"station_id":"POK","transit":false},{"distance":1829,"line":11,"station_id":"KMT","station_name":"Kramat","is_transit":false,"i_lat":-6.193792,"transit":false,"time":2,"i_long":106.855437},{"is_transit":false,"i_long":106.850107,"line":11,"time":1,"station_id":"GST","distance":973,"station_name":"Gang Sentiong","transit":false,"i_lat":-6.185975},{"distance":1567,"is_transit":false,"station_name":"Pasar Senen","transit":false,"i_long":106.84368,"i_lat":-6.174784,"line":11,"station_id":"PSE","time":8},{"i_long":106.839204,"is_transit":false,"transit":false,"time":4,"station_name":"Kemayoran","station_id":"KMO","i_lat":-6.161728,"distance":1436,"line":11},{"station_name":"Rajawali","station_id":"RJW","is_transit":false,"i_lat":-6.14505,"i_long":106.836569,"time":5,"distance":1901,"line":11,"transit":false},{"station_id":"KPB","line":0,"transit":true,"is_transit":true,"i_lat":-6.132549,"i_long":106.826365,"time":3,"distance":1444,"station_name":"Kampung Bandan"},{"transit":false,"i_long":106.79867,"time":9,"is_transit":false,"distance":4102,"i_lat":-6.144674,"line":0,"station_name":"Angke","station_id":"AK"},{"is_transit":true,"i_long":106.800832,"transit":true,"station_name":"Duri","line":1,"station_id":"DU","i_lat":-6.155215,"time":4,"distance":1230},{"time":3,"station_name":"Grogol","i_long":106.788277,"distance":1700,"line":5,"transit":false,"station_id":"GGL","i_lat":-6.162021,"is_transit":false},{"transit":false,"line":5,"distance":2036,"i_lat":-6.161433,"is_transit":false,"i_long":106.771379,"station_id":"PSG","time":2,"station_name":"Pesing"},{"station_name":"Taman Kota","i_lat":-6.1587309999999995,"station_id":"TKO","time":2,"transit":false,"is_transit":false,"i_long":106.756522,"line":5,"distance":1614},{"time":2,"line":0,"station_id":"BOI","transit":false,"i_long":106.737035,"is_transit":false,"i_lat":-6.159876,"distance":2334,"station_name":"Bojongindah"}],[{"time":0,"i_long":106.939679,"station_id":"KLDB","station_name":"Klenderbaru","is_transit":false,"transit":false,"distance":0,"line":1,"i_lat":-6.217455},{"time":1,"distance":1305,"station_name":"Buaran","i_lat":-6.215568,"station_id":"BUA","is_transit":false,"i_long":106.922662,"transit":false,"line":0},{"i_lat":-6.2135,"station_id":"KLD","distance":3100,"is_transit":false,"transit":false,"station_name":"Klender","time":2,"line":1,"i_long":106.899548},{"i_long":106.86807400000001,"line":0,"i_lat":-6.215091,"station_name":"Jatinegara","is_transit":true,"station_id":"JNG","time":3,"distance":3395,"transit":false},{"time":2,"transit":false,"is_transit":false,"distance":1377,"i_long":106.858896,"station_name":"Matraman","i_lat":-6.212485,"station_id":"MTR","line":1},{"is_transit":true,"transit":true,"station_id":"MRI","time":2,"distance":1275,"i_lat":-6.209883,"i_long":106.84912,"line":0,"station_name":"Manggarai"},{"distance":1590,"time":4,"station_id":"CKI","station_name":"Cikini","i_lat":-6.198556,"i_long":106.840169,"transit":false,"line":0,"is_transit":false},{"time":3,"station_id":"GDD","station_name":"Gondangdia","transit":false,"i_long":106.832183,"line":2,"is_transit":false,"distance":1750,"i_lat":-6.186295},{"i_long":106.828284,"station_id":"JUA","distance":2015,"station_name":"Juanda","time":4,"transit":false,"i_lat":-6.166716,"line":2,"is_transit":false},{"station_name":"Sawah Besar","station_id":"SW","i_long":106.827103,"is_transit":false,"line":2,"time":2,"transit":false,"distance":1149,"i_lat":-6.160725},{"is_transit":false,"distance":906,"station_name":"Manggabesar","time":2,"i_lat":-6.149769,"station_id":"MGB","i_long":106.82482,"line":2,"transit":false},{"transit":false,"distance":1080,"time":2,"is_transit":false,"i_lat":-6.141205,"i_long":106.820901,"station_id":"JAY","line":7,"station_name":"Jayakarta"},{"distance":1264,"station_id":"JAKK","station_name":"Jakarta Kota","transit":true,"i_lat":-6.137569,"i_long":106.812439,"line":0,"time":4,"is_transit":true},{"is_transit":true,"distance":1364,"station_name":"Kampung Bandan","transit":false,"line":0,"time":3,"i_long":106.826365,"i_lat":-6.132549,"station_id":"KPB"},{"station_id":"AK","i_long":106.79867,"station_name":"Angke","time":9,"line":0,"distance":4102,"transit":false,"is_transit":false,"i_lat":-6.144674},{"time":4,"transit":true,"distance":1230,"is_transit":true,"i_lat":-6.155215,"station_name":"Duri","line":1,"station_id":"DU","i_long":106.800832},{"i_long":106.788277,"transit":false,"station_name":"Grogol","station_id":"GGL","is_transit":false,"line":5,"i_lat":-6.162021,"time":3,"distance":1700},{"is_transit":false,"i_lat":-6.161433,"time":2,"distance":2036,"station_name":"Pesing","i_long":106.771379,"line":5,"transit":false,"station_id":"PSG"},{"i_long":106.756522,"transit":false,"is_transit":false,"line":5,"distance":1614,"station_id":"TKO","time":2,"station_name":"Taman Kota","i_lat":-6.1587309999999995},{"i_long":106.737035,"i_lat":-6.159876,"transit":false,"station_id":"BOI","time":2,"is_transit":false,"distance":2334,"station_name":"Bojongindah","line":0}],[{"is_transit":false,"i_lat":-6.217455,"time":0,"transit":false,"station_name":"Klenderbaru","i_long":106.939679,"line":1,"station_id":"KLDB","distance":0},{"is_transit":false,"distance":1305,"time":1,"station_id":"BUA","transit":false,"line":0,"station_name":"Buaran","i_long":106.922662,"i_lat":-6.215568},{"station_id":"KLD","i_long":106.899548,"station_name":"Klender","is_transit":false,"distance":3100,"transit":false,"i_lat":-6.2135,"time":2,"line":1},{"is_transit":true,"time":3,"i_lat":-6.215091,"station_name":"Jatinegara","distance":3395,"transit":true,"line":0,"station_id":"JNG","i_long":106.86807400000001},{"station_id":"POK","is_transit":false,"time":2,"i_lat":-6.209188,"line":11,"distance":1236,"station_name":"Pondok Jati","i_long":106.861737,"transit":false},{"station_name":"Kramat","i_lat":-6.193792,"is_transit":false,"transit":false,"distance":1829,"i_long":106.855437,"station_id":"KMT","time":2,"line":11},{"distance":973,"line":11,"station_name":"Gang Sentiong","station_id":"GST","is_transit":false,"time":1,"i_lat":-6.185975,"i_long":106.850107,"transit":false},{"i_long":106.84368,"station_id":"PSE","distance":1567,"is_transit":false,"station_name":"Pasar Senen","i_lat":-6.174784,"time":8,"transit":false,"line":11},{"i_lat":-6.161728,"transit":false,"time":4,"is_transit":false,"station_name":"Kemayoran","i_long":106.839204,"station_id":"KMO","line":11,"distance":1436},{"time":5,"is_transit":false,"station_id":"RJW","distance":1901,"transit":false,"i_lat":-6.14505,"line":11,"i_long":106.836569,"station_name":"Rajawali"},{"line":0,"transit":true,"station_name":"Kampung Bandan","station_id":"KPB","is_transit":true,"distance":1444,"i_lat":-6.132549,"time":3,"i_long":106.826365},{"station_id":"JAKK","station_name":"Jakarta Kota","i_lat":-6.137569,"transit":true,"time":3,"is_transit":true,"line":0,"i_long":106.812439,"distance":1364},{"is_transit":false,"station_id":"JAY","station_name":"Jayakarta","line":7,"i_lat":-6.141205,"distance":1264,"time":4,"transit":false,"i_long":106.820901},{"station_name":"Manggabesar","i_lat":-6.149769,"station_id":"MGB","i_long":106.82482,"line":2,"transit":false,"is_transit":false,"distance":1080,"time":2},{"is_transit":false,"time":2,"distance":906,"transit":false,"i_lat":-6.160725,"i_long":106.827103,"station_id":"SW","line":2,"station_name":"Sawah Besar"},{"transit":false,"station_id":"JUA","distance":1149,"is_transit":false,"i_lat":-6.166716,"station_name":"Juanda","line":2,"i_long":106.828284,"time":2},{"transit":false,"station_name":"Gondangdia","time":4,"station_id":"GDD","line":2,"i_long":106.832183,"distance":2015,"i_lat":-6.186295,"is_transit":false},{"is_transit":false,"distance":1750,"i_lat":-6.198556,"station_id":"CKI","transit":false,"i_long":106.840169,"time":3,"line":0,"station_name":"Cikini"},{"transit":true,"station_name":"Manggarai","i_long":106.84912,"is_transit":true,"station_id":"MRI","i_lat":-6.209883,"line":0,"distance":1590,"time":4},{"i_long":106.822649,"line":1,"distance":3186,"station_name":"Sudirman","station_id":"SUD","transit":false,"time":4,"is_transit":false,"i_lat":-6.202263},{"i_long":106.819881,"line":1,"i_lat":-6.201433,"time":1,"transit":false,"station_name":"Sudirman Baru","station_id":"SUDB","is_transit":false,"distance":280},{"i_lat":-6.20132,"time":1,"i_long":106.816351,"distance":471,"station_id":"KAT","station_name":"Karet","transit":false,"line":1,"is_transit":false},{"station_id":"THB","i_long":106.811091,"station_name":"Tanah Abang","is_transit":true,"i_lat":-6.185545,"distance":2029,"line":1,"time":5,"transit":false},{"station_name":"Duri","transit":true,"i_long":106.800832,"i_lat":-6.155215,"distance":3632,"station_id":"DU","time":8,"is_transit":true,"line":1},{"station_name":"Grogol","i_lat":-6.162021,"distance":1700,"line":5,"station_id":"GGL","is_transit":false,"time":3,"transit":false,"i_long":106.788277},{"line":5,"i_long":106.771379,"is_transit":false,"time":2,"station_name":"Pesing","transit":false,"distance":2036,"i_lat":-6.161433,"station_id":"PSG"},{"station_id":"TKO","i_long":106.756522,"line":5,"transit":false,"i_lat":-6.1587309999999995,"is_transit":false,"time":2,"station_name":"Taman Kota","distance":1614},{"time":2,"distance":2334,"transit":false,"i_long":106.737035,"line":0,"i_lat":-6.159876,"station_name":"Bojongindah","is_transit":false,"station_id":"BOI"}]]}