{"data":[[{"i_long":106.939679,"i_lat":-6.217455,"line":1,"transit":false,"station_id":"KLDB","is_transit":false,"station_name":"Klenderbaru","distance":0,"time":0},{"i_lat":-6.219053,"station_name":"Cakung","station_id":"CUK","distance":1385,"is_transit":false,"time":8,"transit":false,"i_long":106.951283,"line":1},{"transit":false,"i_lat":-6.224515,"time":3,"distance":3097,"is_transit":false,"i_long":106.977657,"station_name":"Kranji","line":1,"station_id":"KRI"},{"time":4,"station_id":"BKS","i_lat":-6.236616,"line":1,"station_name":"Bekasi","distance":2520,"is_transit":false,"transit":false,"i_long":106.997013},{"time":2,"i_lat":-6.248029,"i_long":107.016735,"distance":2368,"transit":false,"station_name":"Bekasi Timur","line":1,"is_transit":false,"station_id":"BKST"},{"i_lat":-6.258864,"i_long":107.055722,"station_id":"TB","station_name":"Tambun","line":1,"is_transit":false,"time":7,"transit":false,"distance":4460},{"transit":false,"time":3,"line":1,"i_lat":-6.261877,"station_name":"Cibitung","is_transit":false,"i_long":107.083084,"station_id":"CIT","distance":3420},{"distance":2800,"time":2,"i_lat":-6.262938,"station_name":"Metland Telaga Murni","line":1,"station_id":"TLM","is_transit":false,"i_long":107.093313,"transit":false},{"station_name":"Cikarang","time":4,"transit":false,"distance":3689,"i_long":107.144613,"line":1,"i_lat":-6.2553149999999995,"is_transit":false,"station_id":"CKR"}]]}