{"data":[[{"i_long":106.939679,"is_transit":false,"station_id":"KLDB","distance":0,"station_name":"Klenderbaru","time":0,"i_lat":-6.217455,"transit":false,"line":1},{"station_id":"BUA","station_name":"Buaran","distance":1305,"is_transit":false,"time":1,"transit":false,"i_lat":-6.215568,"line":1,"i_long":106.922662},{"station_id":"KLD","distance":3100,"station_name":"Klender","i_long":106.899548,"line":1,"time":2,"is_transit":false,"i_lat":-6.2135,"transit":false},{"time":3,"is_transit":false,"line":1,"distance":3395,"i_lat":-6.215091,"transit":false,"station_id":"JNG","station_name":"Jatinegara","i_long":106.86807400000001},{"transit":false,"is_transit":false,"station_name":"Matraman","i_long":106.858896,"line":1,"i_lat":-6.212485,"time":2,"station_id":"MTR","distance":1377},{"time":2,"i_lat":-6.209883,"line":2,"is_transit":false,"transit":false,"distance":1275,"station_name":"Manggarai","i_long":106.84912,"station_id":"MRI"},{"station_id":"SUD","i_lat":-6.202263,"distance":3186,"station_name":"Sudirman","i_long":106.822649,"transit":false,"is_transit":false,"time":4,"line":1},{"station_id":"SUDB","i_lat":-6.201433,"line":1,"distance":280,"time":1,"station_name":"Sudirman Baru","transit":false,"i_long":106.819881,"is_transit":false},{"is_transit":false,"station_name":"Karet","distance":471,"station_id":"KAT","i_long":106.816351,"i_lat":-6.20132,"transit":false,"time":1,"line":1},{"transit":false,"station_name":"Tanah Abang","distance":2029,"i_long":106.811091,"is_transit":false,"time":5,"station_id":"THB","line":1,"i_lat":-6.185545}],[{"distance":0,"station_name":"Klenderbaru","i_lat":-6.217455,"is_transit":false,"station_id":"KLDB","time":0,"line":1,"i_long":106.939679,"transit":false},{"distance":1305,"i_long":106.922662,"line":1,"station_name":"Buaran","is_transit":false,"station_id":"BUA","transit":false,"i_lat":-6.215568,"time":1},{"transit":false,"station_id":"KLD","time":2,"i_long":106.899548,"distance":3100,"is_transit":false,"station_name":"Klender","i_lat":-6.2135,"line":1},{"is_transit":true,"time":3,"station_name":"Jatinegara","distance":3395,"i_long":106.86807400000001,"transit":true,"i_lat":-6.215091,"line":1,"station_id":"JNG"},{"is_transit":false,"time":2,"i_lat":-6.209188,"line":11,"station_id":"POK","station_name":"Pondok Jati","transit":false,"i_long":106.861737,"distance":1236},{"i_long":106.855437,"line":11,"time":2,"i_lat":-6.193792,"station_id":"KMT","is_transit":false,"transit":false,"station_name":"Kramat","distance":1829},{"time":1,"distance":973,"station_id":"GST","i_long":106.850107,"line":11,"i_lat":-6.185975,"is_transit":false,"transit":false,"station_name":"Gang Sentiong"},{"i_long":106.84368,"station_id":"PSE","time":8,"station_name":"Pasar Senen","transit":false,"distance":1567,"is_transit":false,"i_lat":-6.174784,"line":11},{"line":11,"i_lat":-6.161728,"station_name":"Kemayoran","station_id":"KMO","time":4,"distance":1436,"is_transit":false,"i_long":106.839204,"transit":false},{"station_id":"RJW","is_transit":false,"line":11,"i_lat":-6.14505,"i_long":106.836569,"time":5,"distance":1901,"transit":false,"station_name":"Rajawali"},{"is_transit":true,"station_id":"KPB","i_lat":-6.132549,"transit":true,"station_name":"Kampung Bandan","time":3,"line":4,"distance":1444,"i_long":106.826365},{"station_id":"AK","station_name":"Angke","time":9,"transit":false,"distance":4102,"i_lat":-6.144674,"i_long":106.79867,"line":1,"is_transit":false},{"i_lat":-6.155215,"station_id":"DU","is_transit":false,"station_name":"Duri","i_long":106.800832,"time":4,"line":1,"transit":false,"distance":1230},{"station_id":"THB","is_transit":false,"transit":false,"i_lat":-6.185545,"station_name":"Tanah Abang","distance":3632,"i_long":106.811091,"time":8,"line":1}],[{"i_long":106.939679,"time":0,"station_id":"KLDB","is_transit":false,"line":1,"station_name":"Klenderbaru","distance":0,"transit":false,"i_lat":-6.217455},{"transit":false,"i_lat":-6.215568,"line":1,"station_id":"BUA","is_transit":false,"distance":1305,"time":1,"station_name":"Buaran","i_long":106.922662},{"time":2,"distance":3100,"station_name":"Klender","station_id":"KLD","transit":false,"i_lat":-6.2135,"is_transit":false,"i_long":106.899548,"line":1},{"distance":3395,"station_name":"Jatinegara","line":1,"transit":false,"time":3,"i_lat":-6.215091,"is_transit":false,"i_long":106.86807400000001,"station_id":"JNG"},{"is_transit":false,"station_id":"MTR","i_lat":-6.212485,"distance":1377,"i_long":106.858896,"time":2,"station_name":"Matraman","line":1,"transit":false},{"distance":1275,"time":2,"station_name":"Manggarai","is_transit":true,"transit":true,"station_id":"MRI","line":2,"i_long":106.84912,"i_lat":-6.209883},{"station_id":"CKI","is_transit":false,"transit":false,"time":4,"station_name":"Cikini","i_lat":-6.198556,"line":2,"distance":1590,"i_long":106.840169},{"i_long":106.832183,"distance":1750,"i_lat":-6.186295,"is_transit":false,"station_id":"GDD","time":3,"station_name":"Gondangdia","transit":false,"line":2},{"line":2,"station_id":"JUA","station_name":"Juanda","transit":false,"is_transit":false,"distance":2015,"i_lat":-6.166716,"time":4,"i_long":106.828284},{"i_lat":-6.160725,"i_long":106.827103,"time":2,"distance":1149,"line":2,"station_id":"SW","transit":false,"is_transit":false,"station_name":"Sawah Besar"},{"is_transit":false,"station_id":"MGB","station_name":"Manggabesar","time":2,"transit":false,"distance":906,"i_lat":-6.149769,"line":2,"i_long":106.82482},{"transit":false,"station_name":"Jayakarta","distance":1080,"line":2,"station_id":"JAY","is_transit":false,"i_long":106.820901,"time":2,"i_lat":-6.141205},{"distance":1264,"station_id":"JAKK","time":4,"transit":true,"i_lat":-6.137569,"line":2,"station_name":"Jakarta Kota","is_transit":true,"i_long":106.812439},{"time":3,"is_transit":true,"station_name":"Kampung Bandan","line":4,"i_long":106.826365,"station_id":"KPB","transit":true,"distance":1364,"i_lat":-6.132549},{"transit":false,"i_lat":-6.144674,"time":9,"i_long":106.79867,"line":1,"distance":4102,"station_id":"AK","is_transit":false,"station_name":"Angke"},{"distance":1230,"is_transit":false,"time":4,"transit":false,"i_lat":-6.155215,"station_name":"Duri","line":1,"i_long":106.800832,"station_id":"DU"},{"time":8,"transit":false,"i_long":106.811091,"is_transit":false,"station_name":"Tanah Abang","i_lat":-6.185545,"distance":3632,"station_id":"THB","line":1}],[{"i_long":106.939679,"line":1,"transit":false,"station_id":"KLDB","time":0,"is_transit":false,"station_name":"Klenderbaru","i_lat":-6.217455,"distance":0},{"transit":false,"station_id":"BUA","station_name":"Buaran","i_long":106.922662,"distance":1305,"time":1,"is_transit":false,"line":1,"i_lat":-6.215568},{"distance":3100,"station_name":"Klender","i_long":106.899548,"time":2,"i_lat":-6.2135,"transit":false,"is_transit":false,"station_id":"KLD","line":1},{"i_long":106.86807400000001,"line":1,"i_lat":-6.215091,"transit":true,"distance":3395,"is_transit":true,"time":3,"station_id":"JNG","station_name":"Jatinegara"},{"i_long":106.861737,"i_lat":-6.209188,"station_name":"Pondok Jati","is_transit":false,"time":2,"distance":1236,"transit":false,"station_id":"POK","line":11},{"distance":1829,"time":2,"station_name":"Kramat","i_lat":-6.193792,"line":11,"station_id":"KMT","is_transit":false,"i_long":106.855437,"transit":false},{"distance":973,"time":1,"transit":false,"is_transit":false,"station_id":"GST","line":11,"i_lat":-6.185975,"i_long":106.850107,"station_name":"Gang Sentiong"},{"is_transit":false,"line":11,"station_id":"PSE","transit":false,"station_name":"Pasar Senen","distance":1567,"i_lat":-6.174784,"i_long":106.84368,"time":8},{"i_long":106.839204,"line":11,"station_name":"Kemayoran","distance":1436,"station_id":"KMO","i_lat":-6.161728,"transit":false,"time":4,"is_transit":false},{"i_lat":-6.14505,"is_transit":false,"station_id":"RJW","time":5,"line":11,"station_name":"Rajawali","i_long":106.836569,"distance":1901,"transit":false},{"i_long":106.826365,"transit":true,"is_transit":true,"i_lat":-6.132549,"line":4,"station_name":"Kampung Bandan","distance":1444,"time":3,"station_id":"KPB"},{"transit":true,"station_id":"JAKK","is_transit":true,"i_lat":-6.137569,"line":2,"i_long":106.812439,"distance":1364,"time":3,"station_name":"Jakarta Kota"},{"is_transit":false,"time":4,"transit":false,"line":2,"distance":1264,"i_lat":-6.141205,"i_long":106.820901,"station_id":"JAY","station_name":"Jayakarta"},{"station_id":"MGB","distance":1080,"transit":false,"station_name":"Manggabesar","is_transit":false,"time":2,"i_lat":-6.149769,"line":2,"i_long":106.82482},{"time":2,"i_long":106.827103,"distance":906,"station_name":"Sawah Besar","station_id":"SW","transit":false,"is_transit":false,"i_lat":-6.160725,"line":2},{"distance":1149,"station_id":"JUA","is_transit":false,"transit":false,"i_lat":-6.166716,"line":2,"i_long":106.828284,"time":2,"station_name":"Juanda"},{"time":4,"i_lat":-6.186295,"transit":false,"station_name":"Gondangdia","is_transit":false,"distance":2015,"i_long":106.832183,"line":2,"station_id":"GDD"},{"i_long":106.840169,"transit":false,"i_lat":-6.198556,"line":2,"time":3,"distance":1750,"station_id":"CKI","is_transit":false,"station_name":"Cikini"},{"is_transit":true,"time":4,"i_long":106.84912,"transit":true,"i_lat":-6.209883,"station_id":"MRI","line":2,"station_name":"Manggarai","distance":1590},{"station_id":"SUD","transit":false,"i_lat":-6.202263,"is_transit":false,"time":4,"line":1,"distance":3186,"i_long":106.822649,"station_name":"Sudirman"},{"distance":280,"station_id":"SUDB","station_name":"Sudirman Baru","i_lat":-6.201433,"transit":false,"i_long":106.819881,"time":1,"line":1,"is_transit":false},{"station_id":"KAT","distance":471,"transit":false,"station_name":"Karet","line":1,"i_long":106.816351,"time":1,"i_lat":-6.20132,"is_transit":false},{"time":5,"station_name":"Tanah Abang","station_id":"THB","distance":2029,"transit":false,"i_lat":-6.185545,"line":1,"i_long":106.811091,"is_transit":false}]]}