{"data":[[{"i_lat":-6.217455,"transit":false,"station_id":"KLDB","time":0,"i_long":106.939679,"is_transit":false,"line":1,"distance":0,"station_name":"Klenderbaru"},{"line":1,"station_id":"BUA","time":1,"is_transit":false,"i_long":106.922662,"station_name":"Buaran","transit":false,"distance":1305,"i_lat":-6.215568},{"is_transit":false,"distance":3100,"transit":false,"i_lat":-6.2135,"i_long":106.899548,"line":1,"station_id":"KLD","time":2,"station_name":"Klender"},{"is_transit":true,"i_lat":-6.215091,"station_id":"JNG","station_name":"Jatinegara","i_long":106.86807400000001,"line":1,"time":3,"transit":true,"distance":3395},{"distance":1236,"station_id":"POK","station_name":"Pondok Jati","i_long":106.861737,"line":11,"transit":false,"i_lat":-6.209188,"is_transit":false,"time":2},{"is_transit":false,"time":2,"i_long":106.855437,"station_id":"KMT","line":11,"i_lat":-6.193792,"distance":1829,"station_name":"Kramat","transit":false},{"distance":973,"i_long":106.850107,"i_lat":-6.185975,"transit":false,"time":1,"station_id":"GST","station_name":"Gang Sentiong","is_transit":false,"line":11},{"station_name":"Pasar Senen","station_id":"PSE","distance":1567,"is_transit":false,"i_lat":-6.174784,"time":8,"line":11,"transit":false,"i_long":106.84368},{"station_name":"Kemayoran","i_lat":-6.161728,"time":4,"line":11,"is_transit":false,"distance":1436,"station_id":"KMO","i_long":106.839204,"transit":false}],[{"station_id":"KLDB","line":1,"distance":0,"is_transit":false,"i_lat":-6.217455,"time":0,"station_name":"Klenderbaru","i_long":106.939679,"transit":false},{"line":1,"station_name":"Buaran","station_id":"BUA","time":1,"i_long":106.922662,"i_lat":-6.215568,"transit":false,"distance":1305,"is_transit":false},{"station_id":"KLD","i_long":106.899548,"distance":3100,"transit":false,"station_name":"Klender","line":1,"time":2,"is_transit":false,"i_lat":-6.2135},{"station_name":"Jatinegara","line":1,"time":3,"distance":3395,"i_long":106.86807400000001,"station_id":"JNG","transit":false,"i_lat":-6.215091,"is_transit":false},{"i_long":106.858896,"line":1,"transit":false,"is_transit":false,"i_lat":-6.212485,"time":2,"station_id":"MTR","station_name":"Matraman","distance":1377},{"station_id":"MRI","time":2,"distance":1275,"i_lat":-6.209883,"i_long":106.84912,"is_transit":false,"line":2,"station_name":"Manggarai","transit":false},{"i_lat":-6.202263,"distance":3186,"station_name":"Sudirman","i_long":106.822649,"transit":false,"time":4,"line":1,"station_id":"SUD","is_transit":false},{"i_long":106.819881,"i_lat":-6.201433,"station_name":"Sudirman Baru","station_id":"SUDB","is_transit":false,"line":1,"transit":false,"distance":280,"time":1},{"time":1,"transit":false,"station_name":"Karet","line":1,"i_long":106.816351,"station_id":"KAT","is_transit":false,"i_lat":-6.20132,"distance":471},{"station_name":"Tanah Abang","is_transit":false,"station_id":"THB","i_lat":-6.185545,"time":5,"i_long":106.811091,"distance":2029,"transit":false,"line":1},{"i_long":106.800832,"time":8,"station_id":"DU","station_name":"Duri","is_transit":false,"i_lat":-6.155215,"transit":false,"distance":3632,"line":1},{"line":1,"station_id":"AK","i_lat":-6.144674,"time":4,"distance":1230,"station_name":"Angke","is_transit":false,"transit":false,"i_long":106.79867},{"station_name":"Kampung Bandan","distance":4102,"station_id":"KPB","i_long":106.826365,"line":4,"time":9,"i_lat":-6.132549,"transit":true,"is_transit":true},{"line":11,"i_lat":-6.14505,"distance":1444,"station_id":"RJW","time":3,"is_transit":false,"transit":false,"i_long":106.836569,"station_name":"Rajawali"},{"line":11,"time":5,"is_transit":false,"station_name":"Kemayoran","station_id":"KMO","i_long":106.839204,"distance":1901,"i_lat":-6.161728,"transit":false}],[{"line":1,"distance":0,"station_id":"KLDB","station_name":"Klenderbaru","is_transit":false,"transit":false,"time":0,"i_lat":-6.217455,"i_long":106.939679},{"time":1,"transit":false,"station_id":"BUA","distance":1305,"station_name":"Buaran","i_long":106.922662,"i_lat":-6.215568,"is_transit":false,"line":1},{"i_lat":-6.2135,"station_id":"KLD","time":2,"transit":false,"station_name":"Klender","line":1,"i_long":106.899548,"distance":3100,"is_transit":false},{"station_id":"JNG","i_lat":-6.215091,"time":3,"is_transit":false,"transit":false,"distance":3395,"line":1,"station_name":"Jatinegara","i_long":106.86807400000001},{"is_transit":false,"line":1,"distance":1377,"time":2,"transit":false,"station_name":"Matraman","station_id":"MTR","i_lat":-6.212485,"i_long":106.858896},{"distance":1275,"i_long":106.84912,"time":2,"station_id":"MRI","is_transit":true,"transit":true,"i_lat":-6.209883,"line":2,"station_name":"Manggarai"},{"distance":1590,"i_lat":-6.198556,"station_name":"Cikini","station_id":"CKI","is_transit":false,"i_long":106.840169,"time":4,"transit":false,"line":2},{"i_long":106.832183,"line":2,"transit":false,"time":3,"distance":1750,"i_lat":-6.186295,"is_transit":false,"station_id":"GDD","station_name":"Gondangdia"},{"i_long":106.828284,"station_name":"Juanda","i_lat":-6.166716,"transit":false,"station_id":"JUA","distance":2015,"time":4,"line":2,"is_transit":false},{"time":2,"line":2,"distance":1149,"i_long":106.827103,"is_transit":false,"station_id":"SW","station_name":"Sawah Besar","i_lat":-6.160725,"transit":false},{"station_name":"Manggabesar","time":2,"is_transit":false,"distance":906,"transit":false,"line":2,"i_lat":-6.149769,"i_long":106.82482,"station_id":"MGB"},{"station_id":"JAY","station_name":"Jayakarta","transit":false,"is_transit":false,"i_lat":-6.141205,"i_long":106.820901,"line":2,"distance":1080,"time":2},{"is_transit":true,"distance":1264,"station_name":"Jakarta Kota","time":4,"transit":true,"i_lat":-6.137569,"station_id":"JAKK","i_long":106.812439,"line":2},{"i_lat":-6.132549,"time":3,"line":4,"i_long":106.826365,"distance":1364,"station_id":"KPB","transit":true,"is_transit":true,"station_name":"Kampung Bandan"},{"time":3,"station_id":"RJW","station_name":"Rajawali","is_transit":false,"transit":false,"i_long":106.836569,"i_lat":-6.14505,"line":11,"distance":1444},{"line":11,"time":5,"distance":1901,"is_transit":false,"station_id":"KMO","i_lat":-6.161728,"transit":false,"station_name":"Kemayoran","i_long":106.839204}]]}