{"data":[[{"transit":false,"i_lat":-6.217455,"is_transit":false,"i_long":106.939679,"station_id":"KLDB","distance":0,"station_name":"Klenderbaru","time":0,"line":1},{"distance":1305,"i_long":106.922662,"is_transit":false,"station_id":"BUA","station_name":"Buaran","time":1,"transit":false,"i_lat":-6.215568,"line":1},{"line":1,"is_transit":false,"time":2,"transit":false,"station_name":"Klender","i_long":106.899548,"distance":3100,"i_lat":-6.2135,"station_id":"KLD"},{"i_lat":-6.215091,"transit":false,"distance":3395,"line":1,"i_long":106.86807400000001,"station_id":"JNG","is_transit":false,"time":3,"station_name":"Jatinegara"},{"station_id":"MTR","distance":1377,"i_lat":-6.212485,"is_transit":false,"line":1,"i_long":106.858896,"transit":false,"station_name":"Matraman","time":2},{"line":2,"station_name":"Manggarai","distance":1275,"transit":false,"i_lat":-6.209883,"time":2,"i_long":106.84912,"station_id":"MRI","is_transit":false},{"transit":false,"station_name":"Sudirman","time":4,"station_id":"SUD","distance":3186,"i_lat":-6.202263,"i_long":106.822649,"is_transit":false,"line":1},{"transit":false,"line":1,"i_long":106.819881,"station_id":"SUDB","station_name":"Sudirman Baru","is_transit":false,"time":1,"distance":280,"i_lat":-6.201433}],[{"time":0,"i_lat":-6.217455,"i_long":106.939679,"line":1,"distance":0,"is_transit":false,"station_name":"Klenderbaru","station_id":"KLDB","transit":false},{"station_name":"Buaran","line":1,"transit":false,"is_transit":false,"i_long":106.922662,"distance":1305,"time":1,"station_id":"BUA","i_lat":-6.215568},{"i_lat":-6.2135,"i_long":106.899548,"line":1,"time":2,"distance":3100,"transit":false,"station_id":"KLD","is_transit":false,"station_name":"Klender"},{"line":1,"station_name":"Jatinegara","transit":true,"is_transit":true,"i_lat":-6.215091,"i_long":106.86807400000001,"station_id":"JNG","distance":3395,"time":3},{"station_id":"POK","i_long":106.861737,"is_transit":false,"station_name":"Pondok Jati","i_lat":-6.209188,"line":11,"time":2,"distance":1236,"transit":false},{"station_id":"KMT","line":11,"transit":false,"station_name":"Kramat","i_long":106.855437,"is_transit":false,"time":2,"distance":1829,"i_lat":-6.193792},{"distance":973,"i_lat":-6.185975,"time":1,"i_long":106.850107,"is_transit":false,"line":11,"transit":false,"station_name":"Gang Sentiong","station_id":"GST"},{"station_name":"Pasar Senen","time":8,"i_lat":-6.174784,"station_id":"PSE","i_long":106.84368,"transit":false,"is_transit":false,"distance":1567,"line":11},{"i_long":106.839204,"i_lat":-6.161728,"line":11,"station_name":"Kemayoran","distance":1436,"transit":false,"is_transit":false,"time":4,"station_id":"KMO"},{"transit":false,"distance":1901,"i_lat":-6.14505,"time":5,"line":11,"i_long":106.836569,"station_name":"Rajawali","is_transit":false,"station_id":"RJW"},{"is_transit":true,"distance":1444,"i_lat":-6.132549,"line":4,"i_long":106.826365,"station_name":"Kampung Bandan","station_id":"KPB","time":3,"transit":true},{"station_id":"AK","is_transit":false,"transit":false,"i_lat":-6.144674,"station_name":"Angke","time":9,"i_long":106.79867,"distance":4102,"line":1},{"i_long":106.800832,"time":4,"station_id":"DU","is_transit":false,"distance":1230,"line":1,"station_name":"Duri","i_lat":-6.155215,"transit":false},{"i_long":106.811091,"i_lat":-6.185545,"is_transit":false,"station_name":"Tanah Abang","time":8,"line":1,"distance":3632,"station_id":"THB","transit":false},{"transit":false,"is_transit":false,"station_id":"KAT","time":5,"distance":2029,"station_name":"Karet","line":1,"i_lat":-6.20132,"i_long":106.816351},{"i_long":106.819881,"line":1,"transit":false,"time":1,"station_id":"SUDB","station_name":"Sudirman Baru","i_lat":-6.201433,"distance":471,"is_transit":false}],[{"line":1,"time":0,"station_name":"Klenderbaru","transit":false,"is_transit":false,"distance":0,"i_long":106.939679,"i_lat":-6.217455,"station_id":"KLDB"},{"transit":false,"line":1,"is_transit":false,"i_lat":-6.215568,"station_id":"BUA","station_name":"Buaran","time":1,"i_long":106.922662,"distance":1305},{"time":2,"is_transit":false,"line":1,"station_id":"KLD","i_long":106.899548,"transit":false,"i_lat":-6.2135,"distance":3100,"station_name":"Klender"},{"station_name":"Jatinegara","station_id":"JNG","line":1,"time":3,"transit":false,"i_long":106.86807400000001,"distance":3395,"is_transit":false,"i_lat":-6.215091},{"distance":1377,"line":1,"station_name":"Matraman","i_lat":-6.212485,"i_long":106.858896,"station_id":"MTR","transit":false,"is_transit":false,"time":2},{"is_transit":true,"station_id":"MRI","i_long":106.84912,"line":2,"i_lat":-6.209883,"transit":true,"time":2,"distance":1275,"station_name":"Manggarai"},{"line":2,"transit":false,"i_long":106.840169,"is_transit":false,"station_id":"CKI","time":4,"i_lat":-6.198556,"station_name":"Cikini","distance":1590},{"i_lat":-6.186295,"transit":false,"station_id":"GDD","station_name":"Gondangdia","distance":1750,"i_long":106.832183,"is_transit":false,"time":3,"line":2},{"station_id":"JUA","time":4,"transit":false,"distance":2015,"i_long":106.828284,"is_transit":false,"i_lat":-6.166716,"line":2,"station_name":"Juanda"},{"transit":false,"distance":1149,"i_lat":-6.160725,"line":2,"i_long":106.827103,"station_name":"Sawah Besar","time":2,"station_id":"SW","is_transit":false},{"distance":906,"is_transit":false,"line":2,"i_long":106.82482,"time":2,"station_id":"MGB","i_lat":-6.149769,"transit":false,"station_name":"Manggabesar"},{"time":2,"i_long":106.820901,"station_name":"Jayakarta","station_id":"JAY","line":2,"distance":1080,"i_lat":-6.141205,"is_transit":false,"transit":false},{"station_id":"JAKK","i_long":106.812439,"line":2,"time":4,"i_lat":-6.137569,"station_name":"Jakarta Kota","is_transit":true,"distance":1264,"transit":true},{"i_long":106.826365,"transit":true,"is_transit":true,"distance":1364,"station_name":"Kampung Bandan","station_id":"KPB","time":3,"i_lat":-6.132549,"line":4},{"distance":4102,"station_id":"AK","is_transit":false,"transit":false,"station_name":"Angke","i_lat":-6.144674,"i_long":106.79867,"line":1,"time":9},{"transit":false,"station_name":"Duri","line":1,"station_id":"DU","distance":1230,"i_long":106.800832,"i_lat":-6.155215,"is_transit":false,"time":4},{"line":1,"i_long":106.811091,"is_transit":false,"i_lat":-6.185545,"transit":false,"time":8,"distance":3632,"station_id":"THB","station_name":"Tanah Abang"},{"time":5,"station_id":"KAT","line":1,"is_transit":false,"i_long":106.816351,"transit":false,"station_name":"Karet","distance":2029,"i_lat":-6.20132},{"i_long":106.819881,"line":1,"i_lat":-6.201433,"transit":false,"station_name":"Sudirman Baru","is_transit":false,"distance":471,"station_id":"SUDB","time":1}],[{"line":1,"station_name":"Klenderbaru","time":0,"is_transit":false,"i_long":106.939679,"transit":false,"station_id":"KLDB","distance":0,"i_lat":-6.217455},{"is_transit":false,"distance":1305,"i_lat":-6.215568,"i_long":106.922662,"time":1,"station_name":"Buaran","transit":false,"line":1,"station_id":"BUA"},{"station_id":"KLD","transit":false,"station_name":"Klender","is_transit":false,"time":2,"distance":3100,"i_long":106.899548,"line":1,"i_lat":-6.2135},{"station_name":"Jatinegara","is_transit":true,"line":1,"distance":3395,"transit":true,"station_id":"JNG","time":3,"i_long":106.86807400000001,"i_lat":-6.215091},{"i_long":106.861737,"station_name":"Pondok Jati","line":11,"distance":1236,"i_lat":-6.209188,"time":2,"station_id":"POK","is_transit":false,"transit":false},{"station_name":"Kramat","is_transit":false,"i_long":106.855437,"time":2,"line":11,"distance":1829,"transit":false,"station_id":"KMT","i_lat":-6.193792},{"is_transit":false,"distance":973,"station_name":"Gang Sentiong","time":1,"i_long":106.850107,"transit":false,"i_lat":-6.185975,"station_id":"GST","line":11},{"station_id":"PSE","i_long":106.84368,"is_transit":false,"line":11,"transit":false,"station_name":"Pasar Senen","i_lat":-6.174784,"time":8,"distance":1567},{"transit":false,"station_name":"Kemayoran","i_long":106.839204,"time":4,"distance":1436,"line":11,"station_id":"KMO","is_transit":false,"i_lat":-6.161728},{"transit":false,"time":5,"station_id":"RJW","i_long":106.836569,"is_transit":false,"line":11,"station_name":"Rajawali","i_lat":-6.14505,"distance":1901},{"time":3,"i_lat":-6.132549,"i_long":106.826365,"distance":1444,"transit":true,"line":4,"station_id":"KPB","is_transit":true,"station_name":"Kampung Bandan"},{"time":3,"distance":1364,"i_long":106.812439,"is_transit":true,"station_name":"Jakarta Kota","i_lat":-6.137569,"line":2,"station_id":"JAKK","transit":true},{"distance":1264,"i_lat":-6.141205,"is_transit":false,"time":4,"line":2,"i_long":106.820901,"station_name":"Jayakarta","transit":false,"station_id":"JAY"},{"transit":false,"i_lat":-6.149769,"line":2,"station_name":"Manggabesar","time":2,"i_long":106.82482,"distance":1080,"station_id":"MGB","is_transit":false},{"time":2,"distance":906,"station_name":"Sawah Besar","station_id":"SW","transit":false,"is_transit":false,"i_lat":-6.160725,"i_long":106.827103,"line":2},{"line":2,"i_lat":-6.166716,"transit":false,"time":2,"station_name":"Juanda","station_id":"JUA","is_transit":false,"distance":1149,"i_long":106.828284},{"distance":2015,"i_long":106.832183,"line":2,"transit":false,"time":4,"station_id":"GDD","station_name":"Gondangdia","i_lat":-6.186295,"is_transit":false},{"i_lat":-6.198556,"i_long":106.840169,"line":2,"station_name":"Cikini","time":3,"station_id":"CKI","transit":false,"is_transit":false,"distance":1750},{"station_name":"Manggarai","time":4,"distance":1590,"i_long":106.84912,"line":2,"station_id":"MRI","transit":true,"is_transit":true,"i_lat":-6.209883},{"station_name":"Sudirman","i_lat":-6.202263,"station_id":"SUD","time":4,"distance":3186,"i_long":106.822649,"is_transit":false,"transit":false,"line":1},{"i_long":106.819881,"station_name":"Sudirman Baru","time":1,"is_transit":false,"i_lat":-6.201433,"station_id":"SUDB","transit":false,"distance":280,"line":1}]]}