{"data":[[{"distance":0,"transit":false,"i_long":106.939679,"station_name":"Klenderbaru","i_lat":-6.217455,"time":0,"line":1,"is_transit":false,"station_id":"KLDB"},{"station_id":"BUA","time":1,"i_lat":-6.215568,"line":1,"transit":false,"is_transit":false,"distance":1305,"i_long":106.922662,"station_name":"Buaran"},{"station_name":"Klender","time":2,"line":1,"transit":false,"station_id":"KLD","is_transit":false,"i_long":106.899548,"i_lat":-6.2135,"distance":3100},{"station_name":"Jatinegara","line":1,"time":3,"i_lat":-6.215091,"is_transit":false,"distance":3395,"station_id":"JNG","transit":false,"i_long":106.86807400000001},{"station_id":"MTR","line":1,"i_lat":-6.212485,"is_transit":false,"time":2,"distance":1377,"station_name":"Matraman","transit":false,"i_long":106.858896},{"time":2,"station_id":"MRI","distance":1275,"is_transit":false,"station_name":"Manggarai","line":2,"transit":false,"i_long":106.84912,"i_lat":-6.209883},{"is_transit":false,"i_lat":-6.202263,"station_id":"SUD","i_long":106.822649,"distance":3186,"station_name":"Sudirman","line":1,"time":4,"transit":false},{"line":1,"time":1,"transit":false,"distance":280,"is_transit":false,"station_name":"Sudirman Baru","station_id":"SUDB","i_long":106.819881,"i_lat":-6.201433},{"distance":471,"station_id":"KAT","is_transit":false,"time":1,"i_long":106.816351,"transit":false,"i_lat":-6.20132,"line":1,"station_name":"Karet"},{"station_name":"Tanah Abang","i_lat":-6.185545,"distance":2029,"time":5,"is_transit":false,"line":1,"transit":false,"i_long":106.811091,"station_id":"THB"},{"line":1,"station_id":"DU","distance":3632,"i_lat":-6.155215,"transit":true,"is_transit":true,"time":8,"station_name":"Duri","i_long":106.800832},{"line":5,"distance":1700,"i_long":106.788277,"time":3,"transit":false,"i_lat":-6.162021,"station_name":"Grogol","station_id":"GGL","is_transit":false},{"transit":false,"is_transit":false,"time":2,"i_long":106.771379,"line":5,"distance":2036,"i_lat":-6.161433,"station_name":"Pesing","station_id":"PSG"},{"station_id":"TKO","station_name":"Taman Kota","time":2,"distance":1614,"transit":false,"is_transit":false,"i_lat":-6.1587309999999995,"line":5,"i_long":106.756522}],[{"transit":false,"time":0,"is_transit":false,"distance":0,"i_lat":-6.217455,"i_long":106.939679,"line":1,"station_id":"KLDB","station_name":"Klenderbaru"},{"station_id":"BUA","station_name":"Buaran","line":1,"transit":false,"time":1,"i_long":106.922662,"is_transit":false,"i_lat":-6.215568,"distance":1305},{"transit":false,"line":1,"is_transit":false,"time":2,"station_name":"Klender","distance":3100,"i_lat":-6.2135,"i_long":106.899548,"station_id":"KLD"},{"line":1,"is_transit":true,"station_name":"Jatinegara","station_id":"JNG","transit":true,"time":3,"i_long":106.86807400000001,"i_lat":-6.215091,"distance":3395},{"line":11,"transit":false,"distance":1236,"station_id":"POK","i_long":106.861737,"station_name":"Pondok Jati","is_transit":false,"time":2,"i_lat":-6.209188},{"station_id":"KMT","distance":1829,"i_long":106.855437,"transit":false,"is_transit":false,"station_name":"Kramat","i_lat":-6.193792,"time":2,"line":11},{"is_transit":false,"station_id":"GST","station_name":"Gang Sentiong","transit":false,"i_lat":-6.185975,"i_long":106.850107,"distance":973,"line":11,"time":1},{"distance":1567,"time":8,"is_transit":false,"station_name":"Pasar Senen","transit":false,"i_lat":-6.174784,"station_id":"PSE","i_long":106.84368,"line":11},{"station_name":"Kemayoran","transit":false,"distance":1436,"i_lat":-6.161728,"time":4,"line":11,"i_long":106.839204,"station_id":"KMO","is_transit":false},{"transit":false,"i_lat":-6.14505,"station_name":"Rajawali","station_id":"RJW","line":11,"time":5,"distance":1901,"is_transit":false,"i_long":106.836569},{"transit":true,"station_id":"KPB","time":3,"i_lat":-6.132549,"is_transit":true,"distance":1444,"i_long":106.826365,"line":4,"station_name":"Kampung Bandan"},{"station_name":"Angke","transit":false,"i_lat":-6.144674,"is_transit":false,"line":1,"i_long":106.79867,"time":9,"station_id":"AK","distance":4102},{"station_name":"Duri","time":4,"i_lat":-6.155215,"station_id":"DU","transit":true,"is_transit":true,"line":1,"i_long":106.800832,"distance":1230},{"station_id":"GGL","is_transit":false,"time":3,"i_lat":-6.162021,"transit":false,"line":5,"station_name":"Grogol","distance":1700,"i_long":106.788277},{"distance":2036,"time":2,"is_transit":false,"i_lat":-6.161433,"station_id":"PSG","transit":false,"i_long":106.771379,"station_name":"Pesing","line":5},{"station_id":"TKO","is_transit":false,"i_lat":-6.1587309999999995,"line":5,"station_name":"Taman Kota","distance":1614,"transit":false,"time":2,"i_long":106.756522}],[{"i_lat":-6.217455,"station_name":"Klenderbaru","i_long":106.939679,"line":1,"time":0,"transit":false,"is_transit":false,"distance":0,"station_id":"KLDB"},{"time":1,"i_long":106.922662,"transit":false,"distance":1305,"line":1,"is_transit":false,"i_lat":-6.215568,"station_id":"BUA","station_name":"Buaran"},{"i_long":106.899548,"station_name":"Klender","station_id":"KLD","time":2,"line":1,"transit":false,"distance":3100,"i_lat":-6.2135,"is_transit":false},{"is_transit":false,"line":1,"transit":false,"distance":3395,"i_long":106.86807400000001,"station_name":"Jatinegara","time":3,"station_id":"JNG","i_lat":-6.215091},{"transit":false,"i_long":106.858896,"line":1,"i_lat":-6.212485,"distance":1377,"time":2,"station_name":"Matraman","station_id":"MTR","is_transit":false},{"is_transit":true,"time":2,"i_long":106.84912,"station_id":"MRI","transit":true,"i_lat":-6.209883,"line":2,"station_name":"Manggarai","distance":1275},{"transit":false,"i_lat":-6.198556,"line":2,"station_name":"Cikini","distance":1590,"i_long":106.840169,"station_id":"CKI","is_transit":false,"time":4},{"transit":false,"time":3,"i_lat":-6.186295,"is_transit":false,"distance":1750,"i_long":106.832183,"line":2,"station_id":"GDD","station_name":"Gondangdia"},{"station_name":"Juanda","time":4,"distance":2015,"transit":false,"i_lat":-6.166716,"line":2,"station_id":"JUA","is_transit":false,"i_long":106.828284},{"is_transit":false,"i_lat":-6.160725,"line":2,"distance":1149,"station_id":"SW","i_long":106.827103,"station_name":"Sawah Besar","transit":false,"time":2},{"i_lat":-6.149769,"i_long":106.82482,"time":2,"is_transit":false,"station_name":"Manggabesar","station_id":"MGB","transit":false,"distance":906,"line":2},{"transit":false,"line":2,"is_transit":false,"distance":1080,"i_long":106.820901,"station_id":"JAY","station_name":"Jayakarta","time":2,"i_lat":-6.141205},{"station_id":"JAKK","line":2,"i_long":106.812439,"station_name":"Jakarta Kota","distance":1264,"transit":true,"is_transit":true,"i_lat":-6.137569,"time":4},{"is_transit":true,"i_lat":-6.132549,"line":4,"time":3,"transit":true,"distance":1364,"station_name":"Kampung Bandan","station_id":"KPB","i_long":106.826365},{"line":1,"time":9,"station_name":"Angke","i_lat":-6.144674,"is_transit":false,"distance":4102,"station_id":"AK","i_long":106.79867,"transit":false},{"station_name":"Duri","line":1,"time":4,"transit":true,"is_transit":true,"i_long":106.800832,"distance":1230,"i_lat":-6.155215,"station_id":"DU"},{"time":3,"i_lat":-6.162021,"is_transit":false,"i_long":106.788277,"transit":false,"distance":1700,"line":5,"station_name":"Grogol","station_id":"GGL"},{"station_name":"Pesing","time":2,"distance":2036,"is_transit":false,"i_lat":-6.161433,"i_long":106.771379,"line":5,"transit":false,"station_id":"PSG"},{"i_lat":-6.1587309999999995,"station_id":"TKO","distance":1614,"i_long":106.756522,"line":5,"is_transit":false,"transit":false,"station_name":"Taman Kota","time":2}],[{"i_lat":-6.217455,"i_long":106.939679,"is_transit":false,"station_id":"KLDB","line":1,"station_name":"Klenderbaru","time":0,"distance":0,"transit":false},{"distance":1305,"time":1,"station_id":"BUA","i_lat":-6.215568,"i_long":106.922662,"station_name":"Buaran","line":1,"transit":false,"is_transit":false},{"station_name":"Klender","distance":3100,"is_transit":false,"time":2,"i_long":106.899548,"i_lat":-6.2135,"transit":false,"station_id":"KLD","line":1},{"i_lat":-6.215091,"i_long":106.86807400000001,"station_name":"Jatinegara","station_id":"JNG","distance":3395,"time":3,"is_transit":true,"transit":true,"line":1},{"station_id":"POK","transit":false,"i_lat":-6.209188,"is_transit":false,"time":2,"distance":1236,"line":11,"station_name":"Pondok Jati","i_long":106.861737},{"station_id":"KMT","transit":false,"i_long":106.855437,"is_transit":false,"station_name":"Kramat","time":2,"distance":1829,"i_lat":-6.193792,"line":11},{"distance":973,"station_id":"GST","station_name":"Gang Sentiong","transit":false,"is_transit":false,"time":1,"i_lat":-6.185975,"line":11,"i_long":106.850107},{"line":11,"i_lat":-6.174784,"station_id":"PSE","station_name":"Pasar Senen","time":8,"is_transit":false,"transit":false,"i_long":106.84368,"distance":1567},{"line":11,"transit":false,"is_transit":false,"i_lat":-6.161728,"station_id":"KMO","distance":1436,"station_name":"Kemayoran","i_long":106.839204,"time":4},{"transit":false,"station_name":"Rajawali","time":5,"distance":1901,"station_id":"RJW","i_lat":-6.14505,"is_transit":false,"line":11,"i_long":106.836569},{"i_long":106.826365,"is_transit":true,"line":4,"station_name":"Kampung Bandan","station_id":"KPB","transit":true,"time":3,"distance":1444,"i_lat":-6.132549},{"line":2,"i_lat":-6.137569,"i_long":106.812439,"transit":true,"time":3,"is_transit":true,"station_id":"JAKK","station_name":"Jakarta Kota","distance":1364},{"i_long":106.820901,"time":4,"line":2,"is_transit":false,"station_name":"Jayakarta","station_id":"JAY","transit":false,"i_lat":-6.141205,"distance":1264},{"is_transit":false,"i_long":106.82482,"distance":1080,"transit":false,"station_id":"MGB","time":2,"i_lat":-6.149769,"station_name":"Manggabesar","line":2},{"distance":906,"i_lat":-6.160725,"station_id":"SW","transit":false,"time":2,"i_long":106.827103,"is_transit":false,"station_name":"Sawah Besar","line":2},{"i_lat":-6.166716,"time":2,"is_transit":false,"line":2,"transit":false,"station_name":"Juanda","i_long":106.828284,"distance":1149,"station_id":"JUA"},{"station_name":"Gondangdia","transit":false,"time":4,"i_long":106.832183,"distance":2015,"line":2,"station_id":"GDD","i_lat":-6.186295,"is_transit":false},{"i_lat":-6.198556,"line":2,"i_long":106.840169,"station_name":"Cikini","transit":false,"distance":1750,"time":3,"is_transit":false,"station_id":"CKI"},{"line":2,"transit":true,"station_name":"Manggarai","i_long":106.84912,"time":4,"distance":1590,"is_transit":true,"station_id":"MRI","i_lat":-6.209883},{"line":1,"time":4,"i_long":106.822649,"transit":false,"station_name":"Sudirman","station_id":"SUD","distance":3186,"is_transit":false,"i_lat":-6.202263},{"i_lat":-6.201433,"station_id":"SUDB","transit":false,"distance":280,"time":1,"station_name":"Sudirman Baru","is_transit":false,"i_long":106.819881,"line":1},{"station_name":"Karet","is_transit":false,"station_id":"KAT","distance":471,"i_lat":-6.20132,"i_long":106.816351,"transit":false,"time":1,"line":1},{"is_transit":false,"i_lat":-6.185545,"station_name":"Tanah Abang","station_id":"THB","transit":false,"time":5,"distance":2029,"i_long":106.811091,"line":1},{"transit":true,"time":8,"station_name":"Duri","distance":3632,"i_long":106.800832,"line":1,"i_lat":-6.155215,"station_id":"DU","is_transit":true},{"time":3,"is_transit":false,"i_lat":-6.162021,"station_name":"Grogol","transit":false,"distance":1700,"line":5,"i_long":106.788277,"station_id":"GGL"},{"station_id":"PSG","is_transit":false,"transit":false,"i_lat":-6.161433,"time":2,"line":5,"distance":2036,"i_long":106.771379,"station_name":"Pesing"},{"transit":false,"i_long":106.756522,"station_id":"TKO","is_transit":false,"station_name":"Taman Kota","time":2,"line":5,"distance":1614,"i_lat":-6.1587309999999995}]]}