{"data":[[{"i_lat":-6.217455,"time":0,"distance":0,"i_long":106.939679,"transit":false,"station_id":"KLDB","line":1,"is_transit":false,"station_name":"Klenderbaru"},{"distance":1385,"i_lat":-6.219053,"line":1,"station_name":"Cakung","i_long":106.951283,"transit":false,"is_transit":false,"station_id":"CUK","time":8},{"transit":false,"is_transit":false,"distance":3097,"i_long":106.977657,"i_lat":-6.224515,"line":1,"station_id":"KRI","station_name":"Kranji","time":3},{"i_lat":-6.236616,"transit":false,"time":4,"distance":2520,"line":1,"station_name":"Bekasi","station_id":"BKS","i_long":106.997013,"is_transit":false},{"i_long":107.016735,"transit":false,"distance":2368,"station_name":"Bekasi Timur","station_id":"BKST","time":2,"line":1,"is_transit":false,"i_lat":-6.248029},{"distance":4460,"is_transit":false,"station_name":"Tambun","i_lat":-6.258864,"line":1,"i_long":107.055722,"time":7,"transit":false,"station_id":"TB"},{"transit":false,"station_id":"CIT","is_transit":false,"distance":3420,"time":3,"i_lat":-6.261877,"line":1,"i_long":107.083084,"station_name":"Cibitung"},{"time":2,"i_lat":-6.262938,"distance":2800,"station_name":"Metland Telaga Murni","transit":false,"station_id":"TLM","i_long":107.093313,"is_transit":false,"line":1},{"time":4,"transit":false,"station_id":"CKR","distance":3689,"is_transit":false,"i_lat":-6.2553149999999995,"i_long":107.144613,"station_name":"Cikarang","line":1}]]}