{"data":[[{"transit":false,"distance":0,"i_lat":-6.217455,"line":1,"station_name":"Klenderbaru","is_transit":false,"time":0,"station_id":"KLDB","i_long":106.939679},{"time":1,"distance":1305,"station_id":"BUA","line":1,"station_name":"Buaran","i_lat":-6.215568,"is_transit":false,"i_long":106.922662,"transit":false},{"transit":false,"line":1,"time":2,"station_id":"KLD","station_name":"Klender","i_lat":-6.2135,"i_long":106.899548,"distance":3100,"is_transit":false},{"is_transit":false,"transit":false,"station_name":"Jatinegara","time":3,"distance":3395,"i_long":106.86807400000001,"i_lat":-6.215091,"station_id":"JNG","line":1},{"station_name":"Matraman","i_long":106.858896,"time":2,"line":1,"is_transit":false,"distance":1377,"transit":false,"station_id":"MTR","i_lat":-6.212485},{"transit":false,"time":2,"distance":1275,"station_name":"Manggarai","i_long":106.84912,"i_lat":-6.209883,"line":2,"is_transit":false,"station_id":"MRI"},{"transit":false,"station_id":"SUD","station_name":"Sudirman","i_lat":-6.202263,"i_long":106.822649,"time":4,"distance":3186,"line":1,"is_transit":false},{"i_long":106.819881,"station_id":"SUDB","time":1,"station_name":"Sudirman Baru","i_lat":-6.201433,"line":1,"distance":280,"is_transit":false,"transit":false},{"station_name":"Karet","i_lat":-6.20132,"time":1,"i_long":106.816351,"station_id":"KAT","distance":471,"is_transit":false,"line":1,"transit":false},{"distance":2029,"station_name":"Tanah Abang","is_transit":true,"transit":true,"time":5,"i_long":106.811091,"station_id":"THB","i_lat":-6.185545,"line":1},{"transit":false,"station_name":"Palmerah","is_transit":false,"line":6,"time":6,"i_long":106.79689,"i_lat":-6.207404,"distance":3191,"station_id":"PLM"},{"is_transit":false,"station_name":"Kebayoran","distance":3737,"time":7,"transit":false,"i_lat":-6.237242,"i_long":106.780334,"station_id":"KBY","line":6},{"is_transit":false,"distance":6218,"time":8,"station_name":"Pondokranji","i_lat":-6.276362,"i_long":106.74273,"station_id":"PDJ","transit":false,"line":6}],[{"line":1,"i_long":106.939679,"time":0,"transit":false,"is_transit":false,"distance":0,"station_id":"KLDB","station_name":"Klenderbaru","i_lat":-6.217455},{"station_id":"BUA","distance":1305,"station_name":"Buaran","i_long":106.922662,"i_lat":-6.215568,"is_transit":false,"line":1,"time":1,"transit":false},{"i_long":106.899548,"i_lat":-6.2135,"time":2,"is_transit":false,"transit":false,"station_id":"KLD","line":1,"station_name":"Klender","distance":3100},{"station_name":"Jatinegara","transit":true,"i_long":106.86807400000001,"is_transit":true,"time":3,"distance":3395,"station_id":"JNG","i_lat":-6.215091,"line":1},{"transit":false,"distance":1236,"i_long":106.861737,"station_id":"POK","station_name":"Pondok Jati","time":2,"i_lat":-6.209188,"is_transit":false,"line":11},{"station_name":"Kramat","transit":false,"time":2,"distance":1829,"i_long":106.855437,"is_transit":false,"station_id":"KMT","i_lat":-6.193792,"line":11},{"is_transit":false,"i_lat":-6.185975,"time":1,"distance":973,"station_id":"GST","station_name":"Gang Sentiong","i_long":106.850107,"line":11,"transit":false},{"station_name":"Pasar Senen","time":8,"i_long":106.84368,"station_id":"PSE","transit":false,"distance":1567,"is_transit":false,"i_lat":-6.174784,"line":11},{"station_name":"Kemayoran","distance":1436,"transit":false,"i_long":106.839204,"is_transit":false,"i_lat":-6.161728,"line":11,"station_id":"KMO","time":4},{"station_name":"Rajawali","time":5,"line":11,"i_long":106.836569,"is_transit":false,"station_id":"RJW","i_lat":-6.14505,"distance":1901,"transit":false},{"line":4,"transit":true,"i_long":106.826365,"station_id":"KPB","station_name":"Kampung Bandan","distance":1444,"i_lat":-6.132549,"time":3,"is_transit":true},{"station_id":"AK","transit":false,"time":9,"station_name":"Angke","line":1,"is_transit":false,"i_lat":-6.144674,"i_long":106.79867,"distance":4102},{"is_transit":false,"distance":1230,"station_name":"Duri","i_lat":-6.155215,"i_long":106.800832,"station_id":"DU","time":4,"transit":false,"line":1},{"i_lat":-6.185545,"i_long":106.811091,"time":8,"distance":3632,"station_id":"THB","is_transit":true,"station_name":"Tanah Abang","transit":true,"line":1},{"i_long":106.79689,"distance":3191,"station_id":"PLM","i_lat":-6.207404,"is_transit":false,"time":6,"transit":false,"line":6,"station_name":"Palmerah"},{"is_transit":false,"time":7,"station_id":"KBY","distance":3737,"station_name":"Kebayoran","line":6,"i_lat":-6.237242,"transit":false,"i_long":106.780334},{"station_name":"Pondokranji","station_id":"PDJ","is_transit":false,"i_long":106.74273,"transit":false,"distance":6218,"line":6,"time":8,"i_lat":-6.276362}],[{"is_transit":false,"station_name":"Klenderbaru","station_id":"KLDB","transit":false,"i_long":106.939679,"distance":0,"i_lat":-6.217455,"line":1,"time":0},{"station_name":"Buaran","line":1,"distance":1305,"time":1,"i_lat":-6.215568,"i_long":106.922662,"is_transit":false,"station_id":"BUA","transit":false},{"i_lat":-6.2135,"line":1,"station_id":"KLD","transit":false,"i_long":106.899548,"station_name":"Klender","is_transit":false,"time":2,"distance":3100},{"transit":false,"station_id":"JNG","i_lat":-6.215091,"i_long":106.86807400000001,"station_name":"Jatinegara","is_transit":false,"time":3,"line":1,"distance":3395},{"station_name":"Matraman","is_transit":false,"time":2,"i_lat":-6.212485,"line":1,"transit":false,"i_long":106.858896,"station_id":"MTR","distance":1377},{"i_lat":-6.209883,"distance":1275,"time":2,"transit":true,"line":2,"station_id":"MRI","is_transit":true,"i_long":106.84912,"station_name":"Manggarai"},{"distance":1590,"station_name":"Cikini","i_lat":-6.198556,"time":4,"i_long":106.840169,"station_id":"CKI","transit":false,"line":2,"is_transit":false},{"station_id":"GDD","i_lat":-6.186295,"i_long":106.832183,"distance":1750,"is_transit":false,"transit":false,"time":3,"station_name":"Gondangdia","line":2},{"station_name":"Juanda","transit":false,"distance":2015,"i_long":106.828284,"line":2,"station_id":"JUA","time":4,"is_transit":false,"i_lat":-6.166716},{"station_name":"Sawah Besar","distance":1149,"line":2,"i_lat":-6.160725,"time":2,"is_transit":false,"transit":false,"station_id":"SW","i_long":106.827103},{"is_transit":false,"transit":false,"distance":906,"station_name":"Manggabesar","i_lat":-6.149769,"line":2,"i_long":106.82482,"time":2,"station_id":"MGB"},{"is_transit":false,"transit":false,"time":2,"distance":1080,"i_lat":-6.141205,"line":2,"i_long":106.820901,"station_name":"Jayakarta","station_id":"JAY"},{"line":2,"is_transit":true,"station_name":"Jakarta Kota","transit":true,"i_lat":-6.137569,"distance":1264,"i_long":106.812439,"time":4,"station_id":"JAKK"},{"i_lat":-6.132549,"i_long":106.826365,"is_transit":true,"station_id":"KPB","line":4,"distance":1364,"time":3,"transit":true,"station_name":"Kampung Bandan"},{"station_name":"Angke","is_transit":false,"transit":false,"i_long":106.79867,"time":9,"i_lat":-6.144674,"station_id":"AK","line":1,"distance":4102},{"time":4,"line":1,"i_lat":-6.155215,"distance":1230,"i_long":106.800832,"station_name":"Duri","is_transit":false,"transit":false,"station_id":"DU"},{"distance":3632,"line":1,"station_name":"Tanah Abang","is_transit":true,"time":8,"station_id":"THB","transit":true,"i_lat":-6.185545,"i_long":106.811091},{"station_id":"PLM","time":6,"station_name":"Palmerah","is_transit":false,"i_lat":-6.207404,"transit":false,"distance":3191,"line":6,"i_long":106.79689},{"i_lat":-6.237242,"line":6,"station_id":"KBY","distance":3737,"time":7,"station_name":"Kebayoran","transit":false,"is_transit":false,"i_long":106.780334},{"time":8,"station_name":"Pondokranji","station_id":"PDJ","i_lat":-6.276362,"distance":6218,"is_transit":false,"i_long":106.74273,"transit":false,"line":6}],[{"line":1,"i_lat":-6.217455,"station_name":"Klenderbaru","station_id":"KLDB","is_transit":false,"i_long":106.939679,"time":0,"transit":false,"distance":0},{"station_id":"BUA","transit":false,"i_long":106.922662,"line":1,"distance":1305,"is_transit":false,"station_name":"Buaran","time":1,"i_lat":-6.215568},{"transit":false,"station_name":"Klender","station_id":"KLD","time":2,"distance":3100,"i_lat":-6.2135,"i_long":106.899548,"is_transit":false,"line":1},{"is_transit":true,"station_id":"JNG","transit":true,"line":1,"distance":3395,"time":3,"station_name":"Jatinegara","i_long":106.86807400000001,"i_lat":-6.215091},{"line":11,"transit":false,"is_transit":false,"i_long":106.861737,"distance":1236,"station_id":"POK","i_lat":-6.209188,"station_name":"Pondok Jati","time":2},{"is_transit":false,"distance":1829,"station_name":"Kramat","i_long":106.855437,"transit":false,"station_id":"KMT","line":11,"i_lat":-6.193792,"time":2},{"transit":false,"station_id":"GST","is_transit":false,"i_long":106.850107,"line":11,"time":1,"i_lat":-6.185975,"station_name":"Gang Sentiong","distance":973},{"station_id":"PSE","station_name":"Pasar Senen","i_lat":-6.174784,"i_long":106.84368,"time":8,"transit":false,"distance":1567,"is_transit":false,"line":11},{"station_id":"KMO","time":4,"distance":1436,"i_lat":-6.161728,"is_transit":false,"line":11,"transit":false,"i_long":106.839204,"station_name":"Kemayoran"},{"i_long":106.836569,"line":11,"transit":false,"is_transit":false,"station_name":"Rajawali","time":5,"distance":1901,"i_lat":-6.14505,"station_id":"RJW"},{"transit":true,"time":3,"is_transit":true,"i_lat":-6.132549,"station_name":"Kampung Bandan","i_long":106.826365,"line":4,"station_id":"KPB","distance":1444},{"time":3,"station_name":"Jakarta Kota","distance":1364,"transit":true,"is_transit":true,"i_lat":-6.137569,"line":2,"i_long":106.812439,"station_id":"JAKK"},{"time":4,"i_long":106.820901,"i_lat":-6.141205,"line":2,"station_name":"Jayakarta","station_id":"JAY","is_transit":false,"transit":false,"distance":1264},{"station_name":"Manggabesar","time":2,"distance":1080,"station_id":"MGB","i_long":106.82482,"transit":false,"line":2,"is_transit":false,"i_lat":-6.149769},{"distance":906,"transit":false,"i_long":106.827103,"i_lat":-6.160725,"station_name":"Sawah Besar","is_transit":false,"line":2,"station_id":"SW","time":2},{"time":2,"station_name":"Juanda","distance":1149,"transit":false,"is_transit":false,"station_id":"JUA","i_lat":-6.166716,"i_long":106.828284,"line":2},{"is_transit":false,"line":2,"transit":false,"i_long":106.832183,"i_lat":-6.186295,"distance":2015,"station_name":"Gondangdia","station_id":"GDD","time":4},{"station_name":"Cikini","is_transit":false,"i_long":106.840169,"line":2,"transit":false,"distance":1750,"i_lat":-6.198556,"station_id":"CKI","time":3},{"i_lat":-6.209883,"station_name":"Manggarai","is_transit":true,"distance":1590,"transit":true,"i_long":106.84912,"station_id":"MRI","time":4,"line":2},{"transit":false,"time":4,"i_lat":-6.202263,"distance":3186,"station_name":"Sudirman","station_id":"SUD","is_transit":false,"i_long":106.822649,"line":1},{"station_name":"Sudirman Baru","time":1,"distance":280,"transit":false,"i_lat":-6.201433,"i_long":106.819881,"station_id":"SUDB","is_transit":false,"line":1},{"distance":471,"is_transit":false,"station_name":"Karet","line":1,"i_lat":-6.20132,"i_long":106.816351,"transit":false,"station_id":"KAT","time":1},{"station_id":"THB","i_long":106.811091,"station_name":"Tanah Abang","distance":2029,"time":5,"is_transit":true,"i_lat":-6.185545,"transit":true,"line":1},{"is_transit":false,"station_name":"Palmerah","distance":3191,"line":6,"station_id":"PLM","i_lat":-6.207404,"time":6,"i_long":106.79689,"transit":false},{"distance":3737,"transit":false,"is_transit":false,"station_id":"KBY","i_lat":-6.237242,"i_long":106.780334,"station_name":"Kebayoran","time":7,"line":6},{"i_lat":-6.276362,"time":8,"station_id":"PDJ","transit":false,"station_name":"Pondokranji","i_long":106.74273,"is_transit":false,"line":6,"distance":6218}]]}