{"data":[[{"distance":0,"station_id":"KLDB","line":1,"is_transit":false,"i_long":106.939679,"transit":false,"time":0,"i_lat":-6.217455,"station_name":"Klenderbaru"},{"station_name":"Buaran","station_id":"BUA","line":1,"time":1,"i_long":106.922662,"transit":false,"is_transit":false,"i_lat":-6.215568,"distance":1305},{"i_long":106.899548,"station_name":"Klender","line":1,"station_id":"KLD","is_transit":false,"i_lat":-6.2135,"time":2,"distance":3100,"transit":false},{"time":3,"i_long":106.86807400000001,"line":1,"station_name":"Jatinegara","i_lat":-6.215091,"distance":3395,"station_id":"JNG","is_transit":false,"transit":false},{"line":1,"i_lat":-6.212485,"time":2,"i_long":106.858896,"station_id":"MTR","distance":1377,"station_name":"Matraman","transit":false,"is_transit":false},{"station_name":"Manggarai","distance":1275,"is_transit":true,"transit":true,"station_id":"MRI","i_long":106.84912,"time":2,"line":2,"i_lat":-6.209883},{"i_lat":-6.226659,"transit":false,"distance":2610,"station_name":"Tebet","is_transit":false,"time":4,"i_long":106.857948,"line":2,"station_id":"TEB"},{"station_name":"Cawang","is_transit":false,"transit":false,"distance":1230,"time":2,"line":2,"station_id":"CW","i_lat":-6.242512,"i_long":106.856607},{"line":2,"time":3,"is_transit":false,"i_lat":-6.255332,"distance":1546,"transit":false,"station_name":"Duren Kalibata","i_long":106.85449,"station_id":"DRN"},{"distance":824,"station_id":"PSMB","transit":false,"is_transit":false,"i_lat":-6.263214,"time":2,"i_long":106.851577,"station_name":"Pasar Minggu Baru","line":2},{"station_name":"Pasar Minggu","line":2,"is_transit":false,"distance":2380,"station_id":"PSM","transit":false,"i_lat":-6.2842400000000005,"time":2,"i_long":106.843999},{"station_id":"TNT","is_transit":false,"i_long":106.838896,"distance":2820,"i_lat":-6.3080680000000005,"transit":false,"time":4,"line":2,"station_name":"Tanjung Barat"},{"distance":2671,"i_lat":-6.330363,"transit":false,"is_transit":false,"time":3,"station_name":"Lenteng Agung","line":2,"station_id":"LNA","i_long":106.832616},{"station_id":"UP","i_lat":-6.339291,"transit":false,"is_transit":false,"time":2,"i_long":106.834175,"distance":1029,"line":2,"station_name":"Univ. Pancasila"},{"i_long":106.831474,"time":3,"distance":2264,"i_lat":-6.360749,"is_transit":false,"station_id":"UI","transit":false,"line":2,"station_name":"Univ. Indonesia"}],[{"line":1,"station_id":"KLDB","distance":0,"transit":false,"station_name":"Klenderbaru","i_long":106.939679,"is_transit":false,"time":0,"i_lat":-6.217455},{"station_name":"Buaran","distance":1305,"station_id":"BUA","is_transit":false,"i_lat":-6.215568,"line":1,"time":1,"i_long":106.922662,"transit":false},{"distance":3100,"i_long":106.899548,"station_name":"Klender","station_id":"KLD","transit":false,"time":2,"is_transit":false,"i_lat":-6.2135,"line":1},{"i_lat":-6.215091,"transit":true,"station_name":"Jatinegara","is_transit":true,"station_id":"JNG","distance":3395,"i_long":106.86807400000001,"time":3,"line":1},{"is_transit":false,"time":2,"station_name":"Pondok Jati","i_long":106.861737,"distance":1236,"station_id":"POK","transit":false,"i_lat":-6.209188,"line":11},{"station_id":"KMT","transit":false,"time":2,"i_lat":-6.193792,"station_name":"Kramat","distance":1829,"i_long":106.855437,"line":11,"is_transit":false},{"i_lat":-6.185975,"time":1,"station_name":"Gang Sentiong","distance":973,"station_id":"GST","i_long":106.850107,"transit":false,"is_transit":false,"line":11},{"time":8,"is_transit":false,"station_name":"Pasar Senen","i_lat":-6.174784,"station_id":"PSE","line":11,"i_long":106.84368,"distance":1567,"transit":false},{"is_transit":false,"distance":1436,"station_id":"KMO","transit":false,"time":4,"station_name":"Kemayoran","i_lat":-6.161728,"i_long":106.839204,"line":11},{"station_id":"RJW","line":11,"distance":1901,"i_lat":-6.14505,"is_transit":false,"i_long":106.836569,"station_name":"Rajawali","transit":false,"time":5},{"i_long":106.826365,"is_transit":true,"time":3,"line":4,"station_id":"KPB","transit":true,"distance":1444,"station_name":"Kampung Bandan","i_lat":-6.132549},{"station_id":"AK","is_transit":false,"line":1,"station_name":"Angke","time":9,"distance":4102,"transit":false,"i_lat":-6.144674,"i_long":106.79867},{"line":1,"transit":false,"distance":1230,"is_transit":false,"time":4,"station_id":"DU","station_name":"Duri","i_lat":-6.155215,"i_long":106.800832},{"time":8,"station_id":"THB","station_name":"Tanah Abang","i_long":106.811091,"line":1,"transit":false,"distance":3632,"i_lat":-6.185545,"is_transit":false},{"station_id":"KAT","i_long":106.816351,"station_name":"Karet","is_transit":false,"transit":false,"distance":2029,"time":5,"line":1,"i_lat":-6.20132},{"i_long":106.819881,"line":1,"station_name":"Sudirman Baru","i_lat":-6.201433,"station_id":"SUDB","is_transit":false,"time":1,"transit":false,"distance":471},{"station_id":"SUD","transit":false,"i_long":106.822649,"station_name":"Sudirman","line":1,"is_transit":false,"distance":280,"i_lat":-6.202263,"time":1},{"i_long":106.84912,"station_id":"MRI","is_transit":true,"line":2,"distance":3186,"i_lat":-6.209883,"time":4,"transit":true,"station_name":"Manggarai"},{"transit":false,"time":4,"station_id":"TEB","station_name":"Tebet","distance":2610,"line":2,"is_transit":false,"i_lat":-6.226659,"i_long":106.857948},{"is_transit":false,"distance":1230,"time":2,"station_name":"Cawang","i_lat":-6.242512,"station_id":"CW","line":2,"transit":false,"i_long":106.856607},{"i_lat":-6.255332,"i_long":106.85449,"station_id":"DRN","station_name":"Duren Kalibata","is_transit":false,"transit":false,"time":3,"distance":1546,"line":2},{"station_id":"PSMB","distance":824,"transit":false,"i_lat":-6.263214,"is_transit":false,"station_name":"Pasar Minggu Baru","line":2,"i_long":106.851577,"time":2},{"i_lat":-6.2842400000000005,"station_id":"PSM","i_long":106.843999,"station_name":"Pasar Minggu","time":2,"is_transit":false,"transit":false,"line":2,"distance":2380},{"i_lat":-6.3080680000000005,"transit":false,"time":4,"distance":2820,"i_long":106.838896,"is_transit":false,"station_id":"TNT","station_name":"Tanjung Barat","line":2},{"transit":false,"time":3,"station_name":"Lenteng Agung","i_lat":-6.330363,"is_transit":false,"i_long":106.832616,"station_id":"LNA","distance":2671,"line":2},{"station_name":"Univ. Pancasila","time":2,"line":2,"is_transit":false,"i_long":106.834175,"station_id":"UP","i_lat":-6.339291,"distance":1029,"transit":false},{"time":3,"station_name":"Univ. Indonesia","line":2,"distance":2264,"station_id":"UI","i_lat":-6.360749,"is_transit":false,"transit":false,"i_long":106.831474}],[{"time":0,"station_name":"Klenderbaru","station_id":"KLDB","i_long":106.939679,"is_transit":false,"line":1,"distance":0,"i_lat":-6.217455,"transit":false},{"transit":false,"i_long":106.922662,"line":1,"is_transit":false,"time":1,"distance":1305,"station_name":"Buaran","station_id":"BUA","i_lat":-6.215568},{"station_id":"KLD","i_long":106.899548,"i_lat":-6.2135,"transit":false,"is_transit":false,"time":2,"line":1,"station_name":"Klender","distance":3100},{"i_long":106.86807400000001,"is_transit":true,"line":1,"transit":true,"station_id":"JNG","time":3,"distance":3395,"station_name":"Jatinegara","i_lat":-6.215091},{"i_lat":-6.209188,"i_long":106.861737,"transit":false,"station_id":"POK","distance":1236,"station_name":"Pondok Jati","time":2,"line":11,"is_transit":false},{"station_id":"KMT","distance":1829,"time":2,"i_lat":-6.193792,"transit":false,"i_long":106.855437,"station_name":"Kramat","line":11,"is_transit":false},{"line":11,"station_name":"Gang Sentiong","is_transit":false,"transit":false,"i_lat":-6.185975,"i_long":106.850107,"station_id":"GST","time":1,"distance":973},{"line":11,"transit":false,"is_transit":false,"station_id":"PSE","distance":1567,"station_name":"Pasar Senen","time":8,"i_long":106.84368,"i_lat":-6.174784},{"station_id":"KMO","station_name":"Kemayoran","i_lat":-6.161728,"is_transit":false,"distance":1436,"i_long":106.839204,"line":11,"time":4,"transit":false},{"is_transit":false,"station_name":"Rajawali","station_id":"RJW","i_lat":-6.14505,"i_long":106.836569,"line":11,"time":5,"transit":false,"distance":1901},{"is_transit":true,"line":4,"station_name":"Kampung Bandan","i_long":106.826365,"distance":1444,"i_lat":-6.132549,"transit":true,"station_id":"KPB","time":3},{"time":3,"station_id":"JAKK","line":2,"distance":1364,"is_transit":true,"transit":true,"station_name":"Jakarta Kota","i_lat":-6.137569,"i_long":106.812439},{"line":2,"distance":1264,"transit":false,"is_transit":false,"station_id":"JAY","i_lat":-6.141205,"i_long":106.820901,"time":4,"station_name":"Jayakarta"},{"i_long":106.82482,"station_name":"Manggabesar","distance":1080,"transit":false,"is_transit":false,"time":2,"i_lat":-6.149769,"line":2,"station_id":"MGB"},{"i_long":106.827103,"transit":false,"time":2,"distance":906,"station_id":"SW","station_name":"Sawah Besar","is_transit":false,"line":2,"i_lat":-6.160725},{"transit":false,"distance":1149,"line":2,"is_transit":false,"i_lat":-6.166716,"time":2,"i_long":106.828284,"station_id":"JUA","station_name":"Juanda"},{"line":2,"i_lat":-6.186295,"station_id":"GDD","time":4,"transit":false,"i_long":106.832183,"distance":2015,"station_name":"Gondangdia","is_transit":false},{"station_id":"CKI","i_long":106.840169,"line":2,"i_lat":-6.198556,"station_name":"Cikini","distance":1750,"is_transit":false,"time":3,"transit":false},{"distance":1590,"transit":false,"is_transit":false,"station_name":"Manggarai","line":2,"i_long":106.84912,"i_lat":-6.209883,"station_id":"MRI","time":4},{"i_lat":-6.226659,"line":2,"station_id":"TEB","transit":false,"distance":2610,"i_long":106.857948,"station_name":"Tebet","is_transit":false,"time":4},{"time":2,"station_name":"Cawang","transit":false,"distance":1230,"is_transit":false,"i_lat":-6.242512,"i_long":106.856607,"line":2,"station_id":"CW"},{"station_id":"DRN","i_lat":-6.255332,"is_transit":false,"i_long":106.85449,"time":3,"distance":1546,"line":2,"station_name":"Duren Kalibata","transit":false},{"time":2,"i_long":106.851577,"is_transit":false,"i_lat":-6.263214,"station_id":"PSMB","station_name":"Pasar Minggu Baru","line":2,"distance":824,"transit":false},{"distance":2380,"transit":false,"time":2,"line":2,"station_name":"Pasar Minggu","is_transit":false,"i_long":106.843999,"i_lat":-6.2842400000000005,"station_id":"PSM"},{"transit":false,"is_transit":false,"i_long":106.838896,"line":2,"station_id":"TNT","time":4,"i_lat":-6.3080680000000005,"distance":2820,"station_name":"Tanjung Barat"},{"i_long":106.832616,"is_transit":false,"station_id":"LNA","transit":false,"station_name":"Lenteng Agung","distance":2671,"time":3,"i_lat":-6.330363,"line":2},{"i_long":106.834175,"time":2,"i_lat":-6.339291,"distance":1029,"station_name":"Univ. Pancasila","transit":false,"is_transit":false,"line":2,"station_id":"UP"},{"distance":2264,"time":3,"i_lat":-6.360749,"station_id":"UI","station_name":"Univ. Indonesia","i_long":106.831474,"line":2,"transit":false,"is_transit":false}]]}