{"data":[[{"station_id":"KLDB","distance":0,"station_name":"Klenderbaru","is_transit":false,"i_lat":-6.217455,"line":1,"transit":false,"time":0,"i_long":106.939679},{"station_id":"BUA","i_long":106.922662,"transit":false,"i_lat":-6.215568,"distance":1305,"line":1,"time":1,"is_transit":false,"station_name":"Buaran"},{"i_lat":-6.2135,"distance":3100,"station_id":"KLD","i_long":106.899548,"station_name":"Klender","is_transit":false,"time":2,"line":1,"transit":false},{"station_name":"Jatinegara","distance":3395,"time":3,"i_long":106.86807400000001,"station_id":"JNG","is_transit":false,"line":1,"i_lat":-6.215091,"transit":false},{"distance":1377,"station_id":"MTR","station_name":"Matraman","is_transit":false,"time":2,"transit":false,"i_lat":-6.212485,"i_long":106.858896,"line":1},{"station_id":"MRI","distance":1275,"station_name":"Manggarai","is_transit":false,"line":2,"i_lat":-6.209883,"i_long":106.84912,"time":2,"transit":false},{"is_transit":false,"transit":false,"time":4,"station_name":"Sudirman","i_long":106.822649,"i_lat":-6.202263,"distance":3186,"station_id":"SUD","line":1},{"i_lat":-6.201433,"distance":280,"transit":false,"station_id":"SUDB","is_transit":false,"time":1,"i_long":106.819881,"line":1,"station_name":"Sudirman Baru"},{"station_id":"KAT","transit":false,"is_transit":false,"i_long":106.816351,"distance":471,"station_name":"Karet","i_lat":-6.20132,"time":1,"line":1},{"station_name":"Tanah Abang","i_long":106.811091,"is_transit":true,"time":5,"i_lat":-6.185545,"transit":true,"line":1,"station_id":"THB","distance":2029},{"is_transit":false,"i_lat":-6.207404,"time":6,"station_name":"Palmerah","station_id":"PLM","line":6,"i_long":106.79689,"distance":3191,"transit":false}],[{"transit":false,"station_name":"Klenderbaru","line":1,"time":0,"station_id":"KLDB","i_lat":-6.217455,"distance":0,"is_transit":false,"i_long":106.939679},{"is_transit":false,"distance":1305,"station_id":"BUA","station_name":"Buaran","transit":false,"i_long":106.922662,"time":1,"line":1,"i_lat":-6.215568},{"i_long":106.899548,"station_id":"KLD","time":2,"is_transit":false,"transit":false,"distance":3100,"station_name":"Klender","line":1,"i_lat":-6.2135},{"time":3,"transit":true,"is_transit":true,"i_lat":-6.215091,"station_id":"JNG","distance":3395,"line":1,"i_long":106.86807400000001,"station_name":"Jatinegara"},{"distance":1236,"is_transit":false,"transit":false,"i_long":106.861737,"i_lat":-6.209188,"line":11,"station_id":"POK","station_name":"Pondok Jati","time":2},{"transit":false,"i_long":106.855437,"line":11,"station_id":"KMT","station_name":"Kramat","i_lat":-6.193792,"is_transit":false,"time":2,"distance":1829},{"line":11,"i_long":106.850107,"station_id":"GST","is_transit":false,"transit":false,"station_name":"Gang Sentiong","i_lat":-6.185975,"time":1,"distance":973},{"station_id":"PSE","line":11,"is_transit":false,"transit":false,"i_lat":-6.174784,"i_long":106.84368,"distance":1567,"station_name":"Pasar Senen","time":8},{"is_transit":false,"i_long":106.839204,"transit":false,"i_lat":-6.161728,"station_name":"Kemayoran","station_id":"KMO","distance":1436,"line":11,"time":4},{"is_transit":false,"transit":false,"station_id":"RJW","station_name":"Rajawali","distance":1901,"time":5,"i_lat":-6.14505,"i_long":106.836569,"line":11},{"time":3,"i_long":106.826365,"line":4,"distance":1444,"station_id":"KPB","transit":true,"i_lat":-6.132549,"station_name":"Kampung Bandan","is_transit":true},{"i_lat":-6.144674,"line":1,"is_transit":false,"station_id":"AK","transit":false,"station_name":"Angke","time":9,"i_long":106.79867,"distance":4102},{"line":1,"transit":false,"distance":1230,"i_long":106.800832,"station_id":"DU","station_name":"Duri","is_transit":false,"i_lat":-6.155215,"time":4},{"i_long":106.811091,"line":1,"time":8,"station_id":"THB","is_transit":true,"i_lat":-6.185545,"station_name":"Tanah Abang","distance":3632,"transit":true},{"distance":3191,"is_transit":false,"i_long":106.79689,"time":6,"station_name":"Palmerah","station_id":"PLM","transit":false,"i_lat":-6.207404,"line":6}],[{"station_name":"Klenderbaru","line":1,"transit":false,"distance":0,"station_id":"KLDB","is_transit":false,"i_long":106.939679,"time":0,"i_lat":-6.217455},{"station_id":"BUA","time":1,"transit":false,"distance":1305,"is_transit":false,"i_lat":-6.215568,"i_long":106.922662,"line":1,"station_name":"Buaran"},{"line":1,"station_id":"KLD","transit":false,"i_long":106.899548,"station_name":"Klender","distance":3100,"time":2,"is_transit":false,"i_lat":-6.2135},{"i_lat":-6.215091,"line":1,"is_transit":false,"transit":false,"station_name":"Jatinegara","distance":3395,"station_id":"JNG","time":3,"i_long":106.86807400000001},{"distance":1377,"line":1,"station_id":"MTR","i_lat":-6.212485,"station_name":"Matraman","transit":false,"time":2,"i_long":106.858896,"is_transit":false},{"i_lat":-6.209883,"time":2,"station_name":"Manggarai","i_long":106.84912,"line":2,"is_transit":true,"distance":1275,"transit":true,"station_id":"MRI"},{"line":2,"i_lat":-6.198556,"i_long":106.840169,"station_id":"CKI","time":4,"is_transit":false,"station_name":"Cikini","distance":1590,"transit":false},{"is_transit":false,"distance":1750,"i_lat":-6.186295,"i_long":106.832183,"station_id":"GDD","station_name":"Gondangdia","line":2,"transit":false,"time":3},{"is_transit":false,"i_lat":-6.166716,"station_id":"JUA","time":4,"distance":2015,"station_name":"Juanda","transit":false,"line":2,"i_long":106.828284},{"is_transit":false,"i_lat":-6.160725,"line":2,"i_long":106.827103,"distance":1149,"time":2,"station_id":"SW","transit":false,"station_name":"Sawah Besar"},{"time":2,"line":2,"station_id":"MGB","station_name":"Manggabesar","transit":false,"i_long":106.82482,"is_transit":false,"distance":906,"i_lat":-6.149769},{"station_name":"Jayakarta","station_id":"JAY","line":2,"time":2,"i_lat":-6.141205,"i_long":106.820901,"distance":1080,"is_transit":false,"transit":false},{"station_name":"Jakarta Kota","distance":1264,"is_transit":true,"i_lat":-6.137569,"i_long":106.812439,"time":4,"station_id":"JAKK","line":2,"transit":true},{"time":3,"i_lat":-6.132549,"station_name":"Kampung Bandan","is_transit":true,"distance":1364,"i_long":106.826365,"station_id":"KPB","transit":true,"line":4},{"time":9,"station_id":"AK","station_name":"Angke","transit":false,"line":1,"i_lat":-6.144674,"i_long":106.79867,"distance":4102,"is_transit":false},{"transit":false,"distance":1230,"station_name":"Duri","is_transit":false,"station_id":"DU","i_long":106.800832,"i_lat":-6.155215,"line":1,"time":4},{"distance":3632,"i_long":106.811091,"station_name":"Tanah Abang","line":1,"is_transit":true,"station_id":"THB","time":8,"transit":true,"i_lat":-6.185545},{"station_name":"Palmerah","i_lat":-6.207404,"station_id":"PLM","is_transit":false,"i_long":106.79689,"line":6,"transit":false,"time":6,"distance":3191}],[{"time":0,"i_long":106.939679,"station_name":"Klenderbaru","line":1,"transit":false,"i_lat":-6.217455,"is_transit":false,"station_id":"KLDB","distance":0},{"i_lat":-6.215568,"line":1,"i_long":106.922662,"time":1,"station_name":"Buaran","transit":false,"distance":1305,"is_transit":false,"station_id":"BUA"},{"is_transit":false,"i_lat":-6.2135,"transit":false,"station_name":"Klender","time":2,"distance":3100,"station_id":"KLD","i_long":106.899548,"line":1},{"transit":true,"distance":3395,"is_transit":true,"i_lat":-6.215091,"i_long":106.86807400000001,"station_name":"Jatinegara","time":3,"line":1,"station_id":"JNG"},{"line":11,"station_name":"Pondok Jati","i_lat":-6.209188,"is_transit":false,"time":2,"distance":1236,"transit":false,"station_id":"POK","i_long":106.861737},{"station_name":"Kramat","distance":1829,"i_lat":-6.193792,"transit":false,"i_long":106.855437,"line":11,"is_transit":false,"time":2,"station_id":"KMT"},{"is_transit":false,"station_name":"Gang Sentiong","station_id":"GST","i_lat":-6.185975,"line":11,"distance":973,"transit":false,"i_long":106.850107,"time":1},{"transit":false,"station_name":"Pasar Senen","distance":1567,"station_id":"PSE","i_long":106.84368,"i_lat":-6.174784,"line":11,"time":8,"is_transit":false},{"i_long":106.839204,"transit":false,"time":4,"distance":1436,"is_transit":false,"i_lat":-6.161728,"station_id":"KMO","line":11,"station_name":"Kemayoran"},{"distance":1901,"is_transit":false,"station_id":"RJW","i_long":106.836569,"time":5,"station_name":"Rajawali","transit":false,"i_lat":-6.14505,"line":11},{"station_id":"KPB","time":3,"i_lat":-6.132549,"distance":1444,"i_long":106.826365,"line":4,"station_name":"Kampung Bandan","is_transit":true,"transit":true},{"is_transit":true,"station_id":"JAKK","time":3,"transit":true,"i_lat":-6.137569,"line":2,"station_name":"Jakarta Kota","i_long":106.812439,"distance":1364},{"transit":false,"is_transit":false,"i_lat":-6.141205,"station_id":"JAY","distance":1264,"station_name":"Jayakarta","i_long":106.820901,"line":2,"time":4},{"transit":false,"is_transit":false,"station_id":"MGB","i_lat":-6.149769,"station_name":"Manggabesar","time":2,"i_long":106.82482,"distance":1080,"line":2},{"i_lat":-6.160725,"is_transit":false,"station_name":"Sawah Besar","i_long":106.827103,"line":2,"station_id":"SW","transit":false,"distance":906,"time":2},{"is_transit":false,"distance":1149,"transit":false,"time":2,"i_long":106.828284,"line":2,"station_name":"Juanda","i_lat":-6.166716,"station_id":"JUA"},{"transit":false,"i_lat":-6.186295,"is_transit":false,"station_id":"GDD","line":2,"time":4,"distance":2015,"i_long":106.832183,"station_name":"Gondangdia"},{"is_transit":false,"transit":false,"station_id":"CKI","distance":1750,"time":3,"i_long":106.840169,"station_name":"Cikini","i_lat":-6.198556,"line":2},{"time":4,"i_lat":-6.209883,"line":2,"station_name":"Manggarai","is_transit":true,"i_long":106.84912,"distance":1590,"transit":true,"station_id":"MRI"},{"transit":false,"station_name":"Sudirman","i_lat":-6.202263,"station_id":"SUD","time":4,"line":1,"is_transit":false,"i_long":106.822649,"distance":3186},{"is_transit":false,"distance":280,"time":1,"station_id":"SUDB","line":1,"i_lat":-6.201433,"i_long":106.819881,"station_name":"Sudirman Baru","transit":false},{"time":1,"station_id":"KAT","transit":false,"is_transit":false,"i_long":106.816351,"line":1,"i_lat":-6.20132,"station_name":"Karet","distance":471},{"line":1,"time":5,"transit":true,"i_long":106.811091,"station_id":"THB","station_name":"Tanah Abang","distance":2029,"is_transit":true,"i_lat":-6.185545},{"i_long":106.79689,"station_name":"Palmerah","distance":3191,"transit":false,"station_id":"PLM","is_transit":false,"time":6,"line":6,"i_lat":-6.207404}]]}