{"data":[[{"station_name":"Klenderbaru","i_long":106.939679,"transit":false,"line":1,"station_id":"KLDB","is_transit":false,"i_lat":-6.217455,"time":0,"distance":0},{"transit":false,"distance":1305,"i_long":106.922662,"time":1,"line":1,"i_lat":-6.215568,"station_id":"BUA","is_transit":false,"station_name":"Buaran"},{"distance":3100,"time":2,"station_id":"KLD","line":1,"is_transit":false,"i_lat":-6.2135,"i_long":106.899548,"transit":false,"station_name":"Klender"},{"line":1,"distance":3395,"is_transit":false,"station_id":"JNG","time":3,"i_lat":-6.215091,"transit":false,"station_name":"Jatinegara","i_long":106.86807400000001},{"is_transit":false,"time":2,"station_name":"Matraman","i_long":106.858896,"line":1,"transit":false,"station_id":"MTR","i_lat":-6.212485,"distance":1377},{"transit":false,"station_name":"Manggarai","time":2,"i_long":106.84912,"line":2,"station_id":"MRI","is_transit":false,"distance":1275,"i_lat":-6.209883},{"station_id":"SUD","i_long":106.822649,"distance":3186,"i_lat":-6.202263,"transit":false,"is_transit":false,"line":1,"station_name":"Sudirman","time":4},{"station_id":"SUDB","is_transit":false,"time":1,"line":1,"i_lat":-6.201433,"station_name":"Sudirman Baru","distance":280,"i_long":106.819881,"transit":false},{"time":1,"i_lat":-6.20132,"station_id":"KAT","i_long":106.816351,"station_name":"Karet","is_transit":false,"line":1,"transit":false,"distance":471},{"i_lat":-6.185545,"station_id":"THB","transit":true,"i_long":106.811091,"line":1,"station_name":"Tanah Abang","distance":2029,"is_transit":true,"time":5},{"i_lat":-6.207404,"distance":3191,"line":6,"i_long":106.79689,"transit":false,"time":6,"station_id":"PLM","station_name":"Palmerah","is_transit":false},{"i_lat":-6.237242,"station_id":"KBY","i_long":106.780334,"distance":3737,"line":6,"time":7,"transit":false,"station_name":"Kebayoran","is_transit":false},{"time":8,"i_long":106.74273,"station_id":"PDJ","transit":false,"line":6,"distance":6218,"i_lat":-6.276362,"station_name":"Pondokranji","is_transit":false}],[{"i_lat":-6.217455,"distance":0,"is_transit":false,"transit":false,"time":0,"line":1,"station_id":"KLDB","i_long":106.939679,"station_name":"Klenderbaru"},{"i_long":106.922662,"transit":false,"station_id":"BUA","is_transit":false,"i_lat":-6.215568,"station_name":"Buaran","time":1,"distance":1305,"line":1},{"time":2,"distance":3100,"transit":false,"i_long":106.899548,"line":1,"station_id":"KLD","i_lat":-6.2135,"is_transit":false,"station_name":"Klender"},{"station_id":"JNG","distance":3395,"line":1,"transit":true,"station_name":"Jatinegara","is_transit":true,"i_long":106.86807400000001,"i_lat":-6.215091,"time":3},{"line":11,"transit":false,"i_long":106.861737,"station_id":"POK","distance":1236,"time":2,"i_lat":-6.209188,"station_name":"Pondok Jati","is_transit":false},{"distance":1829,"i_long":106.855437,"line":11,"transit":false,"station_name":"Kramat","i_lat":-6.193792,"time":2,"station_id":"KMT","is_transit":false},{"transit":false,"is_transit":false,"station_id":"GST","station_name":"Gang Sentiong","time":1,"distance":973,"i_lat":-6.185975,"i_long":106.850107,"line":11},{"station_id":"PSE","is_transit":false,"time":8,"distance":1567,"station_name":"Pasar Senen","i_long":106.84368,"transit":false,"i_lat":-6.174784,"line":11},{"i_long":106.839204,"line":11,"is_transit":false,"distance":1436,"time":4,"transit":false,"station_id":"KMO","station_name":"Kemayoran","i_lat":-6.161728},{"station_id":"RJW","i_lat":-6.14505,"line":11,"i_long":106.836569,"time":5,"transit":false,"station_name":"Rajawali","is_transit":false,"distance":1901},{"is_transit":true,"transit":true,"distance":1444,"i_long":106.826365,"station_id":"KPB","station_name":"Kampung Bandan","i_lat":-6.132549,"line":4,"time":3},{"i_lat":-6.144674,"station_name":"Angke","distance":4102,"line":1,"i_long":106.79867,"station_id":"AK","transit":false,"time":9,"is_transit":false},{"i_long":106.800832,"station_name":"Duri","station_id":"DU","time":4,"transit":false,"distance":1230,"line":1,"is_transit":false,"i_lat":-6.155215},{"time":8,"i_long":106.811091,"line":1,"distance":3632,"i_lat":-6.185545,"transit":true,"station_name":"Tanah Abang","station_id":"THB","is_transit":true},{"station_id":"PLM","i_long":106.79689,"is_transit":false,"time":6,"distance":3191,"i_lat":-6.207404,"station_name":"Palmerah","line":6,"transit":false},{"transit":false,"distance":3737,"is_transit":false,"time":7,"i_long":106.780334,"line":6,"station_id":"KBY","station_name":"Kebayoran","i_lat":-6.237242},{"i_lat":-6.276362,"is_transit":false,"time":8,"i_long":106.74273,"distance":6218,"line":6,"station_id":"PDJ","transit":false,"station_name":"Pondokranji"}],[{"is_transit":false,"i_lat":-6.217455,"i_long":106.939679,"line":1,"station_id":"KLDB","time":0,"distance":0,"transit":false,"station_name":"Klenderbaru"},{"transit":false,"station_name":"Buaran","station_id":"BUA","time":1,"is_transit":false,"distance":1305,"i_lat":-6.215568,"i_long":106.922662,"line":1},{"station_name":"Klender","distance":3100,"station_id":"KLD","is_transit":false,"line":1,"time":2,"i_lat":-6.2135,"i_long":106.899548,"transit":false},{"station_name":"Jatinegara","transit":false,"is_transit":false,"i_lat":-6.215091,"i_long":106.86807400000001,"line":1,"distance":3395,"station_id":"JNG","time":3},{"time":2,"i_lat":-6.212485,"distance":1377,"i_long":106.858896,"station_id":"MTR","transit":false,"station_name":"Matraman","is_transit":false,"line":1},{"line":2,"station_name":"Manggarai","i_lat":-6.209883,"i_long":106.84912,"distance":1275,"station_id":"MRI","is_transit":true,"time":2,"transit":true},{"transit":false,"line":2,"station_id":"CKI","station_name":"Cikini","i_lat":-6.198556,"time":4,"is_transit":false,"distance":1590,"i_long":106.840169},{"is_transit":false,"i_lat":-6.186295,"station_name":"Gondangdia","transit":false,"time":3,"i_long":106.832183,"distance":1750,"station_id":"GDD","line":2},{"is_transit":false,"distance":2015,"station_name":"Juanda","station_id":"JUA","transit":false,"time":4,"i_lat":-6.166716,"i_long":106.828284,"line":2},{"is_transit":false,"i_long":106.827103,"station_name":"Sawah Besar","transit":false,"i_lat":-6.160725,"distance":1149,"time":2,"line":2,"station_id":"SW"},{"line":2,"station_name":"Manggabesar","time":2,"station_id":"MGB","is_transit":false,"i_long":106.82482,"distance":906,"transit":false,"i_lat":-6.149769},{"station_name":"Jayakarta","is_transit":false,"line":2,"time":2,"transit":false,"distance":1080,"i_lat":-6.141205,"i_long":106.820901,"station_id":"JAY"},{"line":2,"transit":true,"distance":1264,"i_lat":-6.137569,"station_name":"Jakarta Kota","is_transit":true,"time":4,"i_long":106.812439,"station_id":"JAKK"},{"distance":1364,"time":3,"transit":true,"station_name":"Kampung Bandan","station_id":"KPB","i_long":106.826365,"i_lat":-6.132549,"line":4,"is_transit":true},{"transit":false,"time":9,"i_long":106.79867,"station_id":"AK","line":1,"station_name":"Angke","is_transit":false,"distance":4102,"i_lat":-6.144674},{"transit":false,"station_name":"Duri","i_long":106.800832,"time":4,"is_transit":false,"distance":1230,"i_lat":-6.155215,"station_id":"DU","line":1},{"transit":true,"time":8,"station_name":"Tanah Abang","station_id":"THB","is_transit":true,"i_long":106.811091,"distance":3632,"line":1,"i_lat":-6.185545},{"transit":false,"station_id":"PLM","time":6,"i_long":106.79689,"line":6,"is_transit":false,"i_lat":-6.207404,"distance":3191,"station_name":"Palmerah"},{"transit":false,"station_name":"Kebayoran","is_transit":false,"i_lat":-6.237242,"station_id":"KBY","time":7,"distance":3737,"i_long":106.780334,"line":6},{"i_long":106.74273,"station_name":"Pondokranji","time":8,"station_id":"PDJ","distance":6218,"line":6,"transit":false,"is_transit":false,"i_lat":-6.276362}],[{"time":0,"i_lat":-6.217455,"line":1,"station_name":"Klenderbaru","transit":false,"distance":0,"i_long":106.939679,"is_transit":false,"station_id":"KLDB"},{"station_id":"BUA","i_long":106.922662,"i_lat":-6.215568,"distance":1305,"line":1,"transit":false,"is_transit":false,"time":1,"station_name":"Buaran"},{"station_name":"Klender","time":2,"line":1,"is_transit":false,"i_lat":-6.2135,"transit":false,"i_long":106.899548,"station_id":"KLD","distance":3100},{"is_transit":true,"transit":true,"line":1,"time":3,"i_long":106.86807400000001,"distance":3395,"i_lat":-6.215091,"station_id":"JNG","station_name":"Jatinegara"},{"is_transit":false,"station_id":"POK","time":2,"i_long":106.861737,"station_name":"Pondok Jati","line":11,"transit":false,"distance":1236,"i_lat":-6.209188},{"station_name":"Kramat","transit":false,"distance":1829,"i_lat":-6.193792,"i_long":106.855437,"time":2,"station_id":"KMT","line":11,"is_transit":false},{"transit":false,"distance":973,"is_transit":false,"time":1,"station_name":"Gang Sentiong","station_id":"GST","i_lat":-6.185975,"i_long":106.850107,"line":11},{"transit":false,"station_name":"Pasar Senen","station_id":"PSE","line":11,"time":8,"distance":1567,"is_transit":false,"i_lat":-6.174784,"i_long":106.84368},{"i_lat":-6.161728,"station_id":"KMO","transit":false,"station_name":"Kemayoran","i_long":106.839204,"is_transit":false,"time":4,"line":11,"distance":1436},{"line":11,"station_id":"RJW","i_lat":-6.14505,"station_name":"Rajawali","time":5,"i_long":106.836569,"distance":1901,"is_transit":false,"transit":false},{"station_id":"KPB","is_transit":true,"distance":1444,"line":4,"station_name":"Kampung Bandan","time":3,"i_lat":-6.132549,"i_long":106.826365,"transit":true},{"i_long":106.812439,"station_name":"Jakarta Kota","transit":true,"station_id":"JAKK","is_transit":true,"line":2,"time":3,"distance":1364,"i_lat":-6.137569},{"time":4,"i_lat":-6.141205,"i_long":106.820901,"station_id":"JAY","transit":false,"line":2,"distance":1264,"is_transit":false,"station_name":"Jayakarta"},{"line":2,"distance":1080,"i_lat":-6.149769,"station_name":"Manggabesar","i_long":106.82482,"is_transit":false,"transit":false,"station_id":"MGB","time":2},{"time":2,"transit":false,"station_id":"SW","is_transit":false,"i_lat":-6.160725,"line":2,"station_name":"Sawah Besar","i_long":106.827103,"distance":906},{"time":2,"i_long":106.828284,"station_id":"JUA","station_name":"Juanda","transit":false,"distance":1149,"line":2,"is_transit":false,"i_lat":-6.166716},{"i_lat":-6.186295,"line":2,"station_id":"GDD","transit":false,"time":4,"i_long":106.832183,"distance":2015,"is_transit":false,"station_name":"Gondangdia"},{"distance":1750,"transit":false,"time":3,"is_transit":false,"station_id":"CKI","i_long":106.840169,"i_lat":-6.198556,"station_name":"Cikini","line":2},{"line":2,"transit":true,"station_name":"Manggarai","is_transit":true,"station_id":"MRI","distance":1590,"i_long":106.84912,"time":4,"i_lat":-6.209883},{"transit":false,"distance":3186,"is_transit":false,"station_id":"SUD","time":4,"i_lat":-6.202263,"i_long":106.822649,"station_name":"Sudirman","line":1},{"i_lat":-6.201433,"i_long":106.819881,"is_transit":false,"transit":false,"line":1,"time":1,"station_name":"Sudirman Baru","distance":280,"station_id":"SUDB"},{"station_id":"KAT","distance":471,"is_transit":false,"i_long":106.816351,"time":1,"transit":false,"line":1,"i_lat":-6.20132,"station_name":"Karet"},{"is_transit":true,"transit":true,"i_long":106.811091,"station_name":"Tanah Abang","time":5,"station_id":"THB","i_lat":-6.185545,"distance":2029,"line":1},{"i_lat":-6.207404,"line":6,"distance":3191,"station_id":"PLM","station_name":"Palmerah","time":6,"i_long":106.79689,"is_transit":false,"transit":false},{"i_long":106.780334,"transit":false,"distance":3737,"is_transit":false,"station_name":"Kebayoran","time":7,"line":6,"i_lat":-6.237242,"station_id":"KBY"},{"is_transit":false,"i_lat":-6.276362,"i_long":106.74273,"station_name":"Pondokranji","line":6,"station_id":"PDJ","transit":false,"time":8,"distance":6218}]]}