{"data":[[{"i_long":106.939679,"station_id":"KLDB","is_transit":false,"line":1,"i_lat":-6.217455,"transit":false,"time":0,"station_name":"Klenderbaru","distance":0},{"station_name":"Buaran","i_lat":-6.215568,"is_transit":false,"distance":1305,"transit":false,"station_id":"BUA","time":1,"i_long":106.922662,"line":1},{"transit":false,"time":2,"i_long":106.899548,"station_id":"KLD","distance":3100,"is_transit":false,"i_lat":-6.2135,"line":1,"station_name":"Klender"},{"distance":3395,"i_lat":-6.215091,"time":3,"is_transit":false,"line":1,"transit":false,"station_name":"Jatinegara","station_id":"JNG","i_long":106.86807400000001},{"distance":1377,"i_lat":-6.212485,"i_long":106.858896,"station_id":"MTR","transit":false,"line":1,"station_name":"Matraman","is_transit":false,"time":2},{"i_long":106.84912,"line":2,"station_name":"Manggarai","station_id":"MRI","distance":1275,"transit":true,"is_transit":true,"i_lat":-6.209883,"time":2},{"line":2,"station_name":"Tebet","i_long":106.857948,"is_transit":false,"distance":2610,"station_id":"TEB","time":4,"transit":false,"i_lat":-6.226659},{"i_lat":-6.242512,"station_name":"Cawang","distance":1230,"i_long":106.856607,"transit":false,"station_id":"CW","is_transit":false,"time":2,"line":2},{"station_name":"Duren Kalibata","is_transit":false,"i_long":106.85449,"line":2,"station_id":"DRN","distance":1546,"i_lat":-6.255332,"transit":false,"time":3},{"distance":824,"i_lat":-6.263214,"station_name":"Pasar Minggu Baru","station_id":"PSMB","time":2,"transit":false,"is_transit":false,"i_long":106.851577,"line":2},{"transit":false,"line":2,"distance":2380,"i_lat":-6.2842400000000005,"is_transit":false,"station_id":"PSM","time":2,"i_long":106.843999,"station_name":"Pasar Minggu"},{"distance":2820,"station_id":"TNT","i_lat":-6.3080680000000005,"i_long":106.838896,"transit":false,"station_name":"Tanjung Barat","time":4,"is_transit":false,"line":2},{"transit":false,"is_transit":false,"time":3,"distance":2671,"i_lat":-6.330363,"station_name":"Lenteng Agung","station_id":"LNA","line":2,"i_long":106.832616},{"station_id":"UP","line":2,"i_long":106.834175,"is_transit":false,"time":2,"transit":false,"station_name":"Univ. Pancasila","i_lat":-6.339291,"distance":1029},{"transit":false,"distance":2264,"station_name":"Univ. Indonesia","station_id":"UI","i_lat":-6.360749,"is_transit":false,"i_long":106.831474,"time":3,"line":2},{"is_transit":false,"transit":false,"line":2,"distance":1109,"i_lat":-6.369073,"i_long":106.831114,"time":2,"station_name":"Pondok Cina","station_id":"POC"},{"i_lat":-6.391065,"transit":false,"distance":2727,"line":2,"station_name":"Depokbaru","station_id":"DPB","time":4,"i_long":106.819451,"is_transit":false},{"distance":1584,"is_transit":false,"transit":false,"station_id":"DP","i_long":106.816926,"line":2,"i_lat":-6.405256,"station_name":"Depok","time":3},{"time":6,"distance":5084,"transit":true,"line":2,"i_lat":-6.448811,"i_long":106.800298,"station_id":"CTA","station_name":"Citayam","is_transit":true},{"station_name":"Pondok Rajeg","transit":false,"i_long":106.824374,"distance":0,"time":0,"station_id":"PDRG","i_lat":-6.460735,"is_transit":false,"line":21},{"line":21,"transit":false,"i_lat":-6.46424,"i_long":106.851978,"time":0,"station_id":"CBN","is_transit":false,"distance":0,"station_name":"Cibinong"}],[{"distance":0,"station_name":"Klenderbaru","i_lat":-6.217455,"i_long":106.939679,"time":0,"transit":false,"line":1,"station_id":"KLDB","is_transit":false},{"time":1,"station_name":"Buaran","i_long":106.922662,"is_transit":false,"line":1,"station_id":"BUA","transit":false,"distance":1305,"i_lat":-6.215568},{"station_id":"KLD","transit":false,"station_name":"Klender","time":2,"distance":3100,"i_lat":-6.2135,"i_long":106.899548,"is_transit":false,"line":1},{"is_transit":true,"distance":3395,"transit":true,"station_id":"JNG","i_long":106.86807400000001,"line":1,"station_name":"Jatinegara","i_lat":-6.215091,"time":3},{"i_lat":-6.209188,"station_id":"POK","transit":false,"line":11,"is_transit":false,"station_name":"Pondok Jati","i_long":106.861737,"time":2,"distance":1236},{"line":11,"station_name":"Kramat","i_long":106.855437,"time":2,"station_id":"KMT","transit":false,"i_lat":-6.193792,"distance":1829,"is_transit":false},{"is_transit":false,"distance":973,"i_lat":-6.185975,"station_name":"Gang Sentiong","i_long":106.850107,"station_id":"GST","transit":false,"time":1,"line":11},{"distance":1567,"time":8,"transit":false,"station_name":"Pasar Senen","i_lat":-6.174784,"line":11,"is_transit":false,"i_long":106.84368,"station_id":"PSE"},{"i_lat":-6.161728,"station_id":"KMO","is_transit":false,"transit":false,"i_long":106.839204,"station_name":"Kemayoran","time":4,"distance":1436,"line":11},{"station_name":"Rajawali","station_id":"RJW","is_transit":false,"time":5,"distance":1901,"i_lat":-6.14505,"i_long":106.836569,"transit":false,"line":11},{"station_name":"Kampung Bandan","station_id":"KPB","distance":1444,"transit":true,"i_lat":-6.132549,"is_transit":true,"i_long":106.826365,"line":4,"time":3},{"station_name":"Angke","is_transit":false,"transit":false,"distance":4102,"i_lat":-6.144674,"i_long":106.79867,"line":1,"station_id":"AK","time":9},{"i_lat":-6.155215,"station_id":"DU","i_long":106.800832,"distance":1230,"transit":false,"is_transit":false,"line":1,"station_name":"Duri","time":4},{"time":8,"line":1,"distance":3632,"is_transit":false,"station_id":"THB","station_name":"Tanah Abang","i_lat":-6.185545,"transit":false,"i_long":106.811091},{"transit":false,"i_long":106.816351,"distance":2029,"i_lat":-6.20132,"station_name":"Karet","line":1,"station_id":"KAT","is_transit":false,"time":5},{"station_name":"Sudirman Baru","is_transit":false,"i_lat":-6.201433,"station_id":"SUDB","i_long":106.819881,"line":1,"distance":471,"transit":false,"time":1},{"line":1,"station_name":"Sudirman","is_transit":false,"distance":280,"i_lat":-6.202263,"transit":false,"i_long":106.822649,"time":1,"station_id":"SUD"},{"time":4,"transit":true,"station_name":"Manggarai","station_id":"MRI","line":2,"is_transit":true,"distance":3186,"i_long":106.84912,"i_lat":-6.209883},{"station_id":"TEB","time":4,"i_long":106.857948,"distance":2610,"line":2,"transit":false,"station_name":"Tebet","is_transit":false,"i_lat":-6.226659},{"line":2,"transit":false,"i_long":106.856607,"is_transit":false,"distance":1230,"i_lat":-6.242512,"station_id":"CW","time":2,"station_name":"Cawang"},{"transit":false,"station_name":"Duren Kalibata","is_transit":false,"i_long":106.85449,"time":3,"line":2,"distance":1546,"i_lat":-6.255332,"station_id":"DRN"},{"is_transit":false,"i_lat":-6.263214,"i_long":106.851577,"distance":824,"transit":false,"line":2,"time":2,"station_id":"PSMB","station_name":"Pasar Minggu Baru"},{"line":2,"distance":2380,"transit":false,"time":2,"i_lat":-6.2842400000000005,"is_transit":false,"station_name":"Pasar Minggu","i_long":106.843999,"station_id":"PSM"},{"transit":false,"is_transit":false,"line":2,"time":4,"station_id":"TNT","i_long":106.838896,"distance":2820,"i_lat":-6.3080680000000005,"station_name":"Tanjung Barat"},{"line":2,"is_transit":false,"station_name":"Lenteng Agung","time":3,"i_lat":-6.330363,"station_id":"LNA","distance":2671,"i_long":106.832616,"transit":false},{"line":2,"transit":false,"station_id":"UP","distance":1029,"time":2,"station_name":"Univ. Pancasila","i_lat":-6.339291,"i_long":106.834175,"is_transit":false},{"line":2,"i_long":106.831474,"i_lat":-6.360749,"station_id":"UI","is_transit":false,"distance":2264,"station_name":"Univ. Indonesia","time":3,"transit":false},{"transit":false,"i_long":106.831114,"line":2,"distance":1109,"i_lat":-6.369073,"station_name":"Pondok Cina","time":2,"station_id":"POC","is_transit":false},{"i_long":106.819451,"station_id":"DPB","distance":2727,"is_transit":false,"line":2,"time":4,"i_lat":-6.391065,"station_name":"Depokbaru","transit":false},{"is_transit":false,"distance":1584,"line":2,"i_long":106.816926,"station_id":"DP","transit":false,"station_name":"Depok","time":3,"i_lat":-6.405256},{"line":2,"distance":5084,"station_name":"Citayam","i_lat":-6.448811,"i_long":106.800298,"time":6,"transit":true,"is_transit":true,"station_id":"CTA"},{"time":0,"station_id":"PDRG","transit":false,"distance":0,"i_lat":-6.460735,"is_transit":false,"line":21,"station_name":"Pondok Rajeg","i_long":106.824374},{"station_id":"CBN","station_name":"Cibinong","time":0,"i_long":106.851978,"transit":false,"distance":0,"i_lat":-6.46424,"is_transit":false,"line":21}],[{"i_long":106.939679,"time":0,"distance":0,"station_name":"Klenderbaru","line":1,"is_transit":false,"station_id":"KLDB","transit":false,"i_lat":-6.217455},{"station_name":"Buaran","i_long":106.922662,"transit":false,"line":1,"station_id":"BUA","is_transit":false,"i_lat":-6.215568,"time":1,"distance":1305},{"transit":false,"distance":3100,"i_long":106.899548,"time":2,"line":1,"i_lat":-6.2135,"station_id":"KLD","is_transit":false,"station_name":"Klender"},{"distance":3395,"time":3,"station_id":"JNG","line":1,"is_transit":true,"i_lat":-6.215091,"i_long":106.86807400000001,"transit":true,"station_name":"Jatinegara"},{"line":11,"distance":1236,"is_transit":false,"station_id":"POK","time":2,"i_lat":-6.209188,"transit":false,"station_name":"Pondok Jati","i_long":106.861737},{"is_transit":false,"time":2,"station_name":"Kramat","i_long":106.855437,"line":11,"transit":false,"station_id":"KMT","i_lat":-6.193792,"distance":1829},{"transit":false,"station_name":"Gang Sentiong","time":1,"i_long":106.850107,"line":11,"station_id":"GST","is_transit":false,"distance":973,"i_lat":-6.185975},{"station_id":"PSE","i_long":106.84368,"distance":1567,"i_lat":-6.174784,"transit":false,"is_transit":false,"line":11,"station_name":"Pasar Senen","time":8},{"station_id":"KMO","is_transit":false,"time":4,"line":11,"i_lat":-6.161728,"station_name":"Kemayoran","distance":1436,"i_long":106.839204,"transit":false},{"time":5,"i_lat":-6.14505,"station_id":"RJW","i_long":106.836569,"station_name":"Rajawali","is_transit":false,"line":11,"transit":false,"distance":1901},{"i_lat":-6.132549,"station_id":"KPB","transit":true,"i_long":106.826365,"line":4,"station_name":"Kampung Bandan","distance":1444,"is_transit":true,"time":3},{"i_lat":-6.137569,"distance":1364,"line":2,"i_long":106.812439,"transit":true,"time":3,"station_id":"JAKK","station_name":"Jakarta Kota","is_transit":true},{"i_lat":-6.141205,"station_id":"JAY","i_long":106.820901,"distance":1264,"line":2,"time":4,"transit":false,"station_name":"Jayakarta","is_transit":false},{"time":2,"i_long":106.82482,"station_id":"MGB","transit":false,"line":2,"distance":1080,"i_lat":-6.149769,"station_name":"Manggabesar","is_transit":false},{"i_lat":-6.160725,"distance":906,"is_transit":false,"transit":false,"time":2,"line":2,"station_id":"SW","i_long":106.827103,"station_name":"Sawah Besar"},{"i_long":106.828284,"transit":false,"station_id":"JUA","is_transit":false,"i_lat":-6.166716,"station_name":"Juanda","time":2,"distance":1149,"line":2},{"time":4,"distance":2015,"transit":false,"i_long":106.832183,"line":2,"station_id":"GDD","i_lat":-6.186295,"is_transit":false,"station_name":"Gondangdia"},{"station_id":"CKI","distance":1750,"line":2,"transit":false,"station_name":"Cikini","is_transit":false,"i_long":106.840169,"i_lat":-6.198556,"time":3},{"line":2,"transit":false,"i_long":106.84912,"station_id":"MRI","distance":1590,"time":4,"i_lat":-6.209883,"station_name":"Manggarai","is_transit":false},{"distance":2610,"i_long":106.857948,"line":2,"transit":false,"station_name":"Tebet","i_lat":-6.226659,"time":4,"station_id":"TEB","is_transit":false},{"transit":false,"is_transit":false,"station_id":"CW","station_name":"Cawang","time":2,"distance":1230,"i_lat":-6.242512,"i_long":106.856607,"line":2},{"station_id":"DRN","is_transit":false,"time":3,"distance":1546,"station_name":"Duren Kalibata","i_long":106.85449,"transit":false,"i_lat":-6.255332,"line":2},{"i_long":106.851577,"line":2,"is_transit":false,"distance":824,"time":2,"transit":false,"station_id":"PSMB","station_name":"Pasar Minggu Baru","i_lat":-6.263214},{"station_id":"PSM","i_lat":-6.2842400000000005,"line":2,"i_long":106.843999,"time":2,"transit":false,"station_name":"Pasar Minggu","is_transit":false,"distance":2380},{"is_transit":false,"transit":false,"distance":2820,"i_long":106.838896,"station_id":"TNT","station_name":"Tanjung Barat","i_lat":-6.3080680000000005,"line":2,"time":4},{"i_lat":-6.330363,"station_name":"Lenteng Agung","distance":2671,"line":2,"i_long":106.832616,"station_id":"LNA","transit":false,"time":3,"is_transit":false},{"i_long":106.834175,"station_name":"Univ. Pancasila","station_id":"UP","time":2,"transit":false,"distance":1029,"line":2,"is_transit":false,"i_lat":-6.339291},{"time":3,"i_long":106.831474,"line":2,"distance":2264,"i_lat":-6.360749,"transit":false,"station_name":"Univ. Indonesia","station_id":"UI","is_transit":false},{"station_id":"POC","i_long":106.831114,"is_transit":false,"time":2,"distance":1109,"i_lat":-6.369073,"station_name":"Pondok Cina","line":2,"transit":false},{"transit":false,"distance":2727,"is_transit":false,"time":4,"i_long":106.819451,"line":2,"station_id":"DPB","station_name":"Depokbaru","i_lat":-6.391065},{"i_lat":-6.405256,"is_transit":false,"time":3,"i_long":106.816926,"distance":1584,"line":2,"station_id":"DP","transit":false,"station_name":"Depok"},{"time":6,"station_id":"CTA","transit":true,"line":2,"i_long":106.800298,"station_name":"Citayam","i_lat":-6.448811,"is_transit":true,"distance":5084},{"line":21,"time":0,"transit":false,"station_id":"PDRG","i_lat":-6.460735,"distance":0,"i_long":106.824374,"station_name":"Pondok Rajeg","is_transit":false},{"line":21,"station_name":"Cibinong","is_transit":false,"i_lat":-6.46424,"distance":0,"time":0,"i_long":106.851978,"transit":false,"station_id":"CBN"}]]}