{"data":[[{"distance":0,"time":0,"i_lat":-6.217455,"i_long":106.939679,"is_transit":false,"line":1,"station_name":"Klenderbaru","transit":false,"station_id":"KLDB"},{"station_name":"Buaran","station_id":"BUA","line":0,"is_transit":false,"i_long":106.922662,"time":1,"transit":false,"distance":1305,"i_lat":-6.215568},{"distance":3100,"i_lat":-6.2135,"station_id":"KLD","is_transit":false,"time":2,"transit":false,"i_long":106.899548,"line":1,"station_name":"Klender"},{"distance":3395,"station_id":"JNG","is_transit":true,"i_lat":-6.215091,"i_long":106.86807400000001,"time":3,"station_name":"Jatinegara","transit":false,"line":0},{"station_name":"Matraman","i_lat":-6.212485,"i_long":106.858896,"station_id":"MTR","time":2,"distance":1377,"line":1,"is_transit":false,"transit":false},{"is_transit":true,"station_name":"Manggarai","transit":false,"line":0,"station_id":"MRI","i_lat":-6.209883,"time":2,"distance":1275,"i_long":106.84912},{"is_transit":false,"line":1,"i_lat":-6.202263,"time":4,"i_long":106.822649,"transit":false,"distance":3186,"station_name":"Sudirman","station_id":"SUD"},{"line":1,"time":1,"is_transit":false,"station_id":"SUDB","transit":false,"i_long":106.819881,"station_name":"Sudirman Baru","distance":280,"i_lat":-6.201433},{"i_long":106.816351,"station_name":"Karet","time":1,"is_transit":false,"station_id":"KAT","distance":471,"i_lat":-6.20132,"transit":false,"line":1},{"transit":false,"is_transit":true,"i_long":106.811091,"i_lat":-6.185545,"distance":2029,"station_id":"THB","station_name":"Tanah Abang","line":1,"time":5},{"station_name":"Duri","distance":3632,"line":1,"station_id":"DU","time":8,"i_lat":-6.155215,"is_transit":true,"transit":true,"i_long":106.800832},{"i_lat":-6.162021,"line":5,"transit":false,"is_transit":false,"time":3,"distance":1700,"station_id":"GGL","i_long":106.788277,"station_name":"Grogol"},{"station_name":"Pesing","line":5,"i_lat":-6.161433,"distance":2036,"is_transit":false,"i_long":106.771379,"transit":false,"station_id":"PSG","time":2},{"time":2,"i_long":106.756522,"distance":1614,"transit":false,"i_lat":-6.1587309999999995,"station_name":"Taman Kota","line":5,"is_transit":false,"station_id":"TKO"}],[{"station_id":"KLDB","i_long":106.939679,"i_lat":-6.217455,"line":1,"distance":0,"station_name":"Klenderbaru","is_transit":false,"time":0,"transit":false},{"is_transit":false,"station_id":"BUA","transit":false,"station_name":"Buaran","i_lat":-6.215568,"distance":1305,"i_long":106.922662,"line":0,"time":1},{"station_name":"Klender","station_id":"KLD","is_transit":false,"line":1,"i_lat":-6.2135,"time":2,"distance":3100,"i_long":106.899548,"transit":false},{"distance":3395,"station_id":"JNG","transit":true,"station_name":"Jatinegara","i_long":106.86807400000001,"time":3,"i_lat":-6.215091,"line":0,"is_transit":true},{"transit":false,"i_long":106.861737,"time":2,"station_name":"Pondok Jati","is_transit":false,"distance":1236,"station_id":"POK","i_lat":-6.209188,"line":11},{"line":11,"is_transit":false,"time":2,"distance":1829,"transit":false,"i_long":106.855437,"station_id":"KMT","station_name":"Kramat","i_lat":-6.193792},{"station_id":"GST","transit":false,"distance":973,"station_name":"Gang Sentiong","line":11,"is_transit":false,"time":1,"i_lat":-6.185975,"i_long":106.850107},{"distance":1567,"time":8,"transit":false,"line":11,"station_id":"PSE","is_transit":false,"i_lat":-6.174784,"i_long":106.84368,"station_name":"Pasar Senen"},{"is_transit":false,"distance":1436,"line":11,"station_name":"Kemayoran","time":4,"transit":false,"i_lat":-6.161728,"station_id":"KMO","i_long":106.839204},{"station_name":"Rajawali","station_id":"RJW","is_transit":false,"transit":false,"distance":1901,"time":5,"i_long":106.836569,"line":11,"i_lat":-6.14505},{"i_lat":-6.132549,"is_transit":true,"line":0,"transit":true,"station_name":"Kampung Bandan","station_id":"KPB","time":3,"distance":1444,"i_long":106.826365},{"i_long":106.79867,"is_transit":false,"i_lat":-6.144674,"distance":4102,"transit":false,"station_name":"Angke","station_id":"AK","line":0,"time":9},{"i_lat":-6.155215,"station_id":"DU","station_name":"Duri","time":4,"distance":1230,"transit":true,"line":1,"is_transit":true,"i_long":106.800832},{"is_transit":false,"station_id":"GGL","distance":1700,"line":5,"i_lat":-6.162021,"transit":false,"time":3,"i_long":106.788277,"station_name":"Grogol"},{"i_lat":-6.161433,"station_id":"PSG","is_transit":false,"distance":2036,"transit":false,"line":5,"i_long":106.771379,"station_name":"Pesing","time":2},{"transit":false,"station_name":"Taman Kota","i_lat":-6.1587309999999995,"distance":1614,"station_id":"TKO","i_long":106.756522,"time":2,"line":5,"is_transit":false}],[{"is_transit":false,"station_id":"KLDB","transit":false,"distance":0,"i_lat":-6.217455,"station_name":"Klenderbaru","time":0,"i_long":106.939679,"line":1},{"station_name":"Buaran","line":0,"time":1,"i_long":106.922662,"transit":false,"i_lat":-6.215568,"is_transit":false,"station_id":"BUA","distance":1305},{"station_name":"Klender","time":2,"station_id":"KLD","transit":false,"line":1,"distance":3100,"is_transit":false,"i_lat":-6.2135,"i_long":106.899548},{"is_transit":true,"time":3,"i_lat":-6.215091,"line":0,"station_id":"JNG","station_name":"Jatinegara","distance":3395,"i_long":106.86807400000001,"transit":false},{"is_transit":false,"station_name":"Matraman","distance":1377,"time":2,"i_lat":-6.212485,"transit":false,"i_long":106.858896,"station_id":"MTR","line":1},{"line":0,"station_name":"Manggarai","i_lat":-6.209883,"i_long":106.84912,"time":2,"is_transit":true,"station_id":"MRI","distance":1275,"transit":true},{"is_transit":false,"station_id":"CKI","station_name":"Cikini","i_lat":-6.198556,"i_long":106.840169,"time":4,"transit":false,"distance":1590,"line":0},{"station_id":"GDD","station_name":"Gondangdia","line":2,"is_transit":false,"i_lat":-6.186295,"i_long":106.832183,"transit":false,"distance":1750,"time":3},{"transit":false,"station_name":"Juanda","station_id":"JUA","is_transit":false,"time":4,"distance":2015,"i_lat":-6.166716,"i_long":106.828284,"line":2},{"time":2,"i_long":106.827103,"line":2,"transit":false,"station_id":"SW","is_transit":false,"distance":1149,"station_name":"Sawah Besar","i_lat":-6.160725},{"station_name":"Manggabesar","line":2,"station_id":"MGB","is_transit":false,"time":2,"distance":906,"i_lat":-6.149769,"i_long":106.82482,"transit":false},{"distance":1080,"station_name":"Jayakarta","station_id":"JAY","i_long":106.820901,"time":2,"is_transit":false,"transit":false,"i_lat":-6.141205,"line":7},{"time":4,"line":0,"i_lat":-6.137569,"i_long":106.812439,"station_id":"JAKK","station_name":"Jakarta Kota","distance":1264,"is_transit":true,"transit":true},{"i_long":106.826365,"distance":1364,"station_name":"Kampung Bandan","line":0,"is_transit":true,"i_lat":-6.132549,"transit":false,"station_id":"KPB","time":3},{"time":9,"i_lat":-6.144674,"station_name":"Angke","line":0,"transit":false,"i_long":106.79867,"distance":4102,"station_id":"AK","is_transit":false},{"line":1,"station_id":"DU","distance":1230,"time":4,"i_lat":-6.155215,"station_name":"Duri","is_transit":true,"transit":true,"i_long":106.800832},{"i_long":106.788277,"station_name":"Grogol","i_lat":-6.162021,"station_id":"GGL","is_transit":false,"line":5,"transit":false,"time":3,"distance":1700},{"transit":false,"is_transit":false,"line":5,"i_long":106.771379,"time":2,"i_lat":-6.161433,"station_name":"Pesing","station_id":"PSG","distance":2036},{"time":2,"is_transit":false,"transit":false,"line":5,"i_long":106.756522,"distance":1614,"station_id":"TKO","i_lat":-6.1587309999999995,"station_name":"Taman Kota"}],[{"is_transit":false,"transit":false,"time":0,"line":1,"station_id":"KLDB","station_name":"Klenderbaru","distance":0,"i_lat":-6.217455,"i_long":106.939679},{"station_id":"BUA","i_long":106.922662,"time":1,"i_lat":-6.215568,"line":0,"station_name":"Buaran","transit":false,"is_transit":false,"distance":1305},{"i_long":106.899548,"station_name":"Klender","line":1,"is_transit":false,"station_id":"KLD","time":2,"i_lat":-6.2135,"distance":3100,"transit":false},{"station_name":"Jatinegara","is_transit":true,"distance":3395,"time":3,"transit":true,"line":0,"station_id":"JNG","i_lat":-6.215091,"i_long":106.86807400000001},{"is_transit":false,"station_id":"POK","station_name":"Pondok Jati","i_long":106.861737,"transit":false,"distance":1236,"i_lat":-6.209188,"line":11,"time":2},{"line":11,"time":2,"i_long":106.855437,"is_transit":false,"transit":false,"station_id":"KMT","station_name":"Kramat","distance":1829,"i_lat":-6.193792},{"i_long":106.850107,"is_transit":false,"transit":false,"station_name":"Gang Sentiong","i_lat":-6.185975,"line":11,"station_id":"GST","distance":973,"time":1},{"i_long":106.84368,"transit":false,"line":11,"station_id":"PSE","distance":1567,"time":8,"station_name":"Pasar Senen","is_transit":false,"i_lat":-6.174784},{"line":11,"distance":1436,"time":4,"i_lat":-6.161728,"i_long":106.839204,"station_name":"Kemayoran","is_transit":false,"transit":false,"station_id":"KMO"},{"distance":1901,"is_transit":false,"station_name":"Rajawali","i_long":106.836569,"station_id":"RJW","line":11,"time":5,"transit":false,"i_lat":-6.14505},{"is_transit":true,"station_id":"KPB","time":3,"station_name":"Kampung Bandan","i_long":106.826365,"line":0,"transit":true,"distance":1444,"i_lat":-6.132549},{"transit":true,"i_lat":-6.137569,"station_name":"Jakarta Kota","i_long":106.812439,"line":0,"distance":1364,"station_id":"JAKK","is_transit":true,"time":3},{"is_transit":false,"station_name":"Jayakarta","transit":false,"time":4,"line":7,"i_lat":-6.141205,"distance":1264,"i_long":106.820901,"station_id":"JAY"},{"is_transit":false,"i_lat":-6.149769,"distance":1080,"station_name":"Manggabesar","line":2,"i_long":106.82482,"station_id":"MGB","transit":false,"time":2},{"station_id":"SW","is_transit":false,"transit":false,"i_lat":-6.160725,"i_long":106.827103,"line":2,"time":2,"station_name":"Sawah Besar","distance":906},{"station_name":"Juanda","i_lat":-6.166716,"time":2,"distance":1149,"is_transit":false,"line":2,"transit":false,"station_id":"JUA","i_long":106.828284},{"time":4,"i_lat":-6.186295,"transit":false,"line":2,"station_id":"GDD","i_long":106.832183,"is_transit":false,"distance":2015,"station_name":"Gondangdia"},{"time":3,"transit":false,"i_lat":-6.198556,"distance":1750,"i_long":106.840169,"station_name":"Cikini","line":0,"is_transit":false,"station_id":"CKI"},{"is_transit":true,"distance":1590,"station_name":"Manggarai","i_long":106.84912,"i_lat":-6.209883,"line":0,"station_id":"MRI","time":4,"transit":true},{"is_transit":false,"transit":false,"distance":3186,"station_name":"Sudirman","time":4,"line":1,"station_id":"SUD","i_lat":-6.202263,"i_long":106.822649},{"i_long":106.819881,"time":1,"is_transit":false,"distance":280,"transit":false,"station_name":"Sudirman Baru","station_id":"SUDB","i_lat":-6.201433,"line":1},{"distance":471,"line":1,"transit":false,"i_lat":-6.20132,"station_name":"Karet","station_id":"KAT","is_transit":false,"time":1,"i_long":106.816351},{"is_transit":true,"i_long":106.811091,"station_id":"THB","i_lat":-6.185545,"time":5,"line":1,"distance":2029,"transit":false,"station_name":"Tanah Abang"},{"transit":true,"distance":3632,"i_long":106.800832,"time":8,"line":1,"station_id":"DU","is_transit":true,"station_name":"Duri","i_lat":-6.155215},{"station_id":"GGL","transit":false,"i_lat":-6.162021,"station_name":"Grogol","time":3,"is_transit":false,"distance":1700,"i_long":106.788277,"line":5},{"line":5,"distance":2036,"station_id":"PSG","is_transit":false,"transit":false,"i_lat":-6.161433,"i_long":106.771379,"time":2,"station_name":"Pesing"},{"station_name":"Taman Kota","is_transit":false,"station_id":"TKO","transit":false,"distance":1614,"i_lat":-6.1587309999999995,"line":5,"i_long":106.756522,"time":2}]]}