{"data":[[{"time":0,"station_name":"Klenderbaru","i_long":106.939679,"is_transit":false,"station_id":"KLDB","distance":0,"line":1,"transit":false,"i_lat":-6.217455},{"is_transit":false,"line":0,"i_long":106.922662,"station_name":"Buaran","transit":false,"i_lat":-6.215568,"station_id":"BUA","time":1,"distance":1305},{"distance":3100,"station_id":"KLD","time":2,"i_lat":-6.2135,"line":1,"station_name":"Klender","is_transit":false,"transit":false,"i_long":106.899548},{"transit":false,"time":3,"line":0,"i_long":106.86807400000001,"station_name":"Jatinegara","station_id":"JNG","i_lat":-6.215091,"is_transit":true,"distance":3395},{"line":1,"station_id":"MTR","time":2,"station_name":"Matraman","transit":false,"i_lat":-6.212485,"is_transit":false,"i_long":106.858896,"distance":1377},{"line":0,"i_lat":-6.209883,"distance":1275,"time":2,"i_long":106.84912,"is_transit":true,"station_name":"Manggarai","station_id":"MRI","transit":true},{"distance":2610,"transit":false,"i_long":106.857948,"is_transit":false,"line":2,"station_name":"Tebet","i_lat":-6.226659,"time":4,"station_id":"TEB"},{"i_long":106.856607,"station_name":"Cawang","is_transit":false,"transit":false,"i_lat":-6.242512,"time":2,"station_id":"CW","line":0,"distance":1230},{"is_transit":false,"distance":1546,"line":0,"transit":false,"time":3,"i_long":106.85449,"station_id":"DRN","i_lat":-6.255332,"station_name":"Duren Kalibata"},{"station_id":"PSMB","is_transit":false,"time":2,"station_name":"Pasar Minggu Baru","i_long":106.851577,"line":2,"distance":824,"transit":false,"i_lat":-6.263214},{"station_id":"PSM","i_lat":-6.2842400000000005,"i_long":106.843999,"is_transit":false,"distance":2380,"station_name":"Pasar Minggu","transit":false,"line":2,"time":2},{"i_long":106.838896,"station_id":"TNT","station_name":"Tanjung Barat","line":2,"transit":false,"i_lat":-6.3080680000000005,"distance":2820,"is_transit":false,"time":4},{"station_id":"LNA","is_transit":false,"station_name":"Lenteng Agung","distance":2671,"i_lat":-6.330363,"line":2,"time":3,"transit":false,"i_long":106.832616},{"distance":1029,"time":2,"transit":false,"station_id":"UP","i_lat":-6.339291,"i_long":106.834175,"is_transit":false,"line":2,"station_name":"Univ. Pancasila"},{"time":3,"transit":false,"i_lat":-6.360749,"distance":2264,"station_name":"Univ. Indonesia","is_transit":false,"i_long":106.831474,"line":2,"station_id":"UI"}],[{"station_name":"Klenderbaru","i_lat":-6.217455,"i_long":106.939679,"line":1,"distance":0,"station_id":"KLDB","is_transit":false,"time":0,"transit":false},{"line":0,"distance":1305,"i_long":106.922662,"i_lat":-6.215568,"station_id":"BUA","time":1,"transit":false,"is_transit":false,"station_name":"Buaran"},{"line":1,"time":2,"i_long":106.899548,"i_lat":-6.2135,"transit":false,"distance":3100,"is_transit":false,"station_name":"Klender","station_id":"KLD"},{"i_long":106.86807400000001,"line":0,"i_lat":-6.215091,"time":3,"station_name":"Jatinegara","is_transit":true,"station_id":"JNG","transit":true,"distance":3395},{"line":11,"distance":1236,"i_lat":-6.209188,"i_long":106.861737,"time":2,"transit":false,"station_id":"POK","is_transit":false,"station_name":"Pondok Jati"},{"distance":1829,"station_id":"KMT","transit":false,"station_name":"Kramat","i_long":106.855437,"time":2,"line":11,"i_lat":-6.193792,"is_transit":false},{"is_transit":false,"time":1,"station_id":"GST","i_long":106.850107,"station_name":"Gang Sentiong","line":11,"distance":973,"transit":false,"i_lat":-6.185975},{"is_transit":false,"station_id":"PSE","i_long":106.84368,"i_lat":-6.174784,"station_name":"Pasar Senen","line":11,"time":8,"distance":1567,"transit":false},{"line":11,"is_transit":false,"station_id":"KMO","time":4,"distance":1436,"i_lat":-6.161728,"i_long":106.839204,"station_name":"Kemayoran","transit":false},{"station_name":"Rajawali","i_long":106.836569,"distance":1901,"i_lat":-6.14505,"line":11,"transit":false,"station_id":"RJW","is_transit":false,"time":5},{"is_transit":true,"i_lat":-6.132549,"transit":true,"station_id":"KPB","station_name":"Kampung Bandan","line":0,"time":3,"distance":1444,"i_long":106.826365},{"distance":4102,"station_name":"Angke","line":0,"transit":false,"station_id":"AK","is_transit":false,"i_lat":-6.144674,"time":9,"i_long":106.79867},{"distance":1230,"station_id":"DU","transit":true,"is_transit":true,"i_lat":-6.155215,"i_long":106.800832,"station_name":"Duri","time":4,"line":1},{"station_name":"Tanah Abang","transit":false,"line":1,"i_lat":-6.185545,"distance":3632,"station_id":"THB","time":8,"i_long":106.811091,"is_transit":true},{"line":1,"transit":false,"is_transit":false,"station_name":"Karet","i_lat":-6.20132,"distance":2029,"time":5,"station_id":"KAT","i_long":106.816351},{"transit":false,"i_lat":-6.201433,"line":1,"distance":471,"station_name":"Sudirman Baru","i_long":106.819881,"time":1,"is_transit":false,"station_id":"SUDB"},{"time":1,"distance":280,"transit":false,"station_id":"SUD","i_lat":-6.202263,"is_transit":false,"station_name":"Sudirman","line":1,"i_long":106.822649},{"transit":true,"i_lat":-6.209883,"time":4,"station_name":"Manggarai","station_id":"MRI","i_long":106.84912,"is_transit":true,"distance":3186,"line":0},{"i_lat":-6.226659,"is_transit":false,"time":4,"transit":false,"i_long":106.857948,"distance":2610,"station_id":"TEB","line":2,"station_name":"Tebet"},{"line":0,"is_transit":false,"station_name":"Cawang","station_id":"CW","i_lat":-6.242512,"transit":false,"distance":1230,"i_long":106.856607,"time":2},{"station_name":"Duren Kalibata","i_lat":-6.255332,"station_id":"DRN","time":3,"i_long":106.85449,"is_transit":false,"transit":false,"distance":1546,"line":0},{"station_name":"Pasar Minggu Baru","i_long":106.851577,"transit":false,"station_id":"PSMB","i_lat":-6.263214,"distance":824,"is_transit":false,"time":2,"line":2},{"is_transit":false,"i_lat":-6.2842400000000005,"line":2,"distance":2380,"time":2,"i_long":106.843999,"transit":false,"station_id":"PSM","station_name":"Pasar Minggu"},{"station_id":"TNT","distance":2820,"line":2,"is_transit":false,"station_name":"Tanjung Barat","transit":false,"time":4,"i_lat":-6.3080680000000005,"i_long":106.838896},{"line":2,"is_transit":false,"station_id":"LNA","distance":2671,"transit":false,"i_lat":-6.330363,"time":3,"station_name":"Lenteng Agung","i_long":106.832616},{"station_id":"UP","i_lat":-6.339291,"transit":false,"station_name":"Univ. Pancasila","i_long":106.834175,"is_transit":false,"distance":1029,"line":2,"time":2},{"station_name":"Univ. Indonesia","transit":false,"i_long":106.831474,"is_transit":false,"i_lat":-6.360749,"station_id":"UI","line":2,"time":3,"distance":2264}],[{"is_transit":false,"time":0,"distance":0,"transit":false,"station_name":"Klenderbaru","station_id":"KLDB","i_lat":-6.217455,"i_long":106.939679,"line":1},{"i_long":106.922662,"line":0,"station_id":"BUA","transit":false,"is_transit":false,"distance":1305,"station_name":"Buaran","time":1,"i_lat":-6.215568},{"line":1,"station_name":"Klender","station_id":"KLD","distance":3100,"time":2,"transit":false,"i_lat":-6.2135,"i_long":106.899548,"is_transit":false},{"station_name":"Jatinegara","i_lat":-6.215091,"station_id":"JNG","is_transit":true,"transit":true,"time":3,"i_long":106.86807400000001,"distance":3395,"line":0},{"distance":1236,"i_lat":-6.209188,"time":2,"is_transit":false,"station_name":"Pondok Jati","line":11,"transit":false,"station_id":"POK","i_long":106.861737},{"i_lat":-6.193792,"station_name":"Kramat","station_id":"KMT","distance":1829,"i_long":106.855437,"transit":false,"line":11,"time":2,"is_transit":false},{"distance":973,"time":1,"station_name":"Gang Sentiong","transit":false,"i_lat":-6.185975,"line":11,"station_id":"GST","is_transit":false,"i_long":106.850107},{"station_name":"Pasar Senen","i_lat":-6.174784,"line":11,"i_long":106.84368,"time":8,"station_id":"PSE","transit":false,"is_transit":false,"distance":1567},{"transit":false,"distance":1436,"i_long":106.839204,"station_id":"KMO","line":11,"time":4,"is_transit":false,"station_name":"Kemayoran","i_lat":-6.161728},{"transit":false,"time":5,"distance":1901,"station_id":"RJW","station_name":"Rajawali","is_transit":false,"i_lat":-6.14505,"i_long":106.836569,"line":11},{"time":3,"station_name":"Kampung Bandan","line":0,"distance":1444,"is_transit":true,"i_long":106.826365,"i_lat":-6.132549,"transit":true,"station_id":"KPB"},{"i_lat":-6.137569,"station_id":"JAKK","is_transit":true,"transit":true,"distance":1364,"i_long":106.812439,"line":0,"station_name":"Jakarta Kota","time":3},{"is_transit":false,"i_lat":-6.141205,"line":7,"station_name":"Jayakarta","station_id":"JAY","transit":false,"distance":1264,"time":4,"i_long":106.820901},{"i_lat":-6.149769,"station_name":"Manggabesar","is_transit":false,"transit":false,"i_long":106.82482,"line":2,"station_id":"MGB","time":2,"distance":1080},{"time":2,"distance":906,"station_name":"Sawah Besar","transit":false,"station_id":"SW","i_lat":-6.160725,"is_transit":false,"line":2,"i_long":106.827103},{"time":2,"transit":false,"line":2,"i_long":106.828284,"distance":1149,"i_lat":-6.166716,"station_id":"JUA","station_name":"Juanda","is_transit":false},{"station_id":"GDD","is_transit":false,"time":4,"distance":2015,"i_long":106.832183,"i_lat":-6.186295,"line":2,"transit":false,"station_name":"Gondangdia"},{"line":0,"is_transit":false,"i_lat":-6.198556,"station_id":"CKI","time":3,"distance":1750,"station_name":"Cikini","i_long":106.840169,"transit":false},{"station_id":"MRI","is_transit":true,"time":4,"station_name":"Manggarai","distance":1590,"i_lat":-6.209883,"transit":true,"i_long":106.84912,"line":0},{"i_long":106.857948,"is_transit":false,"transit":false,"i_lat":-6.226659,"station_name":"Tebet","distance":2610,"time":4,"line":2,"station_id":"TEB"},{"distance":1230,"station_id":"CW","is_transit":false,"station_name":"Cawang","transit":false,"i_lat":-6.242512,"i_long":106.856607,"time":2,"line":0},{"station_id":"DRN","station_name":"Duren Kalibata","i_lat":-6.255332,"i_long":106.85449,"line":0,"transit":false,"distance":1546,"is_transit":false,"time":3},{"station_name":"Pasar Minggu Baru","line":2,"i_lat":-6.263214,"distance":824,"is_transit":false,"time":2,"transit":false,"i_long":106.851577,"station_id":"PSMB"},{"station_name":"Pasar Minggu","station_id":"PSM","line":2,"i_long":106.843999,"time":2,"is_transit":false,"distance":2380,"transit":false,"i_lat":-6.2842400000000005},{"i_lat":-6.3080680000000005,"station_id":"TNT","i_long":106.838896,"station_name":"Tanjung Barat","time":4,"distance":2820,"transit":false,"line":2,"is_transit":false},{"transit":false,"distance":2671,"i_long":106.832616,"station_id":"LNA","i_lat":-6.330363,"line":2,"time":3,"is_transit":false,"station_name":"Lenteng Agung"},{"i_long":106.834175,"station_name":"Univ. Pancasila","time":2,"distance":1029,"transit":false,"is_transit":false,"line":2,"i_lat":-6.339291,"station_id":"UP"},{"time":3,"transit":false,"distance":2264,"i_lat":-6.360749,"station_name":"Univ. Indonesia","i_long":106.831474,"line":2,"station_id":"UI","is_transit":false}]]}