{"data":[[{"station_id":"KLDB","station_name":"Klenderbaru","line":1,"transit":false,"is_transit":false,"time":0,"i_long":106.939679,"i_lat":-6.217455,"distance":0},{"i_lat":-6.219053,"line":1,"station_id":"CUK","distance":1385,"station_name":"Cakung","is_transit":false,"i_long":106.951283,"transit":false,"time":8},{"time":3,"distance":3097,"is_transit":false,"i_lat":-6.224515,"station_id":"KRI","station_name":"Kranji","line":1,"i_long":106.977657,"transit":false},{"distance":2520,"is_transit":false,"i_long":106.997013,"station_id":"BKS","i_lat":-6.236616,"line":1,"time":4,"station_name":"Bekasi","transit":false},{"distance":2368,"time":2,"station_name":"Bekasi Timur","i_lat":-6.248029,"is_transit":false,"i_long":107.016735,"line":1,"station_id":"BKST","transit":false},{"i_long":107.055722,"station_name":"Tambun","station_id":"TB","line":1,"is_transit":false,"distance":4460,"i_lat":-6.258864,"time":7,"transit":false},{"is_transit":false,"i_lat":-6.261877,"i_long":107.083084,"station_id":"CIT","line":1,"time":3,"station_name":"Cibitung","distance":3420,"transit":false},{"time":2,"i_long":107.093313,"station_name":"Metland Telaga Murni","i_lat":-6.262938,"station_id":"TLM","is_transit":false,"line":1,"distance":2800,"transit":false},{"station_id":"CKR","is_transit":false,"transit":false,"line":1,"i_lat":-6.2553149999999995,"station_name":"Cikarang","i_long":107.144613,"distance":3689,"time":4}]]}