{"data":[[{"i_long":106.939679,"is_transit":false,"time":0,"line":1,"station_name":"Klenderbaru","station_id":"KLDB","distance":0,"transit":false,"i_lat":-6.217455},{"distance":1305,"station_name":"Buaran","i_long":106.922662,"is_transit":false,"station_id":"BUA","line":1,"time":1,"transit":false,"i_lat":-6.215568},{"is_transit":false,"time":2,"distance":3100,"station_name":"Klender","i_long":106.899548,"station_id":"KLD","i_lat":-6.2135,"line":1,"transit":false},{"i_lat":-6.215091,"station_name":"Jatinegara","distance":3395,"transit":false,"time":3,"station_id":"JNG","i_long":106.86807400000001,"is_transit":false,"line":1},{"transit":false,"i_long":106.858896,"station_id":"MTR","line":1,"i_lat":-6.212485,"station_name":"Matraman","is_transit":false,"time":2,"distance":1377},{"line":2,"station_id":"MRI","station_name":"Manggarai","time":2,"distance":1275,"i_lat":-6.209883,"transit":false,"i_long":106.84912,"is_transit":false},{"i_long":106.822649,"station_id":"SUD","station_name":"Sudirman","is_transit":false,"transit":false,"time":4,"i_lat":-6.202263,"distance":3186,"line":1},{"distance":280,"station_id":"SUDB","time":1,"is_transit":false,"i_lat":-6.201433,"station_name":"Sudirman Baru","i_long":106.819881,"transit":false,"line":1},{"time":1,"i_lat":-6.20132,"station_id":"KAT","is_transit":false,"i_long":106.816351,"distance":471,"transit":false,"station_name":"Karet","line":1},{"is_transit":false,"station_name":"Tanah Abang","distance":2029,"transit":false,"time":5,"i_lat":-6.185545,"line":1,"station_id":"THB","i_long":106.811091},{"transit":true,"line":1,"i_long":106.800832,"time":8,"is_transit":true,"i_lat":-6.155215,"station_id":"DU","station_name":"Duri","distance":3632},{"time":3,"station_id":"GGL","i_long":106.788277,"transit":false,"i_lat":-6.162021,"is_transit":false,"distance":1700,"line":5,"station_name":"Grogol"},{"station_id":"PSG","transit":false,"is_transit":false,"distance":2036,"i_long":106.771379,"i_lat":-6.161433,"station_name":"Pesing","line":5,"time":2},{"line":5,"distance":1614,"time":2,"station_name":"Taman Kota","station_id":"TKO","transit":false,"i_long":106.756522,"is_transit":false,"i_lat":-6.1587309999999995}],[{"station_id":"KLDB","is_transit":false,"i_lat":-6.217455,"line":1,"transit":false,"station_name":"Klenderbaru","time":0,"distance":0,"i_long":106.939679},{"line":1,"distance":1305,"time":1,"station_name":"Buaran","i_lat":-6.215568,"station_id":"BUA","transit":false,"is_transit":false,"i_long":106.922662},{"i_lat":-6.2135,"station_id":"KLD","transit":false,"i_long":106.899548,"is_transit":false,"line":1,"station_name":"Klender","distance":3100,"time":2},{"station_id":"JNG","distance":3395,"station_name":"Jatinegara","is_transit":true,"transit":true,"i_long":106.86807400000001,"line":1,"time":3,"i_lat":-6.215091},{"i_lat":-6.209188,"station_id":"POK","station_name":"Pondok Jati","transit":false,"time":2,"is_transit":false,"i_long":106.861737,"line":11,"distance":1236},{"is_transit":false,"time":2,"transit":false,"distance":1829,"station_name":"Kramat","i_lat":-6.193792,"i_long":106.855437,"line":11,"station_id":"KMT"},{"is_transit":false,"station_id":"GST","transit":false,"time":1,"line":11,"station_name":"Gang Sentiong","i_long":106.850107,"distance":973,"i_lat":-6.185975},{"transit":false,"time":8,"station_id":"PSE","i_lat":-6.174784,"i_long":106.84368,"distance":1567,"line":11,"is_transit":false,"station_name":"Pasar Senen"},{"station_name":"Kemayoran","time":4,"i_long":106.839204,"distance":1436,"i_lat":-6.161728,"line":11,"is_transit":false,"station_id":"KMO","transit":false},{"i_lat":-6.14505,"station_name":"Rajawali","time":5,"distance":1901,"line":11,"i_long":106.836569,"transit":false,"station_id":"RJW","is_transit":false},{"station_id":"KPB","station_name":"Kampung Bandan","i_lat":-6.132549,"time":3,"distance":1444,"transit":true,"i_long":106.826365,"line":4,"is_transit":true},{"i_long":106.79867,"line":1,"time":9,"station_id":"AK","distance":4102,"station_name":"Angke","transit":false,"is_transit":false,"i_lat":-6.144674},{"distance":1230,"station_name":"Duri","i_lat":-6.155215,"station_id":"DU","is_transit":true,"line":1,"time":4,"i_long":106.800832,"transit":true},{"is_transit":false,"station_id":"GGL","station_name":"Grogol","i_lat":-6.162021,"transit":false,"time":3,"i_long":106.788277,"distance":1700,"line":5},{"i_long":106.771379,"distance":2036,"station_name":"Pesing","transit":false,"i_lat":-6.161433,"time":2,"is_transit":false,"station_id":"PSG","line":5},{"line":5,"transit":false,"distance":1614,"time":2,"i_lat":-6.1587309999999995,"station_name":"Taman Kota","station_id":"TKO","is_transit":false,"i_long":106.756522}],[{"i_lat":-6.217455,"transit":false,"i_long":106.939679,"distance":0,"is_transit":false,"line":1,"station_id":"KLDB","station_name":"Klenderbaru","time":0},{"station_id":"BUA","is_transit":false,"i_long":106.922662,"line":1,"distance":1305,"transit":false,"time":1,"i_lat":-6.215568,"station_name":"Buaran"},{"is_transit":false,"line":1,"station_name":"Klender","transit":false,"station_id":"KLD","distance":3100,"i_long":106.899548,"time":2,"i_lat":-6.2135},{"is_transit":false,"i_long":106.86807400000001,"distance":3395,"line":1,"station_id":"JNG","time":3,"station_name":"Jatinegara","transit":false,"i_lat":-6.215091},{"time":2,"transit":false,"i_lat":-6.212485,"line":1,"is_transit":false,"station_id":"MTR","station_name":"Matraman","distance":1377,"i_long":106.858896},{"transit":true,"station_id":"MRI","i_lat":-6.209883,"station_name":"Manggarai","distance":1275,"time":2,"i_long":106.84912,"is_transit":true,"line":2},{"distance":1590,"is_transit":false,"line":2,"station_name":"Cikini","i_long":106.840169,"transit":false,"i_lat":-6.198556,"time":4,"station_id":"CKI"},{"is_transit":false,"station_name":"Gondangdia","i_lat":-6.186295,"station_id":"GDD","time":3,"transit":false,"i_long":106.832183,"distance":1750,"line":2},{"station_name":"Juanda","is_transit":false,"line":2,"transit":false,"station_id":"JUA","i_long":106.828284,"time":4,"distance":2015,"i_lat":-6.166716},{"i_long":106.827103,"station_name":"Sawah Besar","distance":1149,"i_lat":-6.160725,"transit":false,"is_transit":false,"time":2,"line":2,"station_id":"SW"},{"station_name":"Manggabesar","is_transit":false,"time":2,"i_lat":-6.149769,"i_long":106.82482,"station_id":"MGB","line":2,"transit":false,"distance":906},{"station_id":"JAY","station_name":"Jayakarta","transit":false,"i_long":106.820901,"distance":1080,"i_lat":-6.141205,"line":2,"is_transit":false,"time":2},{"line":2,"distance":1264,"station_id":"JAKK","transit":true,"station_name":"Jakarta Kota","is_transit":true,"i_lat":-6.137569,"time":4,"i_long":106.812439},{"time":3,"station_id":"KPB","distance":1364,"is_transit":true,"i_lat":-6.132549,"i_long":106.826365,"transit":true,"line":4,"station_name":"Kampung Bandan"},{"is_transit":false,"station_id":"AK","distance":4102,"time":9,"station_name":"Angke","i_long":106.79867,"line":1,"i_lat":-6.144674,"transit":false},{"station_name":"Duri","i_lat":-6.155215,"distance":1230,"i_long":106.800832,"station_id":"DU","is_transit":true,"line":1,"time":4,"transit":true},{"time":3,"i_long":106.788277,"i_lat":-6.162021,"is_transit":false,"transit":false,"line":5,"station_id":"GGL","distance":1700,"station_name":"Grogol"},{"is_transit":false,"i_lat":-6.161433,"station_id":"PSG","station_name":"Pesing","time":2,"line":5,"transit":false,"distance":2036,"i_long":106.771379},{"time":2,"i_long":106.756522,"transit":false,"line":5,"distance":1614,"station_id":"TKO","i_lat":-6.1587309999999995,"station_name":"Taman Kota","is_transit":false}],[{"station_name":"Klenderbaru","time":0,"is_transit":false,"station_id":"KLDB","i_long":106.939679,"line":1,"distance":0,"transit":false,"i_lat":-6.217455},{"transit":false,"distance":1305,"i_lat":-6.215568,"is_transit":false,"station_id":"BUA","i_long":106.922662,"line":1,"station_name":"Buaran","time":1},{"station_name":"Klender","transit":false,"time":2,"distance":3100,"i_long":106.899548,"station_id":"KLD","line":1,"i_lat":-6.2135,"is_transit":false},{"time":3,"i_long":106.86807400000001,"station_id":"JNG","transit":true,"is_transit":true,"station_name":"Jatinegara","distance":3395,"i_lat":-6.215091,"line":1},{"i_lat":-6.209188,"is_transit":false,"transit":false,"line":11,"time":2,"i_long":106.861737,"distance":1236,"station_id":"POK","station_name":"Pondok Jati"},{"transit":false,"time":2,"distance":1829,"i_lat":-6.193792,"i_long":106.855437,"is_transit":false,"line":11,"station_name":"Kramat","station_id":"KMT"},{"line":11,"i_lat":-6.185975,"is_transit":false,"time":1,"distance":973,"i_long":106.850107,"station_name":"Gang Sentiong","station_id":"GST","transit":false},{"transit":false,"distance":1567,"is_transit":false,"i_lat":-6.174784,"time":8,"station_name":"Pasar Senen","line":11,"i_long":106.84368,"station_id":"PSE"},{"distance":1436,"transit":false,"time":4,"station_id":"KMO","line":11,"station_name":"Kemayoran","is_transit":false,"i_lat":-6.161728,"i_long":106.839204},{"i_lat":-6.14505,"station_id":"RJW","line":11,"is_transit":false,"station_name":"Rajawali","distance":1901,"time":5,"i_long":106.836569,"transit":false},{"i_long":106.826365,"is_transit":true,"transit":true,"i_lat":-6.132549,"distance":1444,"time":3,"station_id":"KPB","line":4,"station_name":"Kampung Bandan"},{"distance":1364,"transit":true,"station_id":"JAKK","line":2,"i_lat":-6.137569,"i_long":106.812439,"is_transit":true,"time":3,"station_name":"Jakarta Kota"},{"is_transit":false,"transit":false,"i_lat":-6.141205,"station_name":"Jayakarta","i_long":106.820901,"station_id":"JAY","distance":1264,"line":2,"time":4},{"time":2,"i_long":106.82482,"station_name":"Manggabesar","is_transit":false,"station_id":"MGB","i_lat":-6.149769,"transit":false,"line":2,"distance":1080},{"station_name":"Sawah Besar","transit":false,"time":2,"i_lat":-6.160725,"station_id":"SW","i_long":106.827103,"line":2,"distance":906,"is_transit":false},{"is_transit":false,"time":2,"distance":1149,"transit":false,"i_long":106.828284,"station_id":"JUA","station_name":"Juanda","i_lat":-6.166716,"line":2},{"i_long":106.832183,"station_name":"Gondangdia","transit":false,"time":4,"line":2,"is_transit":false,"distance":2015,"i_lat":-6.186295,"station_id":"GDD"},{"transit":false,"line":2,"i_long":106.840169,"station_name":"Cikini","is_transit":false,"i_lat":-6.198556,"distance":1750,"time":3,"station_id":"CKI"},{"i_lat":-6.209883,"transit":true,"i_long":106.84912,"time":4,"station_id":"MRI","line":2,"station_name":"Manggarai","distance":1590,"is_transit":true},{"transit":false,"line":1,"distance":3186,"is_transit":false,"i_long":106.822649,"time":4,"station_name":"Sudirman","i_lat":-6.202263,"station_id":"SUD"},{"transit":false,"station_id":"SUDB","is_transit":false,"line":1,"distance":280,"station_name":"Sudirman Baru","time":1,"i_long":106.819881,"i_lat":-6.201433},{"distance":471,"i_lat":-6.20132,"station_name":"Karet","line":1,"is_transit":false,"transit":false,"time":1,"i_long":106.816351,"station_id":"KAT"},{"line":1,"station_id":"THB","is_transit":false,"time":5,"distance":2029,"station_name":"Tanah Abang","transit":false,"i_long":106.811091,"i_lat":-6.185545},{"line":1,"time":8,"station_id":"DU","i_lat":-6.155215,"i_long":106.800832,"distance":3632,"transit":true,"station_name":"Duri","is_transit":true},{"transit":false,"is_transit":false,"i_lat":-6.162021,"i_long":106.788277,"line":5,"distance":1700,"station_name":"Grogol","station_id":"GGL","time":3},{"station_id":"PSG","distance":2036,"transit":false,"is_transit":false,"i_lat":-6.161433,"time":2,"station_name":"Pesing","line":5,"i_long":106.771379},{"station_name":"Taman Kota","i_lat":-6.1587309999999995,"distance":1614,"i_long":106.756522,"time":2,"station_id":"TKO","line":5,"transit":false,"is_transit":false}]]}