{"data":[[{"time":0,"station_name":"Klenderbaru","station_id":"KLDB","i_long":106.939679,"distance":0,"i_lat":-6.217455,"transit":false,"is_transit":false,"line":1},{"is_transit":false,"station_name":"Buaran","i_long":106.922662,"line":1,"i_lat":-6.215568,"distance":1305,"time":1,"station_id":"BUA","transit":false},{"i_lat":-6.2135,"line":1,"i_long":106.899548,"distance":3100,"time":2,"is_transit":false,"transit":false,"station_name":"Klender","station_id":"KLD"},{"station_name":"Jatinegara","transit":false,"time":3,"distance":3395,"i_long":106.86807400000001,"station_id":"JNG","is_transit":false,"i_lat":-6.215091,"line":1},{"station_id":"MTR","time":2,"i_lat":-6.212485,"i_long":106.858896,"station_name":"Matraman","distance":1377,"line":1,"transit":false,"is_transit":false},{"time":2,"distance":1275,"station_name":"Manggarai","i_long":106.84912,"station_id":"MRI","i_lat":-6.209883,"line":2,"transit":false,"is_transit":false},{"time":4,"distance":3186,"transit":false,"i_lat":-6.202263,"i_long":106.822649,"line":1,"station_name":"Sudirman","is_transit":false,"station_id":"SUD"},{"time":1,"station_id":"SUDB","is_transit":false,"transit":false,"i_lat":-6.201433,"i_long":106.819881,"line":1,"distance":280,"station_name":"Sudirman Baru"},{"time":1,"line":1,"transit":false,"distance":471,"station_id":"KAT","is_transit":false,"i_lat":-6.20132,"i_long":106.816351,"station_name":"Karet"},{"line":1,"distance":2029,"is_transit":false,"i_lat":-6.185545,"i_long":106.811091,"transit":false,"time":5,"station_id":"THB","station_name":"Tanah Abang"},{"is_transit":true,"i_lat":-6.155215,"station_name":"Duri","transit":true,"distance":3632,"line":1,"station_id":"DU","time":8,"i_long":106.800832},{"station_name":"Grogol","station_id":"GGL","transit":false,"i_lat":-6.162021,"distance":1700,"is_transit":false,"line":5,"i_long":106.788277,"time":3},{"time":2,"i_long":106.771379,"is_transit":false,"station_name":"Pesing","transit":false,"distance":2036,"i_lat":-6.161433,"station_id":"PSG","line":5},{"station_name":"Taman Kota","i_long":106.756522,"transit":false,"i_lat":-6.1587309999999995,"distance":1614,"is_transit":false,"line":5,"time":2,"station_id":"TKO"},{"i_long":106.737035,"i_lat":-6.159876,"station_name":"Bojongindah","time":2,"station_id":"BOI","transit":false,"line":5,"is_transit":false,"distance":2334},{"i_long":106.723064,"transit":false,"station_name":"Rawa Buaya","time":4,"distance":1152,"is_transit":false,"i_lat":-6.162758,"station_id":"RW","line":5},{"station_id":"KDS","station_name":"Kalideres","is_transit":false,"i_lat":-6.166068,"time":3,"line":5,"i_long":106.701612,"distance":2504,"transit":false},{"time":3,"station_id":"PI","station_name":"Poris","is_transit":false,"i_lat":-6.169933,"i_long":106.679458,"line":5,"transit":false,"distance":2548},{"distance":1834,"i_long":106.665036,"line":5,"station_id":"BPR","transit":false,"station_name":"Batuceper","time":3,"i_lat":-6.171811,"is_transit":false}],[{"transit":false,"line":1,"i_lat":-6.217455,"time":0,"station_name":"Klenderbaru","is_transit":false,"i_long":106.939679,"station_id":"KLDB","distance":0},{"is_transit":false,"i_lat":-6.215568,"i_long":106.922662,"distance":1305,"station_name":"Buaran","line":1,"time":1,"transit":false,"station_id":"BUA"},{"is_transit":false,"transit":false,"i_long":106.899548,"time":2,"distance":3100,"station_id":"KLD","line":1,"station_name":"Klender","i_lat":-6.2135},{"distance":3395,"station_name":"Jatinegara","transit":true,"is_transit":true,"time":3,"i_long":106.86807400000001,"line":1,"station_id":"JNG","i_lat":-6.215091},{"transit":false,"line":11,"station_id":"POK","is_transit":false,"i_lat":-6.209188,"i_long":106.861737,"station_name":"Pondok Jati","distance":1236,"time":2},{"station_name":"Kramat","distance":1829,"station_id":"KMT","line":11,"time":2,"transit":false,"i_lat":-6.193792,"i_long":106.855437,"is_transit":false},{"distance":973,"is_transit":false,"time":1,"line":11,"transit":false,"station_name":"Gang Sentiong","station_id":"GST","i_lat":-6.185975,"i_long":106.850107},{"distance":1567,"i_long":106.84368,"transit":false,"station_name":"Pasar Senen","time":8,"is_transit":false,"i_lat":-6.174784,"line":11,"station_id":"PSE"},{"i_long":106.839204,"i_lat":-6.161728,"is_transit":false,"distance":1436,"line":11,"transit":false,"station_id":"KMO","station_name":"Kemayoran","time":4},{"is_transit":false,"transit":false,"station_id":"RJW","i_lat":-6.14505,"time":5,"line":11,"station_name":"Rajawali","distance":1901,"i_long":106.836569},{"line":4,"i_long":106.826365,"is_transit":true,"transit":true,"i_lat":-6.132549,"time":3,"station_id":"KPB","station_name":"Kampung Bandan","distance":1444},{"is_transit":false,"time":9,"distance":4102,"transit":false,"i_long":106.79867,"station_name":"Angke","station_id":"AK","line":1,"i_lat":-6.144674},{"line":1,"i_lat":-6.155215,"i_long":106.800832,"is_transit":true,"time":4,"station_id":"DU","station_name":"Duri","distance":1230,"transit":true},{"is_transit":false,"time":3,"i_lat":-6.162021,"distance":1700,"transit":false,"line":5,"station_id":"GGL","i_long":106.788277,"station_name":"Grogol"},{"is_transit":false,"i_lat":-6.161433,"line":5,"distance":2036,"station_id":"PSG","transit":false,"i_long":106.771379,"station_name":"Pesing","time":2},{"i_long":106.756522,"line":5,"transit":false,"station_id":"TKO","distance":1614,"time":2,"station_name":"Taman Kota","is_transit":false,"i_lat":-6.1587309999999995},{"transit":false,"is_transit":false,"i_lat":-6.159876,"i_long":106.737035,"time":2,"distance":2334,"station_name":"Bojongindah","line":5,"station_id":"BOI"},{"i_long":106.723064,"station_id":"RW","distance":1152,"station_name":"Rawa Buaya","line":5,"time":4,"is_transit":false,"i_lat":-6.162758,"transit":false},{"i_lat":-6.166068,"is_transit":false,"line":5,"station_name":"Kalideres","distance":2504,"time":3,"i_long":106.701612,"transit":false,"station_id":"KDS"},{"line":5,"distance":2548,"transit":false,"i_lat":-6.169933,"is_transit":false,"station_name":"Poris","i_long":106.679458,"time":3,"station_id":"PI"},{"time":3,"distance":1834,"is_transit":false,"i_lat":-6.171811,"i_long":106.665036,"station_id":"BPR","line":5,"transit":false,"station_name":"Batuceper"}],[{"i_lat":-6.217455,"distance":0,"time":0,"transit":false,"i_long":106.939679,"is_transit":false,"line":1,"station_id":"KLDB","station_name":"Klenderbaru"},{"transit":false,"station_name":"Buaran","station_id":"BUA","line":1,"i_long":106.922662,"i_lat":-6.215568,"distance":1305,"time":1,"is_transit":false},{"station_id":"KLD","i_long":106.899548,"transit":false,"i_lat":-6.2135,"is_transit":false,"line":1,"time":2,"station_name":"Klender","distance":3100},{"i_long":106.86807400000001,"i_lat":-6.215091,"time":3,"station_name":"Jatinegara","distance":3395,"is_transit":false,"station_id":"JNG","line":1,"transit":false},{"i_lat":-6.212485,"station_id":"MTR","transit":false,"time":2,"distance":1377,"line":1,"is_transit":false,"station_name":"Matraman","i_long":106.858896},{"station_id":"MRI","i_long":106.84912,"is_transit":true,"distance":1275,"time":2,"transit":true,"i_lat":-6.209883,"station_name":"Manggarai","line":2},{"is_transit":false,"time":4,"i_long":106.840169,"i_lat":-6.198556,"station_id":"CKI","line":2,"distance":1590,"station_name":"Cikini","transit":false},{"distance":1750,"station_name":"Gondangdia","time":3,"i_long":106.832183,"station_id":"GDD","line":2,"is_transit":false,"transit":false,"i_lat":-6.186295},{"i_long":106.828284,"station_id":"JUA","transit":false,"station_name":"Juanda","i_lat":-6.166716,"time":4,"distance":2015,"line":2,"is_transit":false},{"i_lat":-6.160725,"station_name":"Sawah Besar","time":2,"station_id":"SW","is_transit":false,"i_long":106.827103,"distance":1149,"transit":false,"line":2},{"line":2,"station_id":"MGB","station_name":"Manggabesar","transit":false,"time":2,"distance":906,"is_transit":false,"i_long":106.82482,"i_lat":-6.149769},{"station_id":"JAY","line":2,"i_lat":-6.141205,"station_name":"Jayakarta","is_transit":false,"transit":false,"time":2,"distance":1080,"i_long":106.820901},{"station_name":"Jakarta Kota","i_lat":-6.137569,"line":2,"transit":true,"time":4,"station_id":"JAKK","is_transit":true,"i_long":106.812439,"distance":1264},{"station_id":"KPB","transit":true,"i_long":106.826365,"time":3,"distance":1364,"line":4,"station_name":"Kampung Bandan","is_transit":true,"i_lat":-6.132549},{"i_lat":-6.144674,"is_transit":false,"transit":false,"station_name":"Angke","time":9,"distance":4102,"station_id":"AK","i_long":106.79867,"line":1},{"is_transit":true,"station_id":"DU","transit":true,"time":4,"i_lat":-6.155215,"i_long":106.800832,"line":1,"station_name":"Duri","distance":1230},{"transit":false,"station_id":"GGL","time":3,"distance":1700,"station_name":"Grogol","i_long":106.788277,"line":5,"i_lat":-6.162021,"is_transit":false},{"transit":false,"station_name":"Pesing","i_lat":-6.161433,"station_id":"PSG","time":2,"distance":2036,"line":5,"i_long":106.771379,"is_transit":false},{"i_long":106.756522,"line":5,"is_transit":false,"station_name":"Taman Kota","transit":false,"i_lat":-6.1587309999999995,"time":2,"distance":1614,"station_id":"TKO"},{"station_id":"BOI","distance":2334,"time":2,"is_transit":false,"i_long":106.737035,"transit":false,"station_name":"Bojongindah","line":5,"i_lat":-6.159876},{"station_name":"Rawa Buaya","i_lat":-6.162758,"transit":false,"is_transit":false,"station_id":"RW","i_long":106.723064,"distance":1152,"time":4,"line":5},{"station_id":"KDS","line":5,"station_name":"Kalideres","is_transit":false,"transit":false,"distance":2504,"i_lat":-6.166068,"time":3,"i_long":106.701612},{"transit":false,"station_id":"PI","is_transit":false,"line":5,"time":3,"i_long":106.679458,"station_name":"Poris","distance":2548,"i_lat":-6.169933},{"i_long":106.665036,"line":5,"transit":false,"is_transit":false,"time":3,"station_name":"Batuceper","distance":1834,"i_lat":-6.171811,"station_id":"BPR"}],[{"i_long":106.939679,"distance":0,"i_lat":-6.217455,"line":1,"transit":false,"station_name":"Klenderbaru","station_id":"KLDB","is_transit":false,"time":0},{"station_id":"BUA","time":1,"transit":false,"i_long":106.922662,"distance":1305,"is_transit":false,"i_lat":-6.215568,"line":1,"station_name":"Buaran"},{"i_long":106.899548,"station_id":"KLD","line":1,"distance":3100,"i_lat":-6.2135,"station_name":"Klender","transit":false,"time":2,"is_transit":false},{"station_name":"Jatinegara","i_long":106.86807400000001,"transit":true,"is_transit":true,"i_lat":-6.215091,"distance":3395,"time":3,"station_id":"JNG","line":1},{"transit":false,"station_name":"Pondok Jati","i_lat":-6.209188,"time":2,"station_id":"POK","i_long":106.861737,"distance":1236,"is_transit":false,"line":11},{"station_id":"KMT","line":11,"is_transit":false,"time":2,"distance":1829,"transit":false,"station_name":"Kramat","i_lat":-6.193792,"i_long":106.855437},{"i_long":106.850107,"time":1,"station_id":"GST","line":11,"distance":973,"is_transit":false,"transit":false,"i_lat":-6.185975,"station_name":"Gang Sentiong"},{"station_name":"Pasar Senen","time":8,"distance":1567,"line":11,"station_id":"PSE","transit":false,"i_lat":-6.174784,"i_long":106.84368,"is_transit":false},{"station_id":"KMO","i_long":106.839204,"is_transit":false,"transit":false,"time":4,"i_lat":-6.161728,"station_name":"Kemayoran","distance":1436,"line":11},{"station_id":"RJW","transit":false,"i_long":106.836569,"line":11,"distance":1901,"time":5,"station_name":"Rajawali","i_lat":-6.14505,"is_transit":false},{"station_id":"KPB","i_lat":-6.132549,"line":4,"transit":true,"distance":1444,"station_name":"Kampung Bandan","i_long":106.826365,"time":3,"is_transit":true},{"transit":true,"time":3,"distance":1364,"station_id":"JAKK","i_long":106.812439,"is_transit":true,"line":2,"i_lat":-6.137569,"station_name":"Jakarta Kota"},{"distance":1264,"i_lat":-6.141205,"is_transit":false,"time":4,"i_long":106.820901,"station_id":"JAY","line":2,"station_name":"Jayakarta","transit":false},{"line":2,"distance":1080,"time":2,"transit":false,"i_lat":-6.149769,"i_long":106.82482,"station_name":"Manggabesar","is_transit":false,"station_id":"MGB"},{"station_name":"Sawah Besar","is_transit":false,"transit":false,"i_lat":-6.160725,"line":2,"time":2,"i_long":106.827103,"station_id":"SW","distance":906},{"station_name":"Juanda","line":2,"transit":false,"station_id":"JUA","distance":1149,"time":2,"i_lat":-6.166716,"i_long":106.828284,"is_transit":false},{"time":4,"station_name":"Gondangdia","is_transit":false,"transit":false,"i_lat":-6.186295,"station_id":"GDD","i_long":106.832183,"distance":2015,"line":2},{"i_long":106.840169,"station_id":"CKI","station_name":"Cikini","transit":false,"is_transit":false,"i_lat":-6.198556,"time":3,"distance":1750,"line":2},{"time":4,"transit":true,"distance":1590,"is_transit":true,"station_name":"Manggarai","i_lat":-6.209883,"i_long":106.84912,"line":2,"station_id":"MRI"},{"transit":false,"station_name":"Sudirman","i_long":106.822649,"distance":3186,"station_id":"SUD","line":1,"is_transit":false,"time":4,"i_lat":-6.202263},{"line":1,"time":1,"distance":280,"transit":false,"station_name":"Sudirman Baru","station_id":"SUDB","is_transit":false,"i_lat":-6.201433,"i_long":106.819881},{"transit":false,"distance":471,"i_lat":-6.20132,"station_id":"KAT","i_long":106.816351,"line":1,"station_name":"Karet","is_transit":false,"time":1},{"transit":false,"line":1,"distance":2029,"i_lat":-6.185545,"station_id":"THB","time":5,"is_transit":false,"station_name":"Tanah Abang","i_long":106.811091},{"is_transit":true,"i_long":106.800832,"transit":true,"station_name":"Duri","station_id":"DU","line":1,"i_lat":-6.155215,"distance":3632,"time":8},{"time":3,"distance":1700,"station_name":"Grogol","station_id":"GGL","i_lat":-6.162021,"transit":false,"line":5,"is_transit":false,"i_long":106.788277},{"transit":false,"i_long":106.771379,"i_lat":-6.161433,"station_name":"Pesing","distance":2036,"line":5,"is_transit":false,"time":2,"station_id":"PSG"},{"station_name":"Taman Kota","i_lat":-6.1587309999999995,"is_transit":false,"line":5,"time":2,"transit":false,"i_long":106.756522,"distance":1614,"station_id":"TKO"},{"station_name":"Bojongindah","time":2,"transit":false,"is_transit":false,"i_lat":-6.159876,"i_long":106.737035,"distance":2334,"line":5,"station_id":"BOI"},{"i_long":106.723064,"distance":1152,"time":4,"station_name":"Rawa Buaya","is_transit":false,"transit":false,"i_lat":-6.162758,"line":5,"station_id":"RW"},{"transit":false,"i_lat":-6.166068,"is_transit":false,"line":5,"time":3,"distance":2504,"i_long":106.701612,"station_name":"Kalideres","station_id":"KDS"},{"distance":2548,"station_id":"PI","station_name":"Poris","line":5,"time":3,"i_lat":-6.169933,"transit":false,"i_long":106.679458,"is_transit":false},{"station_name":"Batuceper","i_long":106.665036,"station_id":"BPR","transit":false,"distance":1834,"is_transit":false,"time":3,"i_lat":-6.171811,"line":5}]]}