{"data":[[{"time":0,"i_lat":-6.217455,"line":1,"station_id":"KLDB","distance":0,"transit":false,"i_long":106.939679,"is_transit":false,"station_name":"Klenderbaru"},{"i_long":106.922662,"line":1,"transit":false,"station_id":"BUA","distance":1305,"time":1,"is_transit":false,"station_name":"Buaran","i_lat":-6.215568},{"transit":false,"is_transit":false,"i_lat":-6.2135,"i_long":106.899548,"time":2,"distance":3100,"station_name":"Klender","line":1,"station_id":"KLD"},{"is_transit":false,"transit":false,"i_lat":-6.215091,"distance":3395,"station_name":"Jatinegara","station_id":"JNG","time":3,"i_long":106.86807400000001,"line":1},{"i_long":106.858896,"distance":1377,"line":1,"time":2,"transit":false,"station_name":"Matraman","station_id":"MTR","i_lat":-6.212485,"is_transit":false},{"station_id":"MRI","i_lat":-6.209883,"station_name":"Manggarai","transit":false,"i_long":106.84912,"distance":1275,"is_transit":false,"line":2,"time":2},{"is_transit":false,"distance":3186,"transit":false,"station_id":"SUD","i_long":106.822649,"station_name":"Sudirman","time":4,"i_lat":-6.202263,"line":1},{"time":1,"station_id":"SUDB","transit":false,"station_name":"Sudirman Baru","distance":280,"line":1,"i_lat":-6.201433,"i_long":106.819881,"is_transit":false},{"distance":471,"i_lat":-6.20132,"i_long":106.816351,"station_name":"Karet","transit":false,"line":1,"station_id":"KAT","is_transit":false,"time":1},{"distance":2029,"station_name":"Tanah Abang","station_id":"THB","is_transit":false,"i_lat":-6.185545,"i_long":106.811091,"transit":false,"line":1,"time":5},{"is_transit":true,"transit":true,"distance":3632,"station_id":"DU","time":8,"line":1,"i_long":106.800832,"station_name":"Duri","i_lat":-6.155215},{"distance":1700,"i_lat":-6.162021,"is_transit":false,"time":3,"i_long":106.788277,"transit":false,"station_id":"GGL","line":5,"station_name":"Grogol"},{"i_long":106.771379,"time":2,"station_name":"Pesing","is_transit":false,"station_id":"PSG","line":5,"distance":2036,"transit":false,"i_lat":-6.161433},{"is_transit":false,"i_lat":-6.1587309999999995,"transit":false,"distance":1614,"station_id":"TKO","i_long":106.756522,"station_name":"Taman Kota","time":2,"line":5},{"station_name":"Bojongindah","distance":2334,"i_lat":-6.159876,"i_long":106.737035,"line":5,"station_id":"BOI","time":2,"is_transit":false,"transit":false},{"station_id":"RW","i_long":106.723064,"transit":false,"station_name":"Rawa Buaya","i_lat":-6.162758,"line":5,"is_transit":false,"distance":1152,"time":4},{"station_id":"KDS","time":3,"distance":2504,"transit":false,"is_transit":false,"line":5,"station_name":"Kalideres","i_lat":-6.166068,"i_long":106.701612}],[{"line":1,"station_id":"KLDB","transit":false,"station_name":"Klenderbaru","time":0,"is_transit":false,"distance":0,"i_long":106.939679,"i_lat":-6.217455},{"station_id":"BUA","line":1,"i_lat":-6.215568,"station_name":"Buaran","transit":false,"is_transit":false,"time":1,"distance":1305,"i_long":106.922662},{"station_name":"Klender","i_lat":-6.2135,"line":1,"transit":false,"is_transit":false,"station_id":"KLD","time":2,"i_long":106.899548,"distance":3100},{"station_id":"JNG","transit":true,"i_long":106.86807400000001,"time":3,"distance":3395,"line":1,"is_transit":true,"station_name":"Jatinegara","i_lat":-6.215091},{"i_lat":-6.209188,"is_transit":false,"transit":false,"station_name":"Pondok Jati","time":2,"distance":1236,"station_id":"POK","i_long":106.861737,"line":11},{"is_transit":false,"station_id":"KMT","transit":false,"time":2,"i_lat":-6.193792,"i_long":106.855437,"line":11,"station_name":"Kramat","distance":1829},{"transit":false,"station_id":"GST","time":1,"distance":973,"station_name":"Gang Sentiong","i_long":106.850107,"line":11,"i_lat":-6.185975,"is_transit":false},{"time":8,"is_transit":false,"station_id":"PSE","line":11,"transit":false,"distance":1567,"i_long":106.84368,"station_name":"Pasar Senen","i_lat":-6.174784},{"i_long":106.839204,"station_id":"KMO","i_lat":-6.161728,"distance":1436,"is_transit":false,"line":11,"transit":false,"station_name":"Kemayoran","time":4},{"time":5,"line":11,"station_name":"Rajawali","distance":1901,"i_lat":-6.14505,"station_id":"RJW","is_transit":false,"transit":false,"i_long":106.836569},{"time":3,"is_transit":true,"station_name":"Kampung Bandan","i_long":106.826365,"i_lat":-6.132549,"distance":1444,"station_id":"KPB","line":4,"transit":true},{"i_long":106.79867,"is_transit":false,"distance":4102,"station_name":"Angke","transit":false,"time":9,"i_lat":-6.144674,"line":1,"station_id":"AK"},{"i_long":106.800832,"line":1,"station_id":"DU","i_lat":-6.155215,"station_name":"Duri","is_transit":true,"time":4,"transit":true,"distance":1230},{"station_id":"GGL","time":3,"is_transit":false,"transit":false,"distance":1700,"i_long":106.788277,"station_name":"Grogol","line":5,"i_lat":-6.162021},{"is_transit":false,"station_name":"Pesing","distance":2036,"i_lat":-6.161433,"i_long":106.771379,"station_id":"PSG","line":5,"time":2,"transit":false},{"time":2,"i_long":106.756522,"i_lat":-6.1587309999999995,"distance":1614,"line":5,"station_name":"Taman Kota","station_id":"TKO","is_transit":false,"transit":false},{"i_lat":-6.159876,"distance":2334,"transit":false,"is_transit":false,"line":5,"time":2,"station_name":"Bojongindah","station_id":"BOI","i_long":106.737035},{"station_name":"Rawa Buaya","i_long":106.723064,"transit":false,"is_transit":false,"i_lat":-6.162758,"distance":1152,"station_id":"RW","time":4,"line":5},{"transit":false,"station_name":"Kalideres","i_lat":-6.166068,"station_id":"KDS","time":3,"i_long":106.701612,"distance":2504,"is_transit":false,"line":5}],[{"station_id":"KLDB","line":1,"is_transit":false,"time":0,"distance":0,"transit":false,"station_name":"Klenderbaru","i_lat":-6.217455,"i_long":106.939679},{"i_long":106.922662,"time":1,"station_id":"BUA","line":1,"is_transit":false,"distance":1305,"transit":false,"i_lat":-6.215568,"station_name":"Buaran"},{"station_name":"Klender","time":2,"distance":3100,"line":1,"station_id":"KLD","transit":false,"i_lat":-6.2135,"i_long":106.899548,"is_transit":false},{"station_id":"JNG","i_long":106.86807400000001,"transit":false,"is_transit":false,"time":3,"i_lat":-6.215091,"station_name":"Jatinegara","distance":3395,"line":1},{"station_id":"MTR","transit":false,"i_long":106.858896,"line":1,"distance":1377,"time":2,"station_name":"Matraman","i_lat":-6.212485,"is_transit":false},{"station_id":"MRI","i_lat":-6.209883,"line":2,"transit":true,"distance":1275,"station_name":"Manggarai","i_long":106.84912,"is_transit":true,"time":2},{"transit":false,"time":4,"distance":1590,"station_id":"CKI","i_long":106.840169,"is_transit":false,"line":2,"i_lat":-6.198556,"station_name":"Cikini"},{"distance":1750,"i_lat":-6.186295,"is_transit":false,"time":3,"i_long":106.832183,"station_id":"GDD","line":2,"transit":false,"station_name":"Gondangdia"},{"line":2,"distance":2015,"transit":false,"time":4,"i_lat":-6.166716,"i_long":106.828284,"is_transit":false,"station_name":"Juanda","station_id":"JUA"},{"is_transit":false,"transit":false,"station_name":"Sawah Besar","i_lat":-6.160725,"line":2,"time":2,"i_long":106.827103,"station_id":"SW","distance":1149},{"station_name":"Manggabesar","line":2,"transit":false,"station_id":"MGB","distance":906,"time":2,"i_lat":-6.149769,"i_long":106.82482,"is_transit":false},{"transit":false,"is_transit":false,"station_name":"Jayakarta","time":2,"i_lat":-6.141205,"station_id":"JAY","i_long":106.820901,"distance":1080,"line":2},{"i_long":106.812439,"line":2,"station_name":"Jakarta Kota","time":4,"distance":1264,"i_lat":-6.137569,"is_transit":true,"station_id":"JAKK","transit":true},{"time":3,"station_id":"KPB","is_transit":true,"station_name":"Kampung Bandan","i_lat":-6.132549,"transit":true,"i_long":106.826365,"line":4,"distance":1364},{"i_long":106.79867,"station_id":"AK","i_lat":-6.144674,"time":9,"distance":4102,"station_name":"Angke","line":1,"transit":false,"is_transit":false},{"line":1,"time":4,"station_name":"Duri","i_lat":-6.155215,"distance":1230,"station_id":"DU","transit":true,"is_transit":true,"i_long":106.800832},{"station_name":"Grogol","i_long":106.788277,"station_id":"GGL","is_transit":false,"time":3,"distance":1700,"line":5,"i_lat":-6.162021,"transit":false},{"transit":false,"line":5,"distance":2036,"i_lat":-6.161433,"station_id":"PSG","is_transit":false,"time":2,"station_name":"Pesing","i_long":106.771379},{"time":2,"i_long":106.756522,"transit":false,"station_name":"Taman Kota","station_id":"TKO","line":5,"i_lat":-6.1587309999999995,"distance":1614,"is_transit":false},{"time":2,"distance":2334,"station_name":"Bojongindah","station_id":"BOI","i_lat":-6.159876,"transit":false,"line":5,"is_transit":false,"i_long":106.737035},{"transit":false,"i_long":106.723064,"i_lat":-6.162758,"station_name":"Rawa Buaya","distance":1152,"line":5,"is_transit":false,"time":4,"station_id":"RW"},{"station_name":"Kalideres","i_lat":-6.166068,"is_transit":false,"line":5,"transit":false,"time":3,"i_long":106.701612,"distance":2504,"station_id":"KDS"}],[{"station_name":"Klenderbaru","time":0,"transit":false,"is_transit":false,"i_lat":-6.217455,"i_long":106.939679,"distance":0,"line":1,"station_id":"KLDB"},{"line":1,"is_transit":false,"station_id":"BUA","i_long":106.922662,"station_name":"Buaran","time":1,"i_lat":-6.215568,"distance":1305,"transit":false},{"station_id":"KLD","i_long":106.899548,"transit":false,"is_transit":false,"station_name":"Klender","time":2,"line":1,"i_lat":-6.2135,"distance":3100},{"transit":true,"i_long":106.86807400000001,"is_transit":true,"distance":3395,"line":1,"station_id":"JNG","time":3,"i_lat":-6.215091,"station_name":"Jatinegara"},{"line":11,"station_name":"Pondok Jati","transit":false,"distance":1236,"is_transit":false,"i_lat":-6.209188,"station_id":"POK","time":2,"i_long":106.861737},{"distance":1829,"transit":false,"i_long":106.855437,"station_id":"KMT","is_transit":false,"time":2,"station_name":"Kramat","i_lat":-6.193792,"line":11},{"distance":973,"time":1,"station_id":"GST","transit":false,"i_long":106.850107,"line":11,"i_lat":-6.185975,"is_transit":false,"station_name":"Gang Sentiong"},{"station_name":"Pasar Senen","time":8,"i_lat":-6.174784,"distance":1567,"transit":false,"station_id":"PSE","line":11,"i_long":106.84368,"is_transit":false},{"distance":1436,"station_id":"KMO","line":11,"is_transit":false,"time":4,"i_lat":-6.161728,"i_long":106.839204,"station_name":"Kemayoran","transit":false},{"transit":false,"i_long":106.836569,"station_name":"Rajawali","i_lat":-6.14505,"is_transit":false,"time":5,"line":11,"distance":1901,"station_id":"RJW"},{"i_lat":-6.132549,"station_id":"KPB","transit":true,"time":3,"distance":1444,"station_name":"Kampung Bandan","i_long":106.826365,"is_transit":true,"line":4},{"line":2,"distance":1364,"station_name":"Jakarta Kota","transit":true,"i_lat":-6.137569,"station_id":"JAKK","i_long":106.812439,"is_transit":true,"time":3},{"station_name":"Jayakarta","transit":false,"is_transit":false,"i_lat":-6.141205,"station_id":"JAY","time":4,"distance":1264,"i_long":106.820901,"line":2},{"i_long":106.82482,"line":2,"station_id":"MGB","transit":false,"is_transit":false,"distance":1080,"time":2,"i_lat":-6.149769,"station_name":"Manggabesar"},{"station_name":"Sawah Besar","i_long":106.827103,"i_lat":-6.160725,"station_id":"SW","time":2,"transit":false,"line":2,"distance":906,"is_transit":false},{"station_name":"Juanda","station_id":"JUA","time":2,"i_lat":-6.166716,"line":2,"distance":1149,"is_transit":false,"transit":false,"i_long":106.828284},{"station_id":"GDD","is_transit":false,"i_lat":-6.186295,"time":4,"i_long":106.832183,"distance":2015,"station_name":"Gondangdia","transit":false,"line":2},{"is_transit":false,"i_long":106.840169,"distance":1750,"station_id":"CKI","time":3,"i_lat":-6.198556,"line":2,"transit":false,"station_name":"Cikini"},{"is_transit":true,"i_lat":-6.209883,"station_name":"Manggarai","distance":1590,"station_id":"MRI","i_long":106.84912,"line":2,"transit":true,"time":4},{"station_id":"SUD","i_lat":-6.202263,"line":1,"station_name":"Sudirman","is_transit":false,"distance":3186,"i_long":106.822649,"transit":false,"time":4},{"distance":280,"line":1,"time":1,"i_lat":-6.201433,"station_id":"SUDB","transit":false,"i_long":106.819881,"is_transit":false,"station_name":"Sudirman Baru"},{"line":1,"is_transit":false,"station_id":"KAT","station_name":"Karet","time":1,"i_lat":-6.20132,"distance":471,"transit":false,"i_long":106.816351},{"is_transit":false,"transit":false,"station_id":"THB","distance":2029,"i_long":106.811091,"station_name":"Tanah Abang","line":1,"i_lat":-6.185545,"time":5},{"distance":3632,"station_name":"Duri","i_lat":-6.155215,"line":1,"station_id":"DU","is_transit":true,"time":8,"i_long":106.800832,"transit":true},{"transit":false,"line":5,"station_id":"GGL","is_transit":false,"station_name":"Grogol","distance":1700,"time":3,"i_lat":-6.162021,"i_long":106.788277},{"i_lat":-6.161433,"time":2,"line":5,"is_transit":false,"transit":false,"i_long":106.771379,"station_name":"Pesing","distance":2036,"station_id":"PSG"},{"is_transit":false,"time":2,"distance":1614,"station_id":"TKO","i_lat":-6.1587309999999995,"i_long":106.756522,"station_name":"Taman Kota","transit":false,"line":5},{"is_transit":false,"distance":2334,"i_long":106.737035,"line":5,"station_name":"Bojongindah","i_lat":-6.159876,"transit":false,"station_id":"BOI","time":2},{"i_lat":-6.162758,"station_name":"Rawa Buaya","distance":1152,"time":4,"transit":false,"i_long":106.723064,"station_id":"RW","line":5,"is_transit":false},{"station_name":"Kalideres","transit":false,"i_lat":-6.166068,"i_long":106.701612,"time":3,"is_transit":false,"station_id":"KDS","distance":2504,"line":5}]]}