{"data":[[{"distance":0,"station_id":"KLDB","i_lat":-6.217455,"transit":false,"is_transit":false,"i_long":106.939679,"line":1,"station_name":"Klenderbaru","time":0},{"i_long":106.922662,"line":1,"is_transit":false,"distance":1305,"transit":false,"time":1,"station_id":"BUA","i_lat":-6.215568,"station_name":"Buaran"},{"i_long":106.899548,"time":2,"transit":false,"distance":3100,"station_name":"Klender","i_lat":-6.2135,"station_id":"KLD","is_transit":false,"line":1},{"station_name":"Jatinegara","time":3,"transit":false,"station_id":"JNG","is_transit":false,"distance":3395,"line":1,"i_lat":-6.215091,"i_long":106.86807400000001},{"station_name":"Matraman","distance":1377,"time":2,"i_long":106.858896,"station_id":"MTR","is_transit":false,"i_lat":-6.212485,"transit":false,"line":1},{"station_name":"Manggarai","is_transit":false,"time":2,"distance":1275,"transit":false,"station_id":"MRI","i_lat":-6.209883,"line":2,"i_long":106.84912},{"line":1,"station_name":"Sudirman","i_lat":-6.202263,"is_transit":false,"station_id":"SUD","transit":false,"i_long":106.822649,"time":4,"distance":3186},{"station_id":"SUDB","transit":false,"i_long":106.819881,"time":1,"line":1,"is_transit":false,"distance":280,"i_lat":-6.201433,"station_name":"Sudirman Baru"},{"transit":false,"station_name":"Karet","distance":471,"station_id":"KAT","is_transit":false,"time":1,"i_lat":-6.20132,"i_long":106.816351,"line":1},{"i_lat":-6.185545,"i_long":106.811091,"station_name":"Tanah Abang","station_id":"THB","line":1,"is_transit":false,"distance":2029,"transit":false,"time":5},{"distance":3632,"transit":false,"station_id":"DU","station_name":"Duri","is_transit":false,"time":8,"i_lat":-6.155215,"i_long":106.800832,"line":1}],[{"station_name":"Klenderbaru","time":0,"station_id":"KLDB","distance":0,"transit":false,"is_transit":false,"i_long":106.939679,"line":1,"i_lat":-6.217455},{"station_id":"BUA","time":1,"distance":1305,"is_transit":false,"line":1,"transit":false,"i_long":106.922662,"i_lat":-6.215568,"station_name":"Buaran"},{"line":1,"i_long":106.899548,"station_name":"Klender","time":2,"i_lat":-6.2135,"transit":false,"station_id":"KLD","distance":3100,"is_transit":false},{"transit":true,"station_id":"JNG","is_transit":true,"distance":3395,"time":3,"i_lat":-6.215091,"station_name":"Jatinegara","i_long":106.86807400000001,"line":1},{"i_long":106.861737,"line":11,"station_name":"Pondok Jati","time":2,"transit":false,"is_transit":false,"i_lat":-6.209188,"station_id":"POK","distance":1236},{"i_long":106.855437,"line":11,"is_transit":false,"station_name":"Kramat","distance":1829,"station_id":"KMT","time":2,"transit":false,"i_lat":-6.193792},{"time":1,"station_id":"GST","transit":false,"station_name":"Gang Sentiong","is_transit":false,"distance":973,"i_lat":-6.185975,"i_long":106.850107,"line":11},{"distance":1567,"station_id":"PSE","transit":false,"line":11,"i_long":106.84368,"i_lat":-6.174784,"station_name":"Pasar Senen","is_transit":false,"time":8},{"station_name":"Kemayoran","i_long":106.839204,"line":11,"station_id":"KMO","transit":false,"time":4,"is_transit":false,"distance":1436,"i_lat":-6.161728},{"time":5,"is_transit":false,"distance":1901,"i_lat":-6.14505,"i_long":106.836569,"station_name":"Rajawali","transit":false,"station_id":"RJW","line":11},{"station_name":"Kampung Bandan","i_long":106.826365,"transit":true,"i_lat":-6.132549,"is_transit":true,"line":4,"time":3,"station_id":"KPB","distance":1444},{"station_name":"Angke","is_transit":false,"line":1,"time":9,"transit":false,"i_long":106.79867,"i_lat":-6.144674,"station_id":"AK","distance":4102},{"time":4,"line":1,"i_lat":-6.155215,"i_long":106.800832,"transit":false,"distance":1230,"is_transit":false,"station_id":"DU","station_name":"Duri"}],[{"distance":0,"time":0,"station_name":"Klenderbaru","station_id":"KLDB","i_long":106.939679,"i_lat":-6.217455,"is_transit":false,"line":1,"transit":false},{"distance":1305,"station_name":"Buaran","is_transit":false,"transit":false,"line":1,"i_lat":-6.215568,"i_long":106.922662,"station_id":"BUA","time":1},{"line":1,"is_transit":false,"i_long":106.899548,"time":2,"distance":3100,"station_id":"KLD","transit":false,"i_lat":-6.2135,"station_name":"Klender"},{"i_long":106.86807400000001,"is_transit":false,"time":3,"station_id":"JNG","station_name":"Jatinegara","line":1,"distance":3395,"transit":false,"i_lat":-6.215091},{"transit":false,"i_lat":-6.212485,"i_long":106.858896,"station_name":"Matraman","station_id":"MTR","time":2,"distance":1377,"line":1,"is_transit":false},{"i_lat":-6.209883,"i_long":106.84912,"station_id":"MRI","line":2,"is_transit":true,"transit":true,"time":2,"distance":1275,"station_name":"Manggarai"},{"is_transit":false,"line":2,"transit":false,"i_lat":-6.198556,"station_name":"Cikini","distance":1590,"time":4,"i_long":106.840169,"station_id":"CKI"},{"distance":1750,"i_lat":-6.186295,"i_long":106.832183,"line":2,"time":3,"station_name":"Gondangdia","station_id":"GDD","is_transit":false,"transit":false},{"transit":false,"station_id":"JUA","time":4,"i_lat":-6.166716,"is_transit":false,"line":2,"i_long":106.828284,"distance":2015,"station_name":"Juanda"},{"time":2,"i_long":106.827103,"i_lat":-6.160725,"station_name":"Sawah Besar","transit":false,"is_transit":false,"distance":1149,"station_id":"SW","line":2},{"i_lat":-6.149769,"is_transit":false,"station_name":"Manggabesar","distance":906,"line":2,"transit":false,"station_id":"MGB","time":2,"i_long":106.82482},{"is_transit":false,"line":2,"distance":1080,"transit":false,"station_id":"JAY","i_lat":-6.141205,"i_long":106.820901,"station_name":"Jayakarta","time":2},{"station_name":"Jakarta Kota","station_id":"JAKK","i_lat":-6.137569,"is_transit":true,"distance":1264,"i_long":106.812439,"line":2,"time":4,"transit":true},{"time":3,"i_long":106.826365,"station_id":"KPB","distance":1364,"station_name":"Kampung Bandan","i_lat":-6.132549,"line":4,"transit":true,"is_transit":true},{"is_transit":false,"transit":false,"station_name":"Angke","i_lat":-6.144674,"time":9,"i_long":106.79867,"station_id":"AK","line":1,"distance":4102},{"line":1,"is_transit":false,"distance":1230,"time":4,"i_long":106.800832,"station_name":"Duri","station_id":"DU","i_lat":-6.155215,"transit":false}],[{"i_long":106.939679,"station_name":"Klenderbaru","distance":0,"station_id":"KLDB","is_transit":false,"time":0,"i_lat":-6.217455,"transit":false,"line":1},{"station_id":"BUA","i_lat":-6.215568,"distance":1305,"i_long":106.922662,"line":1,"is_transit":false,"time":1,"transit":false,"station_name":"Buaran"},{"transit":false,"distance":3100,"time":2,"station_id":"KLD","i_long":106.899548,"station_name":"Klender","line":1,"i_lat":-6.2135,"is_transit":false},{"line":1,"transit":true,"i_lat":-6.215091,"time":3,"i_long":106.86807400000001,"station_name":"Jatinegara","is_transit":true,"station_id":"JNG","distance":3395},{"i_long":106.861737,"transit":false,"station_name":"Pondok Jati","distance":1236,"i_lat":-6.209188,"line":11,"time":2,"station_id":"POK","is_transit":false},{"distance":1829,"transit":false,"i_lat":-6.193792,"station_name":"Kramat","is_transit":false,"i_long":106.855437,"station_id":"KMT","time":2,"line":11},{"station_name":"Gang Sentiong","time":1,"station_id":"GST","line":11,"i_long":106.850107,"distance":973,"i_lat":-6.185975,"transit":false,"is_transit":false},{"time":8,"station_name":"Pasar Senen","station_id":"PSE","distance":1567,"is_transit":false,"i_lat":-6.174784,"transit":false,"i_long":106.84368,"line":11},{"transit":false,"station_id":"KMO","i_lat":-6.161728,"time":4,"distance":1436,"line":11,"is_transit":false,"i_long":106.839204,"station_name":"Kemayoran"},{"time":5,"is_transit":false,"station_name":"Rajawali","i_lat":-6.14505,"station_id":"RJW","transit":false,"distance":1901,"i_long":106.836569,"line":11},{"is_transit":true,"line":4,"station_name":"Kampung Bandan","distance":1444,"time":3,"transit":true,"i_lat":-6.132549,"i_long":106.826365,"station_id":"KPB"},{"transit":true,"station_id":"JAKK","i_lat":-6.137569,"i_long":106.812439,"line":2,"distance":1364,"is_transit":true,"station_name":"Jakarta Kota","time":3},{"is_transit":false,"station_id":"JAY","distance":1264,"station_name":"Jayakarta","time":4,"i_lat":-6.141205,"i_long":106.820901,"line":2,"transit":false},{"i_long":106.82482,"line":2,"distance":1080,"i_lat":-6.149769,"station_name":"Manggabesar","is_transit":false,"station_id":"MGB","time":2,"transit":false},{"i_lat":-6.160725,"distance":906,"i_long":106.827103,"time":2,"transit":false,"station_name":"Sawah Besar","is_transit":false,"line":2,"station_id":"SW"},{"i_lat":-6.166716,"i_long":106.828284,"transit":false,"is_transit":false,"station_name":"Juanda","distance":1149,"line":2,"station_id":"JUA","time":2},{"distance":2015,"transit":false,"is_transit":false,"time":4,"station_id":"GDD","i_lat":-6.186295,"i_long":106.832183,"line":2,"station_name":"Gondangdia"},{"i_long":106.840169,"is_transit":false,"station_id":"CKI","time":3,"station_name":"Cikini","transit":false,"line":2,"distance":1750,"i_lat":-6.198556},{"is_transit":true,"i_long":106.84912,"i_lat":-6.209883,"line":2,"station_name":"Manggarai","transit":true,"time":4,"station_id":"MRI","distance":1590},{"station_id":"SUD","is_transit":false,"transit":false,"station_name":"Sudirman","i_lat":-6.202263,"line":1,"distance":3186,"i_long":106.822649,"time":4},{"is_transit":false,"station_name":"Sudirman Baru","distance":280,"time":1,"line":1,"i_lat":-6.201433,"i_long":106.819881,"station_id":"SUDB","transit":false},{"line":1,"transit":false,"distance":471,"time":1,"station_id":"KAT","i_lat":-6.20132,"i_long":106.816351,"is_transit":false,"station_name":"Karet"},{"distance":2029,"is_transit":false,"line":1,"station_name":"Tanah Abang","station_id":"THB","i_long":106.811091,"transit":false,"time":5,"i_lat":-6.185545},{"transit":false,"station_name":"Duri","is_transit":false,"station_id":"DU","time":8,"line":1,"distance":3632,"i_lat":-6.155215,"i_long":106.800832}]]}