{"data":[[{"time":0,"station_name":"Klenderbaru","station_id":"KLDB","is_transit":false,"line":1,"i_lat":-6.217455,"i_long":106.939679,"transit":false,"distance":0},{"is_transit":false,"transit":false,"station_name":"Buaran","line":1,"station_id":"BUA","i_lat":-6.215568,"i_long":106.922662,"distance":1305,"time":1},{"line":1,"is_transit":false,"transit":false,"i_lat":-6.2135,"station_name":"Klender","time":2,"i_long":106.899548,"distance":3100,"station_id":"KLD"},{"time":3,"distance":3395,"station_name":"Jatinegara","i_long":106.86807400000001,"transit":false,"line":1,"station_id":"JNG","is_transit":false,"i_lat":-6.215091},{"line":1,"i_lat":-6.212485,"is_transit":false,"time":2,"station_name":"Matraman","i_long":106.858896,"distance":1377,"transit":false,"station_id":"MTR"},{"i_long":106.84912,"station_id":"MRI","is_transit":false,"i_lat":-6.209883,"time":2,"transit":false,"distance":1275,"station_name":"Manggarai","line":2},{"is_transit":false,"i_long":106.822649,"station_id":"SUD","transit":false,"station_name":"Sudirman","i_lat":-6.202263,"distance":3186,"line":1,"time":4},{"time":1,"station_name":"Sudirman Baru","distance":280,"transit":false,"line":1,"is_transit":false,"i_lat":-6.201433,"i_long":106.819881,"station_id":"SUDB"},{"i_lat":-6.20132,"time":1,"station_name":"Karet","station_id":"KAT","transit":false,"i_long":106.816351,"distance":471,"is_transit":false,"line":1},{"distance":2029,"is_transit":true,"line":1,"i_long":106.811091,"time":5,"station_id":"THB","station_name":"Tanah Abang","transit":true,"i_lat":-6.185545},{"time":6,"transit":false,"i_long":106.79689,"is_transit":false,"distance":3191,"station_id":"PLM","i_lat":-6.207404,"line":6,"station_name":"Palmerah"},{"i_lat":-6.237242,"i_long":106.780334,"is_transit":false,"station_id":"KBY","line":6,"station_name":"Kebayoran","transit":false,"time":7,"distance":3737},{"transit":false,"distance":6218,"station_name":"Pondokranji","i_lat":-6.276362,"line":6,"station_id":"PDJ","time":8,"i_long":106.74273,"is_transit":false},{"time":3,"is_transit":false,"station_name":"Jurangmangu","i_long":106.728916,"distance":2179,"transit":false,"i_lat":-6.288927,"line":6,"station_id":"JMU"},{"station_name":"Sudimara","i_lat":-6.296963,"line":6,"distance":1994,"transit":false,"station_id":"SDM","time":4,"is_transit":false,"i_long":106.712277},{"distance":4566,"is_transit":false,"station_id":"RU","station_name":"Rawa Buntu","time":6,"transit":false,"i_long":106.675475,"line":6,"i_lat":-6.314823},{"line":6,"station_id":"SRP","i_long":106.66566,"distance":2413,"transit":false,"i_lat":-6.319871,"time":4,"station_name":"Serpong","is_transit":false}],[{"i_lat":-6.217455,"i_long":106.939679,"time":0,"station_name":"Klenderbaru","is_transit":false,"station_id":"KLDB","line":1,"transit":false,"distance":0},{"i_long":106.922662,"line":1,"transit":false,"time":1,"is_transit":false,"station_id":"BUA","distance":1305,"station_name":"Buaran","i_lat":-6.215568},{"distance":3100,"station_id":"KLD","time":2,"station_name":"Klender","line":1,"is_transit":false,"i_long":106.899548,"i_lat":-6.2135,"transit":false},{"i_lat":-6.215091,"transit":true,"distance":3395,"i_long":106.86807400000001,"line":1,"time":3,"is_transit":true,"station_name":"Jatinegara","station_id":"JNG"},{"distance":1236,"time":2,"transit":false,"i_lat":-6.209188,"is_transit":false,"line":11,"i_long":106.861737,"station_name":"Pondok Jati","station_id":"POK"},{"transit":false,"station_id":"KMT","distance":1829,"i_long":106.855437,"is_transit":false,"line":11,"i_lat":-6.193792,"time":2,"station_name":"Kramat"},{"distance":973,"i_long":106.850107,"i_lat":-6.185975,"is_transit":false,"station_id":"GST","station_name":"Gang Sentiong","time":1,"line":11,"transit":false},{"station_name":"Pasar Senen","is_transit":false,"transit":false,"i_lat":-6.174784,"station_id":"PSE","i_long":106.84368,"line":11,"time":8,"distance":1567},{"transit":false,"distance":1436,"is_transit":false,"time":4,"station_id":"KMO","i_lat":-6.161728,"i_long":106.839204,"station_name":"Kemayoran","line":11},{"transit":false,"i_lat":-6.14505,"distance":1901,"line":11,"i_long":106.836569,"time":5,"is_transit":false,"station_id":"RJW","station_name":"Rajawali"},{"time":3,"distance":1444,"i_long":106.826365,"transit":true,"station_id":"KPB","i_lat":-6.132549,"is_transit":true,"line":4,"station_name":"Kampung Bandan"},{"transit":false,"is_transit":false,"station_name":"Angke","distance":4102,"i_lat":-6.144674,"station_id":"AK","time":9,"i_long":106.79867,"line":1},{"i_lat":-6.155215,"time":4,"station_id":"DU","is_transit":false,"transit":false,"station_name":"Duri","i_long":106.800832,"distance":1230,"line":1},{"transit":true,"station_name":"Tanah Abang","time":8,"distance":3632,"is_transit":true,"station_id":"THB","i_lat":-6.185545,"i_long":106.811091,"line":1},{"i_long":106.79689,"line":6,"station_name":"Palmerah","is_transit":false,"station_id":"PLM","time":6,"i_lat":-6.207404,"distance":3191,"transit":false},{"i_long":106.780334,"station_name":"Kebayoran","distance":3737,"transit":false,"time":7,"station_id":"KBY","is_transit":false,"i_lat":-6.237242,"line":6},{"line":6,"is_transit":false,"station_id":"PDJ","i_long":106.74273,"i_lat":-6.276362,"time":8,"station_name":"Pondokranji","distance":6218,"transit":false},{"station_id":"JMU","station_name":"Jurangmangu","i_long":106.728916,"line":6,"distance":2179,"i_lat":-6.288927,"transit":false,"is_transit":false,"time":3},{"station_id":"SDM","distance":1994,"time":4,"line":6,"i_lat":-6.296963,"transit":false,"is_transit":false,"station_name":"Sudimara","i_long":106.712277},{"transit":false,"station_id":"RU","i_lat":-6.314823,"is_transit":false,"distance":4566,"i_long":106.675475,"line":6,"station_name":"Rawa Buntu","time":6},{"distance":2413,"station_name":"Serpong","station_id":"SRP","i_lat":-6.319871,"i_long":106.66566,"line":6,"transit":false,"is_transit":false,"time":4}],[{"station_id":"KLDB","i_lat":-6.217455,"i_long":106.939679,"transit":false,"distance":0,"time":0,"line":1,"is_transit":false,"station_name":"Klenderbaru"},{"i_long":106.922662,"time":1,"distance":1305,"station_id":"BUA","i_lat":-6.215568,"transit":false,"line":1,"is_transit":false,"station_name":"Buaran"},{"i_long":106.899548,"i_lat":-6.2135,"distance":3100,"time":2,"transit":false,"station_id":"KLD","line":1,"is_transit":false,"station_name":"Klender"},{"transit":false,"station_name":"Jatinegara","line":1,"station_id":"JNG","i_lat":-6.215091,"is_transit":false,"distance":3395,"i_long":106.86807400000001,"time":3},{"station_id":"MTR","line":1,"transit":false,"distance":1377,"i_lat":-6.212485,"i_long":106.858896,"time":2,"is_transit":false,"station_name":"Matraman"},{"station_name":"Manggarai","station_id":"MRI","i_long":106.84912,"is_transit":true,"transit":true,"time":2,"distance":1275,"i_lat":-6.209883,"line":2},{"i_long":106.840169,"time":4,"station_id":"CKI","station_name":"Cikini","is_transit":false,"i_lat":-6.198556,"line":2,"transit":false,"distance":1590},{"distance":1750,"i_lat":-6.186295,"station_name":"Gondangdia","time":3,"transit":false,"is_transit":false,"i_long":106.832183,"line":2,"station_id":"GDD"},{"station_id":"JUA","time":4,"is_transit":false,"i_lat":-6.166716,"i_long":106.828284,"line":2,"station_name":"Juanda","transit":false,"distance":2015},{"station_name":"Sawah Besar","i_lat":-6.160725,"is_transit":false,"time":2,"distance":1149,"transit":false,"station_id":"SW","i_long":106.827103,"line":2},{"is_transit":false,"line":2,"station_name":"Manggabesar","distance":906,"i_long":106.82482,"station_id":"MGB","transit":false,"time":2,"i_lat":-6.149769},{"distance":1080,"station_name":"Jayakarta","is_transit":false,"transit":false,"station_id":"JAY","i_lat":-6.141205,"i_long":106.820901,"time":2,"line":2},{"i_lat":-6.137569,"i_long":106.812439,"distance":1264,"time":4,"station_name":"Jakarta Kota","is_transit":true,"transit":true,"line":2,"station_id":"JAKK"},{"time":3,"line":4,"station_name":"Kampung Bandan","distance":1364,"is_transit":true,"i_long":106.826365,"transit":true,"station_id":"KPB","i_lat":-6.132549},{"transit":false,"i_lat":-6.144674,"i_long":106.79867,"station_id":"AK","time":9,"is_transit":false,"distance":4102,"station_name":"Angke","line":1},{"station_name":"Duri","i_long":106.800832,"line":1,"is_transit":false,"distance":1230,"station_id":"DU","i_lat":-6.155215,"transit":false,"time":4},{"transit":true,"time":8,"station_id":"THB","line":1,"i_long":106.811091,"i_lat":-6.185545,"is_transit":true,"distance":3632,"station_name":"Tanah Abang"},{"station_name":"Palmerah","line":6,"i_long":106.79689,"i_lat":-6.207404,"time":6,"distance":3191,"transit":false,"is_transit":false,"station_id":"PLM"},{"i_lat":-6.237242,"i_long":106.780334,"transit":false,"distance":3737,"is_transit":false,"time":7,"station_id":"KBY","station_name":"Kebayoran","line":6},{"line":6,"distance":6218,"transit":false,"station_id":"PDJ","i_long":106.74273,"is_transit":false,"i_lat":-6.276362,"time":8,"station_name":"Pondokranji"},{"time":3,"distance":2179,"station_id":"JMU","transit":false,"i_lat":-6.288927,"i_long":106.728916,"is_transit":false,"station_name":"Jurangmangu","line":6},{"i_long":106.712277,"line":6,"distance":1994,"time":4,"i_lat":-6.296963,"station_name":"Sudimara","transit":false,"station_id":"SDM","is_transit":false},{"transit":false,"station_name":"Rawa Buntu","is_transit":false,"i_lat":-6.314823,"i_long":106.675475,"distance":4566,"station_id":"RU","time":6,"line":6},{"i_long":106.66566,"station_id":"SRP","time":4,"is_transit":false,"i_lat":-6.319871,"line":6,"distance":2413,"station_name":"Serpong","transit":false}],[{"transit":false,"station_name":"Klenderbaru","line":1,"station_id":"KLDB","is_transit":false,"time":0,"i_lat":-6.217455,"distance":0,"i_long":106.939679},{"i_lat":-6.215568,"distance":1305,"line":1,"time":1,"i_long":106.922662,"station_name":"Buaran","is_transit":false,"transit":false,"station_id":"BUA"},{"station_id":"KLD","i_lat":-6.2135,"is_transit":false,"transit":false,"station_name":"Klender","time":2,"i_long":106.899548,"distance":3100,"line":1},{"station_id":"JNG","i_lat":-6.215091,"is_transit":true,"distance":3395,"transit":true,"station_name":"Jatinegara","time":3,"i_long":106.86807400000001,"line":1},{"is_transit":false,"distance":1236,"i_long":106.861737,"time":2,"station_id":"POK","station_name":"Pondok Jati","line":11,"i_lat":-6.209188,"transit":false},{"station_name":"Kramat","i_long":106.855437,"time":2,"i_lat":-6.193792,"line":11,"distance":1829,"station_id":"KMT","is_transit":false,"transit":false},{"line":11,"distance":973,"time":1,"is_transit":false,"transit":false,"i_lat":-6.185975,"i_long":106.850107,"station_id":"GST","station_name":"Gang Sentiong"},{"line":11,"time":8,"distance":1567,"station_name":"Pasar Senen","transit":false,"i_lat":-6.174784,"is_transit":false,"station_id":"PSE","i_long":106.84368},{"is_transit":false,"distance":1436,"station_id":"KMO","i_long":106.839204,"time":4,"line":11,"transit":false,"station_name":"Kemayoran","i_lat":-6.161728},{"station_id":"RJW","time":5,"i_lat":-6.14505,"is_transit":false,"transit":false,"line":11,"distance":1901,"station_name":"Rajawali","i_long":106.836569},{"distance":1444,"time":3,"line":4,"station_id":"KPB","i_lat":-6.132549,"station_name":"Kampung Bandan","is_transit":true,"i_long":106.826365,"transit":true},{"station_name":"Jakarta Kota","line":2,"is_transit":true,"time":3,"distance":1364,"station_id":"JAKK","transit":true,"i_long":106.812439,"i_lat":-6.137569},{"station_name":"Jayakarta","distance":1264,"i_lat":-6.141205,"i_long":106.820901,"time":4,"is_transit":false,"transit":false,"station_id":"JAY","line":2},{"i_long":106.82482,"is_transit":false,"i_lat":-6.149769,"distance":1080,"station_name":"Manggabesar","time":2,"transit":false,"station_id":"MGB","line":2},{"time":2,"distance":906,"transit":false,"station_id":"SW","i_lat":-6.160725,"i_long":106.827103,"line":2,"is_transit":false,"station_name":"Sawah Besar"},{"station_name":"Juanda","transit":false,"distance":1149,"station_id":"JUA","i_lat":-6.166716,"line":2,"is_transit":false,"time":2,"i_long":106.828284},{"distance":2015,"station_name":"Gondangdia","i_long":106.832183,"station_id":"GDD","is_transit":false,"i_lat":-6.186295,"time":4,"transit":false,"line":2},{"i_lat":-6.198556,"transit":false,"is_transit":false,"time":3,"i_long":106.840169,"line":2,"distance":1750,"station_name":"Cikini","station_id":"CKI"},{"i_long":106.84912,"is_transit":true,"transit":true,"distance":1590,"time":4,"station_id":"MRI","line":2,"station_name":"Manggarai","i_lat":-6.209883},{"time":4,"station_name":"Sudirman","i_lat":-6.202263,"distance":3186,"is_transit":false,"station_id":"SUD","i_long":106.822649,"transit":false,"line":1},{"line":1,"station_id":"SUDB","i_lat":-6.201433,"i_long":106.819881,"station_name":"Sudirman Baru","time":1,"transit":false,"distance":280,"is_transit":false},{"is_transit":false,"time":1,"station_id":"KAT","line":1,"i_long":106.816351,"station_name":"Karet","transit":false,"i_lat":-6.20132,"distance":471},{"station_name":"Tanah Abang","i_long":106.811091,"time":5,"station_id":"THB","is_transit":true,"transit":true,"i_lat":-6.185545,"line":1,"distance":2029},{"line":6,"station_name":"Palmerah","time":6,"i_long":106.79689,"distance":3191,"transit":false,"is_transit":false,"station_id":"PLM","i_lat":-6.207404},{"transit":false,"line":6,"distance":3737,"station_id":"KBY","time":7,"station_name":"Kebayoran","is_transit":false,"i_lat":-6.237242,"i_long":106.780334},{"time":8,"i_long":106.74273,"distance":6218,"is_transit":false,"station_id":"PDJ","transit":false,"i_lat":-6.276362,"line":6,"station_name":"Pondokranji"},{"station_name":"Jurangmangu","i_long":106.728916,"line":6,"time":3,"transit":false,"i_lat":-6.288927,"is_transit":false,"distance":2179,"station_id":"JMU"},{"time":4,"line":6,"distance":1994,"i_long":106.712277,"is_transit":false,"station_id":"SDM","station_name":"Sudimara","transit":false,"i_lat":-6.296963},{"distance":4566,"time":6,"transit":false,"i_long":106.675475,"line":6,"is_transit":false,"station_name":"Rawa Buntu","i_lat":-6.314823,"station_id":"RU"},{"station_name":"Serpong","transit":false,"i_lat":-6.319871,"i_long":106.66566,"station_id":"SRP","time":4,"is_transit":false,"distance":2413,"line":6}]]}