{"data":[[{"i_long":106.939679,"station_id":"KLDB","transit":false,"time":0,"station_name":"Klenderbaru","i_lat":-6.217455,"is_transit":false,"line":1,"distance":0},{"line":1,"i_long":106.922662,"time":1,"i_lat":-6.215568,"transit":false,"station_id":"BUA","distance":1305,"is_transit":false,"station_name":"Buaran"},{"station_id":"KLD","is_transit":false,"time":2,"i_lat":-6.2135,"i_long":106.899548,"transit":false,"station_name":"Klender","line":1,"distance":3100},{"time":3,"is_transit":false,"i_lat":-6.215091,"i_long":106.86807400000001,"line":1,"station_id":"JNG","transit":false,"station_name":"Jatinegara","distance":3395},{"is_transit":false,"distance":1377,"i_long":106.858896,"station_name":"Matraman","time":2,"transit":false,"line":1,"station_id":"MTR","i_lat":-6.212485},{"line":2,"i_long":106.84912,"station_name":"Manggarai","is_transit":false,"distance":1275,"time":2,"i_lat":-6.209883,"transit":false,"station_id":"MRI"},{"is_transit":false,"time":4,"station_name":"Sudirman","i_lat":-6.202263,"transit":false,"distance":3186,"line":1,"station_id":"SUD","i_long":106.822649},{"i_long":106.819881,"line":1,"transit":false,"is_transit":false,"i_lat":-6.201433,"distance":280,"station_id":"SUDB","time":1,"station_name":"Sudirman Baru"},{"is_transit":false,"distance":471,"transit":false,"station_id":"KAT","time":1,"line":1,"i_lat":-6.20132,"i_long":106.816351,"station_name":"Karet"},{"station_id":"THB","i_lat":-6.185545,"time":5,"station_name":"Tanah Abang","is_transit":true,"distance":2029,"i_long":106.811091,"transit":true,"line":1},{"i_lat":-6.207404,"transit":false,"is_transit":false,"time":6,"distance":3191,"station_id":"PLM","line":6,"station_name":"Palmerah","i_long":106.79689},{"i_lat":-6.237242,"time":7,"station_id":"KBY","is_transit":false,"i_long":106.780334,"station_name":"Kebayoran","distance":3737,"line":6,"transit":false},{"i_lat":-6.276362,"station_id":"PDJ","time":8,"station_name":"Pondokranji","line":6,"transit":false,"is_transit":false,"i_long":106.74273,"distance":6218},{"i_long":106.728916,"i_lat":-6.288927,"station_id":"JMU","distance":2179,"transit":false,"is_transit":false,"line":6,"time":3,"station_name":"Jurangmangu"},{"is_transit":false,"line":6,"station_id":"SDM","station_name":"Sudimara","transit":false,"distance":1994,"i_long":106.712277,"time":4,"i_lat":-6.296963},{"time":6,"line":6,"station_id":"RU","transit":false,"i_long":106.675475,"distance":4566,"station_name":"Rawa Buntu","i_lat":-6.314823,"is_transit":false},{"time":4,"station_id":"SRP","transit":false,"distance":2413,"i_lat":-6.319871,"line":6,"is_transit":false,"i_long":106.66566,"station_name":"Serpong"},{"is_transit":false,"line":3,"station_id":"CSK","i_long":106.640411,"transit":false,"station_name":"Cisauk","distance":1784,"i_lat":-6.32484,"time":4},{"i_long":106.617853,"station_name":"Cicayur","i_lat":-6.329547,"station_id":"CC","line":3,"is_transit":false,"distance":2519,"time":4,"transit":false},{"i_lat":-6.3441410000000005,"station_id":"PRP","station_name":"Parung Panjang","distance":5968,"line":6,"is_transit":false,"transit":false,"i_long":106.568863,"time":8}],[{"distance":0,"transit":false,"is_transit":false,"i_lat":-6.217455,"station_name":"Klenderbaru","i_long":106.939679,"line":1,"time":0,"station_id":"KLDB"},{"i_lat":-6.215568,"line":1,"station_name":"Buaran","station_id":"BUA","time":1,"transit":false,"i_long":106.922662,"is_transit":false,"distance":1305},{"transit":false,"line":1,"is_transit":false,"station_name":"Klender","distance":3100,"station_id":"KLD","i_long":106.899548,"time":2,"i_lat":-6.2135},{"station_id":"JNG","line":1,"transit":true,"i_lat":-6.215091,"is_transit":true,"i_long":106.86807400000001,"time":3,"station_name":"Jatinegara","distance":3395},{"distance":1236,"line":11,"i_lat":-6.209188,"station_id":"POK","i_long":106.861737,"station_name":"Pondok Jati","is_transit":false,"time":2,"transit":false},{"station_id":"KMT","transit":false,"time":2,"is_transit":false,"i_long":106.855437,"station_name":"Kramat","i_lat":-6.193792,"line":11,"distance":1829},{"time":1,"line":11,"transit":false,"distance":973,"is_transit":false,"station_name":"Gang Sentiong","i_lat":-6.185975,"i_long":106.850107,"station_id":"GST"},{"transit":false,"i_long":106.84368,"i_lat":-6.174784,"line":11,"station_id":"PSE","distance":1567,"time":8,"station_name":"Pasar Senen","is_transit":false},{"i_lat":-6.161728,"line":11,"transit":false,"is_transit":false,"distance":1436,"i_long":106.839204,"station_id":"KMO","time":4,"station_name":"Kemayoran"},{"station_id":"RJW","transit":false,"distance":1901,"i_lat":-6.14505,"time":5,"station_name":"Rajawali","is_transit":false,"line":11,"i_long":106.836569},{"transit":true,"line":4,"distance":1444,"i_lat":-6.132549,"station_id":"KPB","time":3,"is_transit":true,"i_long":106.826365,"station_name":"Kampung Bandan"},{"transit":false,"station_id":"AK","is_transit":false,"time":9,"i_lat":-6.144674,"i_long":106.79867,"line":1,"station_name":"Angke","distance":4102},{"time":4,"transit":false,"station_name":"Duri","line":1,"i_long":106.800832,"is_transit":false,"station_id":"DU","distance":1230,"i_lat":-6.155215},{"is_transit":true,"line":1,"distance":3632,"time":8,"i_long":106.811091,"station_name":"Tanah Abang","transit":true,"i_lat":-6.185545,"station_id":"THB"},{"i_long":106.79689,"station_id":"PLM","time":6,"line":6,"transit":false,"is_transit":false,"distance":3191,"i_lat":-6.207404,"station_name":"Palmerah"},{"is_transit":false,"time":7,"distance":3737,"i_long":106.780334,"line":6,"transit":false,"station_id":"KBY","station_name":"Kebayoran","i_lat":-6.237242},{"is_transit":false,"station_id":"PDJ","distance":6218,"time":8,"station_name":"Pondokranji","i_lat":-6.276362,"i_long":106.74273,"line":6,"transit":false},{"i_lat":-6.288927,"i_long":106.728916,"transit":false,"station_name":"Jurangmangu","is_transit":false,"distance":2179,"line":6,"station_id":"JMU","time":3},{"time":4,"station_name":"Sudimara","is_transit":false,"i_lat":-6.296963,"i_long":106.712277,"station_id":"SDM","line":6,"transit":false,"distance":1994},{"transit":false,"distance":4566,"line":6,"time":6,"station_id":"RU","is_transit":false,"station_name":"Rawa Buntu","i_lat":-6.314823,"i_long":106.675475},{"time":4,"i_long":106.66566,"line":6,"transit":false,"is_transit":false,"station_name":"Serpong","distance":2413,"i_lat":-6.319871,"station_id":"SRP"},{"station_id":"CSK","is_transit":false,"station_name":"Cisauk","distance":1784,"i_lat":-6.32484,"transit":false,"i_long":106.640411,"time":4,"line":3},{"is_transit":false,"transit":false,"station_id":"CC","i_lat":-6.329547,"i_long":106.617853,"time":4,"distance":2519,"station_name":"Cicayur","line":3},{"transit":false,"i_long":106.568863,"station_id":"PRP","time":8,"is_transit":false,"line":6,"i_lat":-6.3441410000000005,"station_name":"Parung Panjang","distance":5968}],[{"is_transit":false,"distance":0,"time":0,"i_long":106.939679,"station_name":"Klenderbaru","transit":false,"i_lat":-6.217455,"station_id":"KLDB","line":1},{"time":1,"transit":false,"distance":1305,"i_lat":-6.215568,"line":1,"station_id":"BUA","is_transit":false,"i_long":106.922662,"station_name":"Buaran"},{"transit":false,"time":2,"is_transit":false,"i_long":106.899548,"i_lat":-6.2135,"distance":3100,"line":1,"station_id":"KLD","station_name":"Klender"},{"distance":3395,"transit":false,"time":3,"station_id":"JNG","i_lat":-6.215091,"is_transit":false,"i_long":106.86807400000001,"line":1,"station_name":"Jatinegara"},{"is_transit":false,"distance":1377,"i_lat":-6.212485,"i_long":106.858896,"station_id":"MTR","station_name":"Matraman","line":1,"transit":false,"time":2},{"station_id":"MRI","i_lat":-6.209883,"line":2,"distance":1275,"is_transit":true,"transit":true,"station_name":"Manggarai","time":2,"i_long":106.84912},{"is_transit":false,"station_name":"Cikini","i_lat":-6.198556,"i_long":106.840169,"time":4,"distance":1590,"line":2,"station_id":"CKI","transit":false},{"transit":false,"time":3,"i_lat":-6.186295,"is_transit":false,"station_name":"Gondangdia","station_id":"GDD","i_long":106.832183,"line":2,"distance":1750},{"line":2,"station_name":"Juanda","time":4,"station_id":"JUA","transit":false,"i_lat":-6.166716,"i_long":106.828284,"distance":2015,"is_transit":false},{"distance":1149,"is_transit":false,"i_long":106.827103,"line":2,"station_id":"SW","time":2,"transit":false,"station_name":"Sawah Besar","i_lat":-6.160725},{"transit":false,"i_lat":-6.149769,"time":2,"station_id":"MGB","is_transit":false,"i_long":106.82482,"station_name":"Manggabesar","distance":906,"line":2},{"i_lat":-6.141205,"distance":1080,"is_transit":false,"transit":false,"i_long":106.820901,"station_id":"JAY","time":2,"line":2,"station_name":"Jayakarta"},{"transit":true,"time":4,"i_long":106.812439,"distance":1264,"line":2,"i_lat":-6.137569,"station_id":"JAKK","is_transit":true,"station_name":"Jakarta Kota"},{"station_name":"Kampung Bandan","transit":true,"distance":1364,"i_long":106.826365,"is_transit":true,"station_id":"KPB","line":4,"i_lat":-6.132549,"time":3},{"i_long":106.79867,"distance":4102,"is_transit":false,"station_name":"Angke","transit":false,"i_lat":-6.144674,"line":1,"station_id":"AK","time":9},{"distance":1230,"station_id":"DU","time":4,"i_long":106.800832,"line":1,"is_transit":false,"i_lat":-6.155215,"transit":false,"station_name":"Duri"},{"station_id":"THB","is_transit":true,"transit":true,"i_long":106.811091,"time":8,"line":1,"station_name":"Tanah Abang","i_lat":-6.185545,"distance":3632},{"station_name":"Palmerah","is_transit":false,"distance":3191,"i_long":106.79689,"transit":false,"time":6,"i_lat":-6.207404,"line":6,"station_id":"PLM"},{"transit":false,"line":6,"is_transit":false,"time":7,"station_id":"KBY","i_long":106.780334,"distance":3737,"station_name":"Kebayoran","i_lat":-6.237242},{"time":8,"is_transit":false,"i_lat":-6.276362,"line":6,"distance":6218,"i_long":106.74273,"transit":false,"station_id":"PDJ","station_name":"Pondokranji"},{"transit":false,"is_transit":false,"distance":2179,"line":6,"station_name":"Jurangmangu","i_long":106.728916,"time":3,"station_id":"JMU","i_lat":-6.288927},{"i_lat":-6.296963,"transit":false,"i_long":106.712277,"station_id":"SDM","is_transit":false,"distance":1994,"station_name":"Sudimara","line":6,"time":4},{"i_lat":-6.314823,"line":6,"is_transit":false,"station_id":"RU","station_name":"Rawa Buntu","distance":4566,"i_long":106.675475,"transit":false,"time":6},{"time":4,"distance":2413,"i_lat":-6.319871,"i_long":106.66566,"transit":false,"station_id":"SRP","line":6,"is_transit":false,"station_name":"Serpong"},{"station_name":"Cisauk","station_id":"CSK","is_transit":false,"i_lat":-6.32484,"i_long":106.640411,"distance":1784,"transit":false,"time":4,"line":3},{"i_long":106.617853,"station_name":"Cicayur","is_transit":false,"line":3,"distance":2519,"transit":false,"time":4,"station_id":"CC","i_lat":-6.329547},{"station_name":"Parung Panjang","time":8,"distance":5968,"is_transit":false,"i_lat":-6.3441410000000005,"i_long":106.568863,"line":6,"station_id":"PRP","transit":false}],[{"station_name":"Klenderbaru","is_transit":false,"distance":0,"i_lat":-6.217455,"line":1,"transit":false,"i_long":106.939679,"time":0,"station_id":"KLDB"},{"is_transit":false,"transit":false,"i_long":106.922662,"station_id":"BUA","i_lat":-6.215568,"distance":1305,"time":1,"station_name":"Buaran","line":1},{"station_name":"Klender","is_transit":false,"station_id":"KLD","time":2,"transit":false,"i_long":106.899548,"distance":3100,"i_lat":-6.2135,"line":1},{"line":1,"time":3,"station_id":"JNG","i_lat":-6.215091,"i_long":106.86807400000001,"station_name":"Jatinegara","transit":true,"distance":3395,"is_transit":true},{"transit":false,"distance":1236,"time":2,"is_transit":false,"station_id":"POK","i_lat":-6.209188,"i_long":106.861737,"line":11,"station_name":"Pondok Jati"},{"i_lat":-6.193792,"i_long":106.855437,"station_id":"KMT","line":11,"time":2,"station_name":"Kramat","is_transit":false,"distance":1829,"transit":false},{"station_id":"GST","i_lat":-6.185975,"line":11,"is_transit":false,"i_long":106.850107,"transit":false,"time":1,"station_name":"Gang Sentiong","distance":973},{"station_id":"PSE","station_name":"Pasar Senen","line":11,"is_transit":false,"distance":1567,"transit":false,"i_lat":-6.174784,"i_long":106.84368,"time":8},{"is_transit":false,"time":4,"transit":false,"i_lat":-6.161728,"i_long":106.839204,"station_name":"Kemayoran","distance":1436,"line":11,"station_id":"KMO"},{"distance":1901,"station_id":"RJW","time":5,"line":11,"i_lat":-6.14505,"transit":false,"is_transit":false,"i_long":106.836569,"station_name":"Rajawali"},{"i_lat":-6.132549,"transit":true,"i_long":106.826365,"distance":1444,"station_id":"KPB","line":4,"time":3,"is_transit":true,"station_name":"Kampung Bandan"},{"line":2,"station_id":"JAKK","is_transit":true,"time":3,"i_long":106.812439,"distance":1364,"transit":true,"station_name":"Jakarta Kota","i_lat":-6.137569},{"line":2,"i_long":106.820901,"transit":false,"i_lat":-6.141205,"station_name":"Jayakarta","distance":1264,"is_transit":false,"time":4,"station_id":"JAY"},{"line":2,"is_transit":false,"i_long":106.82482,"transit":false,"distance":1080,"station_id":"MGB","station_name":"Manggabesar","i_lat":-6.149769,"time":2},{"is_transit":false,"station_id":"SW","distance":906,"transit":false,"time":2,"line":2,"station_name":"Sawah Besar","i_lat":-6.160725,"i_long":106.827103},{"i_lat":-6.166716,"i_long":106.828284,"line":2,"time":2,"station_name":"Juanda","is_transit":false,"distance":1149,"station_id":"JUA","transit":false},{"is_transit":false,"time":4,"i_lat":-6.186295,"station_name":"Gondangdia","i_long":106.832183,"transit":false,"station_id":"GDD","line":2,"distance":2015},{"station_id":"CKI","i_lat":-6.198556,"i_long":106.840169,"is_transit":false,"distance":1750,"time":3,"transit":false,"station_name":"Cikini","line":2},{"transit":true,"i_long":106.84912,"line":2,"i_lat":-6.209883,"station_id":"MRI","time":4,"station_name":"Manggarai","distance":1590,"is_transit":true},{"distance":3186,"i_lat":-6.202263,"i_long":106.822649,"transit":false,"station_id":"SUD","line":1,"is_transit":false,"time":4,"station_name":"Sudirman"},{"time":1,"is_transit":false,"i_lat":-6.201433,"i_long":106.819881,"line":1,"transit":false,"station_id":"SUDB","station_name":"Sudirman Baru","distance":280},{"i_lat":-6.20132,"distance":471,"is_transit":false,"station_name":"Karet","i_long":106.816351,"line":1,"transit":false,"station_id":"KAT","time":1},{"i_lat":-6.185545,"i_long":106.811091,"station_id":"THB","distance":2029,"is_transit":true,"line":1,"transit":true,"time":5,"station_name":"Tanah Abang"},{"station_id":"PLM","i_long":106.79689,"station_name":"Palmerah","distance":3191,"transit":false,"time":6,"is_transit":false,"i_lat":-6.207404,"line":6},{"distance":3737,"transit":false,"time":7,"line":6,"i_long":106.780334,"is_transit":false,"station_name":"Kebayoran","station_id":"KBY","i_lat":-6.237242},{"station_name":"Pondokranji","is_transit":false,"time":8,"station_id":"PDJ","i_long":106.74273,"line":6,"transit":false,"distance":6218,"i_lat":-6.276362},{"time":3,"station_id":"JMU","distance":2179,"is_transit":false,"i_lat":-6.288927,"station_name":"Jurangmangu","transit":false,"line":6,"i_long":106.728916},{"transit":false,"distance":1994,"i_long":106.712277,"is_transit":false,"i_lat":-6.296963,"station_name":"Sudimara","time":4,"line":6,"station_id":"SDM"},{"line":6,"transit":false,"station_name":"Rawa Buntu","i_lat":-6.314823,"station_id":"RU","i_long":106.675475,"time":6,"is_transit":false,"distance":4566},{"i_long":106.66566,"i_lat":-6.319871,"transit":false,"distance":2413,"station_id":"SRP","time":4,"is_transit":false,"station_name":"Serpong","line":6},{"i_long":106.640411,"i_lat":-6.32484,"distance":1784,"line":3,"station_name":"Cisauk","transit":false,"time":4,"station_id":"CSK","is_transit":false},{"is_transit":false,"line":3,"time":4,"i_lat":-6.329547,"station_name":"Cicayur","distance":2519,"station_id":"CC","transit":false,"i_long":106.617853},{"i_lat":-6.3441410000000005,"line":6,"is_transit":false,"station_id":"PRP","transit":false,"time":8,"station_name":"Parung Panjang","i_long":106.568863,"distance":5968}]]}