{"data":[[{"i_lat":-6.217455,"transit":false,"station_name":"Klenderbaru","line":1,"time":0,"is_transit":false,"station_id":"KLDB","i_long":106.939679,"distance":0},{"time":1,"i_lat":-6.215568,"distance":1305,"i_long":106.922662,"station_name":"Buaran","station_id":"BUA","transit":false,"is_transit":false,"line":1},{"transit":false,"time":2,"is_transit":false,"distance":3100,"i_lat":-6.2135,"i_long":106.899548,"station_id":"KLD","line":1,"station_name":"Klender"},{"station_id":"JNG","station_name":"Jatinegara","transit":false,"is_transit":false,"distance":3395,"i_lat":-6.215091,"i_long":106.86807400000001,"time":3,"line":1},{"station_id":"MTR","line":1,"station_name":"Matraman","distance":1377,"is_transit":false,"i_long":106.858896,"time":2,"i_lat":-6.212485,"transit":false},{"distance":1275,"i_lat":-6.209883,"transit":false,"station_name":"Manggarai","station_id":"MRI","line":2,"is_transit":false,"time":2,"i_long":106.84912},{"station_id":"SUD","distance":3186,"line":1,"is_transit":false,"i_lat":-6.202263,"transit":false,"i_long":106.822649,"station_name":"Sudirman","time":4},{"i_lat":-6.201433,"station_id":"SUDB","station_name":"Sudirman Baru","distance":280,"transit":false,"is_transit":false,"i_long":106.819881,"line":1,"time":1},{"time":1,"i_lat":-6.20132,"is_transit":false,"i_long":106.816351,"transit":false,"line":1,"station_name":"Karet","distance":471,"station_id":"KAT"},{"station_id":"THB","transit":true,"i_long":106.811091,"i_lat":-6.185545,"line":1,"distance":2029,"station_name":"Tanah Abang","is_transit":true,"time":5},{"station_name":"Palmerah","i_lat":-6.207404,"transit":false,"distance":3191,"time":6,"i_long":106.79689,"station_id":"PLM","is_transit":false,"line":6}],[{"is_transit":false,"transit":false,"distance":0,"line":1,"station_id":"KLDB","i_lat":-6.217455,"time":0,"i_long":106.939679,"station_name":"Klenderbaru"},{"distance":1305,"line":1,"time":1,"is_transit":false,"i_lat":-6.215568,"station_name":"Buaran","transit":false,"i_long":106.922662,"station_id":"BUA"},{"distance":3100,"station_name":"Klender","is_transit":false,"station_id":"KLD","time":2,"line":1,"transit":false,"i_lat":-6.2135,"i_long":106.899548},{"i_long":106.86807400000001,"station_id":"JNG","is_transit":true,"line":1,"distance":3395,"time":3,"station_name":"Jatinegara","transit":true,"i_lat":-6.215091},{"distance":1236,"transit":false,"station_id":"POK","is_transit":false,"i_long":106.861737,"line":11,"station_name":"Pondok Jati","time":2,"i_lat":-6.209188},{"transit":false,"i_lat":-6.193792,"time":2,"i_long":106.855437,"line":11,"station_id":"KMT","station_name":"Kramat","distance":1829,"is_transit":false},{"transit":false,"distance":973,"station_name":"Gang Sentiong","is_transit":false,"line":11,"i_lat":-6.185975,"time":1,"station_id":"GST","i_long":106.850107},{"station_id":"PSE","distance":1567,"station_name":"Pasar Senen","transit":false,"is_transit":false,"i_lat":-6.174784,"time":8,"i_long":106.84368,"line":11},{"time":4,"is_transit":false,"station_id":"KMO","i_lat":-6.161728,"line":11,"distance":1436,"i_long":106.839204,"transit":false,"station_name":"Kemayoran"},{"line":11,"i_lat":-6.14505,"station_id":"RJW","transit":false,"distance":1901,"station_name":"Rajawali","time":5,"is_transit":false,"i_long":106.836569},{"transit":true,"station_name":"Kampung Bandan","is_transit":true,"distance":1444,"time":3,"i_lat":-6.132549,"i_long":106.826365,"station_id":"KPB","line":4},{"station_id":"AK","is_transit":false,"i_long":106.79867,"i_lat":-6.144674,"transit":false,"station_name":"Angke","line":1,"distance":4102,"time":9},{"i_lat":-6.155215,"line":1,"time":4,"transit":false,"station_name":"Duri","station_id":"DU","distance":1230,"i_long":106.800832,"is_transit":false},{"distance":3632,"time":8,"line":1,"i_long":106.811091,"station_id":"THB","i_lat":-6.185545,"station_name":"Tanah Abang","is_transit":true,"transit":true},{"is_transit":false,"distance":3191,"i_lat":-6.207404,"station_id":"PLM","i_long":106.79689,"line":6,"station_name":"Palmerah","transit":false,"time":6}],[{"station_name":"Klenderbaru","is_transit":false,"transit":false,"i_long":106.939679,"station_id":"KLDB","time":0,"i_lat":-6.217455,"line":1,"distance":0},{"time":1,"i_lat":-6.215568,"is_transit":false,"i_long":106.922662,"station_name":"Buaran","transit":false,"station_id":"BUA","line":1,"distance":1305},{"i_lat":-6.2135,"distance":3100,"i_long":106.899548,"line":1,"transit":false,"station_name":"Klender","station_id":"KLD","is_transit":false,"time":2},{"station_name":"Jatinegara","station_id":"JNG","line":1,"distance":3395,"i_lat":-6.215091,"transit":false,"time":3,"i_long":106.86807400000001,"is_transit":false},{"is_transit":false,"time":2,"distance":1377,"i_lat":-6.212485,"i_long":106.858896,"station_name":"Matraman","line":1,"transit":false,"station_id":"MTR"},{"station_id":"MRI","i_lat":-6.209883,"transit":true,"station_name":"Manggarai","is_transit":true,"distance":1275,"line":2,"time":2,"i_long":106.84912},{"i_long":106.840169,"station_name":"Cikini","transit":false,"distance":1590,"line":2,"i_lat":-6.198556,"station_id":"CKI","time":4,"is_transit":false},{"i_lat":-6.186295,"distance":1750,"is_transit":false,"time":3,"station_name":"Gondangdia","i_long":106.832183,"line":2,"transit":false,"station_id":"GDD"},{"time":4,"station_name":"Juanda","station_id":"JUA","is_transit":false,"line":2,"distance":2015,"i_long":106.828284,"transit":false,"i_lat":-6.166716},{"i_lat":-6.160725,"is_transit":false,"line":2,"station_name":"Sawah Besar","distance":1149,"transit":false,"station_id":"SW","i_long":106.827103,"time":2},{"i_long":106.82482,"time":2,"transit":false,"station_id":"MGB","is_transit":false,"distance":906,"station_name":"Manggabesar","i_lat":-6.149769,"line":2},{"i_lat":-6.141205,"line":2,"station_name":"Jayakarta","is_transit":false,"time":2,"i_long":106.820901,"station_id":"JAY","transit":false,"distance":1080},{"distance":1264,"i_lat":-6.137569,"station_name":"Jakarta Kota","transit":true,"is_transit":true,"i_long":106.812439,"line":2,"time":4,"station_id":"JAKK"},{"i_lat":-6.132549,"station_name":"Kampung Bandan","is_transit":true,"station_id":"KPB","distance":1364,"i_long":106.826365,"transit":true,"line":4,"time":3},{"i_long":106.79867,"transit":false,"is_transit":false,"time":9,"station_id":"AK","distance":4102,"station_name":"Angke","line":1,"i_lat":-6.144674},{"distance":1230,"is_transit":false,"transit":false,"i_long":106.800832,"time":4,"i_lat":-6.155215,"station_name":"Duri","station_id":"DU","line":1},{"transit":true,"distance":3632,"i_long":106.811091,"time":8,"i_lat":-6.185545,"station_name":"Tanah Abang","station_id":"THB","is_transit":true,"line":1},{"station_name":"Palmerah","transit":false,"i_lat":-6.207404,"station_id":"PLM","is_transit":false,"i_long":106.79689,"distance":3191,"line":6,"time":6}],[{"i_long":106.939679,"line":1,"time":0,"i_lat":-6.217455,"is_transit":false,"transit":false,"distance":0,"station_id":"KLDB","station_name":"Klenderbaru"},{"line":1,"station_name":"Buaran","is_transit":false,"transit":false,"i_long":106.922662,"time":1,"station_id":"BUA","i_lat":-6.215568,"distance":1305},{"distance":3100,"i_lat":-6.2135,"line":1,"time":2,"transit":false,"station_id":"KLD","station_name":"Klender","is_transit":false,"i_long":106.899548},{"is_transit":true,"time":3,"transit":true,"i_lat":-6.215091,"station_id":"JNG","i_long":106.86807400000001,"distance":3395,"line":1,"station_name":"Jatinegara"},{"i_long":106.861737,"station_id":"POK","transit":false,"line":11,"time":2,"distance":1236,"station_name":"Pondok Jati","is_transit":false,"i_lat":-6.209188},{"i_long":106.855437,"i_lat":-6.193792,"line":11,"transit":false,"is_transit":false,"distance":1829,"station_name":"Kramat","station_id":"KMT","time":2},{"i_long":106.850107,"station_name":"Gang Sentiong","distance":973,"station_id":"GST","i_lat":-6.185975,"line":11,"transit":false,"time":1,"is_transit":false},{"distance":1567,"station_id":"PSE","station_name":"Pasar Senen","line":11,"i_lat":-6.174784,"transit":false,"is_transit":false,"i_long":106.84368,"time":8},{"transit":false,"distance":1436,"is_transit":false,"station_id":"KMO","i_long":106.839204,"i_lat":-6.161728,"line":11,"station_name":"Kemayoran","time":4},{"is_transit":false,"distance":1901,"station_id":"RJW","i_lat":-6.14505,"line":11,"station_name":"Rajawali","i_long":106.836569,"time":5,"transit":false},{"i_long":106.826365,"station_id":"KPB","is_transit":true,"distance":1444,"transit":true,"time":3,"line":4,"station_name":"Kampung Bandan","i_lat":-6.132549},{"station_id":"JAKK","transit":true,"line":2,"i_lat":-6.137569,"station_name":"Jakarta Kota","time":3,"i_long":106.812439,"is_transit":true,"distance":1364},{"station_id":"JAY","transit":false,"line":2,"time":4,"i_long":106.820901,"i_lat":-6.141205,"station_name":"Jayakarta","distance":1264,"is_transit":false},{"is_transit":false,"station_name":"Manggabesar","station_id":"MGB","i_long":106.82482,"transit":false,"distance":1080,"i_lat":-6.149769,"line":2,"time":2},{"distance":906,"i_long":106.827103,"transit":false,"station_id":"SW","is_transit":false,"time":2,"line":2,"station_name":"Sawah Besar","i_lat":-6.160725},{"is_transit":false,"time":2,"i_long":106.828284,"distance":1149,"line":2,"i_lat":-6.166716,"transit":false,"station_id":"JUA","station_name":"Juanda"},{"transit":false,"is_transit":false,"i_long":106.832183,"station_id":"GDD","i_lat":-6.186295,"distance":2015,"station_name":"Gondangdia","line":2,"time":4},{"i_lat":-6.198556,"i_long":106.840169,"transit":false,"time":3,"station_id":"CKI","station_name":"Cikini","is_transit":false,"line":2,"distance":1750},{"distance":1590,"is_transit":true,"i_lat":-6.209883,"station_name":"Manggarai","line":2,"station_id":"MRI","time":4,"i_long":106.84912,"transit":true},{"distance":3186,"line":1,"station_name":"Sudirman","i_long":106.822649,"is_transit":false,"time":4,"i_lat":-6.202263,"transit":false,"station_id":"SUD"},{"station_name":"Sudirman Baru","distance":280,"transit":false,"is_transit":false,"i_lat":-6.201433,"station_id":"SUDB","time":1,"line":1,"i_long":106.819881},{"i_long":106.816351,"time":1,"i_lat":-6.20132,"distance":471,"is_transit":false,"station_name":"Karet","transit":false,"line":1,"station_id":"KAT"},{"is_transit":true,"station_name":"Tanah Abang","transit":true,"distance":2029,"time":5,"i_lat":-6.185545,"line":1,"i_long":106.811091,"station_id":"THB"},{"station_name":"Palmerah","is_transit":false,"time":6,"i_lat":-6.207404,"line":6,"distance":3191,"transit":false,"station_id":"PLM","i_long":106.79689}]]}