{"data":[[{"i_lat":-6.217455,"transit":false,"station_name":"Klenderbaru","line":1,"i_long":106.939679,"is_transit":false,"station_id":"KLDB","time":0,"distance":0},{"i_lat":-6.215568,"line":1,"i_long":106.922662,"station_id":"BUA","station_name":"Buaran","transit":false,"time":1,"distance":1305,"is_transit":false},{"i_long":106.899548,"transit":false,"distance":3100,"is_transit":false,"line":1,"i_lat":-6.2135,"station_name":"Klender","station_id":"KLD","time":2},{"i_lat":-6.215091,"is_transit":true,"line":1,"time":3,"station_id":"JNG","station_name":"Jatinegara","distance":3395,"transit":true,"i_long":106.86807400000001},{"line":11,"i_lat":-6.209188,"transit":false,"station_name":"Pondok Jati","station_id":"POK","distance":1236,"is_transit":false,"time":2,"i_long":106.861737},{"distance":1829,"i_lat":-6.193792,"line":11,"i_long":106.855437,"time":2,"station_id":"KMT","is_transit":false,"transit":false,"station_name":"Kramat"},{"time":1,"is_transit":false,"station_name":"Gang Sentiong","i_lat":-6.185975,"transit":false,"i_long":106.850107,"line":11,"distance":973,"station_id":"GST"},{"transit":false,"station_id":"PSE","time":8,"i_long":106.84368,"distance":1567,"is_transit":false,"station_name":"Pasar Senen","line":11,"i_lat":-6.174784},{"station_name":"Kemayoran","i_lat":-6.161728,"distance":1436,"line":11,"transit":false,"station_id":"KMO","time":4,"i_long":106.839204,"is_transit":false}],[{"i_lat":-6.217455,"station_name":"Klenderbaru","line":1,"station_id":"KLDB","transit":false,"time":0,"distance":0,"is_transit":false,"i_long":106.939679},{"transit":false,"station_id":"BUA","line":1,"is_transit":false,"time":1,"distance":1305,"station_name":"Buaran","i_lat":-6.215568,"i_long":106.922662},{"i_lat":-6.2135,"transit":false,"station_id":"KLD","distance":3100,"station_name":"Klender","is_transit":false,"line":1,"i_long":106.899548,"time":2},{"transit":false,"i_lat":-6.215091,"station_id":"JNG","is_transit":false,"time":3,"station_name":"Jatinegara","line":1,"distance":3395,"i_long":106.86807400000001},{"station_name":"Matraman","is_transit":false,"line":1,"transit":false,"station_id":"MTR","time":2,"distance":1377,"i_lat":-6.212485,"i_long":106.858896},{"transit":false,"station_id":"MRI","i_long":106.84912,"line":2,"i_lat":-6.209883,"station_name":"Manggarai","is_transit":false,"distance":1275,"time":2},{"station_id":"SUD","transit":false,"station_name":"Sudirman","distance":3186,"i_lat":-6.202263,"is_transit":false,"time":4,"i_long":106.822649,"line":1},{"i_lat":-6.201433,"station_id":"SUDB","distance":280,"i_long":106.819881,"is_transit":false,"line":1,"transit":false,"time":1,"station_name":"Sudirman Baru"},{"station_name":"Karet","time":1,"i_lat":-6.20132,"i_long":106.816351,"is_transit":false,"distance":471,"station_id":"KAT","transit":false,"line":1},{"time":5,"line":1,"transit":false,"station_id":"THB","i_lat":-6.185545,"station_name":"Tanah Abang","i_long":106.811091,"is_transit":false,"distance":2029},{"time":8,"i_lat":-6.155215,"station_id":"DU","station_name":"Duri","transit":false,"is_transit":false,"distance":3632,"i_long":106.800832,"line":1},{"is_transit":false,"station_name":"Angke","station_id":"AK","time":4,"i_long":106.79867,"distance":1230,"transit":false,"line":1,"i_lat":-6.144674},{"is_transit":true,"station_name":"Kampung Bandan","station_id":"KPB","i_long":106.826365,"i_lat":-6.132549,"line":4,"distance":4102,"time":9,"transit":true},{"transit":false,"distance":1444,"station_name":"Rajawali","i_long":106.836569,"line":11,"time":3,"i_lat":-6.14505,"station_id":"RJW","is_transit":false},{"station_id":"KMO","is_transit":false,"i_lat":-6.161728,"i_long":106.839204,"transit":false,"station_name":"Kemayoran","distance":1901,"line":11,"time":5}],[{"i_long":106.939679,"i_lat":-6.217455,"line":1,"transit":false,"station_name":"Klenderbaru","station_id":"KLDB","is_transit":false,"time":0,"distance":0},{"line":1,"station_id":"BUA","distance":1305,"transit":false,"station_name":"Buaran","is_transit":false,"time":1,"i_lat":-6.215568,"i_long":106.922662},{"i_lat":-6.2135,"station_name":"Klender","station_id":"KLD","i_long":106.899548,"line":1,"is_transit":false,"transit":false,"distance":3100,"time":2},{"i_lat":-6.215091,"line":1,"i_long":106.86807400000001,"time":3,"distance":3395,"transit":false,"station_name":"Jatinegara","station_id":"JNG","is_transit":false},{"time":2,"transit":false,"line":1,"distance":1377,"i_lat":-6.212485,"station_name":"Matraman","station_id":"MTR","is_transit":false,"i_long":106.858896},{"i_lat":-6.209883,"station_id":"MRI","is_transit":true,"time":2,"distance":1275,"transit":true,"line":2,"station_name":"Manggarai","i_long":106.84912},{"i_lat":-6.198556,"is_transit":false,"time":4,"distance":1590,"line":2,"station_name":"Cikini","station_id":"CKI","i_long":106.840169,"transit":false},{"transit":false,"station_name":"Gondangdia","time":3,"is_transit":false,"i_long":106.832183,"line":2,"distance":1750,"i_lat":-6.186295,"station_id":"GDD"},{"station_id":"JUA","i_lat":-6.166716,"i_long":106.828284,"time":4,"line":2,"is_transit":false,"distance":2015,"transit":false,"station_name":"Juanda"},{"is_transit":false,"transit":false,"i_lat":-6.160725,"i_long":106.827103,"distance":1149,"time":2,"station_name":"Sawah Besar","line":2,"station_id":"SW"},{"i_long":106.82482,"station_id":"MGB","is_transit":false,"distance":906,"i_lat":-6.149769,"transit":false,"time":2,"line":2,"station_name":"Manggabesar"},{"is_transit":false,"station_name":"Jayakarta","station_id":"JAY","i_long":106.820901,"time":2,"transit":false,"i_lat":-6.141205,"distance":1080,"line":2},{"line":2,"distance":1264,"is_transit":true,"time":4,"transit":true,"i_lat":-6.137569,"i_long":106.812439,"station_name":"Jakarta Kota","station_id":"JAKK"},{"i_long":106.826365,"line":4,"station_name":"Kampung Bandan","distance":1364,"station_id":"KPB","is_transit":true,"transit":true,"time":3,"i_lat":-6.132549},{"line":11,"time":3,"i_lat":-6.14505,"distance":1444,"is_transit":false,"station_id":"RJW","station_name":"Rajawali","i_long":106.836569,"transit":false},{"distance":1901,"is_transit":false,"station_id":"KMO","i_lat":-6.161728,"transit":false,"station_name":"Kemayoran","time":5,"i_long":106.839204,"line":11}]]}