{"data":[[{"distance":0,"is_transit":false,"station_id":"KLDB","i_lat":-6.217455,"i_long":106.939679,"transit":false,"time":0,"station_name":"Klenderbaru","line":1},{"station_name":"Buaran","distance":1305,"is_transit":false,"transit":false,"station_id":"BUA","time":1,"i_lat":-6.215568,"i_long":106.922662,"line":1},{"line":1,"i_lat":-6.2135,"is_transit":false,"i_long":106.899548,"time":2,"distance":3100,"station_name":"Klender","transit":false,"station_id":"KLD"},{"transit":false,"distance":3395,"station_name":"Jatinegara","i_long":106.86807400000001,"is_transit":false,"line":1,"time":3,"station_id":"JNG","i_lat":-6.215091},{"station_id":"MTR","line":1,"transit":false,"time":2,"i_lat":-6.212485,"station_name":"Matraman","i_long":106.858896,"is_transit":false,"distance":1377},{"station_id":"MRI","line":2,"time":2,"station_name":"Manggarai","i_lat":-6.209883,"i_long":106.84912,"is_transit":false,"distance":1275,"transit":false},{"transit":false,"station_id":"SUD","is_transit":false,"time":4,"i_lat":-6.202263,"line":1,"i_long":106.822649,"distance":3186,"station_name":"Sudirman"},{"line":1,"station_name":"Sudirman Baru","distance":280,"i_long":106.819881,"transit":false,"is_transit":false,"time":1,"station_id":"SUDB","i_lat":-6.201433},{"line":1,"i_lat":-6.20132,"station_name":"Karet","transit":false,"is_transit":false,"i_long":106.816351,"station_id":"KAT","time":1,"distance":471},{"i_lat":-6.185545,"station_name":"Tanah Abang","station_id":"THB","transit":true,"i_long":106.811091,"line":1,"distance":2029,"time":5,"is_transit":true},{"transit":false,"station_id":"PLM","i_lat":-6.207404,"line":6,"is_transit":false,"time":6,"distance":3191,"i_long":106.79689,"station_name":"Palmerah"},{"is_transit":false,"line":6,"station_id":"KBY","i_long":106.780334,"transit":false,"time":7,"station_name":"Kebayoran","distance":3737,"i_lat":-6.237242},{"distance":6218,"i_lat":-6.276362,"transit":false,"line":6,"time":8,"station_id":"PDJ","station_name":"Pondokranji","is_transit":false,"i_long":106.74273},{"line":6,"i_long":106.728916,"is_transit":false,"station_id":"JMU","i_lat":-6.288927,"distance":2179,"station_name":"Jurangmangu","time":3,"transit":false},{"time":4,"transit":false,"station_id":"SDM","distance":1994,"i_lat":-6.296963,"line":6,"station_name":"Sudimara","is_transit":false,"i_long":106.712277}],[{"station_name":"Klenderbaru","time":0,"distance":0,"i_lat":-6.217455,"transit":false,"line":1,"is_transit":false,"station_id":"KLDB","i_long":106.939679},{"is_transit":false,"station_id":"BUA","time":1,"transit":false,"distance":1305,"i_long":106.922662,"station_name":"Buaran","i_lat":-6.215568,"line":1},{"line":1,"transit":false,"is_transit":false,"distance":3100,"station_name":"Klender","station_id":"KLD","time":2,"i_lat":-6.2135,"i_long":106.899548},{"distance":3395,"line":1,"station_name":"Jatinegara","station_id":"JNG","i_long":106.86807400000001,"is_transit":true,"time":3,"i_lat":-6.215091,"transit":true},{"i_lat":-6.209188,"station_name":"Pondok Jati","distance":1236,"time":2,"line":11,"transit":false,"station_id":"POK","is_transit":false,"i_long":106.861737},{"transit":false,"is_transit":false,"station_id":"KMT","i_lat":-6.193792,"time":2,"distance":1829,"station_name":"Kramat","i_long":106.855437,"line":11},{"i_lat":-6.185975,"station_id":"GST","is_transit":false,"time":1,"line":11,"i_long":106.850107,"station_name":"Gang Sentiong","transit":false,"distance":973},{"station_id":"PSE","line":11,"transit":false,"is_transit":false,"time":8,"distance":1567,"i_lat":-6.174784,"station_name":"Pasar Senen","i_long":106.84368},{"is_transit":false,"station_name":"Kemayoran","distance":1436,"station_id":"KMO","i_long":106.839204,"line":11,"transit":false,"time":4,"i_lat":-6.161728},{"distance":1901,"station_name":"Rajawali","i_lat":-6.14505,"station_id":"RJW","time":5,"transit":false,"i_long":106.836569,"line":11,"is_transit":false},{"station_name":"Kampung Bandan","transit":true,"i_lat":-6.132549,"station_id":"KPB","is_transit":true,"i_long":106.826365,"distance":1444,"line":4,"time":3},{"i_long":106.79867,"line":1,"time":9,"i_lat":-6.144674,"is_transit":false,"transit":false,"distance":4102,"station_id":"AK","station_name":"Angke"},{"line":1,"station_name":"Duri","is_transit":false,"transit":false,"i_long":106.800832,"time":4,"station_id":"DU","i_lat":-6.155215,"distance":1230},{"distance":3632,"i_lat":-6.185545,"line":1,"time":8,"transit":true,"station_id":"THB","station_name":"Tanah Abang","is_transit":true,"i_long":106.811091},{"is_transit":false,"time":6,"transit":false,"i_lat":-6.207404,"station_id":"PLM","i_long":106.79689,"distance":3191,"line":6,"station_name":"Palmerah"},{"i_long":106.780334,"station_id":"KBY","transit":false,"line":6,"time":7,"distance":3737,"station_name":"Kebayoran","is_transit":false,"i_lat":-6.237242},{"i_long":106.74273,"i_lat":-6.276362,"line":6,"transit":false,"is_transit":false,"distance":6218,"station_name":"Pondokranji","station_id":"PDJ","time":8},{"i_lat":-6.288927,"transit":false,"is_transit":false,"station_name":"Jurangmangu","distance":2179,"time":3,"i_long":106.728916,"station_id":"JMU","line":6},{"i_lat":-6.296963,"line":6,"station_id":"SDM","time":4,"distance":1994,"station_name":"Sudimara","i_long":106.712277,"transit":false,"is_transit":false}],[{"is_transit":false,"distance":0,"transit":false,"station_id":"KLDB","time":0,"station_name":"Klenderbaru","line":1,"i_long":106.939679,"i_lat":-6.217455},{"i_long":106.922662,"is_transit":false,"line":1,"station_name":"Buaran","distance":1305,"time":1,"station_id":"BUA","transit":false,"i_lat":-6.215568},{"time":2,"station_id":"KLD","line":1,"station_name":"Klender","is_transit":false,"i_lat":-6.2135,"distance":3100,"i_long":106.899548,"transit":false},{"station_name":"Jatinegara","distance":3395,"i_lat":-6.215091,"line":1,"station_id":"JNG","i_long":106.86807400000001,"time":3,"transit":false,"is_transit":false},{"line":1,"is_transit":false,"station_id":"MTR","i_lat":-6.212485,"time":2,"transit":false,"i_long":106.858896,"station_name":"Matraman","distance":1377},{"transit":true,"distance":1275,"line":2,"station_id":"MRI","is_transit":true,"time":2,"station_name":"Manggarai","i_lat":-6.209883,"i_long":106.84912},{"i_lat":-6.198556,"station_id":"CKI","time":4,"distance":1590,"transit":false,"i_long":106.840169,"line":2,"is_transit":false,"station_name":"Cikini"},{"station_name":"Gondangdia","is_transit":false,"transit":false,"station_id":"GDD","time":3,"i_long":106.832183,"line":2,"i_lat":-6.186295,"distance":1750},{"distance":2015,"station_name":"Juanda","line":2,"i_lat":-6.166716,"is_transit":false,"i_long":106.828284,"transit":false,"station_id":"JUA","time":4},{"i_lat":-6.160725,"i_long":106.827103,"transit":false,"time":2,"station_id":"SW","station_name":"Sawah Besar","is_transit":false,"line":2,"distance":1149},{"distance":906,"is_transit":false,"i_lat":-6.149769,"station_name":"Manggabesar","line":2,"station_id":"MGB","time":2,"i_long":106.82482,"transit":false},{"distance":1080,"line":2,"station_name":"Jayakarta","i_long":106.820901,"is_transit":false,"time":2,"i_lat":-6.141205,"transit":false,"station_id":"JAY"},{"station_name":"Jakarta Kota","distance":1264,"transit":true,"is_transit":true,"i_lat":-6.137569,"station_id":"JAKK","time":4,"line":2,"i_long":106.812439},{"i_long":106.826365,"time":3,"i_lat":-6.132549,"distance":1364,"is_transit":true,"station_name":"Kampung Bandan","transit":true,"line":4,"station_id":"KPB"},{"is_transit":false,"station_name":"Angke","transit":false,"distance":4102,"time":9,"i_lat":-6.144674,"line":1,"i_long":106.79867,"station_id":"AK"},{"station_name":"Duri","is_transit":false,"time":4,"i_lat":-6.155215,"line":1,"distance":1230,"transit":false,"station_id":"DU","i_long":106.800832},{"time":8,"distance":3632,"station_id":"THB","is_transit":true,"i_lat":-6.185545,"station_name":"Tanah Abang","line":1,"transit":true,"i_long":106.811091},{"is_transit":false,"time":6,"line":6,"station_name":"Palmerah","station_id":"PLM","distance":3191,"i_lat":-6.207404,"transit":false,"i_long":106.79689},{"station_name":"Kebayoran","transit":false,"distance":3737,"station_id":"KBY","is_transit":false,"i_lat":-6.237242,"line":6,"i_long":106.780334,"time":7},{"station_name":"Pondokranji","transit":false,"i_long":106.74273,"i_lat":-6.276362,"line":6,"distance":6218,"station_id":"PDJ","time":8,"is_transit":false},{"is_transit":false,"station_name":"Jurangmangu","i_long":106.728916,"distance":2179,"station_id":"JMU","transit":false,"line":6,"i_lat":-6.288927,"time":3},{"i_lat":-6.296963,"i_long":106.712277,"line":6,"station_name":"Sudimara","is_transit":false,"distance":1994,"transit":false,"time":4,"station_id":"SDM"}],[{"i_lat":-6.217455,"distance":0,"transit":false,"i_long":106.939679,"station_name":"Klenderbaru","station_id":"KLDB","is_transit":false,"line":1,"time":0},{"time":1,"i_lat":-6.215568,"station_id":"BUA","transit":false,"station_name":"Buaran","distance":1305,"i_long":106.922662,"line":1,"is_transit":false},{"station_name":"Klender","distance":3100,"i_lat":-6.2135,"i_long":106.899548,"transit":false,"is_transit":false,"station_id":"KLD","time":2,"line":1},{"line":1,"station_name":"Jatinegara","distance":3395,"is_transit":true,"transit":true,"i_lat":-6.215091,"time":3,"station_id":"JNG","i_long":106.86807400000001},{"is_transit":false,"line":11,"transit":false,"station_name":"Pondok Jati","distance":1236,"station_id":"POK","time":2,"i_lat":-6.209188,"i_long":106.861737},{"i_lat":-6.193792,"line":11,"station_id":"KMT","is_transit":false,"transit":false,"station_name":"Kramat","time":2,"distance":1829,"i_long":106.855437},{"station_id":"GST","line":11,"is_transit":false,"time":1,"i_lat":-6.185975,"distance":973,"i_long":106.850107,"transit":false,"station_name":"Gang Sentiong"},{"time":8,"i_long":106.84368,"station_id":"PSE","station_name":"Pasar Senen","is_transit":false,"distance":1567,"transit":false,"i_lat":-6.174784,"line":11},{"station_id":"KMO","i_long":106.839204,"transit":false,"line":11,"distance":1436,"station_name":"Kemayoran","is_transit":false,"i_lat":-6.161728,"time":4},{"station_name":"Rajawali","is_transit":false,"transit":false,"i_lat":-6.14505,"station_id":"RJW","i_long":106.836569,"distance":1901,"time":5,"line":11},{"station_name":"Kampung Bandan","time":3,"distance":1444,"i_lat":-6.132549,"line":4,"is_transit":true,"station_id":"KPB","transit":true,"i_long":106.826365},{"line":2,"transit":true,"time":3,"station_id":"JAKK","station_name":"Jakarta Kota","i_lat":-6.137569,"distance":1364,"i_long":106.812439,"is_transit":true},{"is_transit":false,"i_long":106.820901,"station_name":"Jayakarta","transit":false,"line":2,"i_lat":-6.141205,"station_id":"JAY","time":4,"distance":1264},{"is_transit":false,"i_long":106.82482,"line":2,"time":2,"i_lat":-6.149769,"station_name":"Manggabesar","station_id":"MGB","distance":1080,"transit":false},{"station_name":"Sawah Besar","station_id":"SW","transit":false,"time":2,"distance":906,"line":2,"i_long":106.827103,"i_lat":-6.160725,"is_transit":false},{"transit":false,"line":2,"time":2,"is_transit":false,"station_name":"Juanda","i_long":106.828284,"station_id":"JUA","i_lat":-6.166716,"distance":1149},{"i_long":106.832183,"station_id":"GDD","distance":2015,"line":2,"transit":false,"i_lat":-6.186295,"is_transit":false,"station_name":"Gondangdia","time":4},{"i_lat":-6.198556,"transit":false,"time":3,"i_long":106.840169,"distance":1750,"station_id":"CKI","is_transit":false,"line":2,"station_name":"Cikini"},{"distance":1590,"i_lat":-6.209883,"transit":true,"line":2,"is_transit":true,"station_id":"MRI","station_name":"Manggarai","i_long":106.84912,"time":4},{"transit":false,"station_name":"Sudirman","distance":3186,"i_long":106.822649,"is_transit":false,"station_id":"SUD","time":4,"i_lat":-6.202263,"line":1},{"line":1,"station_name":"Sudirman Baru","is_transit":false,"i_long":106.819881,"transit":false,"distance":280,"i_lat":-6.201433,"station_id":"SUDB","time":1},{"distance":471,"station_name":"Karet","transit":false,"i_lat":-6.20132,"i_long":106.816351,"is_transit":false,"station_id":"KAT","time":1,"line":1},{"i_lat":-6.185545,"station_name":"Tanah Abang","transit":true,"distance":2029,"i_long":106.811091,"station_id":"THB","line":1,"is_transit":true,"time":5},{"station_name":"Palmerah","distance":3191,"i_lat":-6.207404,"i_long":106.79689,"transit":false,"time":6,"station_id":"PLM","is_transit":false,"line":6},{"i_long":106.780334,"line":6,"distance":3737,"i_lat":-6.237242,"transit":false,"is_transit":false,"time":7,"station_id":"KBY","station_name":"Kebayoran"},{"i_lat":-6.276362,"transit":false,"time":8,"station_id":"PDJ","distance":6218,"station_name":"Pondokranji","is_transit":false,"i_long":106.74273,"line":6},{"transit":false,"station_name":"Jurangmangu","i_long":106.728916,"station_id":"JMU","distance":2179,"i_lat":-6.288927,"time":3,"line":6,"is_transit":false},{"station_id":"SDM","i_lat":-6.296963,"i_long":106.712277,"transit":false,"station_name":"Sudimara","is_transit":false,"time":4,"distance":1994,"line":6}]]}