{"data":[[{"station_id":"KLDB","is_transit":false,"time":0,"i_lat":-6.217455,"line":1,"station_name":"Klenderbaru","distance":0,"i_long":106.939679,"transit":false},{"line":1,"time":1,"distance":1305,"station_id":"BUA","is_transit":false,"station_name":"Buaran","i_lat":-6.215568,"transit":false,"i_long":106.922662},{"station_name":"Klender","i_lat":-6.2135,"station_id":"KLD","is_transit":false,"transit":false,"line":1,"i_long":106.899548,"time":2,"distance":3100},{"distance":3395,"station_name":"Jatinegara","time":3,"i_lat":-6.215091,"transit":false,"line":1,"i_long":106.86807400000001,"station_id":"JNG","is_transit":false},{"i_lat":-6.212485,"i_long":106.858896,"line":1,"distance":1377,"station_name":"Matraman","is_transit":false,"time":2,"station_id":"MTR","transit":false},{"time":2,"i_long":106.84912,"distance":1275,"is_transit":false,"station_name":"Manggarai","i_lat":-6.209883,"station_id":"MRI","transit":false,"line":2},{"distance":3186,"is_transit":false,"station_name":"Sudirman","i_lat":-6.202263,"time":4,"i_long":106.822649,"transit":false,"line":1,"station_id":"SUD"},{"time":1,"transit":false,"station_id":"SUDB","distance":280,"station_name":"Sudirman Baru","i_lat":-6.201433,"is_transit":false,"i_long":106.819881,"line":1},{"is_transit":false,"i_lat":-6.20132,"time":1,"station_id":"KAT","distance":471,"transit":false,"station_name":"Karet","i_long":106.816351,"line":1},{"i_long":106.811091,"station_name":"Tanah Abang","transit":true,"line":1,"time":5,"station_id":"THB","distance":2029,"i_lat":-6.185545,"is_transit":true},{"i_lat":-6.207404,"station_id":"PLM","distance":3191,"is_transit":false,"i_long":106.79689,"line":6,"transit":false,"station_name":"Palmerah","time":6}],[{"transit":false,"i_long":106.939679,"i_lat":-6.217455,"station_name":"Klenderbaru","station_id":"KLDB","is_transit":false,"distance":0,"time":0,"line":1},{"transit":false,"station_id":"BUA","station_name":"Buaran","line":1,"is_transit":false,"time":1,"distance":1305,"i_lat":-6.215568,"i_long":106.922662},{"i_lat":-6.2135,"station_name":"Klender","time":2,"station_id":"KLD","line":1,"is_transit":false,"i_long":106.899548,"distance":3100,"transit":false},{"time":3,"station_name":"Jatinegara","transit":true,"is_transit":true,"i_lat":-6.215091,"station_id":"JNG","line":1,"i_long":106.86807400000001,"distance":3395},{"transit":false,"station_id":"POK","station_name":"Pondok Jati","i_lat":-6.209188,"time":2,"distance":1236,"i_long":106.861737,"line":11,"is_transit":false},{"station_id":"KMT","distance":1829,"station_name":"Kramat","is_transit":false,"transit":false,"line":11,"time":2,"i_lat":-6.193792,"i_long":106.855437},{"i_lat":-6.185975,"station_id":"GST","station_name":"Gang Sentiong","time":1,"is_transit":false,"transit":false,"distance":973,"i_long":106.850107,"line":11},{"station_id":"PSE","transit":false,"distance":1567,"is_transit":false,"i_lat":-6.174784,"time":8,"station_name":"Pasar Senen","i_long":106.84368,"line":11},{"is_transit":false,"time":4,"station_id":"KMO","station_name":"Kemayoran","i_long":106.839204,"line":11,"distance":1436,"i_lat":-6.161728,"transit":false},{"line":11,"transit":false,"is_transit":false,"station_name":"Rajawali","station_id":"RJW","i_lat":-6.14505,"time":5,"i_long":106.836569,"distance":1901},{"i_long":106.826365,"station_id":"KPB","time":3,"station_name":"Kampung Bandan","is_transit":true,"line":4,"distance":1444,"transit":true,"i_lat":-6.132549},{"distance":4102,"line":1,"station_name":"Angke","transit":false,"time":9,"is_transit":false,"i_long":106.79867,"station_id":"AK","i_lat":-6.144674},{"transit":false,"station_name":"Duri","i_lat":-6.155215,"time":4,"line":1,"is_transit":false,"station_id":"DU","i_long":106.800832,"distance":1230},{"station_id":"THB","i_long":106.811091,"distance":3632,"is_transit":true,"transit":true,"time":8,"i_lat":-6.185545,"station_name":"Tanah Abang","line":1},{"station_name":"Palmerah","transit":false,"distance":3191,"i_lat":-6.207404,"is_transit":false,"i_long":106.79689,"station_id":"PLM","line":6,"time":6}],[{"time":0,"i_long":106.939679,"station_id":"KLDB","transit":false,"station_name":"Klenderbaru","is_transit":false,"i_lat":-6.217455,"distance":0,"line":1},{"transit":false,"station_name":"Buaran","line":1,"time":1,"distance":1305,"is_transit":false,"i_lat":-6.215568,"station_id":"BUA","i_long":106.922662},{"i_long":106.899548,"station_id":"KLD","time":2,"transit":false,"line":1,"distance":3100,"station_name":"Klender","i_lat":-6.2135,"is_transit":false},{"station_id":"JNG","i_lat":-6.215091,"transit":false,"station_name":"Jatinegara","is_transit":false,"line":1,"distance":3395,"i_long":106.86807400000001,"time":3},{"station_id":"MTR","transit":false,"distance":1377,"i_lat":-6.212485,"is_transit":false,"i_long":106.858896,"line":1,"station_name":"Matraman","time":2},{"time":2,"i_lat":-6.209883,"i_long":106.84912,"station_name":"Manggarai","transit":true,"station_id":"MRI","is_transit":true,"distance":1275,"line":2},{"station_id":"CKI","transit":false,"station_name":"Cikini","i_lat":-6.198556,"line":2,"is_transit":false,"time":4,"i_long":106.840169,"distance":1590},{"time":3,"i_lat":-6.186295,"i_long":106.832183,"transit":false,"station_id":"GDD","is_transit":false,"line":2,"station_name":"Gondangdia","distance":1750},{"i_long":106.828284,"line":2,"time":4,"is_transit":false,"transit":false,"station_name":"Juanda","station_id":"JUA","distance":2015,"i_lat":-6.166716},{"is_transit":false,"distance":1149,"time":2,"line":2,"i_long":106.827103,"transit":false,"station_name":"Sawah Besar","i_lat":-6.160725,"station_id":"SW"},{"i_long":106.82482,"distance":906,"station_name":"Manggabesar","is_transit":false,"transit":false,"time":2,"station_id":"MGB","i_lat":-6.149769,"line":2},{"station_id":"JAY","time":2,"distance":1080,"station_name":"Jayakarta","is_transit":false,"i_long":106.820901,"line":2,"i_lat":-6.141205,"transit":false},{"i_lat":-6.137569,"station_id":"JAKK","transit":true,"time":4,"station_name":"Jakarta Kota","is_transit":true,"distance":1264,"line":2,"i_long":106.812439},{"station_name":"Kampung Bandan","station_id":"KPB","transit":true,"distance":1364,"line":4,"i_long":106.826365,"time":3,"is_transit":true,"i_lat":-6.132549},{"i_lat":-6.144674,"time":9,"i_long":106.79867,"distance":4102,"transit":false,"line":1,"station_id":"AK","station_name":"Angke","is_transit":false},{"line":1,"station_name":"Duri","i_lat":-6.155215,"i_long":106.800832,"transit":false,"time":4,"is_transit":false,"distance":1230,"station_id":"DU"},{"line":1,"transit":true,"station_id":"THB","is_transit":true,"station_name":"Tanah Abang","time":8,"i_lat":-6.185545,"i_long":106.811091,"distance":3632},{"is_transit":false,"i_long":106.79689,"time":6,"line":6,"i_lat":-6.207404,"distance":3191,"station_name":"Palmerah","station_id":"PLM","transit":false}],[{"i_lat":-6.217455,"line":1,"transit":false,"time":0,"station_name":"Klenderbaru","i_long":106.939679,"distance":0,"station_id":"KLDB","is_transit":false},{"is_transit":false,"i_long":106.922662,"line":1,"station_name":"Buaran","time":1,"station_id":"BUA","distance":1305,"transit":false,"i_lat":-6.215568},{"time":2,"line":1,"station_name":"Klender","is_transit":false,"distance":3100,"i_lat":-6.2135,"i_long":106.899548,"transit":false,"station_id":"KLD"},{"transit":true,"distance":3395,"station_id":"JNG","i_lat":-6.215091,"i_long":106.86807400000001,"time":3,"line":1,"is_transit":true,"station_name":"Jatinegara"},{"transit":false,"line":11,"i_lat":-6.209188,"i_long":106.861737,"is_transit":false,"distance":1236,"station_name":"Pondok Jati","station_id":"POK","time":2},{"transit":false,"i_lat":-6.193792,"station_name":"Kramat","distance":1829,"is_transit":false,"i_long":106.855437,"station_id":"KMT","time":2,"line":11},{"station_id":"GST","i_lat":-6.185975,"time":1,"distance":973,"line":11,"station_name":"Gang Sentiong","transit":false,"is_transit":false,"i_long":106.850107},{"transit":false,"time":8,"is_transit":false,"line":11,"station_name":"Pasar Senen","i_lat":-6.174784,"i_long":106.84368,"station_id":"PSE","distance":1567},{"distance":1436,"transit":false,"station_id":"KMO","time":4,"station_name":"Kemayoran","is_transit":false,"i_lat":-6.161728,"i_long":106.839204,"line":11},{"time":5,"is_transit":false,"station_name":"Rajawali","i_lat":-6.14505,"transit":false,"station_id":"RJW","line":11,"distance":1901,"i_long":106.836569},{"line":4,"i_lat":-6.132549,"time":3,"transit":true,"station_id":"KPB","station_name":"Kampung Bandan","is_transit":true,"distance":1444,"i_long":106.826365},{"line":2,"station_name":"Jakarta Kota","time":3,"station_id":"JAKK","transit":true,"i_lat":-6.137569,"i_long":106.812439,"distance":1364,"is_transit":true},{"is_transit":false,"i_long":106.820901,"transit":false,"station_id":"JAY","line":2,"distance":1264,"i_lat":-6.141205,"station_name":"Jayakarta","time":4},{"i_long":106.82482,"transit":false,"time":2,"distance":1080,"line":2,"station_name":"Manggabesar","i_lat":-6.149769,"station_id":"MGB","is_transit":false},{"station_id":"SW","line":2,"is_transit":false,"station_name":"Sawah Besar","i_long":106.827103,"transit":false,"i_lat":-6.160725,"time":2,"distance":906},{"station_id":"JUA","transit":false,"i_long":106.828284,"distance":1149,"station_name":"Juanda","i_lat":-6.166716,"is_transit":false,"time":2,"line":2},{"i_long":106.832183,"distance":2015,"station_name":"Gondangdia","transit":false,"time":4,"line":2,"i_lat":-6.186295,"station_id":"GDD","is_transit":false},{"transit":false,"station_id":"CKI","line":2,"distance":1750,"time":3,"station_name":"Cikini","i_long":106.840169,"is_transit":false,"i_lat":-6.198556},{"time":4,"station_name":"Manggarai","line":2,"is_transit":true,"transit":true,"station_id":"MRI","i_lat":-6.209883,"i_long":106.84912,"distance":1590},{"distance":3186,"i_long":106.822649,"is_transit":false,"i_lat":-6.202263,"line":1,"transit":false,"station_id":"SUD","station_name":"Sudirman","time":4},{"transit":false,"station_name":"Sudirman Baru","time":1,"station_id":"SUDB","is_transit":false,"i_lat":-6.201433,"line":1,"i_long":106.819881,"distance":280},{"i_lat":-6.20132,"time":1,"transit":false,"distance":471,"is_transit":false,"line":1,"station_name":"Karet","i_long":106.816351,"station_id":"KAT"},{"i_lat":-6.185545,"distance":2029,"station_name":"Tanah Abang","transit":true,"time":5,"station_id":"THB","i_long":106.811091,"line":1,"is_transit":true},{"station_id":"PLM","distance":3191,"station_name":"Palmerah","line":6,"is_transit":false,"transit":false,"time":6,"i_lat":-6.207404,"i_long":106.79689}]]}