{"data":[[{"station_name":"Klenderbaru","line":1,"i_long":106.939679,"i_lat":-6.217455,"transit":false,"is_transit":false,"station_id":"KLDB","distance":0,"time":0},{"station_name":"Buaran","time":1,"i_lat":-6.215568,"line":1,"is_transit":false,"transit":false,"station_id":"BUA","i_long":106.922662,"distance":1305},{"i_long":106.899548,"time":2,"i_lat":-6.2135,"station_id":"KLD","is_transit":false,"line":1,"station_name":"Klender","transit":false,"distance":3100},{"time":3,"distance":3395,"i_lat":-6.215091,"line":1,"is_transit":false,"i_long":106.86807400000001,"station_id":"JNG","transit":false,"station_name":"Jatinegara"},{"station_id":"MTR","transit":false,"time":2,"is_transit":false,"distance":1377,"i_long":106.858896,"i_lat":-6.212485,"line":1,"station_name":"Matraman"},{"station_id":"MRI","is_transit":true,"time":2,"station_name":"Manggarai","distance":1275,"i_long":106.84912,"transit":true,"line":2,"i_lat":-6.209883},{"station_id":"TEB","is_transit":false,"distance":2610,"time":4,"i_lat":-6.226659,"station_name":"Tebet","transit":false,"line":2,"i_long":106.857948},{"is_transit":false,"station_name":"Cawang","time":2,"distance":1230,"i_long":106.856607,"transit":false,"station_id":"CW","line":2,"i_lat":-6.242512},{"station_id":"DRN","is_transit":false,"distance":1546,"time":3,"line":2,"i_lat":-6.255332,"station_name":"Duren Kalibata","transit":false,"i_long":106.85449}],[{"station_id":"KLDB","station_name":"Klenderbaru","i_lat":-6.217455,"time":0,"distance":0,"transit":false,"is_transit":false,"i_long":106.939679,"line":1},{"i_lat":-6.215568,"is_transit":false,"i_long":106.922662,"time":1,"line":1,"transit":false,"station_name":"Buaran","station_id":"BUA","distance":1305},{"is_transit":false,"i_long":106.899548,"station_id":"KLD","time":2,"station_name":"Klender","transit":false,"i_lat":-6.2135,"line":1,"distance":3100},{"i_long":106.86807400000001,"is_transit":true,"transit":true,"time":3,"distance":3395,"line":1,"station_name":"Jatinegara","station_id":"JNG","i_lat":-6.215091},{"i_long":106.861737,"transit":false,"station_id":"POK","is_transit":false,"distance":1236,"line":11,"time":2,"station_name":"Pondok Jati","i_lat":-6.209188},{"i_long":106.855437,"station_name":"Kramat","line":11,"transit":false,"station_id":"KMT","is_transit":false,"time":2,"distance":1829,"i_lat":-6.193792},{"time":1,"distance":973,"i_long":106.850107,"line":11,"is_transit":false,"i_lat":-6.185975,"transit":false,"station_name":"Gang Sentiong","station_id":"GST"},{"i_lat":-6.174784,"i_long":106.84368,"line":11,"station_name":"Pasar Senen","transit":false,"station_id":"PSE","is_transit":false,"time":8,"distance":1567},{"station_name":"Kemayoran","i_lat":-6.161728,"station_id":"KMO","transit":false,"i_long":106.839204,"line":11,"is_transit":false,"distance":1436,"time":4},{"line":11,"station_id":"RJW","transit":false,"time":5,"station_name":"Rajawali","distance":1901,"i_lat":-6.14505,"is_transit":false,"i_long":106.836569},{"station_name":"Kampung Bandan","is_transit":true,"distance":1444,"station_id":"KPB","line":4,"i_lat":-6.132549,"time":3,"i_long":106.826365,"transit":true},{"i_long":106.79867,"station_name":"Angke","station_id":"AK","transit":false,"time":9,"i_lat":-6.144674,"line":1,"is_transit":false,"distance":4102},{"distance":1230,"i_lat":-6.155215,"station_id":"DU","i_long":106.800832,"time":4,"transit":false,"station_name":"Duri","is_transit":false,"line":1},{"time":8,"i_long":106.811091,"is_transit":false,"distance":3632,"i_lat":-6.185545,"station_id":"THB","station_name":"Tanah Abang","transit":false,"line":1},{"transit":false,"is_transit":false,"i_long":106.816351,"distance":2029,"i_lat":-6.20132,"line":1,"station_name":"Karet","station_id":"KAT","time":5},{"station_id":"SUDB","station_name":"Sudirman Baru","line":1,"transit":false,"i_lat":-6.201433,"is_transit":false,"i_long":106.819881,"time":1,"distance":471},{"i_lat":-6.202263,"transit":false,"station_name":"Sudirman","station_id":"SUD","time":1,"distance":280,"is_transit":false,"line":1,"i_long":106.822649},{"station_name":"Manggarai","i_lat":-6.209883,"distance":3186,"line":2,"transit":true,"station_id":"MRI","time":4,"i_long":106.84912,"is_transit":true},{"i_lat":-6.226659,"station_name":"Tebet","line":2,"station_id":"TEB","transit":false,"time":4,"distance":2610,"is_transit":false,"i_long":106.857948},{"transit":false,"station_id":"CW","line":2,"is_transit":false,"time":2,"distance":1230,"station_name":"Cawang","i_lat":-6.242512,"i_long":106.856607},{"i_lat":-6.255332,"transit":false,"station_id":"DRN","distance":1546,"station_name":"Duren Kalibata","is_transit":false,"line":2,"i_long":106.85449,"time":3}],[{"transit":false,"i_lat":-6.217455,"station_id":"KLDB","is_transit":false,"time":0,"station_name":"Klenderbaru","line":1,"distance":0,"i_long":106.939679},{"station_name":"Buaran","is_transit":false,"line":1,"transit":false,"station_id":"BUA","time":1,"distance":1305,"i_lat":-6.215568,"i_long":106.922662},{"transit":false,"station_id":"KLD","i_long":106.899548,"line":1,"i_lat":-6.2135,"station_name":"Klender","is_transit":false,"distance":3100,"time":2},{"station_id":"JNG","transit":true,"station_name":"Jatinegara","distance":3395,"i_lat":-6.215091,"is_transit":true,"time":3,"i_long":106.86807400000001,"line":1},{"i_lat":-6.209188,"station_id":"POK","distance":1236,"i_long":106.861737,"is_transit":false,"line":11,"transit":false,"time":2,"station_name":"Pondok Jati"},{"station_name":"Kramat","time":2,"i_lat":-6.193792,"i_long":106.855437,"is_transit":false,"distance":1829,"station_id":"KMT","transit":false,"line":11},{"time":1,"line":11,"transit":false,"station_id":"GST","i_lat":-6.185975,"station_name":"Gang Sentiong","i_long":106.850107,"is_transit":false,"distance":973},{"time":8,"i_lat":-6.174784,"station_id":"PSE","station_name":"Pasar Senen","transit":false,"is_transit":false,"distance":1567,"i_long":106.84368,"line":11},{"is_transit":false,"station_name":"Kemayoran","station_id":"KMO","time":4,"i_long":106.839204,"distance":1436,"transit":false,"line":11,"i_lat":-6.161728},{"is_transit":false,"station_name":"Rajawali","station_id":"RJW","i_long":106.836569,"i_lat":-6.14505,"line":11,"distance":1901,"time":5,"transit":false},{"transit":true,"distance":1444,"station_name":"Kampung Bandan","i_long":106.826365,"line":4,"time":3,"i_lat":-6.132549,"station_id":"KPB","is_transit":true},{"station_id":"JAKK","is_transit":true,"i_lat":-6.137569,"i_long":106.812439,"transit":true,"station_name":"Jakarta Kota","distance":1364,"line":2,"time":3},{"i_long":106.820901,"i_lat":-6.141205,"line":2,"transit":false,"station_name":"Jayakarta","station_id":"JAY","is_transit":false,"time":4,"distance":1264},{"line":2,"station_id":"MGB","distance":1080,"transit":false,"station_name":"Manggabesar","is_transit":false,"time":2,"i_lat":-6.149769,"i_long":106.82482},{"i_lat":-6.160725,"station_name":"Sawah Besar","station_id":"SW","i_long":106.827103,"line":2,"is_transit":false,"transit":false,"distance":906,"time":2},{"i_lat":-6.166716,"line":2,"i_long":106.828284,"time":2,"distance":1149,"transit":false,"station_name":"Juanda","station_id":"JUA","is_transit":false},{"time":4,"transit":false,"line":2,"distance":2015,"i_lat":-6.186295,"station_name":"Gondangdia","station_id":"GDD","is_transit":false,"i_long":106.832183},{"is_transit":false,"transit":false,"distance":1750,"line":2,"station_id":"CKI","i_lat":-6.198556,"time":3,"i_long":106.840169,"station_name":"Cikini"},{"distance":1590,"line":2,"time":4,"is_transit":false,"i_lat":-6.209883,"station_name":"Manggarai","transit":false,"i_long":106.84912,"station_id":"MRI"},{"distance":2610,"station_name":"Tebet","is_transit":false,"station_id":"TEB","time":4,"line":2,"transit":false,"i_lat":-6.226659,"i_long":106.857948},{"i_long":106.856607,"station_id":"CW","is_transit":false,"line":2,"distance":1230,"time":2,"station_name":"Cawang","transit":false,"i_lat":-6.242512},{"distance":1546,"transit":false,"station_id":"DRN","is_transit":false,"i_long":106.85449,"line":2,"station_name":"Duren Kalibata","time":3,"i_lat":-6.255332}]]}