{"data":[[{"i_lat":-6.217455,"line":1,"i_long":106.939679,"time":0,"station_name":"Klenderbaru","transit":false,"distance":0,"station_id":"KLDB","is_transit":false},{"is_transit":false,"i_lat":-6.215568,"transit":false,"station_name":"Buaran","time":1,"distance":1305,"station_id":"BUA","i_long":106.922662,"line":1},{"transit":false,"distance":3100,"is_transit":false,"i_lat":-6.2135,"i_long":106.899548,"station_name":"Klender","time":2,"line":1,"station_id":"KLD"},{"line":1,"station_name":"Jatinegara","i_lat":-6.215091,"is_transit":false,"time":3,"distance":3395,"station_id":"JNG","transit":false,"i_long":106.86807400000001},{"station_name":"Matraman","distance":1377,"i_lat":-6.212485,"transit":false,"i_long":106.858896,"line":1,"is_transit":false,"time":2,"station_id":"MTR"},{"station_id":"MRI","station_name":"Manggarai","is_transit":false,"i_lat":-6.209883,"line":2,"distance":1275,"transit":false,"i_long":106.84912,"time":2},{"is_transit":false,"transit":false,"distance":3186,"station_id":"SUD","i_long":106.822649,"i_lat":-6.202263,"line":1,"time":4,"station_name":"Sudirman"},{"i_long":106.819881,"transit":false,"time":1,"distance":280,"is_transit":false,"i_lat":-6.201433,"station_id":"SUDB","line":1,"station_name":"Sudirman Baru"}],[{"distance":0,"station_id":"KLDB","is_transit":false,"i_long":106.939679,"time":0,"station_name":"Klenderbaru","transit":false,"i_lat":-6.217455,"line":1},{"station_id":"BUA","time":1,"i_lat":-6.215568,"distance":1305,"i_long":106.922662,"line":1,"station_name":"Buaran","is_transit":false,"transit":false},{"station_id":"KLD","is_transit":false,"time":2,"transit":false,"i_lat":-6.2135,"line":1,"station_name":"Klender","i_long":106.899548,"distance":3100},{"transit":true,"is_transit":true,"i_lat":-6.215091,"station_id":"JNG","distance":3395,"station_name":"Jatinegara","i_long":106.86807400000001,"line":1,"time":3},{"station_id":"POK","is_transit":false,"transit":false,"i_lat":-6.209188,"station_name":"Pondok Jati","time":2,"i_long":106.861737,"distance":1236,"line":11},{"i_lat":-6.193792,"is_transit":false,"station_name":"Kramat","i_long":106.855437,"line":11,"station_id":"KMT","transit":false,"distance":1829,"time":2},{"is_transit":false,"distance":973,"transit":false,"time":1,"i_long":106.850107,"line":11,"station_name":"Gang Sentiong","i_lat":-6.185975,"station_id":"GST"},{"transit":false,"i_lat":-6.174784,"is_transit":false,"station_id":"PSE","line":11,"time":8,"distance":1567,"i_long":106.84368,"station_name":"Pasar Senen"},{"station_name":"Kemayoran","time":4,"is_transit":false,"transit":false,"i_long":106.839204,"station_id":"KMO","i_lat":-6.161728,"distance":1436,"line":11},{"station_id":"RJW","distance":1901,"transit":false,"time":5,"station_name":"Rajawali","i_lat":-6.14505,"i_long":106.836569,"line":11,"is_transit":false},{"time":3,"i_lat":-6.132549,"line":4,"distance":1444,"i_long":106.826365,"station_id":"KPB","station_name":"Kampung Bandan","is_transit":true,"transit":true},{"time":9,"i_lat":-6.144674,"station_name":"Angke","station_id":"AK","is_transit":false,"transit":false,"i_long":106.79867,"line":1,"distance":4102},{"i_long":106.800832,"time":4,"is_transit":false,"transit":false,"station_id":"DU","i_lat":-6.155215,"line":1,"station_name":"Duri","distance":1230},{"distance":3632,"station_name":"Tanah Abang","line":1,"time":8,"i_lat":-6.185545,"transit":false,"i_long":106.811091,"station_id":"THB","is_transit":false},{"station_id":"KAT","is_transit":false,"transit":false,"i_long":106.816351,"station_name":"Karet","i_lat":-6.20132,"time":5,"distance":2029,"line":1},{"is_transit":false,"station_name":"Sudirman Baru","distance":471,"i_lat":-6.201433,"i_long":106.819881,"transit":false,"time":1,"line":1,"station_id":"SUDB"}],[{"is_transit":false,"time":0,"i_lat":-6.217455,"distance":0,"station_id":"KLDB","i_long":106.939679,"transit":false,"station_name":"Klenderbaru","line":1},{"is_transit":false,"i_lat":-6.215568,"station_id":"BUA","transit":false,"i_long":106.922662,"station_name":"Buaran","time":1,"distance":1305,"line":1},{"is_transit":false,"i_lat":-6.2135,"i_long":106.899548,"station_id":"KLD","transit":false,"station_name":"Klender","line":1,"time":2,"distance":3100},{"distance":3395,"station_id":"JNG","time":3,"i_long":106.86807400000001,"line":1,"i_lat":-6.215091,"transit":false,"is_transit":false,"station_name":"Jatinegara"},{"time":2,"station_id":"MTR","distance":1377,"is_transit":false,"i_lat":-6.212485,"station_name":"Matraman","transit":false,"i_long":106.858896,"line":1},{"station_id":"MRI","i_long":106.84912,"distance":1275,"line":2,"time":2,"transit":true,"i_lat":-6.209883,"station_name":"Manggarai","is_transit":true},{"line":2,"distance":1590,"station_id":"CKI","station_name":"Cikini","i_long":106.840169,"is_transit":false,"transit":false,"i_lat":-6.198556,"time":4},{"is_transit":false,"station_name":"Gondangdia","time":3,"distance":1750,"transit":false,"i_long":106.832183,"i_lat":-6.186295,"line":2,"station_id":"GDD"},{"i_long":106.828284,"i_lat":-6.166716,"is_transit":false,"time":4,"transit":false,"station_name":"Juanda","distance":2015,"line":2,"station_id":"JUA"},{"is_transit":false,"i_long":106.827103,"time":2,"transit":false,"line":2,"distance":1149,"i_lat":-6.160725,"station_name":"Sawah Besar","station_id":"SW"},{"station_id":"MGB","transit":false,"line":2,"distance":906,"station_name":"Manggabesar","i_lat":-6.149769,"is_transit":false,"i_long":106.82482,"time":2},{"line":2,"time":2,"transit":false,"i_long":106.820901,"i_lat":-6.141205,"station_id":"JAY","distance":1080,"is_transit":false,"station_name":"Jayakarta"},{"time":4,"distance":1264,"transit":true,"is_transit":true,"station_name":"Jakarta Kota","station_id":"JAKK","i_lat":-6.137569,"i_long":106.812439,"line":2},{"is_transit":true,"station_id":"KPB","time":3,"station_name":"Kampung Bandan","distance":1364,"i_long":106.826365,"transit":true,"line":4,"i_lat":-6.132549},{"station_id":"AK","line":1,"station_name":"Angke","time":9,"distance":4102,"transit":false,"i_lat":-6.144674,"i_long":106.79867,"is_transit":false},{"time":4,"i_long":106.800832,"line":1,"i_lat":-6.155215,"distance":1230,"is_transit":false,"station_id":"DU","station_name":"Duri","transit":false},{"line":1,"distance":3632,"is_transit":false,"i_lat":-6.185545,"transit":false,"i_long":106.811091,"station_name":"Tanah Abang","station_id":"THB","time":8},{"line":1,"transit":false,"distance":2029,"is_transit":false,"station_id":"KAT","i_lat":-6.20132,"station_name":"Karet","i_long":106.816351,"time":5},{"time":1,"distance":471,"is_transit":false,"i_lat":-6.201433,"i_long":106.819881,"transit":false,"line":1,"station_id":"SUDB","station_name":"Sudirman Baru"}],[{"distance":0,"transit":false,"station_id":"KLDB","i_lat":-6.217455,"i_long":106.939679,"line":1,"is_transit":false,"station_name":"Klenderbaru","time":0},{"transit":false,"is_transit":false,"station_name":"Buaran","line":1,"distance":1305,"time":1,"station_id":"BUA","i_lat":-6.215568,"i_long":106.922662},{"i_lat":-6.2135,"station_name":"Klender","i_long":106.899548,"line":1,"is_transit":false,"station_id":"KLD","time":2,"distance":3100,"transit":false},{"distance":3395,"transit":true,"is_transit":true,"station_name":"Jatinegara","i_long":106.86807400000001,"line":1,"i_lat":-6.215091,"station_id":"JNG","time":3},{"distance":1236,"time":2,"is_transit":false,"station_name":"Pondok Jati","line":11,"transit":false,"station_id":"POK","i_lat":-6.209188,"i_long":106.861737},{"distance":1829,"station_name":"Kramat","is_transit":false,"time":2,"transit":false,"station_id":"KMT","i_lat":-6.193792,"i_long":106.855437,"line":11},{"is_transit":false,"i_lat":-6.185975,"time":1,"distance":973,"station_name":"Gang Sentiong","transit":false,"line":11,"station_id":"GST","i_long":106.850107},{"station_name":"Pasar Senen","time":8,"is_transit":false,"station_id":"PSE","i_long":106.84368,"i_lat":-6.174784,"distance":1567,"line":11,"transit":false},{"i_long":106.839204,"station_name":"Kemayoran","station_id":"KMO","time":4,"is_transit":false,"transit":false,"distance":1436,"i_lat":-6.161728,"line":11},{"station_id":"RJW","transit":false,"station_name":"Rajawali","line":11,"distance":1901,"is_transit":false,"i_long":106.836569,"i_lat":-6.14505,"time":5},{"station_id":"KPB","distance":1444,"is_transit":true,"time":3,"i_lat":-6.132549,"line":4,"transit":true,"i_long":106.826365,"station_name":"Kampung Bandan"},{"i_lat":-6.137569,"station_name":"Jakarta Kota","distance":1364,"is_transit":true,"i_long":106.812439,"time":3,"transit":true,"station_id":"JAKK","line":2},{"i_long":106.820901,"distance":1264,"transit":false,"i_lat":-6.141205,"station_id":"JAY","line":2,"time":4,"station_name":"Jayakarta","is_transit":false},{"transit":false,"i_lat":-6.149769,"is_transit":false,"distance":1080,"time":2,"station_id":"MGB","line":2,"i_long":106.82482,"station_name":"Manggabesar"},{"station_id":"SW","station_name":"Sawah Besar","time":2,"distance":906,"is_transit":false,"transit":false,"i_lat":-6.160725,"i_long":106.827103,"line":2},{"station_id":"JUA","transit":false,"time":2,"i_long":106.828284,"distance":1149,"line":2,"station_name":"Juanda","is_transit":false,"i_lat":-6.166716},{"distance":2015,"is_transit":false,"line":2,"i_long":106.832183,"time":4,"transit":false,"station_id":"GDD","station_name":"Gondangdia","i_lat":-6.186295},{"distance":1750,"line":2,"is_transit":false,"transit":false,"time":3,"station_name":"Cikini","station_id":"CKI","i_lat":-6.198556,"i_long":106.840169},{"is_transit":true,"station_id":"MRI","distance":1590,"station_name":"Manggarai","i_long":106.84912,"transit":true,"time":4,"i_lat":-6.209883,"line":2},{"distance":3186,"station_id":"SUD","line":1,"transit":false,"time":4,"i_long":106.822649,"is_transit":false,"station_name":"Sudirman","i_lat":-6.202263},{"transit":false,"distance":280,"station_id":"SUDB","station_name":"Sudirman Baru","time":1,"i_lat":-6.201433,"line":1,"is_transit":false,"i_long":106.819881}]]}