{"data":[[{"station_id":"KLDB","i_lat":-6.217455,"time":0,"line":1,"station_name":"Klenderbaru","transit":false,"distance":0,"is_transit":false,"i_long":106.939679},{"station_name":"Buaran","distance":1305,"station_id":"BUA","transit":false,"i_lat":-6.215568,"line":1,"i_long":106.922662,"is_transit":false,"time":1},{"is_transit":false,"i_long":106.899548,"distance":3100,"station_id":"KLD","station_name":"Klender","i_lat":-6.2135,"transit":false,"line":1,"time":2},{"is_transit":false,"station_id":"JNG","line":1,"transit":false,"station_name":"Jatinegara","time":3,"distance":3395,"i_long":106.86807400000001,"i_lat":-6.215091},{"transit":false,"i_long":106.858896,"line":1,"is_transit":false,"station_name":"Matraman","i_lat":-6.212485,"time":2,"distance":1377,"station_id":"MTR"},{"distance":1275,"station_id":"MRI","i_lat":-6.209883,"station_name":"Manggarai","time":2,"transit":true,"i_long":106.84912,"line":2,"is_transit":true},{"is_transit":false,"station_name":"Tebet","time":4,"distance":2610,"station_id":"TEB","transit":false,"i_lat":-6.226659,"i_long":106.857948,"line":2},{"i_lat":-6.242512,"i_long":106.856607,"distance":1230,"station_name":"Cawang","line":2,"transit":false,"time":2,"station_id":"CW","is_transit":false},{"transit":false,"i_long":106.85449,"station_name":"Duren Kalibata","i_lat":-6.255332,"line":2,"distance":1546,"time":3,"station_id":"DRN","is_transit":false}],[{"i_long":106.939679,"station_id":"KLDB","time":0,"i_lat":-6.217455,"transit":false,"line":1,"distance":0,"station_name":"Klenderbaru","is_transit":false},{"i_long":106.922662,"station_id":"BUA","station_name":"Buaran","time":1,"distance":1305,"i_lat":-6.215568,"transit":false,"is_transit":false,"line":1},{"time":2,"station_id":"KLD","transit":false,"i_long":106.899548,"line":1,"distance":3100,"is_transit":false,"station_name":"Klender","i_lat":-6.2135},{"i_long":106.86807400000001,"time":3,"station_id":"JNG","i_lat":-6.215091,"is_transit":true,"distance":3395,"station_name":"Jatinegara","line":1,"transit":true},{"time":2,"i_lat":-6.209188,"line":11,"transit":false,"station_id":"POK","station_name":"Pondok Jati","i_long":106.861737,"is_transit":false,"distance":1236},{"station_name":"Kramat","transit":false,"i_long":106.855437,"line":11,"i_lat":-6.193792,"is_transit":false,"station_id":"KMT","time":2,"distance":1829},{"is_transit":false,"time":1,"distance":973,"transit":false,"i_lat":-6.185975,"station_id":"GST","line":11,"i_long":106.850107,"station_name":"Gang Sentiong"},{"station_id":"PSE","station_name":"Pasar Senen","is_transit":false,"i_lat":-6.174784,"line":11,"transit":false,"time":8,"distance":1567,"i_long":106.84368},{"time":4,"distance":1436,"i_lat":-6.161728,"i_long":106.839204,"is_transit":false,"transit":false,"station_name":"Kemayoran","station_id":"KMO","line":11},{"station_id":"RJW","is_transit":false,"line":11,"station_name":"Rajawali","transit":false,"time":5,"i_long":106.836569,"i_lat":-6.14505,"distance":1901},{"station_id":"KPB","line":4,"distance":1444,"transit":true,"time":3,"i_lat":-6.132549,"station_name":"Kampung Bandan","i_long":106.826365,"is_transit":true},{"time":9,"station_name":"Angke","i_long":106.79867,"i_lat":-6.144674,"transit":false,"station_id":"AK","is_transit":false,"distance":4102,"line":1},{"distance":1230,"i_long":106.800832,"time":4,"station_id":"DU","is_transit":false,"i_lat":-6.155215,"line":1,"station_name":"Duri","transit":false},{"i_lat":-6.185545,"transit":false,"distance":3632,"station_id":"THB","line":1,"station_name":"Tanah Abang","is_transit":false,"i_long":106.811091,"time":8},{"time":5,"transit":false,"i_long":106.816351,"is_transit":false,"station_name":"Karet","station_id":"KAT","i_lat":-6.20132,"line":1,"distance":2029},{"i_long":106.819881,"i_lat":-6.201433,"time":1,"distance":471,"station_id":"SUDB","station_name":"Sudirman Baru","is_transit":false,"transit":false,"line":1},{"is_transit":false,"line":1,"distance":280,"station_id":"SUD","transit":false,"i_lat":-6.202263,"time":1,"i_long":106.822649,"station_name":"Sudirman"},{"transit":true,"i_long":106.84912,"time":4,"i_lat":-6.209883,"distance":3186,"line":2,"station_name":"Manggarai","station_id":"MRI","is_transit":true},{"station_id":"TEB","transit":false,"i_lat":-6.226659,"i_long":106.857948,"distance":2610,"time":4,"station_name":"Tebet","is_transit":false,"line":2},{"station_name":"Cawang","i_long":106.856607,"distance":1230,"is_transit":false,"station_id":"CW","time":2,"i_lat":-6.242512,"line":2,"transit":false},{"transit":false,"i_long":106.85449,"line":2,"station_name":"Duren Kalibata","i_lat":-6.255332,"time":3,"distance":1546,"is_transit":false,"station_id":"DRN"}],[{"transit":false,"i_lat":-6.217455,"station_name":"Klenderbaru","is_transit":false,"time":0,"i_long":106.939679,"station_id":"KLDB","line":1,"distance":0},{"is_transit":false,"station_name":"Buaran","distance":1305,"i_lat":-6.215568,"line":1,"transit":false,"i_long":106.922662,"time":1,"station_id":"BUA"},{"station_name":"Klender","is_transit":false,"line":1,"station_id":"KLD","i_lat":-6.2135,"i_long":106.899548,"transit":false,"time":2,"distance":3100},{"line":1,"station_id":"JNG","i_long":106.86807400000001,"is_transit":true,"distance":3395,"i_lat":-6.215091,"transit":true,"time":3,"station_name":"Jatinegara"},{"is_transit":false,"time":2,"distance":1236,"transit":false,"i_long":106.861737,"station_name":"Pondok Jati","line":11,"i_lat":-6.209188,"station_id":"POK"},{"i_lat":-6.193792,"station_id":"KMT","station_name":"Kramat","distance":1829,"is_transit":false,"transit":false,"line":11,"time":2,"i_long":106.855437},{"station_name":"Gang Sentiong","station_id":"GST","i_lat":-6.185975,"is_transit":false,"distance":973,"i_long":106.850107,"time":1,"line":11,"transit":false},{"station_id":"PSE","i_lat":-6.174784,"distance":1567,"line":11,"transit":false,"i_long":106.84368,"station_name":"Pasar Senen","time":8,"is_transit":false},{"transit":false,"time":4,"station_id":"KMO","i_lat":-6.161728,"station_name":"Kemayoran","distance":1436,"i_long":106.839204,"line":11,"is_transit":false},{"time":5,"transit":false,"station_name":"Rajawali","is_transit":false,"station_id":"RJW","line":11,"i_lat":-6.14505,"distance":1901,"i_long":106.836569},{"i_long":106.826365,"transit":true,"distance":1444,"time":3,"is_transit":true,"station_name":"Kampung Bandan","i_lat":-6.132549,"station_id":"KPB","line":4},{"transit":true,"line":2,"station_id":"JAKK","is_transit":true,"station_name":"Jakarta Kota","i_long":106.812439,"distance":1364,"i_lat":-6.137569,"time":3},{"station_id":"JAY","transit":false,"is_transit":false,"station_name":"Jayakarta","i_long":106.820901,"distance":1264,"line":2,"i_lat":-6.141205,"time":4},{"i_lat":-6.149769,"line":2,"time":2,"is_transit":false,"transit":false,"station_name":"Manggabesar","distance":1080,"station_id":"MGB","i_long":106.82482},{"i_long":106.827103,"i_lat":-6.160725,"distance":906,"station_name":"Sawah Besar","transit":false,"time":2,"is_transit":false,"station_id":"SW","line":2},{"station_id":"JUA","is_transit":false,"i_long":106.828284,"i_lat":-6.166716,"distance":1149,"transit":false,"station_name":"Juanda","line":2,"time":2},{"i_lat":-6.186295,"i_long":106.832183,"is_transit":false,"station_name":"Gondangdia","time":4,"line":2,"distance":2015,"station_id":"GDD","transit":false},{"is_transit":false,"i_lat":-6.198556,"i_long":106.840169,"line":2,"transit":false,"time":3,"distance":1750,"station_id":"CKI","station_name":"Cikini"},{"distance":1590,"station_name":"Manggarai","transit":false,"time":4,"i_lat":-6.209883,"i_long":106.84912,"station_id":"MRI","is_transit":false,"line":2},{"station_id":"TEB","i_long":106.857948,"line":2,"is_transit":false,"i_lat":-6.226659,"time":4,"distance":2610,"transit":false,"station_name":"Tebet"},{"i_lat":-6.242512,"station_name":"Cawang","station_id":"CW","is_transit":false,"i_long":106.856607,"transit":false,"time":2,"line":2,"distance":1230},{"distance":1546,"i_lat":-6.255332,"station_name":"Duren Kalibata","time":3,"transit":false,"station_id":"DRN","i_long":106.85449,"line":2,"is_transit":false}]]}