{"data":[[{"distance":0,"i_long":106.939679,"station_id":"KLDB","line":1,"station_name":"Klenderbaru","time":0,"i_lat":-6.217455,"is_transit":false,"transit":false},{"station_id":"BUA","i_lat":-6.215568,"time":1,"is_transit":false,"station_name":"Buaran","line":0,"i_long":106.922662,"transit":false,"distance":1305},{"i_long":106.899548,"station_id":"KLD","distance":3100,"time":2,"transit":false,"line":1,"station_name":"Klender","is_transit":false,"i_lat":-6.2135},{"distance":3395,"i_long":106.86807400000001,"line":0,"transit":false,"i_lat":-6.215091,"is_transit":true,"station_id":"JNG","station_name":"Jatinegara","time":3},{"distance":1377,"station_id":"MTR","i_lat":-6.212485,"transit":false,"i_long":106.858896,"station_name":"Matraman","line":1,"is_transit":false,"time":2},{"transit":false,"station_id":"MRI","distance":1275,"i_lat":-6.209883,"station_name":"Manggarai","line":0,"i_long":106.84912,"is_transit":true,"time":2},{"is_transit":false,"i_lat":-6.202263,"station_name":"Sudirman","time":4,"i_long":106.822649,"station_id":"SUD","line":1,"transit":false,"distance":3186},{"line":1,"station_name":"Sudirman Baru","distance":280,"i_lat":-6.201433,"time":1,"station_id":"SUDB","transit":false,"i_long":106.819881,"is_transit":false},{"distance":471,"transit":false,"line":1,"station_name":"Karet","is_transit":false,"station_id":"KAT","i_long":106.816351,"time":1,"i_lat":-6.20132},{"distance":2029,"station_name":"Tanah Abang","time":5,"is_transit":true,"i_lat":-6.185545,"i_long":106.811091,"station_id":"THB","transit":false,"line":1}],[{"line":1,"time":0,"station_id":"KLDB","i_lat":-6.217455,"station_name":"Klenderbaru","transit":false,"is_transit":false,"distance":0,"i_long":106.939679},{"i_long":106.922662,"line":0,"distance":1305,"station_name":"Buaran","transit":false,"i_lat":-6.215568,"time":1,"station_id":"BUA","is_transit":false},{"distance":3100,"time":2,"is_transit":false,"i_lat":-6.2135,"station_name":"Klender","i_long":106.899548,"station_id":"KLD","transit":false,"line":1},{"is_transit":true,"line":0,"station_id":"JNG","station_name":"Jatinegara","transit":true,"distance":3395,"time":3,"i_lat":-6.215091,"i_long":106.86807400000001},{"line":11,"is_transit":false,"station_name":"Pondok Jati","i_lat":-6.209188,"time":2,"distance":1236,"i_long":106.861737,"station_id":"POK","transit":false},{"i_lat":-6.193792,"distance":1829,"i_long":106.855437,"station_name":"Kramat","time":2,"station_id":"KMT","is_transit":false,"line":11,"transit":false},{"station_id":"GST","station_name":"Gang Sentiong","distance":973,"i_long":106.850107,"time":1,"line":11,"is_transit":false,"transit":false,"i_lat":-6.185975},{"is_transit":false,"i_lat":-6.174784,"distance":1567,"station_name":"Pasar Senen","time":8,"transit":false,"station_id":"PSE","i_long":106.84368,"line":11},{"is_transit":false,"line":11,"station_name":"Kemayoran","station_id":"KMO","distance":1436,"i_lat":-6.161728,"i_long":106.839204,"time":4,"transit":false},{"station_id":"RJW","i_lat":-6.14505,"line":11,"station_name":"Rajawali","time":5,"is_transit":false,"distance":1901,"transit":false,"i_long":106.836569},{"distance":1444,"i_long":106.826365,"station_id":"KPB","time":3,"transit":true,"is_transit":true,"i_lat":-6.132549,"line":0,"station_name":"Kampung Bandan"},{"is_transit":false,"station_name":"Angke","i_long":106.79867,"station_id":"AK","time":9,"line":0,"i_lat":-6.144674,"distance":4102,"transit":false},{"station_name":"Duri","distance":1230,"transit":true,"i_lat":-6.155215,"station_id":"DU","i_long":106.800832,"time":4,"line":1,"is_transit":true},{"transit":false,"i_lat":-6.185545,"is_transit":true,"line":1,"time":8,"station_id":"THB","station_name":"Tanah Abang","distance":3632,"i_long":106.811091}],[{"line":1,"transit":false,"is_transit":false,"station_id":"KLDB","i_long":106.939679,"distance":0,"i_lat":-6.217455,"station_name":"Klenderbaru","time":0},{"is_transit":false,"distance":1305,"transit":false,"station_id":"BUA","station_name":"Buaran","line":0,"i_long":106.922662,"i_lat":-6.215568,"time":1},{"is_transit":false,"station_name":"Klender","station_id":"KLD","line":1,"i_long":106.899548,"distance":3100,"time":2,"transit":false,"i_lat":-6.2135},{"is_transit":true,"i_lat":-6.215091,"station_name":"Jatinegara","distance":3395,"time":3,"station_id":"JNG","transit":false,"i_long":106.86807400000001,"line":0},{"distance":1377,"i_lat":-6.212485,"station_name":"Matraman","is_transit":false,"line":1,"transit":false,"time":2,"i_long":106.858896,"station_id":"MTR"},{"i_long":106.84912,"i_lat":-6.209883,"line":0,"time":2,"is_transit":true,"station_id":"MRI","station_name":"Manggarai","transit":true,"distance":1275},{"distance":1590,"transit":false,"i_lat":-6.198556,"line":0,"time":4,"station_id":"CKI","is_transit":false,"station_name":"Cikini","i_long":106.840169},{"time":3,"transit":false,"i_long":106.832183,"station_id":"GDD","is_transit":false,"i_lat":-6.186295,"line":2,"distance":1750,"station_name":"Gondangdia"},{"station_name":"Juanda","time":4,"is_transit":false,"i_long":106.828284,"i_lat":-6.166716,"station_id":"JUA","distance":2015,"transit":false,"line":2},{"i_lat":-6.160725,"time":2,"i_long":106.827103,"line":2,"distance":1149,"is_transit":false,"transit":false,"station_name":"Sawah Besar","station_id":"SW"},{"time":2,"i_long":106.82482,"line":2,"station_id":"MGB","i_lat":-6.149769,"distance":906,"transit":false,"station_name":"Manggabesar","is_transit":false},{"station_name":"Jayakarta","is_transit":false,"station_id":"JAY","time":2,"line":7,"i_long":106.820901,"transit":false,"distance":1080,"i_lat":-6.141205},{"time":4,"is_transit":true,"distance":1264,"transit":true,"i_lat":-6.137569,"station_name":"Jakarta Kota","line":0,"i_long":106.812439,"station_id":"JAKK"},{"station_name":"Kampung Bandan","time":3,"is_transit":true,"line":0,"transit":false,"distance":1364,"i_lat":-6.132549,"station_id":"KPB","i_long":106.826365},{"station_name":"Angke","distance":4102,"i_lat":-6.144674,"i_long":106.79867,"is_transit":false,"time":9,"station_id":"AK","transit":false,"line":0},{"station_id":"DU","distance":1230,"station_name":"Duri","transit":true,"time":4,"i_lat":-6.155215,"i_long":106.800832,"is_transit":true,"line":1},{"distance":3632,"station_id":"THB","line":1,"is_transit":true,"time":8,"transit":false,"i_long":106.811091,"station_name":"Tanah Abang","i_lat":-6.185545}],[{"i_long":106.939679,"transit":false,"distance":0,"i_lat":-6.217455,"line":1,"is_transit":false,"station_id":"KLDB","station_name":"Klenderbaru","time":0},{"time":1,"i_long":106.922662,"station_name":"Buaran","station_id":"BUA","is_transit":false,"line":0,"distance":1305,"i_lat":-6.215568,"transit":false},{"i_lat":-6.2135,"distance":3100,"line":1,"time":2,"i_long":106.899548,"station_name":"Klender","transit":false,"station_id":"KLD","is_transit":false},{"station_id":"JNG","time":3,"station_name":"Jatinegara","is_transit":true,"i_long":106.86807400000001,"line":0,"distance":3395,"transit":true,"i_lat":-6.215091},{"time":2,"i_long":106.861737,"line":11,"i_lat":-6.209188,"distance":1236,"station_id":"POK","station_name":"Pondok Jati","is_transit":false,"transit":false},{"station_name":"Kramat","i_long":106.855437,"station_id":"KMT","transit":false,"is_transit":false,"line":11,"time":2,"distance":1829,"i_lat":-6.193792},{"i_long":106.850107,"station_id":"GST","i_lat":-6.185975,"transit":false,"station_name":"Gang Sentiong","time":1,"line":11,"distance":973,"is_transit":false},{"transit":false,"station_id":"PSE","is_transit":false,"time":8,"i_lat":-6.174784,"line":11,"i_long":106.84368,"station_name":"Pasar Senen","distance":1567},{"station_id":"KMO","time":4,"i_lat":-6.161728,"i_long":106.839204,"station_name":"Kemayoran","line":11,"transit":false,"distance":1436,"is_transit":false},{"transit":false,"i_lat":-6.14505,"distance":1901,"line":11,"station_id":"RJW","station_name":"Rajawali","i_long":106.836569,"is_transit":false,"time":5},{"distance":1444,"station_id":"KPB","i_long":106.826365,"station_name":"Kampung Bandan","is_transit":true,"time":3,"transit":true,"i_lat":-6.132549,"line":0},{"time":3,"station_id":"JAKK","station_name":"Jakarta Kota","transit":true,"distance":1364,"i_long":106.812439,"line":0,"i_lat":-6.137569,"is_transit":true},{"line":7,"station_name":"Jayakarta","i_lat":-6.141205,"is_transit":false,"distance":1264,"i_long":106.820901,"station_id":"JAY","time":4,"transit":false},{"station_id":"MGB","transit":false,"is_transit":false,"line":2,"time":2,"station_name":"Manggabesar","distance":1080,"i_long":106.82482,"i_lat":-6.149769},{"transit":false,"line":2,"distance":906,"station_id":"SW","time":2,"station_name":"Sawah Besar","i_lat":-6.160725,"i_long":106.827103,"is_transit":false},{"station_name":"Juanda","distance":1149,"time":2,"line":2,"i_lat":-6.166716,"station_id":"JUA","is_transit":false,"transit":false,"i_long":106.828284},{"is_transit":false,"i_long":106.832183,"distance":2015,"transit":false,"time":4,"line":2,"station_name":"Gondangdia","i_lat":-6.186295,"station_id":"GDD"},{"station_name":"Cikini","station_id":"CKI","distance":1750,"i_lat":-6.198556,"is_transit":false,"line":0,"transit":false,"time":3,"i_long":106.840169},{"i_long":106.84912,"time":4,"distance":1590,"transit":true,"is_transit":true,"station_name":"Manggarai","station_id":"MRI","line":0,"i_lat":-6.209883},{"station_id":"SUD","transit":false,"time":4,"i_lat":-6.202263,"distance":3186,"i_long":106.822649,"is_transit":false,"station_name":"Sudirman","line":1},{"station_name":"Sudirman Baru","i_long":106.819881,"line":1,"i_lat":-6.201433,"station_id":"SUDB","time":1,"is_transit":false,"distance":280,"transit":false},{"line":1,"station_id":"KAT","station_name":"Karet","is_transit":false,"distance":471,"i_lat":-6.20132,"i_long":106.816351,"time":1,"transit":false},{"i_long":106.811091,"station_name":"Tanah Abang","i_lat":-6.185545,"line":1,"time":5,"distance":2029,"is_transit":true,"station_id":"THB","transit":false}]]}