{"data":[[{"is_transit":false,"line":1,"station_name":"Klenderbaru","station_id":"KLDB","time":0,"distance":0,"i_lat":-6.217455,"transit":false,"i_long":106.939679},{"time":1,"distance":1305,"transit":false,"i_long":106.922662,"line":0,"station_name":"Buaran","i_lat":-6.215568,"station_id":"BUA","is_transit":false},{"i_lat":-6.2135,"is_transit":false,"distance":3100,"i_long":106.899548,"line":1,"transit":false,"time":2,"station_name":"Klender","station_id":"KLD"},{"transit":false,"i_long":106.86807400000001,"is_transit":true,"distance":3395,"station_id":"JNG","station_name":"Jatinegara","i_lat":-6.215091,"time":3,"line":0},{"station_id":"MTR","distance":1377,"station_name":"Matraman","i_long":106.858896,"transit":false,"is_transit":false,"line":1,"time":2,"i_lat":-6.212485},{"transit":false,"i_lat":-6.209883,"station_id":"MRI","distance":1275,"i_long":106.84912,"time":2,"is_transit":true,"line":0,"station_name":"Manggarai"},{"transit":false,"distance":3186,"i_lat":-6.202263,"is_transit":false,"time":4,"line":1,"station_id":"SUD","station_name":"Sudirman","i_long":106.822649},{"transit":false,"i_long":106.819881,"time":1,"distance":280,"station_name":"Sudirman Baru","i_lat":-6.201433,"line":1,"station_id":"SUDB","is_transit":false},{"i_lat":-6.20132,"transit":false,"is_transit":false,"line":1,"distance":471,"time":1,"i_long":106.816351,"station_id":"KAT","station_name":"Karet"},{"is_transit":true,"time":5,"line":1,"transit":false,"distance":2029,"i_lat":-6.185545,"station_id":"THB","station_name":"Tanah Abang","i_long":106.811091},{"i_long":106.800832,"distance":3632,"transit":true,"station_id":"DU","i_lat":-6.155215,"station_name":"Duri","line":1,"is_transit":true,"time":8},{"station_name":"Grogol","is_transit":false,"transit":false,"i_long":106.788277,"station_id":"GGL","time":3,"i_lat":-6.162021,"line":5,"distance":1700},{"i_lat":-6.161433,"station_id":"PSG","distance":2036,"is_transit":false,"station_name":"Pesing","i_long":106.771379,"time":2,"transit":false,"line":5},{"station_name":"Taman Kota","is_transit":false,"station_id":"TKO","time":2,"line":5,"i_lat":-6.1587309999999995,"transit":false,"i_long":106.756522,"distance":1614},{"i_long":106.737035,"i_lat":-6.159876,"station_id":"BOI","time":2,"distance":2334,"station_name":"Bojongindah","line":0,"is_transit":false,"transit":false},{"station_id":"RW","transit":false,"i_lat":-6.162758,"i_long":106.723064,"station_name":"Rawa Buaya","line":5,"distance":1152,"is_transit":false,"time":4},{"is_transit":false,"time":3,"station_name":"Kalideres","transit":false,"distance":2504,"i_lat":-6.166068,"i_long":106.701612,"station_id":"KDS","line":5},{"transit":false,"time":3,"i_long":106.679458,"i_lat":-6.169933,"station_id":"PI","distance":2548,"is_transit":false,"line":5,"station_name":"Poris"},{"is_transit":false,"line":0,"distance":1834,"time":3,"station_name":"Batuceper","station_id":"BPR","transit":false,"i_lat":-6.171811,"i_long":106.665036}],[{"i_lat":-6.217455,"is_transit":false,"time":0,"transit":false,"distance":0,"station_id":"KLDB","i_long":106.939679,"station_name":"Klenderbaru","line":1},{"time":1,"station_name":"Buaran","is_transit":false,"distance":1305,"i_lat":-6.215568,"transit":false,"i_long":106.922662,"line":0,"station_id":"BUA"},{"time":2,"is_transit":false,"transit":false,"station_id":"KLD","line":1,"i_lat":-6.2135,"i_long":106.899548,"station_name":"Klender","distance":3100},{"station_id":"JNG","distance":3395,"i_long":106.86807400000001,"transit":true,"line":0,"time":3,"station_name":"Jatinegara","is_transit":true,"i_lat":-6.215091},{"distance":1236,"i_long":106.861737,"time":2,"i_lat":-6.209188,"line":11,"station_name":"Pondok Jati","is_transit":false,"transit":false,"station_id":"POK"},{"transit":false,"time":2,"distance":1829,"station_name":"Kramat","i_lat":-6.193792,"i_long":106.855437,"is_transit":false,"station_id":"KMT","line":11},{"station_name":"Gang Sentiong","transit":false,"is_transit":false,"i_long":106.850107,"time":1,"line":11,"i_lat":-6.185975,"distance":973,"station_id":"GST"},{"i_lat":-6.174784,"is_transit":false,"time":8,"distance":1567,"transit":false,"line":11,"station_id":"PSE","station_name":"Pasar Senen","i_long":106.84368},{"i_lat":-6.161728,"transit":false,"is_transit":false,"line":11,"distance":1436,"station_name":"Kemayoran","station_id":"KMO","time":4,"i_long":106.839204},{"time":5,"station_id":"RJW","transit":false,"is_transit":false,"i_lat":-6.14505,"station_name":"Rajawali","i_long":106.836569,"line":11,"distance":1901},{"is_transit":true,"i_lat":-6.132549,"i_long":106.826365,"line":0,"distance":1444,"station_id":"KPB","time":3,"transit":true,"station_name":"Kampung Bandan"},{"is_transit":false,"i_lat":-6.144674,"line":0,"station_id":"AK","station_name":"Angke","transit":false,"i_long":106.79867,"distance":4102,"time":9},{"station_id":"DU","line":1,"i_lat":-6.155215,"transit":true,"is_transit":true,"time":4,"i_long":106.800832,"distance":1230,"station_name":"Duri"},{"station_name":"Grogol","transit":false,"time":3,"station_id":"GGL","i_lat":-6.162021,"line":5,"i_long":106.788277,"is_transit":false,"distance":1700},{"time":2,"station_name":"Pesing","i_long":106.771379,"is_transit":false,"station_id":"PSG","distance":2036,"line":5,"transit":false,"i_lat":-6.161433},{"is_transit":false,"line":5,"i_long":106.756522,"station_name":"Taman Kota","transit":false,"i_lat":-6.1587309999999995,"station_id":"TKO","time":2,"distance":1614},{"distance":2334,"station_id":"BOI","time":2,"i_lat":-6.159876,"line":0,"station_name":"Bojongindah","is_transit":false,"transit":false,"i_long":106.737035},{"transit":false,"time":4,"is_transit":false,"station_name":"Rawa Buaya","station_id":"RW","i_lat":-6.162758,"line":5,"i_long":106.723064,"distance":1152},{"transit":false,"station_name":"Kalideres","line":5,"time":3,"i_long":106.701612,"is_transit":false,"distance":2504,"station_id":"KDS","i_lat":-6.166068},{"line":5,"station_name":"Poris","i_lat":-6.169933,"distance":2548,"time":3,"transit":false,"station_id":"PI","is_transit":false,"i_long":106.679458},{"i_long":106.665036,"line":0,"i_lat":-6.171811,"transit":false,"is_transit":false,"station_id":"BPR","time":3,"distance":1834,"station_name":"Batuceper"}],[{"i_long":106.939679,"time":0,"station_id":"KLDB","i_lat":-6.217455,"line":1,"is_transit":false,"distance":0,"station_name":"Klenderbaru","transit":false},{"station_name":"Buaran","i_long":106.922662,"station_id":"BUA","line":0,"is_transit":false,"time":1,"distance":1305,"transit":false,"i_lat":-6.215568},{"distance":3100,"time":2,"station_name":"Klender","i_long":106.899548,"i_lat":-6.2135,"is_transit":false,"station_id":"KLD","transit":false,"line":1},{"distance":3395,"i_lat":-6.215091,"station_id":"JNG","line":0,"time":3,"transit":false,"i_long":106.86807400000001,"station_name":"Jatinegara","is_transit":true},{"station_name":"Matraman","is_transit":false,"transit":false,"station_id":"MTR","time":2,"i_long":106.858896,"line":1,"distance":1377,"i_lat":-6.212485},{"distance":1275,"i_long":106.84912,"line":0,"i_lat":-6.209883,"time":2,"station_name":"Manggarai","transit":true,"station_id":"MRI","is_transit":true},{"transit":false,"line":0,"station_name":"Cikini","distance":1590,"station_id":"CKI","i_lat":-6.198556,"i_long":106.840169,"is_transit":false,"time":4},{"i_lat":-6.186295,"is_transit":false,"i_long":106.832183,"line":2,"station_name":"Gondangdia","time":3,"transit":false,"station_id":"GDD","distance":1750},{"distance":2015,"is_transit":false,"i_long":106.828284,"i_lat":-6.166716,"time":4,"station_id":"JUA","transit":false,"line":2,"station_name":"Juanda"},{"station_name":"Sawah Besar","line":2,"is_transit":false,"time":2,"i_lat":-6.160725,"i_long":106.827103,"distance":1149,"transit":false,"station_id":"SW"},{"is_transit":false,"station_id":"MGB","transit":false,"i_lat":-6.149769,"station_name":"Manggabesar","i_long":106.82482,"line":2,"time":2,"distance":906},{"line":7,"i_long":106.820901,"station_name":"Jayakarta","transit":false,"time":2,"is_transit":false,"station_id":"JAY","distance":1080,"i_lat":-6.141205},{"is_transit":true,"time":4,"station_name":"Jakarta Kota","i_long":106.812439,"transit":true,"station_id":"JAKK","distance":1264,"line":0,"i_lat":-6.137569},{"line":0,"transit":false,"is_transit":true,"time":3,"i_long":106.826365,"station_name":"Kampung Bandan","i_lat":-6.132549,"station_id":"KPB","distance":1364},{"distance":4102,"i_long":106.79867,"is_transit":false,"station_name":"Angke","transit":false,"i_lat":-6.144674,"station_id":"AK","line":0,"time":9},{"transit":true,"i_lat":-6.155215,"distance":1230,"time":4,"station_id":"DU","station_name":"Duri","i_long":106.800832,"line":1,"is_transit":true},{"time":3,"distance":1700,"transit":false,"is_transit":false,"station_name":"Grogol","line":5,"i_lat":-6.162021,"station_id":"GGL","i_long":106.788277},{"i_lat":-6.161433,"i_long":106.771379,"time":2,"distance":2036,"line":5,"is_transit":false,"transit":false,"station_id":"PSG","station_name":"Pesing"},{"time":2,"transit":false,"i_lat":-6.1587309999999995,"line":5,"distance":1614,"i_long":106.756522,"is_transit":false,"station_name":"Taman Kota","station_id":"TKO"},{"distance":2334,"time":2,"station_id":"BOI","i_long":106.737035,"line":0,"transit":false,"i_lat":-6.159876,"station_name":"Bojongindah","is_transit":false},{"station_name":"Rawa Buaya","i_lat":-6.162758,"station_id":"RW","time":4,"i_long":106.723064,"distance":1152,"transit":false,"is_transit":false,"line":5},{"station_id":"KDS","station_name":"Kalideres","distance":2504,"is_transit":false,"transit":false,"i_lat":-6.166068,"time":3,"i_long":106.701612,"line":5},{"transit":false,"station_id":"PI","station_name":"Poris","i_long":106.679458,"is_transit":false,"time":3,"distance":2548,"i_lat":-6.169933,"line":5},{"distance":1834,"line":0,"station_name":"Batuceper","time":3,"i_lat":-6.171811,"i_long":106.665036,"transit":false,"station_id":"BPR","is_transit":false}],[{"station_name":"Klenderbaru","transit":false,"i_lat":-6.217455,"i_long":106.939679,"time":0,"line":1,"station_id":"KLDB","is_transit":false,"distance":0},{"time":1,"i_lat":-6.215568,"distance":1305,"line":0,"station_name":"Buaran","i_long":106.922662,"station_id":"BUA","is_transit":false,"transit":false},{"distance":3100,"station_name":"Klender","station_id":"KLD","transit":false,"time":2,"line":1,"i_long":106.899548,"i_lat":-6.2135,"is_transit":false},{"station_id":"JNG","is_transit":true,"station_name":"Jatinegara","transit":true,"line":0,"distance":3395,"i_lat":-6.215091,"i_long":106.86807400000001,"time":3},{"transit":false,"station_id":"POK","i_lat":-6.209188,"i_long":106.861737,"time":2,"station_name":"Pondok Jati","line":11,"distance":1236,"is_transit":false},{"station_name":"Kramat","is_transit":false,"station_id":"KMT","transit":false,"time":2,"i_lat":-6.193792,"distance":1829,"i_long":106.855437,"line":11},{"transit":false,"station_id":"GST","time":1,"station_name":"Gang Sentiong","i_lat":-6.185975,"i_long":106.850107,"line":11,"is_transit":false,"distance":973},{"line":11,"i_long":106.84368,"time":8,"distance":1567,"i_lat":-6.174784,"transit":false,"station_name":"Pasar Senen","is_transit":false,"station_id":"PSE"},{"station_id":"KMO","station_name":"Kemayoran","is_transit":false,"transit":false,"i_lat":-6.161728,"i_long":106.839204,"time":4,"distance":1436,"line":11},{"time":5,"is_transit":false,"distance":1901,"i_long":106.836569,"station_id":"RJW","i_lat":-6.14505,"station_name":"Rajawali","transit":false,"line":11},{"transit":true,"station_name":"Kampung Bandan","is_transit":true,"i_long":106.826365,"time":3,"line":0,"station_id":"KPB","i_lat":-6.132549,"distance":1444},{"station_id":"JAKK","transit":true,"i_lat":-6.137569,"i_long":106.812439,"station_name":"Jakarta Kota","is_transit":true,"time":3,"line":0,"distance":1364},{"i_long":106.820901,"line":7,"i_lat":-6.141205,"distance":1264,"is_transit":false,"station_id":"JAY","station_name":"Jayakarta","time":4,"transit":false},{"line":2,"distance":1080,"transit":false,"i_long":106.82482,"time":2,"is_transit":false,"station_id":"MGB","station_name":"Manggabesar","i_lat":-6.149769},{"time":2,"is_transit":false,"station_name":"Sawah Besar","line":2,"station_id":"SW","i_lat":-6.160725,"transit":false,"i_long":106.827103,"distance":906},{"is_transit":false,"line":2,"i_lat":-6.166716,"i_long":106.828284,"station_id":"JUA","time":2,"distance":1149,"transit":false,"station_name":"Juanda"},{"i_lat":-6.186295,"station_name":"Gondangdia","transit":false,"is_transit":false,"station_id":"GDD","time":4,"i_long":106.832183,"distance":2015,"line":2},{"distance":1750,"time":3,"i_long":106.840169,"i_lat":-6.198556,"line":0,"station_id":"CKI","transit":false,"is_transit":false,"station_name":"Cikini"},{"transit":true,"line":0,"i_lat":-6.209883,"i_long":106.84912,"time":4,"distance":1590,"station_id":"MRI","station_name":"Manggarai","is_transit":true},{"distance":3186,"line":1,"i_lat":-6.202263,"is_transit":false,"station_name":"Sudirman","station_id":"SUD","i_long":106.822649,"transit":false,"time":4},{"station_id":"SUDB","distance":280,"time":1,"station_name":"Sudirman Baru","is_transit":false,"transit":false,"i_lat":-6.201433,"i_long":106.819881,"line":1},{"station_name":"Karet","time":1,"distance":471,"transit":false,"i_lat":-6.20132,"i_long":106.816351,"line":1,"station_id":"KAT","is_transit":false},{"i_long":106.811091,"is_transit":true,"distance":2029,"station_id":"THB","i_lat":-6.185545,"station_name":"Tanah Abang","transit":false,"line":1,"time":5},{"line":1,"is_transit":true,"transit":true,"i_long":106.800832,"station_id":"DU","distance":3632,"station_name":"Duri","time":8,"i_lat":-6.155215},{"station_id":"GGL","transit":false,"is_transit":false,"i_long":106.788277,"time":3,"station_name":"Grogol","distance":1700,"line":5,"i_lat":-6.162021},{"is_transit":false,"i_long":106.771379,"transit":false,"station_name":"Pesing","time":2,"distance":2036,"station_id":"PSG","i_lat":-6.161433,"line":5},{"is_transit":false,"station_id":"TKO","transit":false,"station_name":"Taman Kota","i_long":106.756522,"distance":1614,"time":2,"i_lat":-6.1587309999999995,"line":5},{"distance":2334,"transit":false,"i_lat":-6.159876,"i_long":106.737035,"line":0,"is_transit":false,"station_id":"BOI","time":2,"station_name":"Bojongindah"},{"station_id":"RW","time":4,"station_name":"Rawa Buaya","is_transit":false,"transit":false,"i_lat":-6.162758,"i_long":106.723064,"distance":1152,"line":5},{"station_id":"KDS","is_transit":false,"time":3,"station_name":"Kalideres","transit":false,"i_lat":-6.166068,"distance":2504,"i_long":106.701612,"line":5},{"i_long":106.679458,"i_lat":-6.169933,"station_id":"PI","is_transit":false,"line":5,"station_name":"Poris","distance":2548,"transit":false,"time":3},{"time":3,"station_name":"Batuceper","station_id":"BPR","transit":false,"i_lat":-6.171811,"line":0,"i_long":106.665036,"distance":1834,"is_transit":false}]]}