{"data":[[{"is_transit":false,"station_name":"Klenderbaru","time":0,"station_id":"KLDB","transit":false,"distance":0,"i_lat":-6.217455,"line":1,"i_long":106.939679},{"line":1,"station_id":"BUA","i_lat":-6.215568,"distance":1305,"i_long":106.922662,"is_transit":false,"time":1,"station_name":"Buaran","transit":false},{"line":1,"i_lat":-6.2135,"time":2,"distance":3100,"station_name":"Klender","is_transit":false,"transit":false,"i_long":106.899548,"station_id":"KLD"},{"station_name":"Jatinegara","i_long":106.86807400000001,"line":1,"time":3,"distance":3395,"station_id":"JNG","is_transit":false,"transit":false,"i_lat":-6.215091},{"distance":1377,"is_transit":false,"time":2,"i_lat":-6.212485,"station_id":"MTR","i_long":106.858896,"line":1,"station_name":"Matraman","transit":false},{"time":2,"station_id":"MRI","i_long":106.84912,"is_transit":true,"i_lat":-6.209883,"distance":1275,"transit":true,"line":2,"station_name":"Manggarai"},{"distance":2610,"i_long":106.857948,"time":4,"station_name":"Tebet","station_id":"TEB","i_lat":-6.226659,"transit":false,"is_transit":false,"line":2},{"is_transit":false,"station_name":"Cawang","i_lat":-6.242512,"line":2,"station_id":"CW","time":2,"distance":1230,"i_long":106.856607,"transit":false},{"i_long":106.85449,"is_transit":false,"transit":false,"i_lat":-6.255332,"time":3,"distance":1546,"line":2,"station_id":"DRN","station_name":"Duren Kalibata"}],[{"transit":false,"time":0,"station_name":"Klenderbaru","i_long":106.939679,"line":1,"distance":0,"i_lat":-6.217455,"station_id":"KLDB","is_transit":false},{"transit":false,"station_name":"Buaran","i_long":106.922662,"distance":1305,"i_lat":-6.215568,"time":1,"line":1,"is_transit":false,"station_id":"BUA"},{"i_long":106.899548,"time":2,"station_id":"KLD","i_lat":-6.2135,"distance":3100,"line":1,"is_transit":false,"transit":false,"station_name":"Klender"},{"station_name":"Jatinegara","is_transit":true,"i_lat":-6.215091,"time":3,"distance":3395,"transit":true,"i_long":106.86807400000001,"line":1,"station_id":"JNG"},{"is_transit":false,"station_id":"POK","i_lat":-6.209188,"transit":false,"i_long":106.861737,"time":2,"line":11,"station_name":"Pondok Jati","distance":1236},{"i_lat":-6.193792,"transit":false,"i_long":106.855437,"time":2,"station_name":"Kramat","is_transit":false,"distance":1829,"line":11,"station_id":"KMT"},{"time":1,"distance":973,"is_transit":false,"station_name":"Gang Sentiong","transit":false,"i_long":106.850107,"line":11,"station_id":"GST","i_lat":-6.185975},{"transit":false,"is_transit":false,"i_lat":-6.174784,"station_name":"Pasar Senen","distance":1567,"i_long":106.84368,"line":11,"time":8,"station_id":"PSE"},{"line":11,"time":4,"station_name":"Kemayoran","station_id":"KMO","i_lat":-6.161728,"distance":1436,"is_transit":false,"transit":false,"i_long":106.839204},{"is_transit":false,"i_long":106.836569,"station_name":"Rajawali","i_lat":-6.14505,"line":11,"time":5,"transit":false,"station_id":"RJW","distance":1901},{"transit":true,"line":4,"station_id":"KPB","i_long":106.826365,"time":3,"is_transit":true,"station_name":"Kampung Bandan","i_lat":-6.132549,"distance":1444},{"transit":false,"line":1,"station_name":"Angke","time":9,"station_id":"AK","i_lat":-6.144674,"i_long":106.79867,"distance":4102,"is_transit":false},{"is_transit":false,"station_name":"Duri","distance":1230,"line":1,"i_lat":-6.155215,"i_long":106.800832,"time":4,"station_id":"DU","transit":false},{"station_name":"Tanah Abang","time":8,"distance":3632,"i_long":106.811091,"i_lat":-6.185545,"line":1,"transit":false,"station_id":"THB","is_transit":false},{"station_id":"KAT","time":5,"distance":2029,"is_transit":false,"line":1,"station_name":"Karet","i_lat":-6.20132,"transit":false,"i_long":106.816351},{"i_long":106.819881,"distance":471,"line":1,"transit":false,"i_lat":-6.201433,"is_transit":false,"station_name":"Sudirman Baru","station_id":"SUDB","time":1},{"i_lat":-6.202263,"i_long":106.822649,"distance":280,"is_transit":false,"station_name":"Sudirman","station_id":"SUD","transit":false,"time":1,"line":1},{"i_lat":-6.209883,"transit":true,"station_id":"MRI","is_transit":true,"station_name":"Manggarai","line":2,"time":4,"i_long":106.84912,"distance":3186},{"station_name":"Tebet","station_id":"TEB","transit":false,"is_transit":false,"i_long":106.857948,"line":2,"distance":2610,"i_lat":-6.226659,"time":4},{"station_name":"Cawang","station_id":"CW","transit":false,"time":2,"i_long":106.856607,"i_lat":-6.242512,"line":2,"distance":1230,"is_transit":false},{"is_transit":false,"distance":1546,"line":2,"station_id":"DRN","time":3,"i_long":106.85449,"station_name":"Duren Kalibata","transit":false,"i_lat":-6.255332}],[{"distance":0,"station_name":"Klenderbaru","transit":false,"time":0,"i_lat":-6.217455,"is_transit":false,"line":1,"i_long":106.939679,"station_id":"KLDB"},{"station_id":"BUA","i_lat":-6.215568,"is_transit":false,"i_long":106.922662,"transit":false,"station_name":"Buaran","distance":1305,"time":1,"line":1},{"station_name":"Klender","station_id":"KLD","transit":false,"i_long":106.899548,"distance":3100,"i_lat":-6.2135,"line":1,"time":2,"is_transit":false},{"i_long":106.86807400000001,"station_id":"JNG","time":3,"station_name":"Jatinegara","transit":true,"i_lat":-6.215091,"is_transit":true,"line":1,"distance":3395},{"line":11,"i_long":106.861737,"time":2,"i_lat":-6.209188,"transit":false,"station_id":"POK","distance":1236,"is_transit":false,"station_name":"Pondok Jati"},{"station_id":"KMT","is_transit":false,"time":2,"i_lat":-6.193792,"i_long":106.855437,"transit":false,"station_name":"Kramat","line":11,"distance":1829},{"time":1,"is_transit":false,"i_lat":-6.185975,"i_long":106.850107,"line":11,"station_id":"GST","transit":false,"station_name":"Gang Sentiong","distance":973},{"is_transit":false,"distance":1567,"i_long":106.84368,"station_name":"Pasar Senen","time":8,"transit":false,"line":11,"station_id":"PSE","i_lat":-6.174784},{"line":11,"i_long":106.839204,"station_name":"Kemayoran","distance":1436,"is_transit":false,"time":4,"i_lat":-6.161728,"transit":false,"station_id":"KMO"},{"is_transit":false,"time":5,"station_name":"Rajawali","i_lat":-6.14505,"transit":false,"distance":1901,"line":11,"station_id":"RJW","i_long":106.836569},{"i_long":106.826365,"line":4,"is_transit":true,"transit":true,"i_lat":-6.132549,"distance":1444,"station_id":"KPB","time":3,"station_name":"Kampung Bandan"},{"distance":1364,"is_transit":true,"transit":true,"station_id":"JAKK","time":3,"line":2,"i_lat":-6.137569,"i_long":106.812439,"station_name":"Jakarta Kota"},{"station_id":"JAY","i_lat":-6.141205,"time":4,"station_name":"Jayakarta","distance":1264,"is_transit":false,"i_long":106.820901,"transit":false,"line":2},{"i_lat":-6.149769,"is_transit":false,"transit":false,"time":2,"distance":1080,"station_id":"MGB","line":2,"station_name":"Manggabesar","i_long":106.82482},{"i_lat":-6.160725,"time":2,"station_id":"SW","is_transit":false,"i_long":106.827103,"distance":906,"station_name":"Sawah Besar","line":2,"transit":false},{"i_lat":-6.166716,"station_name":"Juanda","time":2,"station_id":"JUA","line":2,"transit":false,"is_transit":false,"i_long":106.828284,"distance":1149},{"i_long":106.832183,"i_lat":-6.186295,"distance":2015,"station_id":"GDD","transit":false,"is_transit":false,"line":2,"time":4,"station_name":"Gondangdia"},{"i_long":106.840169,"station_name":"Cikini","time":3,"transit":false,"line":2,"distance":1750,"station_id":"CKI","i_lat":-6.198556,"is_transit":false},{"i_long":106.84912,"distance":1590,"station_id":"MRI","line":2,"is_transit":false,"transit":false,"time":4,"i_lat":-6.209883,"station_name":"Manggarai"},{"i_lat":-6.226659,"distance":2610,"station_id":"TEB","is_transit":false,"line":2,"station_name":"Tebet","transit":false,"time":4,"i_long":106.857948},{"is_transit":false,"line":2,"station_id":"CW","i_long":106.856607,"distance":1230,"station_name":"Cawang","transit":false,"i_lat":-6.242512,"time":2},{"i_long":106.85449,"station_name":"Duren Kalibata","i_lat":-6.255332,"station_id":"DRN","line":2,"distance":1546,"is_transit":false,"time":3,"transit":false}]]}