{"data":[[{"i_lat":-6.217455,"time":0,"station_name":"Klenderbaru","i_long":106.939679,"transit":false,"line":1,"is_transit":false,"station_id":"KLDB","distance":0},{"transit":false,"i_long":106.922662,"station_id":"BUA","i_lat":-6.215568,"station_name":"Buaran","time":1,"line":1,"is_transit":false,"distance":1305},{"line":1,"distance":3100,"station_name":"Klender","i_lat":-6.2135,"i_long":106.899548,"time":2,"is_transit":false,"station_id":"KLD","transit":false},{"transit":false,"i_lat":-6.215091,"distance":3395,"station_id":"JNG","time":3,"station_name":"Jatinegara","is_transit":false,"line":1,"i_long":106.86807400000001},{"time":2,"is_transit":false,"distance":1377,"i_long":106.858896,"i_lat":-6.212485,"station_id":"MTR","station_name":"Matraman","transit":false,"line":1},{"distance":1275,"transit":false,"line":2,"i_lat":-6.209883,"station_id":"MRI","is_transit":false,"time":2,"i_long":106.84912,"station_name":"Manggarai"},{"i_long":106.822649,"transit":false,"distance":3186,"time":4,"station_id":"SUD","line":1,"is_transit":false,"station_name":"Sudirman","i_lat":-6.202263},{"station_name":"Sudirman Baru","station_id":"SUDB","i_long":106.819881,"time":1,"transit":false,"is_transit":false,"i_lat":-6.201433,"line":1,"distance":280}],[{"is_transit":false,"station_id":"KLDB","line":1,"i_long":106.939679,"i_lat":-6.217455,"distance":0,"time":0,"station_name":"Klenderbaru","transit":false},{"station_id":"BUA","is_transit":false,"i_long":106.922662,"line":1,"time":1,"distance":1305,"station_name":"Buaran","transit":false,"i_lat":-6.215568},{"line":1,"transit":false,"i_long":106.899548,"distance":3100,"i_lat":-6.2135,"station_id":"KLD","station_name":"Klender","time":2,"is_transit":false},{"distance":3395,"i_lat":-6.215091,"station_id":"JNG","line":1,"station_name":"Jatinegara","i_long":106.86807400000001,"is_transit":true,"time":3,"transit":true},{"time":2,"station_id":"POK","is_transit":false,"transit":false,"i_long":106.861737,"distance":1236,"i_lat":-6.209188,"station_name":"Pondok Jati","line":11},{"time":2,"distance":1829,"station_id":"KMT","i_lat":-6.193792,"i_long":106.855437,"transit":false,"is_transit":false,"line":11,"station_name":"Kramat"},{"time":1,"distance":973,"line":11,"station_name":"Gang Sentiong","i_long":106.850107,"transit":false,"is_transit":false,"station_id":"GST","i_lat":-6.185975},{"time":8,"distance":1567,"line":11,"is_transit":false,"transit":false,"i_lat":-6.174784,"station_id":"PSE","station_name":"Pasar Senen","i_long":106.84368},{"time":4,"transit":false,"i_lat":-6.161728,"distance":1436,"is_transit":false,"line":11,"i_long":106.839204,"station_id":"KMO","station_name":"Kemayoran"},{"i_lat":-6.14505,"distance":1901,"is_transit":false,"station_id":"RJW","time":5,"station_name":"Rajawali","i_long":106.836569,"transit":false,"line":11},{"station_id":"KPB","i_lat":-6.132549,"line":4,"transit":true,"station_name":"Kampung Bandan","i_long":106.826365,"is_transit":true,"time":3,"distance":1444},{"time":9,"is_transit":false,"station_name":"Angke","transit":false,"line":1,"distance":4102,"station_id":"AK","i_long":106.79867,"i_lat":-6.144674},{"i_long":106.800832,"transit":false,"station_name":"Duri","line":1,"distance":1230,"time":4,"is_transit":false,"i_lat":-6.155215,"station_id":"DU"},{"line":1,"station_name":"Tanah Abang","time":8,"i_long":106.811091,"station_id":"THB","distance":3632,"transit":false,"is_transit":false,"i_lat":-6.185545},{"is_transit":false,"i_lat":-6.20132,"line":1,"station_name":"Karet","time":5,"distance":2029,"station_id":"KAT","i_long":106.816351,"transit":false},{"distance":471,"transit":false,"is_transit":false,"line":1,"i_lat":-6.201433,"station_name":"Sudirman Baru","station_id":"SUDB","time":1,"i_long":106.819881}],[{"i_long":106.939679,"station_id":"KLDB","station_name":"Klenderbaru","time":0,"line":1,"transit":false,"distance":0,"is_transit":false,"i_lat":-6.217455},{"station_name":"Buaran","station_id":"BUA","i_long":106.922662,"i_lat":-6.215568,"time":1,"is_transit":false,"line":1,"distance":1305,"transit":false},{"time":2,"is_transit":false,"station_name":"Klender","i_lat":-6.2135,"distance":3100,"i_long":106.899548,"line":1,"transit":false,"station_id":"KLD"},{"i_long":106.86807400000001,"time":3,"i_lat":-6.215091,"distance":3395,"station_id":"JNG","transit":false,"is_transit":false,"station_name":"Jatinegara","line":1},{"station_id":"MTR","transit":false,"i_lat":-6.212485,"time":2,"distance":1377,"line":1,"is_transit":false,"i_long":106.858896,"station_name":"Matraman"},{"station_name":"Manggarai","i_lat":-6.209883,"is_transit":true,"station_id":"MRI","time":2,"i_long":106.84912,"distance":1275,"line":2,"transit":true},{"i_long":106.840169,"transit":false,"time":4,"station_id":"CKI","is_transit":false,"line":2,"distance":1590,"station_name":"Cikini","i_lat":-6.198556},{"time":3,"distance":1750,"i_long":106.832183,"i_lat":-6.186295,"station_id":"GDD","station_name":"Gondangdia","transit":false,"is_transit":false,"line":2},{"transit":false,"i_lat":-6.166716,"station_name":"Juanda","distance":2015,"line":2,"i_long":106.828284,"is_transit":false,"station_id":"JUA","time":4},{"i_long":106.827103,"transit":false,"station_id":"SW","is_transit":false,"i_lat":-6.160725,"line":2,"distance":1149,"station_name":"Sawah Besar","time":2},{"i_lat":-6.149769,"time":2,"transit":false,"i_long":106.82482,"distance":906,"line":2,"is_transit":false,"station_id":"MGB","station_name":"Manggabesar"},{"station_id":"JAY","i_long":106.820901,"time":2,"station_name":"Jayakarta","transit":false,"i_lat":-6.141205,"line":2,"distance":1080,"is_transit":false},{"station_id":"JAKK","transit":true,"line":2,"i_long":106.812439,"time":4,"distance":1264,"is_transit":true,"i_lat":-6.137569,"station_name":"Jakarta Kota"},{"time":3,"distance":1364,"i_lat":-6.132549,"station_name":"Kampung Bandan","is_transit":true,"transit":true,"i_long":106.826365,"station_id":"KPB","line":4},{"distance":4102,"station_name":"Angke","is_transit":false,"i_long":106.79867,"line":1,"time":9,"i_lat":-6.144674,"transit":false,"station_id":"AK"},{"transit":false,"is_transit":false,"i_long":106.800832,"station_name":"Duri","station_id":"DU","distance":1230,"i_lat":-6.155215,"line":1,"time":4},{"line":1,"is_transit":false,"distance":3632,"station_name":"Tanah Abang","time":8,"transit":false,"i_lat":-6.185545,"i_long":106.811091,"station_id":"THB"},{"i_long":106.816351,"i_lat":-6.20132,"station_name":"Karet","transit":false,"time":5,"distance":2029,"station_id":"KAT","is_transit":false,"line":1},{"station_id":"SUDB","i_lat":-6.201433,"station_name":"Sudirman Baru","transit":false,"line":1,"is_transit":false,"distance":471,"time":1,"i_long":106.819881}],[{"time":0,"distance":0,"i_lat":-6.217455,"line":1,"station_id":"KLDB","i_long":106.939679,"transit":false,"station_name":"Klenderbaru","is_transit":false},{"time":1,"is_transit":false,"line":1,"station_id":"BUA","distance":1305,"i_lat":-6.215568,"station_name":"Buaran","i_long":106.922662,"transit":false},{"station_name":"Klender","line":1,"is_transit":false,"distance":3100,"transit":false,"i_long":106.899548,"station_id":"KLD","i_lat":-6.2135,"time":2},{"transit":true,"i_long":106.86807400000001,"line":1,"time":3,"distance":3395,"station_id":"JNG","i_lat":-6.215091,"is_transit":true,"station_name":"Jatinegara"},{"is_transit":false,"i_long":106.861737,"i_lat":-6.209188,"station_name":"Pondok Jati","time":2,"station_id":"POK","transit":false,"distance":1236,"line":11},{"time":2,"station_id":"KMT","i_long":106.855437,"station_name":"Kramat","is_transit":false,"i_lat":-6.193792,"line":11,"transit":false,"distance":1829},{"station_name":"Gang Sentiong","time":1,"transit":false,"distance":973,"is_transit":false,"i_lat":-6.185975,"line":11,"station_id":"GST","i_long":106.850107},{"is_transit":false,"time":8,"distance":1567,"station_name":"Pasar Senen","station_id":"PSE","i_lat":-6.174784,"i_long":106.84368,"line":11,"transit":false},{"station_id":"KMO","i_long":106.839204,"i_lat":-6.161728,"time":4,"transit":false,"distance":1436,"line":11,"station_name":"Kemayoran","is_transit":false},{"station_id":"RJW","station_name":"Rajawali","i_lat":-6.14505,"i_long":106.836569,"distance":1901,"transit":false,"is_transit":false,"time":5,"line":11},{"time":3,"station_name":"Kampung Bandan","transit":true,"is_transit":true,"line":4,"distance":1444,"station_id":"KPB","i_lat":-6.132549,"i_long":106.826365},{"transit":true,"time":3,"i_lat":-6.137569,"station_name":"Jakarta Kota","is_transit":true,"line":2,"distance":1364,"station_id":"JAKK","i_long":106.812439},{"i_lat":-6.141205,"line":2,"station_name":"Jayakarta","i_long":106.820901,"distance":1264,"time":4,"station_id":"JAY","is_transit":false,"transit":false},{"time":2,"station_name":"Manggabesar","i_long":106.82482,"station_id":"MGB","transit":false,"i_lat":-6.149769,"line":2,"distance":1080,"is_transit":false},{"i_lat":-6.160725,"distance":906,"i_long":106.827103,"transit":false,"line":2,"station_name":"Sawah Besar","station_id":"SW","is_transit":false,"time":2},{"i_long":106.828284,"line":2,"i_lat":-6.166716,"station_name":"Juanda","is_transit":false,"station_id":"JUA","time":2,"distance":1149,"transit":false},{"line":2,"station_name":"Gondangdia","time":4,"station_id":"GDD","i_lat":-6.186295,"transit":false,"distance":2015,"is_transit":false,"i_long":106.832183},{"time":3,"line":2,"i_lat":-6.198556,"is_transit":false,"station_id":"CKI","transit":false,"i_long":106.840169,"station_name":"Cikini","distance":1750},{"distance":1590,"station_name":"Manggarai","transit":true,"i_lat":-6.209883,"i_long":106.84912,"time":4,"line":2,"is_transit":true,"station_id":"MRI"},{"i_long":106.822649,"station_id":"SUD","i_lat":-6.202263,"station_name":"Sudirman","time":4,"transit":false,"distance":3186,"line":1,"is_transit":false},{"i_lat":-6.201433,"transit":false,"is_transit":false,"i_long":106.819881,"line":1,"station_name":"Sudirman Baru","station_id":"SUDB","distance":280,"time":1}]]}