{"data":[[{"time":0,"is_transit":false,"station_name":"Klenderbaru","distance":0,"station_id":"KLDB","i_lat":-6.217455,"transit":false,"i_long":106.939679,"line":1},{"station_name":"Buaran","transit":false,"time":1,"i_lat":-6.215568,"line":1,"is_transit":false,"station_id":"BUA","distance":1305,"i_long":106.922662},{"distance":3100,"is_transit":false,"station_id":"KLD","i_long":106.899548,"line":1,"station_name":"Klender","time":2,"i_lat":-6.2135,"transit":false},{"station_id":"JNG","is_transit":false,"time":3,"station_name":"Jatinegara","transit":false,"i_lat":-6.215091,"distance":3395,"line":1,"i_long":106.86807400000001},{"i_long":106.858896,"station_id":"MTR","is_transit":false,"line":1,"station_name":"Matraman","transit":false,"distance":1377,"time":2,"i_lat":-6.212485},{"transit":false,"station_id":"MRI","time":2,"i_long":106.84912,"station_name":"Manggarai","i_lat":-6.209883,"distance":1275,"line":2,"is_transit":false},{"is_transit":false,"line":1,"station_name":"Sudirman","time":4,"i_long":106.822649,"transit":false,"station_id":"SUD","distance":3186,"i_lat":-6.202263},{"transit":false,"i_lat":-6.201433,"time":1,"station_id":"SUDB","i_long":106.819881,"line":1,"distance":280,"is_transit":false,"station_name":"Sudirman Baru"},{"line":1,"is_transit":false,"time":1,"station_name":"Karet","distance":471,"station_id":"KAT","transit":false,"i_lat":-6.20132,"i_long":106.816351},{"station_name":"Tanah Abang","line":1,"time":5,"distance":2029,"is_transit":false,"transit":false,"i_lat":-6.185545,"station_id":"THB","i_long":106.811091}],[{"time":0,"distance":0,"station_id":"KLDB","i_lat":-6.217455,"is_transit":false,"transit":false,"line":1,"station_name":"Klenderbaru","i_long":106.939679},{"time":1,"distance":1305,"line":1,"is_transit":false,"transit":false,"i_long":106.922662,"station_id":"BUA","i_lat":-6.215568,"station_name":"Buaran"},{"is_transit":false,"time":2,"station_id":"KLD","distance":3100,"line":1,"i_long":106.899548,"station_name":"Klender","i_lat":-6.2135,"transit":false},{"i_lat":-6.215091,"transit":true,"station_id":"JNG","station_name":"Jatinegara","distance":3395,"time":3,"is_transit":true,"i_long":106.86807400000001,"line":1},{"time":2,"is_transit":false,"transit":false,"station_name":"Pondok Jati","station_id":"POK","i_lat":-6.209188,"i_long":106.861737,"line":11,"distance":1236},{"station_id":"KMT","time":2,"station_name":"Kramat","is_transit":false,"i_lat":-6.193792,"distance":1829,"transit":false,"line":11,"i_long":106.855437},{"i_lat":-6.185975,"line":11,"distance":973,"station_id":"GST","time":1,"station_name":"Gang Sentiong","is_transit":false,"transit":false,"i_long":106.850107},{"time":8,"station_id":"PSE","station_name":"Pasar Senen","i_lat":-6.174784,"distance":1567,"is_transit":false,"i_long":106.84368,"transit":false,"line":11},{"line":11,"i_lat":-6.161728,"station_name":"Kemayoran","station_id":"KMO","is_transit":false,"i_long":106.839204,"time":4,"transit":false,"distance":1436},{"station_id":"RJW","transit":false,"i_long":106.836569,"line":11,"distance":1901,"is_transit":false,"time":5,"station_name":"Rajawali","i_lat":-6.14505},{"transit":true,"time":3,"distance":1444,"station_id":"KPB","station_name":"Kampung Bandan","i_lat":-6.132549,"i_long":106.826365,"is_transit":true,"line":4},{"is_transit":false,"station_id":"AK","transit":false,"line":1,"distance":4102,"time":9,"station_name":"Angke","i_long":106.79867,"i_lat":-6.144674},{"line":1,"is_transit":false,"transit":false,"i_long":106.800832,"distance":1230,"station_id":"DU","i_lat":-6.155215,"time":4,"station_name":"Duri"},{"is_transit":false,"distance":3632,"station_name":"Tanah Abang","i_long":106.811091,"transit":false,"station_id":"THB","line":1,"i_lat":-6.185545,"time":8}],[{"transit":false,"station_id":"KLDB","is_transit":false,"i_long":106.939679,"line":1,"time":0,"i_lat":-6.217455,"distance":0,"station_name":"Klenderbaru"},{"station_id":"BUA","station_name":"Buaran","i_lat":-6.215568,"i_long":106.922662,"time":1,"transit":false,"distance":1305,"is_transit":false,"line":1},{"time":2,"station_id":"KLD","distance":3100,"i_lat":-6.2135,"is_transit":false,"line":1,"transit":false,"i_long":106.899548,"station_name":"Klender"},{"i_long":106.86807400000001,"line":1,"is_transit":false,"transit":false,"time":3,"station_name":"Jatinegara","distance":3395,"i_lat":-6.215091,"station_id":"JNG"},{"transit":false,"time":2,"is_transit":false,"i_lat":-6.212485,"station_name":"Matraman","i_long":106.858896,"line":1,"station_id":"MTR","distance":1377},{"time":2,"station_name":"Manggarai","distance":1275,"is_transit":true,"transit":true,"i_lat":-6.209883,"line":2,"i_long":106.84912,"station_id":"MRI"},{"time":4,"i_long":106.840169,"i_lat":-6.198556,"line":2,"station_id":"CKI","station_name":"Cikini","is_transit":false,"transit":false,"distance":1590},{"station_name":"Gondangdia","time":3,"distance":1750,"station_id":"GDD","i_long":106.832183,"transit":false,"line":2,"is_transit":false,"i_lat":-6.186295},{"distance":2015,"transit":false,"i_long":106.828284,"i_lat":-6.166716,"station_name":"Juanda","is_transit":false,"line":2,"station_id":"JUA","time":4},{"time":2,"station_name":"Sawah Besar","distance":1149,"transit":false,"is_transit":false,"station_id":"SW","i_lat":-6.160725,"i_long":106.827103,"line":2},{"is_transit":false,"line":2,"transit":false,"i_long":106.82482,"i_lat":-6.149769,"distance":906,"station_name":"Manggabesar","time":2,"station_id":"MGB"},{"transit":false,"line":2,"distance":1080,"time":2,"station_id":"JAY","i_lat":-6.141205,"i_long":106.820901,"station_name":"Jayakarta","is_transit":false},{"station_id":"JAKK","station_name":"Jakarta Kota","i_lat":-6.137569,"time":4,"transit":true,"line":2,"distance":1264,"i_long":106.812439,"is_transit":true},{"line":4,"i_lat":-6.132549,"station_id":"KPB","station_name":"Kampung Bandan","time":3,"distance":1364,"is_transit":true,"transit":true,"i_long":106.826365},{"line":1,"transit":false,"station_id":"AK","i_lat":-6.144674,"time":9,"distance":4102,"station_name":"Angke","is_transit":false,"i_long":106.79867},{"distance":1230,"station_name":"Duri","is_transit":false,"line":1,"station_id":"DU","time":4,"transit":false,"i_lat":-6.155215,"i_long":106.800832},{"time":8,"station_name":"Tanah Abang","i_long":106.811091,"distance":3632,"i_lat":-6.185545,"is_transit":false,"transit":false,"line":1,"station_id":"THB"}],[{"time":0,"transit":false,"station_name":"Klenderbaru","distance":0,"is_transit":false,"station_id":"KLDB","i_lat":-6.217455,"i_long":106.939679,"line":1},{"time":1,"station_id":"BUA","is_transit":false,"distance":1305,"i_long":106.922662,"i_lat":-6.215568,"line":1,"station_name":"Buaran","transit":false},{"is_transit":false,"i_long":106.899548,"station_name":"Klender","transit":false,"time":2,"distance":3100,"i_lat":-6.2135,"station_id":"KLD","line":1},{"distance":3395,"i_lat":-6.215091,"time":3,"station_name":"Jatinegara","line":1,"transit":true,"is_transit":true,"station_id":"JNG","i_long":106.86807400000001},{"i_long":106.861737,"station_id":"POK","i_lat":-6.209188,"is_transit":false,"distance":1236,"line":11,"time":2,"transit":false,"station_name":"Pondok Jati"},{"distance":1829,"i_lat":-6.193792,"station_id":"KMT","time":2,"i_long":106.855437,"is_transit":false,"station_name":"Kramat","line":11,"transit":false},{"is_transit":false,"i_lat":-6.185975,"station_name":"Gang Sentiong","time":1,"station_id":"GST","line":11,"i_long":106.850107,"transit":false,"distance":973},{"i_long":106.84368,"i_lat":-6.174784,"line":11,"is_transit":false,"station_name":"Pasar Senen","distance":1567,"transit":false,"station_id":"PSE","time":8},{"station_name":"Kemayoran","i_lat":-6.161728,"line":11,"transit":false,"station_id":"KMO","time":4,"is_transit":false,"distance":1436,"i_long":106.839204},{"station_name":"Rajawali","transit":false,"time":5,"line":11,"i_long":106.836569,"is_transit":false,"distance":1901,"station_id":"RJW","i_lat":-6.14505},{"station_id":"KPB","i_long":106.826365,"time":3,"transit":true,"distance":1444,"station_name":"Kampung Bandan","line":4,"is_transit":true,"i_lat":-6.132549},{"time":3,"i_long":106.812439,"transit":true,"station_name":"Jakarta Kota","is_transit":true,"station_id":"JAKK","line":2,"distance":1364,"i_lat":-6.137569},{"transit":false,"station_name":"Jayakarta","i_long":106.820901,"distance":1264,"station_id":"JAY","time":4,"is_transit":false,"i_lat":-6.141205,"line":2},{"is_transit":false,"station_name":"Manggabesar","station_id":"MGB","i_long":106.82482,"distance":1080,"line":2,"time":2,"i_lat":-6.149769,"transit":false},{"line":2,"is_transit":false,"station_name":"Sawah Besar","distance":906,"station_id":"SW","i_lat":-6.160725,"i_long":106.827103,"transit":false,"time":2},{"line":2,"is_transit":false,"i_long":106.828284,"time":2,"distance":1149,"transit":false,"station_id":"JUA","station_name":"Juanda","i_lat":-6.166716},{"station_id":"GDD","i_long":106.832183,"distance":2015,"time":4,"i_lat":-6.186295,"is_transit":false,"station_name":"Gondangdia","line":2,"transit":false},{"line":2,"station_id":"CKI","distance":1750,"is_transit":false,"i_long":106.840169,"time":3,"i_lat":-6.198556,"transit":false,"station_name":"Cikini"},{"i_long":106.84912,"line":2,"time":4,"transit":true,"station_name":"Manggarai","is_transit":true,"distance":1590,"station_id":"MRI","i_lat":-6.209883},{"is_transit":false,"transit":false,"station_name":"Sudirman","time":4,"i_lat":-6.202263,"line":1,"i_long":106.822649,"distance":3186,"station_id":"SUD"},{"i_long":106.819881,"distance":280,"station_name":"Sudirman Baru","station_id":"SUDB","transit":false,"is_transit":false,"line":1,"time":1,"i_lat":-6.201433},{"distance":471,"line":1,"i_lat":-6.20132,"is_transit":false,"transit":false,"i_long":106.816351,"station_id":"KAT","time":1,"station_name":"Karet"},{"i_lat":-6.185545,"is_transit":false,"transit":false,"distance":2029,"line":1,"station_id":"THB","station_name":"Tanah Abang","i_long":106.811091,"time":5}]]}