{"data":[[{"time":0,"transit":false,"station_id":"KLDB","distance":0,"i_lat":-6.217455,"i_long":106.939679,"line":1,"is_transit":false,"station_name":"Klenderbaru"},{"line":1,"station_id":"BUA","i_lat":-6.215568,"station_name":"Buaran","distance":1305,"transit":false,"time":1,"i_long":106.922662,"is_transit":false},{"is_transit":false,"time":2,"transit":false,"line":1,"distance":3100,"i_long":106.899548,"station_name":"Klender","i_lat":-6.2135,"station_id":"KLD"},{"i_long":106.86807400000001,"time":3,"line":1,"distance":3395,"station_id":"JNG","transit":false,"i_lat":-6.215091,"is_transit":false,"station_name":"Jatinegara"},{"station_id":"MTR","i_lat":-6.212485,"line":1,"station_name":"Matraman","time":2,"is_transit":false,"transit":false,"distance":1377,"i_long":106.858896},{"line":2,"is_transit":false,"i_long":106.84912,"time":2,"distance":1275,"transit":false,"i_lat":-6.209883,"station_name":"Manggarai","station_id":"MRI"},{"time":4,"distance":3186,"i_lat":-6.202263,"line":1,"station_name":"Sudirman","i_long":106.822649,"station_id":"SUD","transit":false,"is_transit":false},{"transit":false,"time":1,"station_name":"Sudirman Baru","station_id":"SUDB","i_lat":-6.201433,"distance":280,"is_transit":false,"i_long":106.819881,"line":1},{"i_lat":-6.20132,"i_long":106.816351,"station_name":"Karet","station_id":"KAT","is_transit":false,"time":1,"line":1,"distance":471,"transit":false},{"time":5,"is_transit":false,"transit":false,"line":1,"i_lat":-6.185545,"distance":2029,"station_id":"THB","station_name":"Tanah Abang","i_long":106.811091},{"line":1,"i_long":106.800832,"transit":true,"station_id":"DU","station_name":"Duri","i_lat":-6.155215,"is_transit":true,"time":8,"distance":3632},{"station_id":"GRG","i_lat":-6.162021,"line":5,"i_long":106.788277,"is_transit":false,"distance":1700,"station_name":"Grogol","transit":false,"time":3},{"i_lat":-6.161433,"station_id":"PSG","i_long":106.771379,"station_name":"Pesing","line":5,"distance":2036,"is_transit":false,"transit":false,"time":2},{"transit":false,"i_long":106.756522,"station_name":"Taman Kota","time":2,"distance":1614,"i_lat":-6.1587309999999995,"line":5,"station_id":"TKO","is_transit":false},{"distance":2334,"is_transit":false,"station_name":"Bojongindah","transit":false,"station_id":"BOI","time":2,"i_lat":-6.159876,"i_long":106.737035,"line":5},{"i_long":106.723064,"is_transit":false,"transit":false,"station_name":"Rawa Buaya","time":4,"station_id":"RW","i_lat":-6.162758,"line":5,"distance":1152},{"distance":2504,"i_long":106.701612,"station_id":"KDS","is_transit":false,"line":5,"time":3,"station_name":"Kalideres","transit":false,"i_lat":-6.166068},{"is_transit":false,"i_long":106.679458,"line":5,"station_id":"PI","distance":2548,"transit":false,"station_name":"Poris","i_lat":-6.169933,"time":3},{"transit":false,"i_long":106.665036,"distance":1834,"station_name":"Batuceper","time":3,"is_transit":false,"line":5,"i_lat":-6.171811,"station_id":"BPR"}],[{"line":1,"time":0,"is_transit":false,"station_name":"Klenderbaru","transit":false,"i_lat":-6.217455,"i_long":106.939679,"distance":0,"station_id":"KLDB"},{"line":1,"time":1,"i_lat":-6.215568,"distance":1305,"is_transit":false,"station_name":"Buaran","transit":false,"station_id":"BUA","i_long":106.922662},{"is_transit":false,"station_id":"KLD","line":1,"i_lat":-6.2135,"distance":3100,"station_name":"Klender","i_long":106.899548,"time":2,"transit":false},{"i_long":106.86807400000001,"transit":true,"time":3,"line":1,"i_lat":-6.215091,"distance":3395,"is_transit":true,"station_name":"Jatinegara","station_id":"JNG"},{"transit":false,"line":11,"distance":1236,"time":2,"station_id":"POK","i_lat":-6.209188,"station_name":"Pondok Jati","is_transit":false,"i_long":106.861737},{"station_name":"Kramat","transit":false,"i_lat":-6.193792,"station_id":"KMT","time":2,"i_long":106.855437,"line":11,"is_transit":false,"distance":1829},{"station_name":"Gang Sentiong","line":11,"distance":973,"transit":false,"time":1,"i_lat":-6.185975,"i_long":106.850107,"is_transit":false,"station_id":"GST"},{"distance":1567,"time":8,"i_long":106.84368,"line":11,"transit":false,"i_lat":-6.174784,"is_transit":false,"station_name":"Pasar Senen","station_id":"PSE"},{"station_id":"KMO","distance":1436,"transit":false,"is_transit":false,"i_long":106.839204,"line":11,"station_name":"Kemayoran","i_lat":-6.161728,"time":4},{"station_name":"Rajawali","transit":false,"i_lat":-6.14505,"distance":1901,"station_id":"RJW","i_long":106.836569,"time":5,"is_transit":false,"line":11},{"time":3,"i_lat":-6.132549,"line":4,"station_id":"KPB","transit":true,"distance":1444,"station_name":"Kampung Bandan","i_long":106.826365,"is_transit":true},{"distance":4102,"is_transit":false,"i_lat":-6.144674,"station_id":"AK","transit":false,"line":1,"time":9,"station_name":"Angke","i_long":106.79867},{"time":4,"i_lat":-6.155215,"station_id":"DU","distance":1230,"station_name":"Duri","i_long":106.800832,"is_transit":true,"transit":true,"line":1},{"is_transit":false,"i_lat":-6.162021,"transit":false,"distance":1700,"station_name":"Grogol","station_id":"GRG","i_long":106.788277,"time":3,"line":5},{"is_transit":false,"station_name":"Pesing","line":5,"i_lat":-6.161433,"transit":false,"distance":2036,"station_id":"PSG","time":2,"i_long":106.771379},{"is_transit":false,"transit":false,"time":2,"distance":1614,"i_long":106.756522,"station_name":"Taman Kota","i_lat":-6.1587309999999995,"line":5,"station_id":"TKO"},{"i_lat":-6.159876,"time":2,"station_name":"Bojongindah","is_transit":false,"distance":2334,"line":5,"transit":false,"i_long":106.737035,"station_id":"BOI"},{"station_id":"RW","time":4,"station_name":"Rawa Buaya","is_transit":false,"line":5,"transit":false,"distance":1152,"i_long":106.723064,"i_lat":-6.162758},{"line":5,"transit":false,"station_id":"KDS","station_name":"Kalideres","time":3,"is_transit":false,"i_lat":-6.166068,"i_long":106.701612,"distance":2504},{"line":5,"i_long":106.679458,"distance":2548,"is_transit":false,"station_name":"Poris","transit":false,"station_id":"PI","i_lat":-6.169933,"time":3},{"station_id":"BPR","transit":false,"is_transit":false,"i_lat":-6.171811,"distance":1834,"time":3,"i_long":106.665036,"station_name":"Batuceper","line":5}],[{"time":0,"station_id":"KLDB","distance":0,"is_transit":false,"line":1,"station_name":"Klenderbaru","transit":false,"i_lat":-6.217455,"i_long":106.939679},{"transit":false,"time":1,"i_lat":-6.215568,"i_long":106.922662,"station_name":"Buaran","station_id":"BUA","distance":1305,"is_transit":false,"line":1},{"station_name":"Klender","transit":false,"station_id":"KLD","i_long":106.899548,"line":1,"i_lat":-6.2135,"time":2,"distance":3100,"is_transit":false},{"distance":3395,"station_name":"Jatinegara","transit":false,"station_id":"JNG","time":3,"is_transit":false,"i_long":106.86807400000001,"line":1,"i_lat":-6.215091},{"is_transit":false,"station_id":"MTR","line":1,"i_lat":-6.212485,"station_name":"Matraman","i_long":106.858896,"distance":1377,"transit":false,"time":2},{"line":2,"i_long":106.84912,"distance":1275,"i_lat":-6.209883,"time":2,"station_name":"Manggarai","is_transit":true,"station_id":"MRI","transit":true},{"transit":false,"i_lat":-6.198556,"station_name":"Cikini","time":4,"station_id":"CKI","is_transit":false,"i_long":106.840169,"line":2,"distance":1590},{"distance":1750,"i_long":106.832183,"station_name":"Gondangdia","transit":false,"time":3,"is_transit":false,"station_id":"GDD","i_lat":-6.186295,"line":2},{"distance":2015,"line":2,"station_name":"Juanda","i_long":106.828284,"station_id":"JUA","is_transit":false,"transit":false,"i_lat":-6.166716,"time":4},{"time":2,"i_lat":-6.160725,"distance":1149,"transit":false,"i_long":106.827103,"line":2,"station_name":"Sawah Besar","station_id":"SW","is_transit":false},{"distance":906,"i_long":106.82482,"transit":false,"time":2,"is_transit":false,"i_lat":-6.149769,"station_name":"Manggabesar","line":2,"station_id":"MGB"},{"time":2,"is_transit":false,"i_lat":-6.141205,"station_id":"JAY","station_name":"Jayakarta","distance":1080,"i_long":106.820901,"line":2,"transit":false},{"is_transit":true,"transit":true,"i_long":106.812439,"line":2,"station_id":"JAKK","i_lat":-6.137569,"station_name":"Jakarta Kota","time":4,"distance":1264},{"station_name":"Kampung Bandan","station_id":"KPB","distance":1364,"i_long":106.826365,"line":4,"time":3,"i_lat":-6.132549,"is_transit":true,"transit":true},{"line":1,"station_name":"Angke","is_transit":false,"i_lat":-6.144674,"transit":false,"station_id":"AK","time":9,"distance":4102,"i_long":106.79867},{"time":4,"is_transit":true,"distance":1230,"i_long":106.800832,"line":1,"station_id":"DU","i_lat":-6.155215,"station_name":"Duri","transit":true},{"line":5,"is_transit":false,"distance":1700,"station_name":"Grogol","transit":false,"station_id":"GRG","time":3,"i_lat":-6.162021,"i_long":106.788277},{"time":2,"station_name":"Pesing","line":5,"is_transit":false,"transit":false,"i_lat":-6.161433,"distance":2036,"station_id":"PSG","i_long":106.771379},{"i_long":106.756522,"station_id":"TKO","time":2,"distance":1614,"line":5,"transit":false,"is_transit":false,"i_lat":-6.1587309999999995,"station_name":"Taman Kota"},{"time":2,"distance":2334,"i_long":106.737035,"station_name":"Bojongindah","station_id":"BOI","i_lat":-6.159876,"line":5,"is_transit":false,"transit":false},{"transit":false,"distance":1152,"line":5,"station_name":"Rawa Buaya","i_long":106.723064,"time":4,"station_id":"RW","is_transit":false,"i_lat":-6.162758},{"is_transit":false,"line":5,"i_long":106.701612,"station_id":"KDS","station_name":"Kalideres","distance":2504,"time":3,"i_lat":-6.166068,"transit":false},{"i_lat":-6.169933,"station_name":"Poris","i_long":106.679458,"transit":false,"is_transit":false,"line":5,"time":3,"distance":2548,"station_id":"PI"},{"time":3,"is_transit":false,"line":5,"transit":false,"station_name":"Batuceper","station_id":"BPR","i_lat":-6.171811,"i_long":106.665036,"distance":1834}],[{"station_name":"Klenderbaru","transit":false,"time":0,"distance":0,"i_long":106.939679,"i_lat":-6.217455,"line":1,"station_id":"KLDB","is_transit":false},{"transit":false,"i_lat":-6.215568,"station_id":"BUA","line":1,"distance":1305,"i_long":106.922662,"station_name":"Buaran","is_transit":false,"time":1},{"is_transit":false,"station_name":"Klender","station_id":"KLD","time":2,"i_lat":-6.2135,"i_long":106.899548,"line":1,"transit":false,"distance":3100},{"i_lat":-6.215091,"time":3,"i_long":106.86807400000001,"transit":true,"station_id":"JNG","line":1,"distance":3395,"station_name":"Jatinegara","is_transit":true},{"station_id":"POK","distance":1236,"i_long":106.861737,"station_name":"Pondok Jati","i_lat":-6.209188,"is_transit":false,"transit":false,"line":11,"time":2},{"i_long":106.855437,"distance":1829,"is_transit":false,"i_lat":-6.193792,"line":11,"transit":false,"station_id":"KMT","time":2,"station_name":"Kramat"},{"i_long":106.850107,"time":1,"i_lat":-6.185975,"station_id":"GST","is_transit":false,"transit":false,"distance":973,"station_name":"Gang Sentiong","line":11},{"i_long":106.84368,"transit":false,"time":8,"is_transit":false,"line":11,"station_id":"PSE","distance":1567,"station_name":"Pasar Senen","i_lat":-6.174784},{"station_id":"KMO","i_lat":-6.161728,"line":11,"i_long":106.839204,"station_name":"Kemayoran","is_transit":false,"transit":false,"distance":1436,"time":4},{"station_name":"Rajawali","time":5,"is_transit":false,"i_long":106.836569,"transit":false,"station_id":"RJW","distance":1901,"i_lat":-6.14505,"line":11},{"station_id":"KPB","i_lat":-6.132549,"i_long":106.826365,"line":4,"is_transit":true,"transit":true,"distance":1444,"time":3,"station_name":"Kampung Bandan"},{"line":2,"station_name":"Jakarta Kota","i_long":106.812439,"distance":1364,"i_lat":-6.137569,"transit":true,"is_transit":true,"station_id":"JAKK","time":3},{"transit":false,"is_transit":false,"station_id":"JAY","time":4,"distance":1264,"i_long":106.820901,"line":2,"station_name":"Jayakarta","i_lat":-6.141205},{"transit":false,"line":2,"time":2,"i_lat":-6.149769,"distance":1080,"station_name":"Manggabesar","i_long":106.82482,"is_transit":false,"station_id":"MGB"},{"distance":906,"station_name":"Sawah Besar","station_id":"SW","is_transit":false,"transit":false,"i_lat":-6.160725,"time":2,"i_long":106.827103,"line":2},{"station_name":"Juanda","time":2,"station_id":"JUA","is_transit":false,"distance":1149,"i_lat":-6.166716,"i_long":106.828284,"line":2,"transit":false},{"i_lat":-6.186295,"time":4,"station_id":"GDD","distance":2015,"is_transit":false,"i_long":106.832183,"line":2,"station_name":"Gondangdia","transit":false},{"time":3,"i_long":106.840169,"station_name":"Cikini","transit":false,"is_transit":false,"distance":1750,"i_lat":-6.198556,"line":2,"station_id":"CKI"},{"station_name":"Manggarai","time":4,"i_lat":-6.209883,"line":2,"station_id":"MRI","is_transit":true,"distance":1590,"i_long":106.84912,"transit":true},{"is_transit":false,"i_long":106.822649,"line":1,"transit":false,"station_name":"Sudirman","station_id":"SUD","distance":3186,"time":4,"i_lat":-6.202263},{"station_name":"Sudirman Baru","distance":280,"transit":false,"is_transit":false,"i_long":106.819881,"i_lat":-6.201433,"time":1,"station_id":"SUDB","line":1},{"station_id":"KAT","station_name":"Karet","transit":false,"distance":471,"i_lat":-6.20132,"i_long":106.816351,"line":1,"time":1,"is_transit":false},{"is_transit":false,"station_name":"Tanah Abang","station_id":"THB","time":5,"i_lat":-6.185545,"i_long":106.811091,"transit":false,"line":1,"distance":2029},{"time":8,"distance":3632,"i_lat":-6.155215,"line":1,"transit":true,"station_name":"Duri","is_transit":true,"i_long":106.800832,"station_id":"DU"},{"i_lat":-6.162021,"station_name":"Grogol","is_transit":false,"i_long":106.788277,"line":5,"distance":1700,"time":3,"transit":false,"station_id":"GRG"},{"i_lat":-6.161433,"distance":2036,"line":5,"station_id":"PSG","time":2,"station_name":"Pesing","is_transit":false,"transit":false,"i_long":106.771379},{"station_id":"TKO","transit":false,"station_name":"Taman Kota","distance":1614,"time":2,"i_lat":-6.1587309999999995,"is_transit":false,"line":5,"i_long":106.756522},{"transit":false,"line":5,"is_transit":false,"station_id":"BOI","time":2,"i_lat":-6.159876,"station_name":"Bojongindah","distance":2334,"i_long":106.737035},{"station_id":"RW","distance":1152,"is_transit":false,"i_lat":-6.162758,"time":4,"station_name":"Rawa Buaya","line":5,"transit":false,"i_long":106.723064},{"transit":false,"i_long":106.701612,"i_lat":-6.166068,"station_name":"Kalideres","is_transit":false,"line":5,"distance":2504,"station_id":"KDS","time":3},{"distance":2548,"line":5,"station_name":"Poris","transit":false,"station_id":"PI","time":3,"is_transit":false,"i_lat":-6.169933,"i_long":106.679458},{"time":3,"is_transit":false,"station_name":"Batuceper","station_id":"BPR","distance":1834,"i_lat":-6.171811,"transit":false,"i_long":106.665036,"line":5}]]}