{"data":[[{"station_name":"Klenderbaru","i_lat":-6.217455,"transit":false,"is_transit":false,"station_id":"KLDB","i_long":106.939679,"distance":0,"time":0,"line":1},{"station_id":"BUA","line":1,"station_name":"Buaran","is_transit":false,"transit":false,"distance":1305,"i_lat":-6.215568,"time":1,"i_long":106.922662},{"transit":false,"station_id":"KLD","is_transit":false,"line":1,"time":2,"i_long":106.899548,"station_name":"Klender","distance":3100,"i_lat":-6.2135},{"i_long":106.86807400000001,"line":1,"transit":false,"is_transit":false,"time":3,"station_name":"Jatinegara","distance":3395,"i_lat":-6.215091,"station_id":"JNG"},{"i_long":106.858896,"distance":1377,"i_lat":-6.212485,"line":1,"transit":false,"station_name":"Matraman","station_id":"MTR","is_transit":false,"time":2},{"station_id":"MRI","time":2,"transit":false,"i_long":106.84912,"distance":1275,"is_transit":false,"i_lat":-6.209883,"line":2,"station_name":"Manggarai"},{"i_long":106.822649,"station_id":"SUD","line":1,"distance":3186,"i_lat":-6.202263,"station_name":"Sudirman","transit":false,"time":4,"is_transit":false},{"station_name":"Sudirman Baru","i_long":106.819881,"transit":false,"is_transit":false,"i_lat":-6.201433,"distance":280,"time":1,"station_id":"SUDB","line":1},{"transit":false,"station_name":"Karet","i_lat":-6.20132,"time":1,"station_id":"KAT","i_long":106.816351,"distance":471,"is_transit":false,"line":1},{"station_id":"THB","line":1,"is_transit":true,"time":5,"distance":2029,"transit":true,"station_name":"Tanah Abang","i_lat":-6.185545,"i_long":106.811091},{"i_long":106.79689,"time":6,"station_id":"PLM","line":6,"is_transit":false,"distance":3191,"transit":false,"i_lat":-6.207404,"station_name":"Palmerah"},{"time":7,"station_name":"Kebayoran","distance":3737,"line":6,"station_id":"KBY","transit":false,"i_lat":-6.237242,"i_long":106.780334,"is_transit":false},{"station_id":"PDJ","i_long":106.74273,"is_transit":false,"transit":false,"time":8,"i_lat":-6.276362,"station_name":"Pondokranji","distance":6218,"line":6},{"station_id":"JMU","transit":false,"i_long":106.728916,"line":6,"distance":2179,"time":3,"station_name":"Jurangmangu","i_lat":-6.288927,"is_transit":false},{"station_id":"SDM","i_lat":-6.296963,"line":6,"transit":false,"distance":1994,"station_name":"Sudimara","i_long":106.712277,"time":4,"is_transit":false},{"transit":false,"time":6,"distance":4566,"station_id":"RU","i_long":106.675475,"is_transit":false,"line":6,"i_lat":-6.314823,"station_name":"Rawa Buntu"},{"distance":2413,"i_lat":-6.319871,"is_transit":false,"time":4,"i_long":106.66566,"station_id":"SRP","line":6,"station_name":"Serpong","transit":false}],[{"transit":false,"is_transit":false,"station_id":"KLDB","i_lat":-6.217455,"distance":0,"station_name":"Klenderbaru","time":0,"i_long":106.939679,"line":1},{"transit":false,"station_name":"Buaran","is_transit":false,"distance":1305,"station_id":"BUA","i_long":106.922662,"time":1,"i_lat":-6.215568,"line":1},{"line":1,"i_lat":-6.2135,"i_long":106.899548,"time":2,"station_name":"Klender","is_transit":false,"distance":3100,"transit":false,"station_id":"KLD"},{"i_long":106.86807400000001,"line":1,"distance":3395,"transit":true,"is_transit":true,"time":3,"i_lat":-6.215091,"station_name":"Jatinegara","station_id":"JNG"},{"i_long":106.861737,"station_id":"POK","station_name":"Pondok Jati","transit":false,"is_transit":false,"i_lat":-6.209188,"time":2,"distance":1236,"line":11},{"time":2,"transit":false,"distance":1829,"is_transit":false,"station_name":"Kramat","i_lat":-6.193792,"i_long":106.855437,"line":11,"station_id":"KMT"},{"transit":false,"station_name":"Gang Sentiong","i_long":106.850107,"distance":973,"station_id":"GST","line":11,"is_transit":false,"time":1,"i_lat":-6.185975},{"line":11,"time":8,"distance":1567,"transit":false,"station_name":"Pasar Senen","is_transit":false,"station_id":"PSE","i_lat":-6.174784,"i_long":106.84368},{"transit":false,"distance":1436,"i_lat":-6.161728,"station_id":"KMO","i_long":106.839204,"line":11,"station_name":"Kemayoran","is_transit":false,"time":4},{"transit":false,"line":11,"distance":1901,"i_lat":-6.14505,"station_id":"RJW","time":5,"is_transit":false,"station_name":"Rajawali","i_long":106.836569},{"is_transit":true,"i_long":106.826365,"transit":true,"station_name":"Kampung Bandan","station_id":"KPB","line":4,"i_lat":-6.132549,"distance":1444,"time":3},{"time":9,"distance":4102,"station_name":"Angke","station_id":"AK","i_lat":-6.144674,"transit":false,"line":1,"is_transit":false,"i_long":106.79867},{"transit":false,"i_long":106.800832,"i_lat":-6.155215,"station_name":"Duri","distance":1230,"line":1,"is_transit":false,"time":4,"station_id":"DU"},{"station_name":"Tanah Abang","i_lat":-6.185545,"is_transit":true,"line":1,"time":8,"transit":true,"i_long":106.811091,"distance":3632,"station_id":"THB"},{"time":6,"station_name":"Palmerah","transit":false,"is_transit":false,"i_lat":-6.207404,"i_long":106.79689,"distance":3191,"line":6,"station_id":"PLM"},{"line":6,"is_transit":false,"station_id":"KBY","i_long":106.780334,"station_name":"Kebayoran","time":7,"i_lat":-6.237242,"distance":3737,"transit":false},{"station_id":"PDJ","i_long":106.74273,"is_transit":false,"transit":false,"station_name":"Pondokranji","time":8,"line":6,"i_lat":-6.276362,"distance":6218},{"distance":2179,"time":3,"station_id":"JMU","line":6,"is_transit":false,"station_name":"Jurangmangu","transit":false,"i_lat":-6.288927,"i_long":106.728916},{"i_lat":-6.296963,"line":6,"i_long":106.712277,"station_name":"Sudimara","distance":1994,"time":4,"transit":false,"is_transit":false,"station_id":"SDM"},{"is_transit":false,"time":6,"i_long":106.675475,"i_lat":-6.314823,"station_name":"Rawa Buntu","station_id":"RU","line":6,"distance":4566,"transit":false},{"distance":2413,"i_long":106.66566,"station_id":"SRP","line":6,"time":4,"is_transit":false,"station_name":"Serpong","transit":false,"i_lat":-6.319871}],[{"is_transit":false,"distance":0,"station_id":"KLDB","i_long":106.939679,"time":0,"line":1,"transit":false,"i_lat":-6.217455,"station_name":"Klenderbaru"},{"is_transit":false,"i_long":106.922662,"station_id":"BUA","i_lat":-6.215568,"distance":1305,"line":1,"time":1,"station_name":"Buaran","transit":false},{"is_transit":false,"station_id":"KLD","station_name":"Klender","i_lat":-6.2135,"i_long":106.899548,"distance":3100,"time":2,"line":1,"transit":false},{"is_transit":false,"time":3,"i_long":106.86807400000001,"station_name":"Jatinegara","i_lat":-6.215091,"station_id":"JNG","transit":false,"line":1,"distance":3395},{"i_long":106.858896,"station_name":"Matraman","station_id":"MTR","transit":false,"distance":1377,"line":1,"is_transit":false,"time":2,"i_lat":-6.212485},{"line":2,"time":2,"is_transit":true,"station_id":"MRI","i_lat":-6.209883,"i_long":106.84912,"station_name":"Manggarai","transit":true,"distance":1275},{"station_id":"CKI","distance":1590,"i_lat":-6.198556,"station_name":"Cikini","transit":false,"i_long":106.840169,"time":4,"is_transit":false,"line":2},{"station_name":"Gondangdia","transit":false,"line":2,"distance":1750,"is_transit":false,"station_id":"GDD","i_long":106.832183,"i_lat":-6.186295,"time":3},{"i_lat":-6.166716,"distance":2015,"is_transit":false,"station_name":"Juanda","time":4,"transit":false,"i_long":106.828284,"station_id":"JUA","line":2},{"transit":false,"station_id":"SW","i_long":106.827103,"station_name":"Sawah Besar","is_transit":false,"i_lat":-6.160725,"time":2,"distance":1149,"line":2},{"is_transit":false,"i_long":106.82482,"distance":906,"time":2,"station_id":"MGB","i_lat":-6.149769,"line":2,"transit":false,"station_name":"Manggabesar"},{"is_transit":false,"i_lat":-6.141205,"station_name":"Jayakarta","distance":1080,"station_id":"JAY","i_long":106.820901,"line":2,"time":2,"transit":false},{"station_id":"JAKK","i_lat":-6.137569,"line":2,"station_name":"Jakarta Kota","is_transit":true,"distance":1264,"i_long":106.812439,"transit":true,"time":4},{"distance":1364,"line":4,"time":3,"i_lat":-6.132549,"station_id":"KPB","transit":true,"i_long":106.826365,"is_transit":true,"station_name":"Kampung Bandan"},{"line":1,"is_transit":false,"station_id":"AK","station_name":"Angke","time":9,"i_lat":-6.144674,"distance":4102,"transit":false,"i_long":106.79867},{"is_transit":false,"transit":false,"distance":1230,"station_id":"DU","i_long":106.800832,"station_name":"Duri","line":1,"i_lat":-6.155215,"time":4},{"distance":3632,"station_name":"Tanah Abang","i_lat":-6.185545,"line":1,"station_id":"THB","time":8,"is_transit":true,"i_long":106.811091,"transit":true},{"i_lat":-6.207404,"time":6,"transit":false,"i_long":106.79689,"distance":3191,"line":6,"is_transit":false,"station_id":"PLM","station_name":"Palmerah"},{"station_id":"KBY","i_long":106.780334,"time":7,"station_name":"Kebayoran","transit":false,"i_lat":-6.237242,"line":6,"distance":3737,"is_transit":false},{"station_id":"PDJ","transit":false,"line":6,"i_long":106.74273,"time":8,"is_transit":false,"distance":6218,"i_lat":-6.276362,"station_name":"Pondokranji"},{"time":3,"distance":2179,"i_lat":-6.288927,"station_name":"Jurangmangu","is_transit":false,"transit":false,"i_long":106.728916,"station_id":"JMU","line":6},{"distance":1994,"station_name":"Sudimara","is_transit":false,"i_long":106.712277,"line":6,"time":4,"i_lat":-6.296963,"transit":false,"station_id":"SDM"},{"is_transit":false,"transit":false,"i_long":106.675475,"station_name":"Rawa Buntu","station_id":"RU","distance":4566,"i_lat":-6.314823,"line":6,"time":6},{"line":6,"is_transit":false,"distance":2413,"station_name":"Serpong","time":4,"transit":false,"i_lat":-6.319871,"i_long":106.66566,"station_id":"SRP"}],[{"station_id":"KLDB","time":0,"transit":false,"i_lat":-6.217455,"distance":0,"station_name":"Klenderbaru","is_transit":false,"line":1,"i_long":106.939679},{"distance":1305,"i_long":106.922662,"transit":false,"station_id":"BUA","line":1,"i_lat":-6.215568,"time":1,"station_name":"Buaran","is_transit":false},{"i_lat":-6.2135,"station_name":"Klender","line":1,"is_transit":false,"i_long":106.899548,"station_id":"KLD","distance":3100,"transit":false,"time":2},{"i_lat":-6.215091,"is_transit":true,"line":1,"transit":true,"station_id":"JNG","station_name":"Jatinegara","i_long":106.86807400000001,"distance":3395,"time":3},{"station_name":"Pondok Jati","distance":1236,"line":11,"i_long":106.861737,"time":2,"station_id":"POK","i_lat":-6.209188,"transit":false,"is_transit":false},{"distance":1829,"time":2,"i_long":106.855437,"is_transit":false,"station_name":"Kramat","station_id":"KMT","transit":false,"i_lat":-6.193792,"line":11},{"distance":973,"i_long":106.850107,"time":1,"is_transit":false,"station_id":"GST","transit":false,"i_lat":-6.185975,"station_name":"Gang Sentiong","line":11},{"is_transit":false,"distance":1567,"station_id":"PSE","line":11,"time":8,"transit":false,"i_lat":-6.174784,"i_long":106.84368,"station_name":"Pasar Senen"},{"station_name":"Kemayoran","transit":false,"time":4,"distance":1436,"station_id":"KMO","i_lat":-6.161728,"line":11,"i_long":106.839204,"is_transit":false},{"i_long":106.836569,"line":11,"time":5,"transit":false,"distance":1901,"is_transit":false,"station_id":"RJW","station_name":"Rajawali","i_lat":-6.14505},{"transit":true,"i_lat":-6.132549,"line":4,"is_transit":true,"station_id":"KPB","i_long":106.826365,"station_name":"Kampung Bandan","time":3,"distance":1444},{"line":2,"station_name":"Jakarta Kota","distance":1364,"transit":true,"i_long":106.812439,"time":3,"is_transit":true,"i_lat":-6.137569,"station_id":"JAKK"},{"i_long":106.820901,"time":4,"station_name":"Jayakarta","station_id":"JAY","i_lat":-6.141205,"transit":false,"line":2,"is_transit":false,"distance":1264},{"station_name":"Manggabesar","transit":false,"time":2,"station_id":"MGB","i_long":106.82482,"line":2,"is_transit":false,"i_lat":-6.149769,"distance":1080},{"transit":false,"station_name":"Sawah Besar","distance":906,"station_id":"SW","i_lat":-6.160725,"line":2,"i_long":106.827103,"time":2,"is_transit":false},{"line":2,"i_long":106.828284,"is_transit":false,"distance":1149,"transit":false,"i_lat":-6.166716,"station_id":"JUA","time":2,"station_name":"Juanda"},{"is_transit":false,"distance":2015,"i_long":106.832183,"time":4,"i_lat":-6.186295,"line":2,"station_id":"GDD","transit":false,"station_name":"Gondangdia"},{"i_long":106.840169,"line":2,"i_lat":-6.198556,"station_name":"Cikini","is_transit":false,"station_id":"CKI","time":3,"distance":1750,"transit":false},{"line":2,"station_name":"Manggarai","time":4,"station_id":"MRI","i_lat":-6.209883,"transit":true,"is_transit":true,"distance":1590,"i_long":106.84912},{"station_name":"Sudirman","i_long":106.822649,"station_id":"SUD","time":4,"line":1,"is_transit":false,"distance":3186,"transit":false,"i_lat":-6.202263},{"distance":280,"i_lat":-6.201433,"line":1,"station_id":"SUDB","transit":false,"time":1,"is_transit":false,"i_long":106.819881,"station_name":"Sudirman Baru"},{"is_transit":false,"time":1,"station_name":"Karet","distance":471,"transit":false,"station_id":"KAT","i_lat":-6.20132,"line":1,"i_long":106.816351},{"time":5,"transit":true,"i_lat":-6.185545,"i_long":106.811091,"distance":2029,"line":1,"station_id":"THB","station_name":"Tanah Abang","is_transit":true},{"time":6,"distance":3191,"line":6,"is_transit":false,"i_lat":-6.207404,"station_id":"PLM","transit":false,"station_name":"Palmerah","i_long":106.79689},{"i_long":106.780334,"station_name":"Kebayoran","line":6,"time":7,"is_transit":false,"distance":3737,"i_lat":-6.237242,"transit":false,"station_id":"KBY"},{"time":8,"distance":6218,"transit":false,"station_id":"PDJ","line":6,"is_transit":false,"i_lat":-6.276362,"i_long":106.74273,"station_name":"Pondokranji"},{"station_name":"Jurangmangu","transit":false,"time":3,"distance":2179,"station_id":"JMU","is_transit":false,"i_lat":-6.288927,"line":6,"i_long":106.728916},{"is_transit":false,"transit":false,"line":6,"i_long":106.712277,"i_lat":-6.296963,"distance":1994,"station_name":"Sudimara","time":4,"station_id":"SDM"},{"is_transit":false,"station_name":"Rawa Buntu","transit":false,"distance":4566,"line":6,"station_id":"RU","time":6,"i_lat":-6.314823,"i_long":106.675475},{"transit":false,"station_name":"Serpong","time":4,"distance":2413,"station_id":"SRP","is_transit":false,"i_lat":-6.319871,"line":6,"i_long":106.66566}]]}