{"data":[[{"is_transit":false,"transit":false,"distance":0,"station_id":"KLDB","time":0,"station_name":"Klenderbaru","i_long":106.939679,"line":1,"i_lat":-6.217455},{"time":1,"line":1,"i_lat":-6.215568,"station_id":"BUA","station_name":"Buaran","is_transit":false,"distance":1305,"i_long":106.922662,"transit":false},{"transit":false,"station_name":"Klender","i_lat":-6.2135,"time":2,"i_long":106.899548,"line":1,"station_id":"KLD","distance":3100,"is_transit":false},{"distance":3395,"transit":false,"time":3,"station_id":"JNG","station_name":"Jatinegara","is_transit":false,"i_long":106.86807400000001,"i_lat":-6.215091,"line":1},{"distance":1377,"station_name":"Matraman","is_transit":false,"i_lat":-6.212485,"line":1,"transit":false,"time":2,"i_long":106.858896,"station_id":"MTR"},{"is_transit":false,"transit":false,"station_name":"Manggarai","line":2,"time":2,"station_id":"MRI","i_lat":-6.209883,"i_long":106.84912,"distance":1275},{"is_transit":false,"distance":3186,"transit":false,"i_lat":-6.202263,"time":4,"station_name":"Sudirman","station_id":"SUD","i_long":106.822649,"line":1},{"i_lat":-6.201433,"distance":280,"station_id":"SUDB","time":1,"station_name":"Sudirman Baru","transit":false,"i_long":106.819881,"is_transit":false,"line":1},{"i_long":106.816351,"time":1,"station_id":"KAT","station_name":"Karet","transit":false,"i_lat":-6.20132,"line":1,"distance":471,"is_transit":false},{"transit":false,"station_id":"THB","is_transit":false,"distance":2029,"station_name":"Tanah Abang","i_long":106.811091,"line":1,"i_lat":-6.185545,"time":5},{"station_id":"DU","is_transit":false,"transit":false,"line":1,"i_long":106.800832,"time":8,"i_lat":-6.155215,"station_name":"Duri","distance":3632}],[{"time":0,"i_long":106.939679,"station_name":"Klenderbaru","transit":false,"distance":0,"station_id":"KLDB","is_transit":false,"i_lat":-6.217455,"line":1},{"line":1,"time":1,"i_long":106.922662,"station_name":"Buaran","is_transit":false,"i_lat":-6.215568,"station_id":"BUA","transit":false,"distance":1305},{"is_transit":false,"line":1,"station_name":"Klender","station_id":"KLD","i_lat":-6.2135,"i_long":106.899548,"distance":3100,"time":2,"transit":false},{"line":1,"station_id":"JNG","station_name":"Jatinegara","i_long":106.86807400000001,"is_transit":true,"i_lat":-6.215091,"transit":true,"time":3,"distance":3395},{"station_id":"POK","transit":false,"station_name":"Pondok Jati","i_lat":-6.209188,"is_transit":false,"i_long":106.861737,"time":2,"line":11,"distance":1236},{"time":2,"station_name":"Kramat","i_long":106.855437,"distance":1829,"is_transit":false,"transit":false,"i_lat":-6.193792,"line":11,"station_id":"KMT"},{"time":1,"line":11,"is_transit":false,"i_long":106.850107,"station_id":"GST","distance":973,"transit":false,"i_lat":-6.185975,"station_name":"Gang Sentiong"},{"station_id":"PSE","is_transit":false,"time":8,"i_lat":-6.174784,"i_long":106.84368,"transit":false,"station_name":"Pasar Senen","distance":1567,"line":11},{"i_long":106.839204,"time":4,"line":11,"station_id":"KMO","is_transit":false,"transit":false,"i_lat":-6.161728,"distance":1436,"station_name":"Kemayoran"},{"station_name":"Rajawali","line":11,"time":5,"i_lat":-6.14505,"distance":1901,"is_transit":false,"i_long":106.836569,"transit":false,"station_id":"RJW"},{"is_transit":true,"distance":1444,"i_lat":-6.132549,"station_id":"KPB","time":3,"transit":true,"i_long":106.826365,"station_name":"Kampung Bandan","line":4},{"time":9,"station_id":"AK","station_name":"Angke","is_transit":false,"transit":false,"i_lat":-6.144674,"i_long":106.79867,"line":1,"distance":4102},{"is_transit":false,"transit":false,"line":1,"distance":1230,"station_name":"Duri","i_lat":-6.155215,"i_long":106.800832,"station_id":"DU","time":4}],[{"is_transit":false,"line":1,"transit":false,"time":0,"station_name":"Klenderbaru","i_lat":-6.217455,"station_id":"KLDB","i_long":106.939679,"distance":0},{"station_id":"BUA","i_lat":-6.215568,"is_transit":false,"station_name":"Buaran","transit":false,"time":1,"i_long":106.922662,"line":1,"distance":1305},{"line":1,"distance":3100,"station_id":"KLD","is_transit":false,"i_lat":-6.2135,"station_name":"Klender","i_long":106.899548,"transit":false,"time":2},{"station_name":"Jatinegara","i_lat":-6.215091,"line":1,"distance":3395,"time":3,"transit":false,"is_transit":false,"i_long":106.86807400000001,"station_id":"JNG"},{"i_long":106.858896,"station_id":"MTR","is_transit":false,"distance":1377,"time":2,"station_name":"Matraman","i_lat":-6.212485,"transit":false,"line":1},{"distance":1275,"transit":true,"station_name":"Manggarai","i_long":106.84912,"is_transit":true,"time":2,"station_id":"MRI","line":2,"i_lat":-6.209883},{"time":4,"i_lat":-6.198556,"station_id":"CKI","station_name":"Cikini","transit":false,"distance":1590,"is_transit":false,"i_long":106.840169,"line":2},{"is_transit":false,"distance":1750,"line":2,"i_lat":-6.186295,"station_name":"Gondangdia","i_long":106.832183,"time":3,"station_id":"GDD","transit":false},{"time":4,"i_long":106.828284,"station_id":"JUA","line":2,"i_lat":-6.166716,"distance":2015,"station_name":"Juanda","transit":false,"is_transit":false},{"transit":false,"station_name":"Sawah Besar","i_long":106.827103,"i_lat":-6.160725,"time":2,"is_transit":false,"line":2,"distance":1149,"station_id":"SW"},{"i_lat":-6.149769,"transit":false,"line":2,"distance":906,"station_id":"MGB","is_transit":false,"time":2,"station_name":"Manggabesar","i_long":106.82482},{"time":2,"station_id":"JAY","station_name":"Jayakarta","i_long":106.820901,"line":2,"i_lat":-6.141205,"distance":1080,"is_transit":false,"transit":false},{"i_lat":-6.137569,"i_long":106.812439,"station_name":"Jakarta Kota","line":2,"transit":true,"time":4,"distance":1264,"station_id":"JAKK","is_transit":true},{"i_long":106.826365,"line":4,"time":3,"distance":1364,"station_id":"KPB","station_name":"Kampung Bandan","i_lat":-6.132549,"transit":true,"is_transit":true},{"transit":false,"i_lat":-6.144674,"is_transit":false,"line":1,"distance":4102,"time":9,"station_name":"Angke","station_id":"AK","i_long":106.79867},{"station_name":"Duri","i_lat":-6.155215,"is_transit":false,"time":4,"transit":false,"i_long":106.800832,"station_id":"DU","distance":1230,"line":1}],[{"is_transit":false,"transit":false,"i_lat":-6.217455,"distance":0,"i_long":106.939679,"line":1,"time":0,"station_name":"Klenderbaru","station_id":"KLDB"},{"i_long":106.922662,"is_transit":false,"i_lat":-6.215568,"station_name":"Buaran","station_id":"BUA","time":1,"transit":false,"distance":1305,"line":1},{"i_long":106.899548,"line":1,"transit":false,"is_transit":false,"station_id":"KLD","time":2,"distance":3100,"station_name":"Klender","i_lat":-6.2135},{"is_transit":true,"line":1,"station_name":"Jatinegara","i_long":106.86807400000001,"station_id":"JNG","i_lat":-6.215091,"time":3,"distance":3395,"transit":true},{"i_long":106.861737,"i_lat":-6.209188,"distance":1236,"time":2,"is_transit":false,"line":11,"station_id":"POK","station_name":"Pondok Jati","transit":false},{"distance":1829,"station_id":"KMT","i_long":106.855437,"station_name":"Kramat","transit":false,"is_transit":false,"i_lat":-6.193792,"line":11,"time":2},{"line":11,"station_name":"Gang Sentiong","time":1,"station_id":"GST","is_transit":false,"i_lat":-6.185975,"i_long":106.850107,"distance":973,"transit":false},{"i_lat":-6.174784,"time":8,"transit":false,"station_id":"PSE","is_transit":false,"line":11,"station_name":"Pasar Senen","i_long":106.84368,"distance":1567},{"is_transit":false,"time":4,"distance":1436,"station_id":"KMO","station_name":"Kemayoran","transit":false,"i_long":106.839204,"i_lat":-6.161728,"line":11},{"is_transit":false,"time":5,"transit":false,"i_long":106.836569,"line":11,"station_name":"Rajawali","i_lat":-6.14505,"distance":1901,"station_id":"RJW"},{"station_id":"KPB","line":4,"transit":true,"time":3,"is_transit":true,"i_lat":-6.132549,"distance":1444,"station_name":"Kampung Bandan","i_long":106.826365},{"time":3,"distance":1364,"station_name":"Jakarta Kota","station_id":"JAKK","is_transit":true,"line":2,"i_long":106.812439,"i_lat":-6.137569,"transit":true},{"distance":1264,"i_lat":-6.141205,"station_name":"Jayakarta","line":2,"station_id":"JAY","time":4,"is_transit":false,"transit":false,"i_long":106.820901},{"station_id":"MGB","line":2,"time":2,"transit":false,"is_transit":false,"i_lat":-6.149769,"station_name":"Manggabesar","distance":1080,"i_long":106.82482},{"i_lat":-6.160725,"i_long":106.827103,"station_name":"Sawah Besar","transit":false,"distance":906,"line":2,"time":2,"is_transit":false,"station_id":"SW"},{"is_transit":false,"i_lat":-6.166716,"line":2,"distance":1149,"i_long":106.828284,"station_id":"JUA","transit":false,"station_name":"Juanda","time":2},{"transit":false,"time":4,"station_name":"Gondangdia","station_id":"GDD","is_transit":false,"i_long":106.832183,"i_lat":-6.186295,"distance":2015,"line":2},{"transit":false,"time":3,"line":2,"station_id":"CKI","station_name":"Cikini","distance":1750,"i_long":106.840169,"i_lat":-6.198556,"is_transit":false},{"station_id":"MRI","station_name":"Manggarai","i_long":106.84912,"time":4,"i_lat":-6.209883,"transit":true,"distance":1590,"line":2,"is_transit":true},{"station_id":"SUD","line":1,"time":4,"i_lat":-6.202263,"i_long":106.822649,"is_transit":false,"transit":false,"distance":3186,"station_name":"Sudirman"},{"transit":false,"station_id":"SUDB","station_name":"Sudirman Baru","i_long":106.819881,"time":1,"distance":280,"line":1,"i_lat":-6.201433,"is_transit":false},{"i_lat":-6.20132,"station_id":"KAT","transit":false,"time":1,"is_transit":false,"station_name":"Karet","i_long":106.816351,"line":1,"distance":471},{"i_long":106.811091,"transit":false,"time":5,"i_lat":-6.185545,"station_id":"THB","is_transit":false,"distance":2029,"line":1,"station_name":"Tanah Abang"},{"is_transit":false,"distance":3632,"transit":false,"station_id":"DU","line":1,"time":8,"i_lat":-6.155215,"station_name":"Duri","i_long":106.800832}]]}