{"data":[[{"i_lat":-6.217455,"line":1,"transit":false,"i_long":106.939679,"is_transit":false,"time":0,"station_name":"Klenderbaru","station_id":"KLDB","distance":0},{"is_transit":false,"distance":1305,"station_id":"BUA","station_name":"Buaran","i_lat":-6.215568,"i_long":106.922662,"transit":false,"line":1,"time":1},{"station_id":"KLD","i_long":106.899548,"distance":3100,"transit":false,"is_transit":false,"station_name":"Klender","i_lat":-6.2135,"time":2,"line":1},{"line":1,"transit":false,"time":3,"is_transit":false,"station_id":"JNG","i_long":106.86807400000001,"distance":3395,"station_name":"Jatinegara","i_lat":-6.215091},{"transit":false,"is_transit":false,"time":2,"line":1,"i_lat":-6.212485,"station_id":"MTR","distance":1377,"station_name":"Matraman","i_long":106.858896},{"station_id":"MRI","station_name":"Manggarai","is_transit":true,"i_lat":-6.209883,"i_long":106.84912,"time":2,"distance":1275,"line":2,"transit":true},{"is_transit":false,"station_id":"TEB","i_long":106.857948,"station_name":"Tebet","time":4,"line":2,"distance":2610,"transit":false,"i_lat":-6.226659},{"station_id":"CW","time":2,"distance":1230,"transit":false,"station_name":"Cawang","i_lat":-6.242512,"line":2,"i_long":106.856607,"is_transit":false},{"is_transit":false,"i_lat":-6.255332,"time":3,"line":2,"i_long":106.85449,"transit":false,"station_name":"Duren Kalibata","distance":1546,"station_id":"DRN"},{"station_id":"PSMB","distance":824,"time":2,"line":2,"i_lat":-6.263214,"i_long":106.851577,"transit":false,"is_transit":false,"station_name":"Pasar Minggu Baru"},{"time":2,"station_name":"Pasar Minggu","station_id":"PSM","transit":false,"is_transit":false,"i_lat":-6.2842400000000005,"i_long":106.843999,"line":2,"distance":2380},{"transit":false,"distance":2820,"station_name":"Tanjung Barat","is_transit":false,"time":4,"i_lat":-6.3080680000000005,"i_long":106.838896,"line":2,"station_id":"TNT"},{"transit":false,"time":3,"station_id":"LNA","distance":2671,"is_transit":false,"i_lat":-6.330363,"station_name":"Lenteng Agung","i_long":106.832616,"line":2},{"i_long":106.834175,"station_id":"UP","i_lat":-6.339291,"is_transit":false,"transit":false,"line":2,"time":2,"distance":1029,"station_name":"Univ. Pancasila"},{"station_id":"UI","distance":2264,"time":3,"line":2,"station_name":"Univ. Indonesia","is_transit":false,"transit":false,"i_lat":-6.360749,"i_long":106.831474}],[{"line":1,"distance":0,"transit":false,"time":0,"is_transit":false,"i_lat":-6.217455,"station_id":"KLDB","station_name":"Klenderbaru","i_long":106.939679},{"i_lat":-6.215568,"is_transit":false,"i_long":106.922662,"line":1,"distance":1305,"transit":false,"station_name":"Buaran","time":1,"station_id":"BUA"},{"line":1,"distance":3100,"transit":false,"station_id":"KLD","station_name":"Klender","i_lat":-6.2135,"i_long":106.899548,"time":2,"is_transit":false},{"i_long":106.86807400000001,"transit":true,"i_lat":-6.215091,"is_transit":true,"distance":3395,"station_name":"Jatinegara","time":3,"station_id":"JNG","line":1},{"i_lat":-6.209188,"line":11,"station_id":"POK","station_name":"Pondok Jati","i_long":106.861737,"distance":1236,"is_transit":false,"time":2,"transit":false},{"distance":1829,"transit":false,"i_long":106.855437,"i_lat":-6.193792,"station_id":"KMT","line":11,"is_transit":false,"time":2,"station_name":"Kramat"},{"transit":false,"i_long":106.850107,"station_name":"Gang Sentiong","is_transit":false,"line":11,"distance":973,"station_id":"GST","time":1,"i_lat":-6.185975},{"i_lat":-6.174784,"distance":1567,"is_transit":false,"i_long":106.84368,"time":8,"station_id":"PSE","transit":false,"station_name":"Pasar Senen","line":11},{"is_transit":false,"station_id":"KMO","time":4,"station_name":"Kemayoran","distance":1436,"i_lat":-6.161728,"line":11,"i_long":106.839204,"transit":false},{"transit":false,"i_lat":-6.14505,"station_id":"RJW","distance":1901,"i_long":106.836569,"station_name":"Rajawali","is_transit":false,"line":11,"time":5},{"i_long":106.826365,"station_id":"KPB","station_name":"Kampung Bandan","transit":true,"distance":1444,"is_transit":true,"time":3,"line":4,"i_lat":-6.132549},{"transit":false,"time":9,"distance":4102,"station_name":"Angke","i_lat":-6.144674,"i_long":106.79867,"is_transit":false,"line":1,"station_id":"AK"},{"station_id":"DU","time":4,"station_name":"Duri","is_transit":false,"line":1,"transit":false,"distance":1230,"i_lat":-6.155215,"i_long":106.800832},{"i_lat":-6.185545,"station_id":"THB","transit":false,"distance":3632,"station_name":"Tanah Abang","is_transit":false,"time":8,"i_long":106.811091,"line":1},{"distance":2029,"i_lat":-6.20132,"is_transit":false,"i_long":106.816351,"line":1,"transit":false,"time":5,"station_id":"KAT","station_name":"Karet"},{"station_name":"Sudirman Baru","transit":false,"i_long":106.819881,"station_id":"SUDB","is_transit":false,"distance":471,"time":1,"i_lat":-6.201433,"line":1},{"station_id":"SUD","line":1,"i_lat":-6.202263,"distance":280,"station_name":"Sudirman","transit":false,"time":1,"is_transit":false,"i_long":106.822649},{"line":2,"distance":3186,"transit":true,"time":4,"i_lat":-6.209883,"i_long":106.84912,"station_id":"MRI","station_name":"Manggarai","is_transit":true},{"i_long":106.857948,"i_lat":-6.226659,"station_name":"Tebet","transit":false,"time":4,"distance":2610,"is_transit":false,"station_id":"TEB","line":2},{"i_lat":-6.242512,"time":2,"distance":1230,"transit":false,"line":2,"station_name":"Cawang","i_long":106.856607,"is_transit":false,"station_id":"CW"},{"line":2,"i_long":106.85449,"i_lat":-6.255332,"time":3,"station_id":"DRN","transit":false,"station_name":"Duren Kalibata","is_transit":false,"distance":1546},{"station_name":"Pasar Minggu Baru","time":2,"transit":false,"line":2,"distance":824,"i_lat":-6.263214,"i_long":106.851577,"is_transit":false,"station_id":"PSMB"},{"is_transit":false,"station_id":"PSM","transit":false,"time":2,"station_name":"Pasar Minggu","i_long":106.843999,"line":2,"distance":2380,"i_lat":-6.2842400000000005},{"is_transit":false,"transit":false,"i_lat":-6.3080680000000005,"line":2,"station_id":"TNT","station_name":"Tanjung Barat","i_long":106.838896,"time":4,"distance":2820},{"station_id":"LNA","line":2,"i_long":106.832616,"transit":false,"distance":2671,"is_transit":false,"i_lat":-6.330363,"station_name":"Lenteng Agung","time":3},{"transit":false,"i_long":106.834175,"time":2,"station_id":"UP","i_lat":-6.339291,"distance":1029,"is_transit":false,"station_name":"Univ. Pancasila","line":2},{"distance":2264,"time":3,"station_name":"Univ. Indonesia","i_lat":-6.360749,"i_long":106.831474,"line":2,"station_id":"UI","is_transit":false,"transit":false}],[{"i_long":106.939679,"is_transit":false,"line":1,"transit":false,"station_name":"Klenderbaru","i_lat":-6.217455,"station_id":"KLDB","distance":0,"time":0},{"distance":1305,"station_name":"Buaran","transit":false,"line":1,"is_transit":false,"time":1,"i_lat":-6.215568,"station_id":"BUA","i_long":106.922662},{"i_lat":-6.2135,"is_transit":false,"station_name":"Klender","time":2,"transit":false,"station_id":"KLD","distance":3100,"i_long":106.899548,"line":1},{"line":1,"station_id":"JNG","transit":true,"time":3,"distance":3395,"is_transit":true,"station_name":"Jatinegara","i_lat":-6.215091,"i_long":106.86807400000001},{"transit":false,"is_transit":false,"i_long":106.861737,"station_id":"POK","line":11,"station_name":"Pondok Jati","i_lat":-6.209188,"time":2,"distance":1236},{"time":2,"is_transit":false,"station_id":"KMT","i_long":106.855437,"transit":false,"line":11,"i_lat":-6.193792,"distance":1829,"station_name":"Kramat"},{"distance":973,"station_id":"GST","is_transit":false,"i_lat":-6.185975,"transit":false,"line":11,"station_name":"Gang Sentiong","time":1,"i_long":106.850107},{"is_transit":false,"distance":1567,"i_lat":-6.174784,"line":11,"time":8,"i_long":106.84368,"station_name":"Pasar Senen","station_id":"PSE","transit":false},{"i_long":106.839204,"line":11,"station_id":"KMO","distance":1436,"transit":false,"station_name":"Kemayoran","is_transit":false,"time":4,"i_lat":-6.161728},{"line":11,"distance":1901,"i_lat":-6.14505,"station_name":"Rajawali","station_id":"RJW","is_transit":false,"i_long":106.836569,"transit":false,"time":5},{"station_name":"Kampung Bandan","i_long":106.826365,"time":3,"station_id":"KPB","line":4,"distance":1444,"is_transit":true,"i_lat":-6.132549,"transit":true},{"station_id":"JAKK","line":2,"transit":true,"distance":1364,"station_name":"Jakarta Kota","time":3,"i_lat":-6.137569,"is_transit":true,"i_long":106.812439},{"is_transit":false,"distance":1264,"transit":false,"time":4,"i_lat":-6.141205,"station_id":"JAY","station_name":"Jayakarta","i_long":106.820901,"line":2},{"line":2,"station_id":"MGB","is_transit":false,"transit":false,"i_lat":-6.149769,"distance":1080,"station_name":"Manggabesar","i_long":106.82482,"time":2},{"is_transit":false,"i_long":106.827103,"transit":false,"distance":906,"time":2,"i_lat":-6.160725,"line":2,"station_name":"Sawah Besar","station_id":"SW"},{"transit":false,"i_lat":-6.166716,"i_long":106.828284,"line":2,"station_id":"JUA","is_transit":false,"distance":1149,"time":2,"station_name":"Juanda"},{"station_id":"GDD","i_lat":-6.186295,"i_long":106.832183,"time":4,"station_name":"Gondangdia","is_transit":false,"line":2,"distance":2015,"transit":false},{"i_long":106.840169,"station_id":"CKI","time":3,"i_lat":-6.198556,"line":2,"distance":1750,"is_transit":false,"transit":false,"station_name":"Cikini"},{"station_name":"Manggarai","time":4,"i_lat":-6.209883,"line":2,"transit":false,"is_transit":false,"station_id":"MRI","i_long":106.84912,"distance":1590},{"distance":2610,"i_long":106.857948,"station_name":"Tebet","is_transit":false,"line":2,"transit":false,"station_id":"TEB","time":4,"i_lat":-6.226659},{"i_long":106.856607,"station_id":"CW","transit":false,"line":2,"distance":1230,"station_name":"Cawang","is_transit":false,"time":2,"i_lat":-6.242512},{"station_id":"DRN","time":3,"distance":1546,"i_lat":-6.255332,"transit":false,"station_name":"Duren Kalibata","line":2,"is_transit":false,"i_long":106.85449},{"station_id":"PSMB","distance":824,"line":2,"is_transit":false,"time":2,"station_name":"Pasar Minggu Baru","i_long":106.851577,"transit":false,"i_lat":-6.263214},{"transit":false,"is_transit":false,"station_name":"Pasar Minggu","i_lat":-6.2842400000000005,"time":2,"line":2,"distance":2380,"i_long":106.843999,"station_id":"PSM"},{"i_lat":-6.3080680000000005,"transit":false,"station_id":"TNT","station_name":"Tanjung Barat","is_transit":false,"line":2,"time":4,"i_long":106.838896,"distance":2820},{"distance":2671,"i_lat":-6.330363,"time":3,"line":2,"transit":false,"i_long":106.832616,"station_name":"Lenteng Agung","station_id":"LNA","is_transit":false},{"line":2,"distance":1029,"time":2,"transit":false,"station_name":"Univ. Pancasila","station_id":"UP","is_transit":false,"i_lat":-6.339291,"i_long":106.834175},{"i_long":106.831474,"time":3,"station_id":"UI","distance":2264,"transit":false,"is_transit":false,"line":2,"station_name":"Univ. Indonesia","i_lat":-6.360749}]]}