{"data":[[{"i_long":106.939679,"distance":0,"transit":false,"is_transit":false,"line":1,"i_lat":-6.217455,"station_name":"Klenderbaru","time":0,"station_id":"KLDB"},{"station_id":"BUA","line":0,"distance":1305,"time":1,"transit":false,"i_long":106.922662,"i_lat":-6.215568,"station_name":"Buaran","is_transit":false},{"transit":false,"time":2,"station_id":"KLD","line":1,"distance":3100,"is_transit":false,"station_name":"Klender","i_lat":-6.2135,"i_long":106.899548},{"i_long":106.86807400000001,"distance":3395,"station_id":"JNG","line":0,"station_name":"Jatinegara","is_transit":true,"transit":false,"time":3,"i_lat":-6.215091},{"station_id":"MTR","i_lat":-6.212485,"i_long":106.858896,"line":1,"station_name":"Matraman","transit":false,"is_transit":false,"time":2,"distance":1377},{"distance":1275,"station_id":"MRI","station_name":"Manggarai","transit":false,"time":2,"is_transit":true,"i_lat":-6.209883,"i_long":106.84912,"line":0},{"i_long":106.822649,"is_transit":false,"line":1,"distance":3186,"time":4,"i_lat":-6.202263,"station_id":"SUD","transit":false,"station_name":"Sudirman"},{"line":1,"station_id":"SUDB","i_long":106.819881,"station_name":"Sudirman Baru","distance":280,"i_lat":-6.201433,"is_transit":false,"time":1,"transit":false},{"is_transit":false,"distance":471,"station_name":"Karet","i_long":106.816351,"time":1,"transit":false,"i_lat":-6.20132,"station_id":"KAT","line":1},{"transit":false,"i_lat":-6.185545,"station_name":"Tanah Abang","station_id":"THB","i_long":106.811091,"distance":2029,"line":1,"is_transit":true,"time":5},{"line":1,"distance":3632,"station_id":"DU","is_transit":true,"i_lat":-6.155215,"transit":false,"time":8,"station_name":"Duri","i_long":106.800832}],[{"transit":false,"i_long":106.939679,"line":1,"station_name":"Klenderbaru","time":0,"is_transit":false,"distance":0,"i_lat":-6.217455,"station_id":"KLDB"},{"i_lat":-6.215568,"station_name":"Buaran","line":0,"time":1,"distance":1305,"is_transit":false,"transit":false,"station_id":"BUA","i_long":106.922662},{"transit":false,"i_lat":-6.2135,"distance":3100,"time":2,"station_id":"KLD","is_transit":false,"station_name":"Klender","i_long":106.899548,"line":1},{"station_name":"Jatinegara","transit":true,"station_id":"JNG","distance":3395,"i_lat":-6.215091,"is_transit":true,"line":0,"i_long":106.86807400000001,"time":3},{"time":2,"distance":1236,"is_transit":false,"station_name":"Pondok Jati","i_lat":-6.209188,"i_long":106.861737,"transit":false,"line":11,"station_id":"POK"},{"is_transit":false,"i_lat":-6.193792,"i_long":106.855437,"distance":1829,"time":2,"transit":false,"station_id":"KMT","line":11,"station_name":"Kramat"},{"transit":false,"line":11,"i_lat":-6.185975,"i_long":106.850107,"station_name":"Gang Sentiong","station_id":"GST","distance":973,"time":1,"is_transit":false},{"station_id":"PSE","i_long":106.84368,"transit":false,"is_transit":false,"i_lat":-6.174784,"distance":1567,"time":8,"station_name":"Pasar Senen","line":11},{"distance":1436,"i_lat":-6.161728,"station_name":"Kemayoran","station_id":"KMO","i_long":106.839204,"line":11,"transit":false,"time":4,"is_transit":false},{"transit":false,"i_lat":-6.14505,"station_name":"Rajawali","is_transit":false,"time":5,"i_long":106.836569,"line":11,"distance":1901,"station_id":"RJW"},{"transit":true,"is_transit":true,"i_long":106.826365,"station_id":"KPB","distance":1444,"time":3,"station_name":"Kampung Bandan","i_lat":-6.132549,"line":0},{"i_long":106.79867,"distance":4102,"transit":false,"is_transit":false,"time":9,"line":0,"station_id":"AK","i_lat":-6.144674,"station_name":"Angke"},{"station_id":"DU","distance":1230,"station_name":"Duri","transit":false,"time":4,"is_transit":true,"line":1,"i_long":106.800832,"i_lat":-6.155215}],[{"distance":0,"station_name":"Klenderbaru","i_long":106.939679,"transit":false,"station_id":"KLDB","is_transit":false,"i_lat":-6.217455,"time":0,"line":1},{"transit":false,"i_long":106.922662,"line":0,"is_transit":false,"time":1,"station_id":"BUA","distance":1305,"i_lat":-6.215568,"station_name":"Buaran"},{"i_lat":-6.2135,"time":2,"distance":3100,"i_long":106.899548,"station_id":"KLD","transit":false,"is_transit":false,"line":1,"station_name":"Klender"},{"i_long":106.86807400000001,"station_name":"Jatinegara","station_id":"JNG","time":3,"transit":false,"distance":3395,"line":0,"is_transit":true,"i_lat":-6.215091},{"station_name":"Matraman","distance":1377,"i_long":106.858896,"station_id":"MTR","line":1,"transit":false,"is_transit":false,"time":2,"i_lat":-6.212485},{"distance":1275,"station_name":"Manggarai","i_long":106.84912,"transit":true,"is_transit":true,"line":0,"station_id":"MRI","time":2,"i_lat":-6.209883},{"is_transit":false,"line":0,"distance":1590,"time":4,"station_name":"Cikini","transit":false,"i_lat":-6.198556,"station_id":"CKI","i_long":106.840169},{"transit":false,"distance":1750,"i_long":106.832183,"is_transit":false,"i_lat":-6.186295,"station_name":"Gondangdia","line":2,"time":3,"station_id":"GDD"},{"station_id":"JUA","transit":false,"i_long":106.828284,"line":2,"distance":2015,"is_transit":false,"time":4,"station_name":"Juanda","i_lat":-6.166716},{"i_lat":-6.160725,"station_name":"Sawah Besar","line":2,"transit":false,"is_transit":false,"time":2,"distance":1149,"station_id":"SW","i_long":106.827103},{"i_lat":-6.149769,"station_id":"MGB","transit":false,"is_transit":false,"i_long":106.82482,"line":2,"distance":906,"time":2,"station_name":"Manggabesar"},{"station_name":"Jayakarta","station_id":"JAY","i_long":106.820901,"time":2,"distance":1080,"transit":false,"line":7,"i_lat":-6.141205,"is_transit":false},{"transit":true,"i_lat":-6.137569,"i_long":106.812439,"line":0,"station_name":"Jakarta Kota","station_id":"JAKK","is_transit":true,"time":4,"distance":1264},{"distance":1364,"transit":false,"i_lat":-6.132549,"station_name":"Kampung Bandan","i_long":106.826365,"station_id":"KPB","line":0,"is_transit":true,"time":3},{"transit":false,"distance":4102,"station_id":"AK","i_long":106.79867,"station_name":"Angke","i_lat":-6.144674,"is_transit":false,"time":9,"line":0},{"distance":1230,"is_transit":true,"transit":false,"station_id":"DU","station_name":"Duri","line":1,"i_lat":-6.155215,"time":4,"i_long":106.800832}],[{"is_transit":false,"station_name":"Klenderbaru","time":0,"transit":false,"i_lat":-6.217455,"line":1,"i_long":106.939679,"station_id":"KLDB","distance":0},{"transit":false,"i_long":106.922662,"time":1,"is_transit":false,"distance":1305,"line":0,"i_lat":-6.215568,"station_id":"BUA","station_name":"Buaran"},{"station_name":"Klender","i_lat":-6.2135,"station_id":"KLD","distance":3100,"i_long":106.899548,"is_transit":false,"transit":false,"time":2,"line":1},{"i_lat":-6.215091,"transit":true,"i_long":106.86807400000001,"station_id":"JNG","time":3,"is_transit":true,"station_name":"Jatinegara","distance":3395,"line":0},{"station_id":"POK","transit":false,"i_long":106.861737,"line":11,"is_transit":false,"distance":1236,"i_lat":-6.209188,"time":2,"station_name":"Pondok Jati"},{"station_name":"Kramat","transit":false,"time":2,"i_long":106.855437,"i_lat":-6.193792,"distance":1829,"station_id":"KMT","is_transit":false,"line":11},{"i_lat":-6.185975,"i_long":106.850107,"is_transit":false,"line":11,"time":1,"station_id":"GST","distance":973,"station_name":"Gang Sentiong","transit":false},{"station_name":"Pasar Senen","transit":false,"station_id":"PSE","i_lat":-6.174784,"distance":1567,"i_long":106.84368,"time":8,"is_transit":false,"line":11},{"i_lat":-6.161728,"time":4,"is_transit":false,"station_id":"KMO","station_name":"Kemayoran","distance":1436,"line":11,"transit":false,"i_long":106.839204},{"i_lat":-6.14505,"time":5,"i_long":106.836569,"line":11,"station_id":"RJW","transit":false,"distance":1901,"station_name":"Rajawali","is_transit":false},{"i_long":106.826365,"station_id":"KPB","line":0,"distance":1444,"station_name":"Kampung Bandan","time":3,"transit":true,"is_transit":true,"i_lat":-6.132549},{"transit":true,"distance":1364,"is_transit":true,"time":3,"station_name":"Jakarta Kota","station_id":"JAKK","line":0,"i_long":106.812439,"i_lat":-6.137569},{"station_id":"JAY","is_transit":false,"transit":false,"time":4,"i_lat":-6.141205,"line":7,"distance":1264,"station_name":"Jayakarta","i_long":106.820901},{"station_name":"Manggabesar","i_long":106.82482,"distance":1080,"station_id":"MGB","line":2,"i_lat":-6.149769,"time":2,"is_transit":false,"transit":false},{"transit":false,"station_name":"Sawah Besar","line":2,"time":2,"i_lat":-6.160725,"distance":906,"i_long":106.827103,"station_id":"SW","is_transit":false},{"i_long":106.828284,"i_lat":-6.166716,"time":2,"station_name":"Juanda","transit":false,"distance":1149,"station_id":"JUA","is_transit":false,"line":2},{"transit":false,"station_name":"Gondangdia","is_transit":false,"distance":2015,"time":4,"station_id":"GDD","i_lat":-6.186295,"i_long":106.832183,"line":2},{"station_name":"Cikini","is_transit":false,"transit":false,"i_lat":-6.198556,"line":0,"station_id":"CKI","i_long":106.840169,"distance":1750,"time":3},{"station_name":"Manggarai","i_long":106.84912,"i_lat":-6.209883,"station_id":"MRI","distance":1590,"time":4,"transit":true,"is_transit":true,"line":0},{"line":1,"station_name":"Sudirman","transit":false,"i_long":106.822649,"distance":3186,"is_transit":false,"time":4,"station_id":"SUD","i_lat":-6.202263},{"is_transit":false,"station_id":"SUDB","i_lat":-6.201433,"station_name":"Sudirman Baru","distance":280,"transit":false,"line":1,"i_long":106.819881,"time":1},{"station_name":"Karet","line":1,"is_transit":false,"transit":false,"i_lat":-6.20132,"i_long":106.816351,"time":1,"distance":471,"station_id":"KAT"},{"distance":2029,"line":1,"station_id":"THB","i_lat":-6.185545,"station_name":"Tanah Abang","i_long":106.811091,"transit":false,"time":5,"is_transit":true},{"transit":false,"is_transit":true,"i_long":106.800832,"station_name":"Duri","i_lat":-6.155215,"station_id":"DU","line":1,"distance":3632,"time":8}]]}