{"data":[[{"station_name":"Klenderbaru","transit":false,"i_long":106.939679,"time":0,"station_id":"KLDB","is_transit":false,"i_lat":-6.217455,"line":1,"distance":0},{"i_lat":-6.215568,"time":1,"transit":false,"is_transit":false,"station_name":"Buaran","line":1,"station_id":"BUA","i_long":106.922662,"distance":1305},{"time":2,"distance":3100,"station_id":"KLD","i_long":106.899548,"transit":false,"is_transit":false,"station_name":"Klender","i_lat":-6.2135,"line":1},{"station_id":"JNG","i_lat":-6.215091,"transit":false,"station_name":"Jatinegara","is_transit":false,"distance":3395,"time":3,"i_long":106.86807400000001,"line":1},{"i_lat":-6.212485,"i_long":106.858896,"time":2,"transit":false,"station_name":"Matraman","station_id":"MTR","line":1,"distance":1377,"is_transit":false},{"time":2,"i_lat":-6.209883,"distance":1275,"station_id":"MRI","is_transit":false,"station_name":"Manggarai","line":2,"transit":false,"i_long":106.84912},{"station_id":"SUD","is_transit":false,"time":4,"line":1,"distance":3186,"i_long":106.822649,"i_lat":-6.202263,"station_name":"Sudirman","transit":false},{"i_long":106.819881,"station_name":"Sudirman Baru","is_transit":false,"transit":false,"distance":280,"i_lat":-6.201433,"line":1,"time":1,"station_id":"SUDB"},{"station_name":"Karet","station_id":"KAT","i_long":106.816351,"line":1,"transit":false,"is_transit":false,"time":1,"distance":471,"i_lat":-6.20132},{"station_name":"Tanah Abang","distance":2029,"station_id":"THB","is_transit":true,"time":5,"i_lat":-6.185545,"i_long":106.811091,"line":1,"transit":true},{"line":6,"time":6,"is_transit":false,"i_long":106.79689,"transit":false,"station_id":"PLM","distance":3191,"i_lat":-6.207404,"station_name":"Palmerah"},{"station_name":"Kebayoran","transit":false,"distance":3737,"is_transit":false,"station_id":"KBY","time":7,"i_lat":-6.237242,"line":6,"i_long":106.780334},{"transit":false,"is_transit":false,"station_id":"PDJ","i_long":106.74273,"station_name":"Pondokranji","i_lat":-6.276362,"distance":6218,"line":6,"time":8}],[{"i_lat":-6.217455,"is_transit":false,"station_name":"Klenderbaru","distance":0,"i_long":106.939679,"line":1,"station_id":"KLDB","transit":false,"time":0},{"line":1,"is_transit":false,"time":1,"i_long":106.922662,"distance":1305,"i_lat":-6.215568,"transit":false,"station_name":"Buaran","station_id":"BUA"},{"station_name":"Klender","transit":false,"distance":3100,"is_transit":false,"line":1,"i_long":106.899548,"time":2,"i_lat":-6.2135,"station_id":"KLD"},{"line":1,"time":3,"i_long":106.86807400000001,"station_name":"Jatinegara","transit":true,"is_transit":true,"distance":3395,"station_id":"JNG","i_lat":-6.215091},{"i_long":106.861737,"distance":1236,"i_lat":-6.209188,"transit":false,"station_name":"Pondok Jati","is_transit":false,"station_id":"POK","line":11,"time":2},{"time":2,"transit":false,"station_id":"KMT","i_lat":-6.193792,"i_long":106.855437,"line":11,"station_name":"Kramat","distance":1829,"is_transit":false},{"time":1,"i_long":106.850107,"station_name":"Gang Sentiong","station_id":"GST","transit":false,"line":11,"is_transit":false,"distance":973,"i_lat":-6.185975},{"i_long":106.84368,"station_name":"Pasar Senen","time":8,"transit":false,"line":11,"distance":1567,"station_id":"PSE","i_lat":-6.174784,"is_transit":false},{"i_long":106.839204,"distance":1436,"station_id":"KMO","line":11,"transit":false,"is_transit":false,"time":4,"i_lat":-6.161728,"station_name":"Kemayoran"},{"i_lat":-6.14505,"distance":1901,"station_id":"RJW","is_transit":false,"line":11,"station_name":"Rajawali","transit":false,"time":5,"i_long":106.836569},{"is_transit":true,"line":4,"station_id":"KPB","i_long":106.826365,"transit":true,"station_name":"Kampung Bandan","distance":1444,"i_lat":-6.132549,"time":3},{"i_long":106.79867,"station_name":"Angke","i_lat":-6.144674,"station_id":"AK","line":1,"is_transit":false,"distance":4102,"time":9,"transit":false},{"i_lat":-6.155215,"station_id":"DU","station_name":"Duri","distance":1230,"line":1,"is_transit":false,"transit":false,"i_long":106.800832,"time":4},{"distance":3632,"transit":true,"is_transit":true,"i_lat":-6.185545,"station_name":"Tanah Abang","i_long":106.811091,"line":1,"time":8,"station_id":"THB"},{"i_lat":-6.207404,"line":6,"station_name":"Palmerah","station_id":"PLM","time":6,"transit":false,"i_long":106.79689,"is_transit":false,"distance":3191},{"transit":false,"line":6,"is_transit":false,"station_name":"Kebayoran","distance":3737,"station_id":"KBY","i_long":106.780334,"time":7,"i_lat":-6.237242},{"station_id":"PDJ","line":6,"transit":false,"i_lat":-6.276362,"is_transit":false,"i_long":106.74273,"station_name":"Pondokranji","distance":6218,"time":8}],[{"is_transit":false,"time":0,"i_long":106.939679,"distance":0,"station_id":"KLDB","i_lat":-6.217455,"station_name":"Klenderbaru","line":1,"transit":false},{"line":1,"distance":1305,"i_lat":-6.215568,"i_long":106.922662,"time":1,"transit":false,"is_transit":false,"station_id":"BUA","station_name":"Buaran"},{"station_id":"KLD","transit":false,"distance":3100,"time":2,"i_lat":-6.2135,"i_long":106.899548,"line":1,"is_transit":false,"station_name":"Klender"},{"i_lat":-6.215091,"is_transit":false,"time":3,"station_name":"Jatinegara","station_id":"JNG","transit":false,"line":1,"distance":3395,"i_long":106.86807400000001},{"i_long":106.858896,"transit":false,"i_lat":-6.212485,"line":1,"station_id":"MTR","is_transit":false,"station_name":"Matraman","distance":1377,"time":2},{"distance":1275,"line":2,"is_transit":true,"i_long":106.84912,"i_lat":-6.209883,"transit":true,"station_name":"Manggarai","time":2,"station_id":"MRI"},{"is_transit":false,"i_long":106.840169,"line":2,"i_lat":-6.198556,"time":4,"station_name":"Cikini","distance":1590,"station_id":"CKI","transit":false},{"transit":false,"station_id":"GDD","i_lat":-6.186295,"time":3,"i_long":106.832183,"is_transit":false,"station_name":"Gondangdia","line":2,"distance":1750},{"distance":2015,"station_name":"Juanda","i_long":106.828284,"transit":false,"station_id":"JUA","is_transit":false,"time":4,"line":2,"i_lat":-6.166716},{"i_long":106.827103,"is_transit":false,"i_lat":-6.160725,"transit":false,"time":2,"line":2,"station_name":"Sawah Besar","distance":1149,"station_id":"SW"},{"is_transit":false,"station_name":"Manggabesar","i_long":106.82482,"transit":false,"station_id":"MGB","i_lat":-6.149769,"line":2,"distance":906,"time":2},{"i_lat":-6.141205,"station_name":"Jayakarta","time":2,"station_id":"JAY","distance":1080,"is_transit":false,"line":2,"i_long":106.820901,"transit":false},{"line":2,"station_id":"JAKK","time":4,"i_long":106.812439,"i_lat":-6.137569,"is_transit":true,"transit":true,"station_name":"Jakarta Kota","distance":1264},{"i_lat":-6.132549,"i_long":106.826365,"transit":true,"station_name":"Kampung Bandan","is_transit":true,"distance":1364,"line":4,"station_id":"KPB","time":3},{"time":9,"station_name":"Angke","is_transit":false,"i_lat":-6.144674,"i_long":106.79867,"station_id":"AK","line":1,"transit":false,"distance":4102},{"transit":false,"distance":1230,"line":1,"time":4,"station_id":"DU","is_transit":false,"station_name":"Duri","i_lat":-6.155215,"i_long":106.800832},{"time":8,"i_long":106.811091,"line":1,"transit":true,"is_transit":true,"station_name":"Tanah Abang","distance":3632,"i_lat":-6.185545,"station_id":"THB"},{"time":6,"transit":false,"i_lat":-6.207404,"i_long":106.79689,"line":6,"station_name":"Palmerah","station_id":"PLM","distance":3191,"is_transit":false},{"station_name":"Kebayoran","i_long":106.780334,"line":6,"is_transit":false,"distance":3737,"time":7,"transit":false,"station_id":"KBY","i_lat":-6.237242},{"i_long":106.74273,"transit":false,"is_transit":false,"time":8,"station_id":"PDJ","distance":6218,"station_name":"Pondokranji","line":6,"i_lat":-6.276362}],[{"i_long":106.939679,"station_id":"KLDB","station_name":"Klenderbaru","time":0,"distance":0,"line":1,"is_transit":false,"i_lat":-6.217455,"transit":false},{"distance":1305,"is_transit":false,"time":1,"station_id":"BUA","i_lat":-6.215568,"line":1,"station_name":"Buaran","transit":false,"i_long":106.922662},{"i_lat":-6.2135,"is_transit":false,"distance":3100,"station_name":"Klender","time":2,"line":1,"transit":false,"i_long":106.899548,"station_id":"KLD"},{"transit":true,"is_transit":true,"station_id":"JNG","i_lat":-6.215091,"i_long":106.86807400000001,"line":1,"station_name":"Jatinegara","distance":3395,"time":3},{"station_name":"Pondok Jati","transit":false,"is_transit":false,"distance":1236,"time":2,"i_long":106.861737,"line":11,"station_id":"POK","i_lat":-6.209188},{"i_long":106.855437,"line":11,"is_transit":false,"time":2,"station_name":"Kramat","distance":1829,"transit":false,"i_lat":-6.193792,"station_id":"KMT"},{"i_lat":-6.185975,"transit":false,"station_name":"Gang Sentiong","i_long":106.850107,"distance":973,"line":11,"time":1,"is_transit":false,"station_id":"GST"},{"i_lat":-6.174784,"distance":1567,"time":8,"i_long":106.84368,"line":11,"transit":false,"is_transit":false,"station_name":"Pasar Senen","station_id":"PSE"},{"station_name":"Kemayoran","transit":false,"line":11,"is_transit":false,"distance":1436,"time":4,"i_lat":-6.161728,"station_id":"KMO","i_long":106.839204},{"transit":false,"time":5,"i_long":106.836569,"i_lat":-6.14505,"distance":1901,"station_name":"Rajawali","line":11,"station_id":"RJW","is_transit":false},{"i_long":106.826365,"distance":1444,"transit":true,"line":4,"i_lat":-6.132549,"time":3,"station_id":"KPB","is_transit":true,"station_name":"Kampung Bandan"},{"station_id":"JAKK","is_transit":true,"distance":1364,"time":3,"line":2,"station_name":"Jakarta Kota","i_lat":-6.137569,"transit":true,"i_long":106.812439},{"transit":false,"distance":1264,"station_id":"JAY","time":4,"is_transit":false,"line":2,"i_long":106.820901,"station_name":"Jayakarta","i_lat":-6.141205},{"station_id":"MGB","time":2,"line":2,"is_transit":false,"transit":false,"station_name":"Manggabesar","i_lat":-6.149769,"i_long":106.82482,"distance":1080},{"distance":906,"transit":false,"i_lat":-6.160725,"station_id":"SW","is_transit":false,"time":2,"i_long":106.827103,"line":2,"station_name":"Sawah Besar"},{"time":2,"distance":1149,"station_id":"JUA","i_long":106.828284,"i_lat":-6.166716,"line":2,"is_transit":false,"transit":false,"station_name":"Juanda"},{"line":2,"i_lat":-6.186295,"is_transit":false,"i_long":106.832183,"station_id":"GDD","station_name":"Gondangdia","distance":2015,"transit":false,"time":4},{"i_long":106.840169,"line":2,"transit":false,"is_transit":false,"distance":1750,"time":3,"station_id":"CKI","i_lat":-6.198556,"station_name":"Cikini"},{"i_long":106.84912,"transit":true,"is_transit":true,"station_name":"Manggarai","station_id":"MRI","time":4,"line":2,"i_lat":-6.209883,"distance":1590},{"time":4,"i_long":106.822649,"distance":3186,"line":1,"transit":false,"i_lat":-6.202263,"station_id":"SUD","station_name":"Sudirman","is_transit":false},{"i_lat":-6.201433,"i_long":106.819881,"is_transit":false,"distance":280,"transit":false,"time":1,"line":1,"station_name":"Sudirman Baru","station_id":"SUDB"},{"line":1,"distance":471,"station_name":"Karet","station_id":"KAT","time":1,"i_long":106.816351,"transit":false,"is_transit":false,"i_lat":-6.20132},{"transit":true,"station_name":"Tanah Abang","distance":2029,"i_lat":-6.185545,"i_long":106.811091,"time":5,"line":1,"is_transit":true,"station_id":"THB"},{"transit":false,"distance":3191,"i_lat":-6.207404,"i_long":106.79689,"is_transit":false,"station_name":"Palmerah","station_id":"PLM","line":6,"time":6},{"line":6,"station_id":"KBY","is_transit":false,"transit":false,"time":7,"i_long":106.780334,"i_lat":-6.237242,"station_name":"Kebayoran","distance":3737},{"i_long":106.74273,"station_id":"PDJ","is_transit":false,"time":8,"line":6,"distance":6218,"i_lat":-6.276362,"station_name":"Pondokranji","transit":false}]]}