{"data":[[{"is_transit":false,"i_long":106.939679,"transit":false,"station_id":"KLDB","time":0,"distance":0,"station_name":"Klenderbaru","i_lat":-6.217455,"line":1},{"station_id":"BUA","distance":1305,"transit":false,"is_transit":false,"line":0,"i_lat":-6.215568,"time":1,"i_long":106.922662,"station_name":"Buaran"},{"distance":3100,"station_id":"KLD","is_transit":false,"transit":false,"time":2,"i_long":106.899548,"line":1,"station_name":"Klender","i_lat":-6.2135},{"i_long":106.86807400000001,"distance":3395,"is_transit":true,"i_lat":-6.215091,"station_id":"JNG","transit":true,"time":3,"line":0,"station_name":"Jatinegara"},{"i_lat":-6.209188,"station_name":"Pondok Jati","station_id":"POK","is_transit":false,"transit":false,"line":11,"time":2,"distance":1236,"i_long":106.861737},{"transit":false,"distance":1829,"time":2,"i_lat":-6.193792,"i_long":106.855437,"line":11,"station_id":"KMT","is_transit":false,"station_name":"Kramat"},{"is_transit":false,"line":11,"i_long":106.850107,"time":1,"i_lat":-6.185975,"transit":false,"station_id":"GST","distance":973,"station_name":"Gang Sentiong"},{"transit":false,"i_long":106.84368,"is_transit":false,"station_id":"PSE","distance":1567,"time":8,"station_name":"Pasar Senen","i_lat":-6.174784,"line":11},{"i_long":106.839204,"line":11,"station_name":"Kemayoran","is_transit":false,"transit":false,"i_lat":-6.161728,"time":4,"distance":1436,"station_id":"KMO"}],[{"i_lat":-6.217455,"station_id":"KLDB","distance":0,"time":0,"is_transit":false,"station_name":"Klenderbaru","transit":false,"line":1,"i_long":106.939679},{"i_long":106.922662,"distance":1305,"station_name":"Buaran","line":0,"is_transit":false,"station_id":"BUA","transit":false,"time":1,"i_lat":-6.215568},{"line":1,"i_lat":-6.2135,"distance":3100,"station_id":"KLD","transit":false,"i_long":106.899548,"is_transit":false,"station_name":"Klender","time":2},{"distance":3395,"transit":false,"time":3,"i_lat":-6.215091,"is_transit":true,"i_long":106.86807400000001,"line":0,"station_name":"Jatinegara","station_id":"JNG"},{"i_lat":-6.212485,"line":1,"distance":1377,"station_name":"Matraman","time":2,"is_transit":false,"i_long":106.858896,"transit":false,"station_id":"MTR"},{"line":0,"distance":1275,"station_id":"MRI","is_transit":true,"station_name":"Manggarai","i_lat":-6.209883,"transit":false,"i_long":106.84912,"time":2},{"line":1,"is_transit":false,"i_long":106.822649,"station_name":"Sudirman","distance":3186,"transit":false,"station_id":"SUD","i_lat":-6.202263,"time":4},{"distance":280,"time":1,"is_transit":false,"i_lat":-6.201433,"line":1,"station_id":"SUDB","transit":false,"i_long":106.819881,"station_name":"Sudirman Baru"},{"station_id":"KAT","transit":false,"i_long":106.816351,"line":1,"is_transit":false,"i_lat":-6.20132,"station_name":"Karet","time":1,"distance":471},{"i_lat":-6.185545,"is_transit":true,"distance":2029,"i_long":106.811091,"line":1,"station_id":"THB","time":5,"station_name":"Tanah Abang","transit":false},{"line":1,"distance":3632,"transit":true,"station_name":"Duri","station_id":"DU","time":8,"i_lat":-6.155215,"is_transit":true,"i_long":106.800832},{"is_transit":false,"station_name":"Angke","distance":1230,"line":0,"transit":false,"i_long":106.79867,"station_id":"AK","time":4,"i_lat":-6.144674},{"line":0,"station_id":"KPB","distance":4102,"transit":true,"i_long":106.826365,"time":9,"i_lat":-6.132549,"is_transit":true,"station_name":"Kampung Bandan"},{"time":3,"transit":false,"i_lat":-6.14505,"station_name":"Rajawali","station_id":"RJW","is_transit":false,"line":11,"distance":1444,"i_long":106.836569},{"line":11,"time":5,"station_name":"Kemayoran","station_id":"KMO","distance":1901,"is_transit":false,"i_long":106.839204,"transit":false,"i_lat":-6.161728}],[{"station_name":"Klenderbaru","is_transit":false,"time":0,"i_lat":-6.217455,"line":1,"i_long":106.939679,"transit":false,"distance":0,"station_id":"KLDB"},{"line":0,"distance":1305,"time":1,"i_long":106.922662,"transit":false,"station_id":"BUA","is_transit":false,"i_lat":-6.215568,"station_name":"Buaran"},{"transit":false,"time":2,"i_long":106.899548,"line":1,"station_name":"Klender","station_id":"KLD","distance":3100,"i_lat":-6.2135,"is_transit":false},{"station_name":"Jatinegara","station_id":"JNG","time":3,"transit":false,"is_transit":true,"i_lat":-6.215091,"i_long":106.86807400000001,"distance":3395,"line":0},{"time":2,"distance":1377,"station_id":"MTR","station_name":"Matraman","transit":false,"is_transit":false,"i_lat":-6.212485,"line":1,"i_long":106.858896},{"time":2,"transit":true,"line":0,"station_name":"Manggarai","distance":1275,"i_lat":-6.209883,"station_id":"MRI","is_transit":true,"i_long":106.84912},{"i_long":106.840169,"is_transit":false,"station_id":"CKI","time":4,"distance":1590,"transit":false,"station_name":"Cikini","line":0,"i_lat":-6.198556},{"i_lat":-6.186295,"station_id":"GDD","i_long":106.832183,"is_transit":false,"line":2,"time":3,"distance":1750,"transit":false,"station_name":"Gondangdia"},{"i_long":106.828284,"time":4,"distance":2015,"station_id":"JUA","i_lat":-6.166716,"station_name":"Juanda","transit":false,"line":2,"is_transit":false},{"transit":false,"distance":1149,"is_transit":false,"line":2,"i_lat":-6.160725,"station_name":"Sawah Besar","time":2,"i_long":106.827103,"station_id":"SW"},{"station_id":"MGB","is_transit":false,"station_name":"Manggabesar","transit":false,"i_lat":-6.149769,"line":2,"i_long":106.82482,"distance":906,"time":2},{"transit":false,"station_name":"Jayakarta","i_lat":-6.141205,"i_long":106.820901,"station_id":"JAY","is_transit":false,"time":2,"line":7,"distance":1080},{"distance":1264,"station_name":"Jakarta Kota","transit":true,"station_id":"JAKK","is_transit":true,"i_lat":-6.137569,"i_long":106.812439,"time":4,"line":0},{"transit":true,"i_lat":-6.132549,"line":0,"station_id":"KPB","is_transit":true,"i_long":106.826365,"time":3,"distance":1364,"station_name":"Kampung Bandan"},{"station_name":"Rajawali","time":3,"station_id":"RJW","distance":1444,"is_transit":false,"i_long":106.836569,"line":11,"transit":false,"i_lat":-6.14505},{"station_name":"Kemayoran","is_transit":false,"station_id":"KMO","i_lat":-6.161728,"time":5,"distance":1901,"transit":false,"i_long":106.839204,"line":11}]]}