{"data":[[{"transit":false,"station_id":"KLDB","is_transit":false,"line":1,"distance":0,"time":0,"i_long":106.939679,"station_name":"Klenderbaru","i_lat":-6.217455},{"i_long":106.922662,"station_name":"Buaran","time":1,"line":1,"station_id":"BUA","is_transit":false,"i_lat":-6.215568,"distance":1305,"transit":false},{"is_transit":false,"line":1,"station_id":"KLD","station_name":"Klender","distance":3100,"i_lat":-6.2135,"transit":false,"time":2,"i_long":106.899548},{"i_lat":-6.215091,"i_long":106.86807400000001,"line":1,"station_id":"JNG","distance":3395,"time":3,"station_name":"Jatinegara","is_transit":false,"transit":false},{"is_transit":false,"time":2,"station_name":"Matraman","station_id":"MTR","i_lat":-6.212485,"line":1,"distance":1377,"transit":false,"i_long":106.858896},{"station_name":"Manggarai","is_transit":false,"transit":false,"time":2,"line":2,"i_lat":-6.209883,"i_long":106.84912,"station_id":"MRI","distance":1275},{"station_name":"Sudirman","distance":3186,"i_long":106.822649,"transit":false,"station_id":"SUD","is_transit":false,"i_lat":-6.202263,"time":4,"line":1},{"i_lat":-6.201433,"transit":false,"i_long":106.819881,"time":1,"station_id":"SUDB","station_name":"Sudirman Baru","distance":280,"is_transit":false,"line":1},{"station_name":"Karet","i_lat":-6.20132,"distance":471,"station_id":"KAT","is_transit":false,"transit":false,"line":1,"time":1,"i_long":106.816351},{"station_name":"Tanah Abang","i_lat":-6.185545,"time":5,"i_long":106.811091,"is_transit":true,"line":1,"transit":true,"station_id":"THB","distance":2029},{"station_id":"PLM","distance":3191,"is_transit":false,"time":6,"station_name":"Palmerah","transit":false,"i_lat":-6.207404,"line":6,"i_long":106.79689},{"is_transit":false,"time":7,"transit":false,"distance":3737,"station_id":"KBY","i_long":106.780334,"line":6,"i_lat":-6.237242,"station_name":"Kebayoran"},{"station_id":"PDJ","i_long":106.74273,"transit":false,"i_lat":-6.276362,"line":6,"station_name":"Pondokranji","is_transit":false,"distance":6218,"time":8},{"transit":false,"line":6,"station_id":"JMU","time":3,"station_name":"Jurangmangu","distance":2179,"i_lat":-6.288927,"is_transit":false,"i_long":106.728916},{"distance":1994,"time":4,"station_name":"Sudimara","i_lat":-6.296963,"i_long":106.712277,"line":6,"transit":false,"station_id":"SDM","is_transit":false},{"time":6,"i_long":106.675475,"station_id":"RU","distance":4566,"station_name":"Rawa Buntu","transit":false,"i_lat":-6.314823,"line":6,"is_transit":false},{"i_lat":-6.319871,"line":6,"distance":2413,"station_id":"SRP","time":4,"i_long":106.66566,"is_transit":false,"station_name":"Serpong","transit":false},{"time":4,"distance":1784,"station_name":"Cisauk","is_transit":false,"i_lat":-6.32484,"i_long":106.640411,"line":3,"transit":false,"station_id":"CSK"},{"transit":false,"time":4,"station_id":"CC","line":3,"i_lat":-6.329547,"station_name":"Cicayur","i_long":106.617853,"distance":2519,"is_transit":false},{"time":8,"station_id":"PRP","line":6,"is_transit":false,"distance":5968,"station_name":"Parung Panjang","i_lat":-6.3441410000000005,"i_long":106.568863,"transit":false},{"time":9,"line":3,"is_transit":false,"transit":false,"distance":7025,"station_id":"CJT","station_name":"Cilejit","i_lat":-6.354349,"i_long":106.508482},{"line":0,"time":6,"station_name":"Daru","transit":false,"station_id":"DAR","i_lat":-6.338021,"is_transit":false,"i_long":106.491338,"distance":2675}],[{"station_name":"Klenderbaru","transit":false,"i_lat":-6.217455,"station_id":"KLDB","i_long":106.939679,"line":1,"distance":0,"time":0,"is_transit":false},{"time":1,"station_id":"BUA","line":1,"is_transit":false,"i_lat":-6.215568,"transit":false,"station_name":"Buaran","i_long":106.922662,"distance":1305},{"time":2,"station_id":"KLD","is_transit":false,"transit":false,"distance":3100,"line":1,"i_lat":-6.2135,"i_long":106.899548,"station_name":"Klender"},{"station_name":"Jatinegara","i_long":106.86807400000001,"distance":3395,"i_lat":-6.215091,"time":3,"is_transit":true,"station_id":"JNG","line":1,"transit":true},{"i_long":106.861737,"transit":false,"time":2,"station_name":"Pondok Jati","is_transit":false,"distance":1236,"line":11,"i_lat":-6.209188,"station_id":"POK"},{"i_long":106.855437,"transit":false,"station_name":"Kramat","distance":1829,"time":2,"i_lat":-6.193792,"is_transit":false,"station_id":"KMT","line":11},{"i_long":106.850107,"line":11,"transit":false,"i_lat":-6.185975,"time":1,"station_id":"GST","distance":973,"is_transit":false,"station_name":"Gang Sentiong"},{"time":8,"transit":false,"i_long":106.84368,"line":11,"station_name":"Pasar Senen","is_transit":false,"i_lat":-6.174784,"distance":1567,"station_id":"PSE"},{"station_name":"Kemayoran","time":4,"i_lat":-6.161728,"transit":false,"is_transit":false,"line":11,"station_id":"KMO","i_long":106.839204,"distance":1436},{"transit":false,"distance":1901,"is_transit":false,"station_name":"Rajawali","station_id":"RJW","i_long":106.836569,"line":11,"i_lat":-6.14505,"time":5},{"station_id":"KPB","time":3,"i_lat":-6.132549,"transit":true,"line":4,"is_transit":true,"station_name":"Kampung Bandan","distance":1444,"i_long":106.826365},{"distance":4102,"line":1,"time":9,"station_id":"AK","is_transit":false,"station_name":"Angke","i_long":106.79867,"transit":false,"i_lat":-6.144674},{"distance":1230,"i_lat":-6.155215,"line":1,"i_long":106.800832,"time":4,"transit":false,"station_id":"DU","is_transit":false,"station_name":"Duri"},{"is_transit":true,"station_name":"Tanah Abang","station_id":"THB","i_lat":-6.185545,"i_long":106.811091,"transit":true,"distance":3632,"time":8,"line":1},{"is_transit":false,"transit":false,"station_name":"Palmerah","i_long":106.79689,"time":6,"line":6,"i_lat":-6.207404,"station_id":"PLM","distance":3191},{"is_transit":false,"line":6,"time":7,"distance":3737,"transit":false,"i_long":106.780334,"station_id":"KBY","station_name":"Kebayoran","i_lat":-6.237242},{"time":8,"i_lat":-6.276362,"distance":6218,"station_name":"Pondokranji","station_id":"PDJ","transit":false,"line":6,"i_long":106.74273,"is_transit":false},{"i_lat":-6.288927,"line":6,"i_long":106.728916,"transit":false,"time":3,"station_id":"JMU","is_transit":false,"station_name":"Jurangmangu","distance":2179},{"i_long":106.712277,"time":4,"i_lat":-6.296963,"is_transit":false,"station_name":"Sudimara","distance":1994,"transit":false,"line":6,"station_id":"SDM"},{"is_transit":false,"transit":false,"time":6,"i_lat":-6.314823,"line":6,"station_id":"RU","i_long":106.675475,"station_name":"Rawa Buntu","distance":4566},{"distance":2413,"station_id":"SRP","i_long":106.66566,"line":6,"i_lat":-6.319871,"transit":false,"is_transit":false,"station_name":"Serpong","time":4},{"distance":1784,"line":3,"is_transit":false,"i_long":106.640411,"transit":false,"time":4,"i_lat":-6.32484,"station_id":"CSK","station_name":"Cisauk"},{"i_lat":-6.329547,"line":3,"distance":2519,"transit":false,"station_name":"Cicayur","is_transit":false,"i_long":106.617853,"station_id":"CC","time":4},{"station_id":"PRP","i_lat":-6.3441410000000005,"time":8,"station_name":"Parung Panjang","transit":false,"i_long":106.568863,"distance":5968,"is_transit":false,"line":6},{"time":9,"i_lat":-6.354349,"i_long":106.508482,"station_name":"Cilejit","is_transit":false,"transit":false,"line":3,"distance":7025,"station_id":"CJT"},{"line":0,"station_name":"Daru","transit":false,"time":6,"distance":2675,"i_long":106.491338,"i_lat":-6.338021,"is_transit":false,"station_id":"DAR"}],[{"station_name":"Klenderbaru","i_long":106.939679,"line":1,"is_transit":false,"transit":false,"time":0,"station_id":"KLDB","distance":0,"i_lat":-6.217455},{"station_id":"BUA","i_long":106.922662,"is_transit":false,"time":1,"distance":1305,"i_lat":-6.215568,"line":1,"transit":false,"station_name":"Buaran"},{"i_long":106.899548,"station_id":"KLD","station_name":"Klender","transit":false,"i_lat":-6.2135,"distance":3100,"line":1,"time":2,"is_transit":false},{"time":3,"line":1,"distance":3395,"station_id":"JNG","i_lat":-6.215091,"is_transit":false,"transit":false,"station_name":"Jatinegara","i_long":106.86807400000001},{"station_id":"MTR","i_long":106.858896,"line":1,"is_transit":false,"station_name":"Matraman","distance":1377,"i_lat":-6.212485,"transit":false,"time":2},{"transit":true,"time":2,"distance":1275,"is_transit":true,"line":2,"i_long":106.84912,"station_id":"MRI","i_lat":-6.209883,"station_name":"Manggarai"},{"transit":false,"is_transit":false,"i_long":106.840169,"time":4,"distance":1590,"i_lat":-6.198556,"station_name":"Cikini","line":2,"station_id":"CKI"},{"station_id":"GDD","time":3,"i_long":106.832183,"transit":false,"line":2,"i_lat":-6.186295,"is_transit":false,"station_name":"Gondangdia","distance":1750},{"time":4,"line":2,"transit":false,"i_long":106.828284,"i_lat":-6.166716,"is_transit":false,"station_id":"JUA","station_name":"Juanda","distance":2015},{"i_long":106.827103,"time":2,"station_name":"Sawah Besar","transit":false,"line":2,"is_transit":false,"station_id":"SW","distance":1149,"i_lat":-6.160725},{"station_name":"Manggabesar","is_transit":false,"i_lat":-6.149769,"station_id":"MGB","transit":false,"line":2,"distance":906,"time":2,"i_long":106.82482},{"line":2,"distance":1080,"is_transit":false,"time":2,"station_name":"Jayakarta","transit":false,"i_lat":-6.141205,"station_id":"JAY","i_long":106.820901},{"transit":true,"station_id":"JAKK","is_transit":true,"line":2,"i_long":106.812439,"time":4,"i_lat":-6.137569,"distance":1264,"station_name":"Jakarta Kota"},{"i_long":106.826365,"transit":true,"time":3,"station_name":"Kampung Bandan","i_lat":-6.132549,"line":4,"is_transit":true,"distance":1364,"station_id":"KPB"},{"distance":4102,"station_id":"AK","i_long":106.79867,"line":1,"station_name":"Angke","transit":false,"i_lat":-6.144674,"is_transit":false,"time":9},{"station_name":"Duri","transit":false,"distance":1230,"station_id":"DU","i_lat":-6.155215,"i_long":106.800832,"is_transit":false,"line":1,"time":4},{"distance":3632,"transit":true,"station_id":"THB","i_long":106.811091,"is_transit":true,"line":1,"time":8,"i_lat":-6.185545,"station_name":"Tanah Abang"},{"transit":false,"station_id":"PLM","station_name":"Palmerah","i_long":106.79689,"time":6,"distance":3191,"line":6,"i_lat":-6.207404,"is_transit":false},{"i_lat":-6.237242,"station_id":"KBY","transit":false,"time":7,"is_transit":false,"station_name":"Kebayoran","i_long":106.780334,"line":6,"distance":3737},{"i_long":106.74273,"transit":false,"time":8,"i_lat":-6.276362,"station_id":"PDJ","is_transit":false,"distance":6218,"line":6,"station_name":"Pondokranji"},{"transit":false,"is_transit":false,"distance":2179,"station_id":"JMU","line":6,"time":3,"i_lat":-6.288927,"station_name":"Jurangmangu","i_long":106.728916},{"is_transit":false,"distance":1994,"transit":false,"line":6,"time":4,"station_name":"Sudimara","station_id":"SDM","i_long":106.712277,"i_lat":-6.296963},{"i_long":106.675475,"is_transit":false,"station_id":"RU","station_name":"Rawa Buntu","distance":4566,"i_lat":-6.314823,"line":6,"transit":false,"time":6},{"transit":false,"is_transit":false,"line":6,"distance":2413,"station_name":"Serpong","station_id":"SRP","time":4,"i_lat":-6.319871,"i_long":106.66566},{"i_long":106.640411,"line":3,"i_lat":-6.32484,"transit":false,"station_id":"CSK","station_name":"Cisauk","time":4,"is_transit":false,"distance":1784},{"i_lat":-6.329547,"i_long":106.617853,"station_id":"CC","time":4,"is_transit":false,"distance":2519,"transit":false,"station_name":"Cicayur","line":3},{"station_name":"Parung Panjang","transit":false,"distance":5968,"i_lat":-6.3441410000000005,"line":6,"station_id":"PRP","time":8,"i_long":106.568863,"is_transit":false},{"distance":7025,"is_transit":false,"line":3,"i_lat":-6.354349,"transit":false,"station_id":"CJT","station_name":"Cilejit","time":9,"i_long":106.508482},{"distance":2675,"station_id":"DAR","i_lat":-6.338021,"transit":false,"station_name":"Daru","i_long":106.491338,"time":6,"is_transit":false,"line":0}],[{"station_name":"Klenderbaru","time":0,"transit":false,"station_id":"KLDB","i_lat":-6.217455,"is_transit":false,"distance":0,"i_long":106.939679,"line":1},{"is_transit":false,"i_lat":-6.215568,"time":1,"line":1,"transit":false,"i_long":106.922662,"station_name":"Buaran","station_id":"BUA","distance":1305},{"line":1,"distance":3100,"i_lat":-6.2135,"station_id":"KLD","time":2,"station_name":"Klender","transit":false,"i_long":106.899548,"is_transit":false},{"transit":true,"distance":3395,"i_lat":-6.215091,"i_long":106.86807400000001,"station_id":"JNG","time":3,"line":1,"is_transit":true,"station_name":"Jatinegara"},{"line":11,"distance":1236,"time":2,"i_long":106.861737,"station_name":"Pondok Jati","i_lat":-6.209188,"station_id":"POK","transit":false,"is_transit":false},{"station_id":"KMT","time":2,"station_name":"Kramat","transit":false,"i_long":106.855437,"is_transit":false,"i_lat":-6.193792,"line":11,"distance":1829},{"i_lat":-6.185975,"transit":false,"i_long":106.850107,"line":11,"station_id":"GST","distance":973,"is_transit":false,"time":1,"station_name":"Gang Sentiong"},{"is_transit":false,"station_name":"Pasar Senen","time":8,"distance":1567,"i_lat":-6.174784,"i_long":106.84368,"line":11,"transit":false,"station_id":"PSE"},{"i_lat":-6.161728,"transit":false,"i_long":106.839204,"station_name":"Kemayoran","station_id":"KMO","is_transit":false,"line":11,"time":4,"distance":1436},{"i_long":106.836569,"station_id":"RJW","line":11,"i_lat":-6.14505,"is_transit":false,"transit":false,"distance":1901,"station_name":"Rajawali","time":5},{"distance":1444,"is_transit":true,"i_long":106.826365,"transit":true,"station_name":"Kampung Bandan","line":4,"station_id":"KPB","i_lat":-6.132549,"time":3},{"transit":true,"station_name":"Jakarta Kota","station_id":"JAKK","time":3,"distance":1364,"i_long":106.812439,"i_lat":-6.137569,"line":2,"is_transit":true},{"line":2,"station_name":"Jayakarta","station_id":"JAY","i_long":106.820901,"i_lat":-6.141205,"transit":false,"is_transit":false,"time":4,"distance":1264},{"station_name":"Manggabesar","i_lat":-6.149769,"i_long":106.82482,"transit":false,"time":2,"line":2,"station_id":"MGB","is_transit":false,"distance":1080},{"station_id":"SW","transit":false,"line":2,"station_name":"Sawah Besar","distance":906,"i_lat":-6.160725,"i_long":106.827103,"is_transit":false,"time":2},{"transit":false,"is_transit":false,"station_name":"Juanda","station_id":"JUA","i_long":106.828284,"line":2,"distance":1149,"time":2,"i_lat":-6.166716},{"transit":false,"i_long":106.832183,"i_lat":-6.186295,"is_transit":false,"station_id":"GDD","time":4,"distance":2015,"station_name":"Gondangdia","line":2},{"is_transit":false,"transit":false,"station_id":"CKI","station_name":"Cikini","i_long":106.840169,"i_lat":-6.198556,"line":2,"time":3,"distance":1750},{"transit":true,"is_transit":true,"station_id":"MRI","station_name":"Manggarai","time":4,"distance":1590,"line":2,"i_lat":-6.209883,"i_long":106.84912},{"distance":3186,"i_long":106.822649,"is_transit":false,"i_lat":-6.202263,"line":1,"transit":false,"station_id":"SUD","time":4,"station_name":"Sudirman"},{"is_transit":false,"station_name":"Sudirman Baru","distance":280,"transit":false,"line":1,"i_long":106.819881,"i_lat":-6.201433,"time":1,"station_id":"SUDB"},{"station_name":"Karet","is_transit":false,"i_long":106.816351,"time":1,"line":1,"distance":471,"i_lat":-6.20132,"transit":false,"station_id":"KAT"},{"line":1,"station_name":"Tanah Abang","time":5,"is_transit":true,"distance":2029,"i_lat":-6.185545,"i_long":106.811091,"transit":true,"station_id":"THB"},{"i_long":106.79689,"transit":false,"station_id":"PLM","station_name":"Palmerah","i_lat":-6.207404,"line":6,"time":6,"distance":3191,"is_transit":false},{"transit":false,"station_id":"KBY","i_lat":-6.237242,"is_transit":false,"time":7,"station_name":"Kebayoran","i_long":106.780334,"line":6,"distance":3737},{"station_id":"PDJ","is_transit":false,"time":8,"transit":false,"line":6,"station_name":"Pondokranji","distance":6218,"i_long":106.74273,"i_lat":-6.276362},{"station_id":"JMU","station_name":"Jurangmangu","time":3,"i_long":106.728916,"transit":false,"is_transit":false,"line":6,"i_lat":-6.288927,"distance":2179},{"i_lat":-6.296963,"line":6,"transit":false,"i_long":106.712277,"station_id":"SDM","time":4,"station_name":"Sudimara","distance":1994,"is_transit":false},{"distance":4566,"station_id":"RU","is_transit":false,"station_name":"Rawa Buntu","time":6,"i_lat":-6.314823,"transit":false,"i_long":106.675475,"line":6},{"time":4,"i_long":106.66566,"line":6,"transit":false,"station_id":"SRP","is_transit":false,"station_name":"Serpong","distance":2413,"i_lat":-6.319871},{"line":3,"is_transit":false,"station_name":"Cisauk","station_id":"CSK","i_long":106.640411,"distance":1784,"i_lat":-6.32484,"transit":false,"time":4},{"line":3,"station_id":"CC","i_long":106.617853,"time":4,"i_lat":-6.329547,"station_name":"Cicayur","is_transit":false,"distance":2519,"transit":false},{"station_name":"Parung Panjang","time":8,"is_transit":false,"i_lat":-6.3441410000000005,"station_id":"PRP","transit":false,"i_long":106.568863,"line":6,"distance":5968},{"is_transit":false,"station_name":"Cilejit","distance":7025,"i_lat":-6.354349,"i_long":106.508482,"transit":false,"time":9,"line":3,"station_id":"CJT"},{"is_transit":false,"time":6,"i_lat":-6.338021,"distance":2675,"station_id":"DAR","i_long":106.491338,"transit":false,"station_name":"Daru","line":0}]]}