{"data":[[{"station_id":"KLDB","station_name":"Klenderbaru","i_long":106.939679,"time":0,"distance":0,"transit":false,"i_lat":-6.217455,"line":1,"is_transit":false},{"i_lat":-6.215568,"time":1,"distance":1305,"is_transit":false,"station_name":"Buaran","transit":false,"station_id":"BUA","i_long":106.922662,"line":1},{"is_transit":false,"time":2,"station_id":"KLD","transit":false,"line":1,"station_name":"Klender","distance":3100,"i_lat":-6.2135,"i_long":106.899548},{"is_transit":false,"transit":false,"distance":3395,"time":3,"station_name":"Jatinegara","i_lat":-6.215091,"i_long":106.86807400000001,"station_id":"JNG","line":1},{"distance":1377,"time":2,"i_long":106.858896,"transit":false,"is_transit":false,"station_name":"Matraman","i_lat":-6.212485,"station_id":"MTR","line":1},{"line":2,"station_name":"Manggarai","time":2,"transit":true,"i_lat":-6.209883,"i_long":106.84912,"station_id":"MRI","distance":1275,"is_transit":true},{"i_long":106.840169,"station_name":"Cikini","transit":false,"is_transit":false,"line":2,"i_lat":-6.198556,"time":4,"station_id":"CKI","distance":1590},{"station_name":"Gondangdia","time":3,"transit":false,"distance":1750,"is_transit":false,"i_lat":-6.186295,"i_long":106.832183,"line":2,"station_id":"GDD"},{"line":2,"distance":2015,"i_lat":-6.166716,"i_long":106.828284,"time":4,"is_transit":false,"station_name":"Juanda","station_id":"JUA","transit":false},{"i_lat":-6.160725,"line":2,"time":2,"transit":false,"station_id":"SW","is_transit":false,"i_long":106.827103,"station_name":"Sawah Besar","distance":1149}],[{"station_id":"KLDB","line":1,"distance":0,"station_name":"Klenderbaru","is_transit":false,"i_lat":-6.217455,"i_long":106.939679,"time":0,"transit":false},{"i_long":106.922662,"i_lat":-6.215568,"line":1,"station_name":"Buaran","station_id":"BUA","distance":1305,"time":1,"is_transit":false,"transit":false},{"line":1,"time":2,"i_long":106.899548,"distance":3100,"transit":false,"station_name":"Klender","station_id":"KLD","is_transit":false,"i_lat":-6.2135},{"station_name":"Jatinegara","is_transit":true,"i_lat":-6.215091,"distance":3395,"transit":true,"time":3,"station_id":"JNG","i_long":106.86807400000001,"line":1},{"time":2,"station_id":"POK","distance":1236,"station_name":"Pondok Jati","transit":false,"is_transit":false,"i_lat":-6.209188,"line":11,"i_long":106.861737},{"time":2,"station_id":"KMT","distance":1829,"transit":false,"i_lat":-6.193792,"line":11,"station_name":"Kramat","is_transit":false,"i_long":106.855437},{"i_long":106.850107,"station_name":"Gang Sentiong","time":1,"transit":false,"station_id":"GST","is_transit":false,"line":11,"distance":973,"i_lat":-6.185975},{"station_id":"PSE","station_name":"Pasar Senen","time":8,"i_long":106.84368,"is_transit":false,"transit":false,"i_lat":-6.174784,"distance":1567,"line":11},{"distance":1436,"is_transit":false,"transit":false,"i_long":106.839204,"station_name":"Kemayoran","station_id":"KMO","time":4,"i_lat":-6.161728,"line":11},{"station_name":"Rajawali","i_lat":-6.14505,"line":11,"time":5,"distance":1901,"is_transit":false,"i_long":106.836569,"station_id":"RJW","transit":false},{"station_name":"Kampung Bandan","is_transit":true,"transit":true,"distance":1444,"station_id":"KPB","i_long":106.826365,"time":3,"i_lat":-6.132549,"line":4},{"line":2,"i_lat":-6.137569,"distance":1364,"time":3,"station_name":"Jakarta Kota","is_transit":true,"i_long":106.812439,"station_id":"JAKK","transit":true},{"line":2,"is_transit":false,"i_long":106.820901,"distance":1264,"i_lat":-6.141205,"time":4,"station_name":"Jayakarta","station_id":"JAY","transit":false},{"i_lat":-6.149769,"i_long":106.82482,"line":2,"transit":false,"station_name":"Manggabesar","station_id":"MGB","time":2,"distance":1080,"is_transit":false},{"station_name":"Sawah Besar","transit":false,"distance":906,"time":2,"i_lat":-6.160725,"i_long":106.827103,"line":2,"is_transit":false,"station_id":"SW"}],[{"is_transit":false,"distance":0,"station_name":"Klenderbaru","i_lat":-6.217455,"line":1,"time":0,"station_id":"KLDB","transit":false,"i_long":106.939679},{"line":1,"transit":false,"station_id":"BUA","is_transit":false,"i_lat":-6.215568,"time":1,"station_name":"Buaran","distance":1305,"i_long":106.922662},{"i_lat":-6.2135,"time":2,"line":1,"distance":3100,"station_name":"Klender","is_transit":false,"station_id":"KLD","transit":false,"i_long":106.899548},{"is_transit":false,"station_id":"JNG","distance":3395,"station_name":"Jatinegara","transit":false,"i_lat":-6.215091,"time":3,"i_long":106.86807400000001,"line":1},{"distance":1377,"station_name":"Matraman","transit":false,"time":2,"is_transit":false,"i_lat":-6.212485,"i_long":106.858896,"line":1,"station_id":"MTR"},{"line":2,"is_transit":false,"station_id":"MRI","distance":1275,"transit":false,"i_long":106.84912,"i_lat":-6.209883,"time":2,"station_name":"Manggarai"},{"i_lat":-6.202263,"station_name":"Sudirman","transit":false,"station_id":"SUD","is_transit":false,"i_long":106.822649,"time":4,"distance":3186,"line":1},{"station_name":"Sudirman Baru","station_id":"SUDB","distance":280,"transit":false,"i_lat":-6.201433,"i_long":106.819881,"is_transit":false,"time":1,"line":1},{"transit":false,"distance":471,"is_transit":false,"i_lat":-6.20132,"station_id":"KAT","station_name":"Karet","time":1,"i_long":106.816351,"line":1},{"line":1,"station_id":"THB","transit":false,"is_transit":false,"i_long":106.811091,"station_name":"Tanah Abang","i_lat":-6.185545,"distance":2029,"time":5},{"time":8,"transit":false,"i_long":106.800832,"i_lat":-6.155215,"distance":3632,"line":1,"station_name":"Duri","is_transit":false,"station_id":"DU"},{"distance":1230,"line":1,"transit":false,"time":4,"is_transit":false,"i_lat":-6.144674,"i_long":106.79867,"station_name":"Angke","station_id":"AK"},{"line":4,"station_name":"Kampung Bandan","i_lat":-6.132549,"is_transit":true,"station_id":"KPB","time":9,"distance":4102,"i_long":106.826365,"transit":true},{"station_name":"Jakarta Kota","distance":1364,"i_long":106.812439,"time":3,"station_id":"JAKK","i_lat":-6.137569,"is_transit":true,"line":2,"transit":true},{"transit":false,"time":4,"station_name":"Jayakarta","station_id":"JAY","is_transit":false,"distance":1264,"i_lat":-6.141205,"line":2,"i_long":106.820901},{"line":2,"time":2,"station_name":"Manggabesar","is_transit":false,"transit":false,"distance":1080,"station_id":"MGB","i_lat":-6.149769,"i_long":106.82482},{"distance":906,"station_id":"SW","transit":false,"i_lat":-6.160725,"is_transit":false,"time":2,"i_long":106.827103,"line":2,"station_name":"Sawah Besar"}],[{"i_lat":-6.217455,"transit":false,"i_long":106.939679,"line":1,"distance":0,"is_transit":false,"station_name":"Klenderbaru","station_id":"KLDB","time":0},{"station_id":"BUA","distance":1305,"i_long":106.922662,"station_name":"Buaran","i_lat":-6.215568,"time":1,"is_transit":false,"transit":false,"line":1},{"station_id":"KLD","time":2,"distance":3100,"transit":false,"is_transit":false,"i_lat":-6.2135,"station_name":"Klender","line":1,"i_long":106.899548},{"station_id":"JNG","distance":3395,"transit":true,"station_name":"Jatinegara","i_lat":-6.215091,"is_transit":true,"time":3,"i_long":106.86807400000001,"line":1},{"line":11,"i_long":106.861737,"station_name":"Pondok Jati","i_lat":-6.209188,"station_id":"POK","distance":1236,"time":2,"transit":false,"is_transit":false},{"station_name":"Kramat","time":2,"distance":1829,"i_lat":-6.193792,"transit":false,"i_long":106.855437,"station_id":"KMT","is_transit":false,"line":11},{"line":11,"distance":973,"station_name":"Gang Sentiong","i_long":106.850107,"is_transit":false,"station_id":"GST","time":1,"transit":false,"i_lat":-6.185975},{"time":8,"station_name":"Pasar Senen","transit":false,"station_id":"PSE","distance":1567,"is_transit":false,"i_lat":-6.174784,"i_long":106.84368,"line":11},{"time":4,"i_lat":-6.161728,"line":11,"station_name":"Kemayoran","station_id":"KMO","distance":1436,"is_transit":false,"transit":false,"i_long":106.839204},{"i_long":106.836569,"line":11,"i_lat":-6.14505,"station_id":"RJW","distance":1901,"is_transit":false,"time":5,"transit":false,"station_name":"Rajawali"},{"i_long":106.826365,"i_lat":-6.132549,"transit":true,"is_transit":true,"station_name":"Kampung Bandan","station_id":"KPB","distance":1444,"line":4,"time":3},{"line":1,"is_transit":false,"station_id":"AK","i_long":106.79867,"time":9,"distance":4102,"transit":false,"station_name":"Angke","i_lat":-6.144674},{"time":4,"distance":1230,"transit":false,"is_transit":false,"i_lat":-6.155215,"i_long":106.800832,"station_name":"Duri","line":1,"station_id":"DU"},{"time":8,"station_name":"Tanah Abang","transit":false,"is_transit":false,"station_id":"THB","i_lat":-6.185545,"i_long":106.811091,"distance":3632,"line":1},{"line":1,"time":5,"transit":false,"station_name":"Karet","i_lat":-6.20132,"distance":2029,"station_id":"KAT","is_transit":false,"i_long":106.816351},{"line":1,"i_long":106.819881,"station_name":"Sudirman Baru","is_transit":false,"i_lat":-6.201433,"time":1,"transit":false,"distance":471,"station_id":"SUDB"},{"is_transit":false,"distance":280,"station_name":"Sudirman","transit":false,"i_lat":-6.202263,"i_long":106.822649,"station_id":"SUD","line":1,"time":1},{"i_long":106.84912,"line":2,"i_lat":-6.209883,"station_name":"Manggarai","is_transit":true,"station_id":"MRI","transit":true,"distance":3186,"time":4},{"is_transit":false,"station_id":"CKI","i_long":106.840169,"transit":false,"time":4,"station_name":"Cikini","i_lat":-6.198556,"line":2,"distance":1590},{"is_transit":false,"line":2,"i_long":106.832183,"time":3,"station_name":"Gondangdia","distance":1750,"station_id":"GDD","transit":false,"i_lat":-6.186295},{"station_name":"Juanda","distance":2015,"station_id":"JUA","i_long":106.828284,"time":4,"line":2,"is_transit":false,"i_lat":-6.166716,"transit":false},{"i_long":106.827103,"station_name":"Sawah Besar","transit":false,"line":2,"time":2,"station_id":"SW","is_transit":false,"distance":1149,"i_lat":-6.160725}]]}