{"data":[[{"station_id":"KLDB","time":0,"i_long":106.939679,"line":1,"distance":0,"transit":false,"i_lat":-6.217455,"is_transit":false,"station_name":"Klenderbaru"},{"i_long":106.922662,"station_name":"Buaran","station_id":"BUA","line":1,"distance":1305,"i_lat":-6.215568,"is_transit":false,"transit":false,"time":1},{"distance":3100,"i_long":106.899548,"transit":false,"i_lat":-6.2135,"is_transit":false,"station_id":"KLD","time":2,"line":1,"station_name":"Klender"},{"is_transit":false,"time":3,"i_lat":-6.215091,"line":1,"transit":false,"distance":3395,"station_id":"JNG","i_long":106.86807400000001,"station_name":"Jatinegara"},{"station_name":"Matraman","transit":false,"is_transit":false,"i_lat":-6.212485,"i_long":106.858896,"station_id":"MTR","time":2,"line":1,"distance":1377},{"time":2,"distance":1275,"station_id":"MRI","i_long":106.84912,"transit":false,"i_lat":-6.209883,"line":2,"station_name":"Manggarai","is_transit":false},{"i_long":106.822649,"station_id":"SUD","i_lat":-6.202263,"station_name":"Sudirman","is_transit":false,"time":4,"line":1,"transit":false,"distance":3186},{"station_name":"Sudirman Baru","station_id":"SUDB","is_transit":false,"transit":false,"distance":280,"i_lat":-6.201433,"time":1,"i_long":106.819881,"line":1},{"distance":471,"i_lat":-6.20132,"station_name":"Karet","station_id":"KAT","line":1,"is_transit":false,"time":1,"i_long":106.816351,"transit":false},{"transit":true,"i_lat":-6.185545,"time":5,"distance":2029,"station_id":"THB","is_transit":true,"station_name":"Tanah Abang","line":1,"i_long":106.811091},{"station_name":"Palmerah","time":6,"distance":3191,"is_transit":false,"i_long":106.79689,"line":6,"i_lat":-6.207404,"station_id":"PLM","transit":false},{"station_id":"KBY","is_transit":false,"i_lat":-6.237242,"time":7,"i_long":106.780334,"station_name":"Kebayoran","distance":3737,"line":6,"transit":false},{"station_name":"Pondokranji","time":8,"station_id":"PDJ","is_transit":false,"distance":6218,"transit":false,"i_lat":-6.276362,"i_long":106.74273,"line":6},{"i_long":106.728916,"time":3,"transit":false,"i_lat":-6.288927,"station_id":"JMU","line":6,"is_transit":false,"distance":2179,"station_name":"Jurangmangu"},{"station_name":"Sudimara","is_transit":false,"line":6,"distance":1994,"time":4,"transit":false,"i_lat":-6.296963,"i_long":106.712277,"station_id":"SDM"},{"station_name":"Rawa Buntu","i_lat":-6.314823,"i_long":106.675475,"station_id":"RU","transit":false,"is_transit":false,"time":6,"distance":4566,"line":6},{"station_name":"Serpong","station_id":"SRP","i_lat":-6.319871,"transit":false,"line":6,"time":4,"i_long":106.66566,"distance":2413,"is_transit":false},{"distance":1784,"time":4,"transit":false,"i_long":106.640411,"station_id":"CSK","i_lat":-6.32484,"station_name":"Cisauk","is_transit":false,"line":3},{"time":4,"line":3,"i_long":106.617853,"station_name":"Cicayur","i_lat":-6.329547,"distance":2519,"is_transit":false,"transit":false,"station_id":"CC"},{"i_long":106.568863,"transit":false,"station_name":"Parung Panjang","station_id":"PRP","i_lat":-6.3441410000000005,"is_transit":false,"line":6,"time":8,"distance":5968}],[{"distance":0,"transit":false,"station_id":"KLDB","line":1,"i_long":106.939679,"i_lat":-6.217455,"station_name":"Klenderbaru","is_transit":false,"time":0},{"station_id":"BUA","transit":false,"is_transit":false,"i_lat":-6.215568,"line":1,"station_name":"Buaran","distance":1305,"i_long":106.922662,"time":1},{"i_lat":-6.2135,"transit":false,"station_name":"Klender","i_long":106.899548,"time":2,"line":1,"station_id":"KLD","distance":3100,"is_transit":false},{"i_long":106.86807400000001,"line":1,"time":3,"station_id":"JNG","distance":3395,"station_name":"Jatinegara","is_transit":true,"i_lat":-6.215091,"transit":true},{"i_long":106.861737,"distance":1236,"line":11,"transit":false,"is_transit":false,"station_id":"POK","time":2,"station_name":"Pondok Jati","i_lat":-6.209188},{"station_name":"Kramat","station_id":"KMT","distance":1829,"i_lat":-6.193792,"time":2,"i_long":106.855437,"transit":false,"is_transit":false,"line":11},{"transit":false,"distance":973,"time":1,"is_transit":false,"station_id":"GST","i_long":106.850107,"station_name":"Gang Sentiong","i_lat":-6.185975,"line":11},{"transit":false,"station_name":"Pasar Senen","is_transit":false,"distance":1567,"i_long":106.84368,"i_lat":-6.174784,"time":8,"line":11,"station_id":"PSE"},{"time":4,"station_name":"Kemayoran","distance":1436,"i_long":106.839204,"line":11,"station_id":"KMO","is_transit":false,"i_lat":-6.161728,"transit":false},{"i_lat":-6.14505,"station_name":"Rajawali","station_id":"RJW","i_long":106.836569,"line":11,"transit":false,"time":5,"distance":1901,"is_transit":false},{"i_lat":-6.132549,"station_id":"KPB","station_name":"Kampung Bandan","is_transit":true,"distance":1444,"i_long":106.826365,"line":4,"transit":true,"time":3},{"transit":false,"station_id":"AK","i_lat":-6.144674,"is_transit":false,"i_long":106.79867,"line":1,"station_name":"Angke","time":9,"distance":4102},{"station_id":"DU","station_name":"Duri","i_long":106.800832,"is_transit":false,"time":4,"transit":false,"distance":1230,"i_lat":-6.155215,"line":1},{"transit":true,"line":1,"distance":3632,"i_lat":-6.185545,"i_long":106.811091,"station_id":"THB","is_transit":true,"station_name":"Tanah Abang","time":8},{"line":6,"is_transit":false,"distance":3191,"time":6,"transit":false,"station_name":"Palmerah","station_id":"PLM","i_lat":-6.207404,"i_long":106.79689},{"transit":false,"i_lat":-6.237242,"station_name":"Kebayoran","i_long":106.780334,"time":7,"distance":3737,"station_id":"KBY","line":6,"is_transit":false},{"is_transit":false,"transit":false,"station_name":"Pondokranji","station_id":"PDJ","i_long":106.74273,"distance":6218,"line":6,"i_lat":-6.276362,"time":8},{"time":3,"i_lat":-6.288927,"transit":false,"distance":2179,"i_long":106.728916,"is_transit":false,"line":6,"station_name":"Jurangmangu","station_id":"JMU"},{"station_id":"SDM","distance":1994,"i_long":106.712277,"station_name":"Sudimara","line":6,"is_transit":false,"i_lat":-6.296963,"transit":false,"time":4},{"time":6,"i_long":106.675475,"transit":false,"is_transit":false,"distance":4566,"station_name":"Rawa Buntu","line":6,"i_lat":-6.314823,"station_id":"RU"},{"station_id":"SRP","i_long":106.66566,"is_transit":false,"time":4,"line":6,"station_name":"Serpong","distance":2413,"transit":false,"i_lat":-6.319871},{"is_transit":false,"station_name":"Cisauk","time":4,"distance":1784,"i_lat":-6.32484,"station_id":"CSK","transit":false,"line":3,"i_long":106.640411},{"time":4,"distance":2519,"i_lat":-6.329547,"i_long":106.617853,"line":3,"transit":false,"station_id":"CC","is_transit":false,"station_name":"Cicayur"},{"station_id":"PRP","is_transit":false,"i_lat":-6.3441410000000005,"distance":5968,"i_long":106.568863,"line":6,"station_name":"Parung Panjang","time":8,"transit":false}],[{"distance":0,"i_lat":-6.217455,"i_long":106.939679,"station_name":"Klenderbaru","time":0,"station_id":"KLDB","line":1,"is_transit":false,"transit":false},{"is_transit":false,"i_long":106.922662,"line":1,"station_name":"Buaran","station_id":"BUA","distance":1305,"i_lat":-6.215568,"time":1,"transit":false},{"station_id":"KLD","i_long":106.899548,"time":2,"line":1,"station_name":"Klender","is_transit":false,"distance":3100,"transit":false,"i_lat":-6.2135},{"i_long":106.86807400000001,"station_id":"JNG","i_lat":-6.215091,"line":1,"is_transit":false,"time":3,"transit":false,"distance":3395,"station_name":"Jatinegara"},{"line":1,"i_lat":-6.212485,"i_long":106.858896,"is_transit":false,"time":2,"distance":1377,"transit":false,"station_name":"Matraman","station_id":"MTR"},{"transit":true,"station_id":"MRI","i_long":106.84912,"distance":1275,"line":2,"time":2,"is_transit":true,"station_name":"Manggarai","i_lat":-6.209883},{"station_id":"CKI","i_long":106.840169,"transit":false,"time":4,"station_name":"Cikini","is_transit":false,"distance":1590,"i_lat":-6.198556,"line":2},{"is_transit":false,"station_name":"Gondangdia","station_id":"GDD","distance":1750,"i_lat":-6.186295,"time":3,"i_long":106.832183,"transit":false,"line":2},{"i_lat":-6.166716,"is_transit":false,"time":4,"transit":false,"station_name":"Juanda","station_id":"JUA","distance":2015,"line":2,"i_long":106.828284},{"i_lat":-6.160725,"station_name":"Sawah Besar","is_transit":false,"transit":false,"distance":1149,"line":2,"i_long":106.827103,"time":2,"station_id":"SW"},{"distance":906,"is_transit":false,"i_lat":-6.149769,"station_name":"Manggabesar","time":2,"i_long":106.82482,"transit":false,"station_id":"MGB","line":2},{"is_transit":false,"station_name":"Jayakarta","station_id":"JAY","transit":false,"distance":1080,"i_lat":-6.141205,"i_long":106.820901,"time":2,"line":2},{"line":2,"i_lat":-6.137569,"station_id":"JAKK","transit":true,"station_name":"Jakarta Kota","is_transit":true,"distance":1264,"time":4,"i_long":106.812439},{"transit":true,"time":3,"line":4,"station_name":"Kampung Bandan","i_lat":-6.132549,"distance":1364,"i_long":106.826365,"is_transit":true,"station_id":"KPB"},{"transit":false,"station_name":"Angke","i_long":106.79867,"line":1,"is_transit":false,"i_lat":-6.144674,"station_id":"AK","distance":4102,"time":9},{"line":1,"transit":false,"is_transit":false,"station_name":"Duri","time":4,"distance":1230,"station_id":"DU","i_long":106.800832,"i_lat":-6.155215},{"i_lat":-6.185545,"line":1,"time":8,"distance":3632,"station_name":"Tanah Abang","is_transit":true,"transit":true,"station_id":"THB","i_long":106.811091},{"distance":3191,"i_long":106.79689,"station_name":"Palmerah","station_id":"PLM","is_transit":false,"transit":false,"i_lat":-6.207404,"line":6,"time":6},{"line":6,"station_id":"KBY","distance":3737,"i_lat":-6.237242,"transit":false,"is_transit":false,"station_name":"Kebayoran","time":7,"i_long":106.780334},{"i_long":106.74273,"station_id":"PDJ","transit":false,"is_transit":false,"time":8,"i_lat":-6.276362,"line":6,"station_name":"Pondokranji","distance":6218},{"transit":false,"distance":2179,"i_lat":-6.288927,"time":3,"line":6,"station_name":"Jurangmangu","station_id":"JMU","is_transit":false,"i_long":106.728916},{"i_long":106.712277,"station_id":"SDM","transit":false,"is_transit":false,"time":4,"distance":1994,"i_lat":-6.296963,"line":6,"station_name":"Sudimara"},{"time":6,"line":6,"distance":4566,"is_transit":false,"i_long":106.675475,"station_name":"Rawa Buntu","i_lat":-6.314823,"station_id":"RU","transit":false},{"i_long":106.66566,"transit":false,"is_transit":false,"station_name":"Serpong","distance":2413,"line":6,"station_id":"SRP","time":4,"i_lat":-6.319871},{"line":3,"is_transit":false,"i_lat":-6.32484,"i_long":106.640411,"distance":1784,"transit":false,"time":4,"station_id":"CSK","station_name":"Cisauk"},{"station_name":"Cicayur","station_id":"CC","line":3,"distance":2519,"time":4,"i_lat":-6.329547,"is_transit":false,"i_long":106.617853,"transit":false},{"station_id":"PRP","transit":false,"i_lat":-6.3441410000000005,"i_long":106.568863,"time":8,"station_name":"Parung Panjang","distance":5968,"line":6,"is_transit":false}],[{"distance":0,"line":1,"station_name":"Klenderbaru","station_id":"KLDB","is_transit":false,"i_lat":-6.217455,"transit":false,"time":0,"i_long":106.939679},{"i_lat":-6.215568,"is_transit":false,"station_id":"BUA","i_long":106.922662,"distance":1305,"transit":false,"station_name":"Buaran","line":1,"time":1},{"is_transit":false,"transit":false,"station_id":"KLD","distance":3100,"i_lat":-6.2135,"station_name":"Klender","time":2,"i_long":106.899548,"line":1},{"station_name":"Jatinegara","transit":true,"station_id":"JNG","i_lat":-6.215091,"distance":3395,"time":3,"is_transit":true,"i_long":106.86807400000001,"line":1},{"distance":1236,"is_transit":false,"station_name":"Pondok Jati","time":2,"station_id":"POK","i_long":106.861737,"i_lat":-6.209188,"line":11,"transit":false},{"is_transit":false,"station_id":"KMT","transit":false,"i_lat":-6.193792,"i_long":106.855437,"line":11,"station_name":"Kramat","distance":1829,"time":2},{"distance":973,"time":1,"is_transit":false,"transit":false,"i_long":106.850107,"line":11,"i_lat":-6.185975,"station_id":"GST","station_name":"Gang Sentiong"},{"station_id":"PSE","station_name":"Pasar Senen","transit":false,"distance":1567,"i_lat":-6.174784,"i_long":106.84368,"is_transit":false,"line":11,"time":8},{"i_lat":-6.161728,"i_long":106.839204,"is_transit":false,"time":4,"station_name":"Kemayoran","transit":false,"line":11,"station_id":"KMO","distance":1436},{"station_id":"RJW","time":5,"distance":1901,"i_lat":-6.14505,"is_transit":false,"station_name":"Rajawali","transit":false,"i_long":106.836569,"line":11},{"i_long":106.826365,"transit":true,"distance":1444,"station_name":"Kampung Bandan","i_lat":-6.132549,"line":4,"station_id":"KPB","is_transit":true,"time":3},{"transit":true,"is_transit":true,"station_name":"Jakarta Kota","station_id":"JAKK","distance":1364,"i_long":106.812439,"line":2,"i_lat":-6.137569,"time":3},{"transit":false,"is_transit":false,"i_long":106.820901,"station_name":"Jayakarta","time":4,"line":2,"distance":1264,"station_id":"JAY","i_lat":-6.141205},{"distance":1080,"i_lat":-6.149769,"i_long":106.82482,"is_transit":false,"line":2,"time":2,"transit":false,"station_name":"Manggabesar","station_id":"MGB"},{"i_lat":-6.160725,"transit":false,"i_long":106.827103,"station_name":"Sawah Besar","station_id":"SW","distance":906,"line":2,"time":2,"is_transit":false},{"station_id":"JUA","time":2,"transit":false,"station_name":"Juanda","is_transit":false,"distance":1149,"i_lat":-6.166716,"i_long":106.828284,"line":2},{"i_long":106.832183,"line":2,"station_id":"GDD","is_transit":false,"time":4,"station_name":"Gondangdia","transit":false,"distance":2015,"i_lat":-6.186295},{"station_name":"Cikini","is_transit":false,"i_long":106.840169,"time":3,"i_lat":-6.198556,"station_id":"CKI","transit":false,"line":2,"distance":1750},{"transit":true,"is_transit":true,"station_id":"MRI","distance":1590,"i_long":106.84912,"station_name":"Manggarai","time":4,"i_lat":-6.209883,"line":2},{"time":4,"line":1,"transit":false,"is_transit":false,"i_lat":-6.202263,"station_name":"Sudirman","station_id":"SUD","distance":3186,"i_long":106.822649},{"i_long":106.819881,"transit":false,"time":1,"line":1,"i_lat":-6.201433,"station_id":"SUDB","station_name":"Sudirman Baru","distance":280,"is_transit":false},{"transit":false,"station_id":"KAT","i_lat":-6.20132,"i_long":106.816351,"line":1,"is_transit":false,"station_name":"Karet","time":1,"distance":471},{"i_long":106.811091,"is_transit":true,"i_lat":-6.185545,"line":1,"time":5,"station_id":"THB","station_name":"Tanah Abang","transit":true,"distance":2029},{"transit":false,"i_long":106.79689,"station_name":"Palmerah","time":6,"is_transit":false,"distance":3191,"line":6,"station_id":"PLM","i_lat":-6.207404},{"i_long":106.780334,"transit":false,"time":7,"i_lat":-6.237242,"is_transit":false,"line":6,"distance":3737,"station_name":"Kebayoran","station_id":"KBY"},{"is_transit":false,"station_id":"PDJ","transit":false,"i_long":106.74273,"line":6,"station_name":"Pondokranji","distance":6218,"i_lat":-6.276362,"time":8},{"transit":false,"station_id":"JMU","time":3,"i_long":106.728916,"distance":2179,"is_transit":false,"station_name":"Jurangmangu","i_lat":-6.288927,"line":6},{"station_id":"SDM","i_lat":-6.296963,"is_transit":false,"station_name":"Sudimara","distance":1994,"transit":false,"time":4,"i_long":106.712277,"line":6},{"time":6,"station_id":"RU","i_lat":-6.314823,"line":6,"station_name":"Rawa Buntu","is_transit":false,"i_long":106.675475,"transit":false,"distance":4566},{"i_long":106.66566,"transit":false,"i_lat":-6.319871,"distance":2413,"station_id":"SRP","line":6,"station_name":"Serpong","is_transit":false,"time":4},{"station_name":"Cisauk","time":4,"i_lat":-6.32484,"station_id":"CSK","line":3,"transit":false,"is_transit":false,"i_long":106.640411,"distance":1784},{"transit":false,"time":4,"line":3,"station_id":"CC","distance":2519,"i_long":106.617853,"is_transit":false,"i_lat":-6.329547,"station_name":"Cicayur"},{"i_lat":-6.3441410000000005,"station_id":"PRP","is_transit":false,"time":8,"line":6,"distance":5968,"station_name":"Parung Panjang","i_long":106.568863,"transit":false}]]}