{"data":[[{"i_long":106.939679,"is_transit":false,"i_lat":-6.217455,"time":0,"distance":0,"station_name":"Klenderbaru","line":1,"station_id":"KLDB","transit":false},{"is_transit":false,"transit":false,"station_name":"Buaran","station_id":"BUA","i_long":106.922662,"line":1,"time":1,"i_lat":-6.215568,"distance":1305},{"i_long":106.899548,"station_name":"Klender","station_id":"KLD","line":1,"is_transit":false,"transit":false,"i_lat":-6.2135,"time":2,"distance":3100},{"time":3,"distance":3395,"is_transit":true,"station_name":"Jatinegara","transit":true,"i_lat":-6.215091,"i_long":106.86807400000001,"line":1,"station_id":"JNG"},{"time":2,"station_name":"Pondok Jati","i_long":106.861737,"i_lat":-6.209188,"station_id":"POK","is_transit":false,"distance":1236,"transit":false,"line":11},{"station_id":"KMT","time":2,"transit":false,"is_transit":false,"line":11,"station_name":"Kramat","i_lat":-6.193792,"distance":1829,"i_long":106.855437},{"i_lat":-6.185975,"time":1,"station_name":"Gang Sentiong","is_transit":false,"station_id":"GST","transit":false,"i_long":106.850107,"line":11,"distance":973},{"line":11,"station_name":"Pasar Senen","transit":false,"i_lat":-6.174784,"is_transit":false,"distance":1567,"station_id":"PSE","time":8,"i_long":106.84368},{"i_long":106.839204,"line":11,"is_transit":false,"distance":1436,"station_name":"Kemayoran","i_lat":-6.161728,"station_id":"KMO","transit":false,"time":4}],[{"i_long":106.939679,"distance":0,"time":0,"is_transit":false,"line":1,"station_id":"KLDB","transit":false,"i_lat":-6.217455,"station_name":"Klenderbaru"},{"transit":false,"i_lat":-6.215568,"time":1,"i_long":106.922662,"is_transit":false,"distance":1305,"station_name":"Buaran","station_id":"BUA","line":1},{"distance":3100,"line":1,"i_lat":-6.2135,"station_id":"KLD","is_transit":false,"transit":false,"i_long":106.899548,"time":2,"station_name":"Klender"},{"i_long":106.86807400000001,"distance":3395,"is_transit":false,"station_name":"Jatinegara","i_lat":-6.215091,"line":1,"station_id":"JNG","transit":false,"time":3},{"time":2,"station_name":"Matraman","i_lat":-6.212485,"i_long":106.858896,"is_transit":false,"station_id":"MTR","line":1,"distance":1377,"transit":false},{"distance":1275,"time":2,"station_name":"Manggarai","i_long":106.84912,"station_id":"MRI","transit":false,"i_lat":-6.209883,"is_transit":false,"line":2},{"transit":false,"i_long":106.822649,"station_id":"SUD","is_transit":false,"time":4,"station_name":"Sudirman","distance":3186,"i_lat":-6.202263,"line":1},{"distance":280,"time":1,"transit":false,"is_transit":false,"station_id":"SUDB","line":1,"station_name":"Sudirman Baru","i_lat":-6.201433,"i_long":106.819881},{"station_id":"KAT","i_lat":-6.20132,"distance":471,"is_transit":false,"line":1,"transit":false,"i_long":106.816351,"time":1,"station_name":"Karet"},{"distance":2029,"station_id":"THB","transit":false,"i_lat":-6.185545,"i_long":106.811091,"time":5,"is_transit":false,"line":1,"station_name":"Tanah Abang"},{"transit":false,"time":8,"station_id":"DU","i_lat":-6.155215,"line":1,"distance":3632,"station_name":"Duri","i_long":106.800832,"is_transit":false},{"i_long":106.79867,"distance":1230,"transit":false,"i_lat":-6.144674,"is_transit":false,"station_id":"AK","time":4,"line":1,"station_name":"Angke"},{"is_transit":true,"distance":4102,"i_long":106.826365,"line":4,"station_name":"Kampung Bandan","transit":true,"time":9,"i_lat":-6.132549,"station_id":"KPB"},{"i_long":106.836569,"i_lat":-6.14505,"transit":false,"time":3,"is_transit":false,"distance":1444,"station_id":"RJW","line":11,"station_name":"Rajawali"},{"i_lat":-6.161728,"station_id":"KMO","i_long":106.839204,"station_name":"Kemayoran","transit":false,"line":11,"distance":1901,"time":5,"is_transit":false}],[{"time":0,"station_id":"KLDB","station_name":"Klenderbaru","i_lat":-6.217455,"transit":false,"is_transit":false,"line":1,"i_long":106.939679,"distance":0},{"distance":1305,"i_lat":-6.215568,"time":1,"is_transit":false,"i_long":106.922662,"station_name":"Buaran","transit":false,"line":1,"station_id":"BUA"},{"time":2,"distance":3100,"line":1,"i_long":106.899548,"is_transit":false,"station_id":"KLD","station_name":"Klender","transit":false,"i_lat":-6.2135},{"time":3,"transit":false,"distance":3395,"station_id":"JNG","i_long":106.86807400000001,"is_transit":false,"i_lat":-6.215091,"line":1,"station_name":"Jatinegara"},{"time":2,"i_long":106.858896,"station_name":"Matraman","i_lat":-6.212485,"line":1,"transit":false,"station_id":"MTR","distance":1377,"is_transit":false},{"time":2,"transit":true,"station_name":"Manggarai","line":2,"i_lat":-6.209883,"station_id":"MRI","is_transit":true,"distance":1275,"i_long":106.84912},{"line":2,"station_name":"Cikini","time":4,"is_transit":false,"distance":1590,"i_lat":-6.198556,"transit":false,"station_id":"CKI","i_long":106.840169},{"time":3,"station_name":"Gondangdia","i_lat":-6.186295,"i_long":106.832183,"station_id":"GDD","line":2,"transit":false,"is_transit":false,"distance":1750},{"distance":2015,"line":2,"time":4,"transit":false,"i_lat":-6.166716,"is_transit":false,"station_name":"Juanda","station_id":"JUA","i_long":106.828284},{"time":2,"is_transit":false,"line":2,"i_long":106.827103,"station_id":"SW","transit":false,"i_lat":-6.160725,"station_name":"Sawah Besar","distance":1149},{"transit":false,"time":2,"i_lat":-6.149769,"i_long":106.82482,"station_name":"Manggabesar","distance":906,"station_id":"MGB","is_transit":false,"line":2},{"station_name":"Jayakarta","i_long":106.820901,"line":2,"station_id":"JAY","distance":1080,"transit":false,"i_lat":-6.141205,"is_transit":false,"time":2},{"i_lat":-6.137569,"distance":1264,"transit":true,"i_long":106.812439,"line":2,"station_id":"JAKK","is_transit":true,"time":4,"station_name":"Jakarta Kota"},{"line":4,"i_lat":-6.132549,"time":3,"distance":1364,"i_long":106.826365,"station_id":"KPB","station_name":"Kampung Bandan","is_transit":true,"transit":true},{"i_lat":-6.14505,"line":11,"station_name":"Rajawali","is_transit":false,"i_long":106.836569,"distance":1444,"station_id":"RJW","transit":false,"time":3},{"transit":false,"i_long":106.839204,"distance":1901,"station_id":"KMO","time":5,"is_transit":false,"station_name":"Kemayoran","i_lat":-6.161728,"line":11}]]}