{"data":[[{"station_name":"Klenderbaru","is_transit":false,"transit":false,"i_lat":-6.217455,"line":1,"i_long":106.939679,"station_id":"KLDB","distance":0,"time":0},{"i_lat":-6.215568,"station_id":"BUA","i_long":106.922662,"time":1,"transit":false,"is_transit":false,"line":1,"distance":1305,"station_name":"Buaran"},{"time":2,"distance":3100,"station_id":"KLD","station_name":"Klender","transit":false,"i_long":106.899548,"line":1,"is_transit":false,"i_lat":-6.2135},{"distance":3395,"station_name":"Jatinegara","station_id":"JNG","time":3,"transit":false,"i_lat":-6.215091,"is_transit":false,"i_long":106.86807400000001,"line":1},{"station_id":"MTR","distance":1377,"line":1,"transit":false,"is_transit":false,"time":2,"i_lat":-6.212485,"i_long":106.858896,"station_name":"Matraman"},{"station_id":"MRI","i_lat":-6.209883,"i_long":106.84912,"station_name":"Manggarai","line":2,"is_transit":false,"distance":1275,"time":2,"transit":false},{"station_id":"SUD","line":1,"distance":3186,"i_long":106.822649,"time":4,"is_transit":false,"station_name":"Sudirman","transit":false,"i_lat":-6.202263},{"distance":280,"i_lat":-6.201433,"line":1,"station_name":"Sudirman Baru","i_long":106.819881,"is_transit":false,"transit":false,"time":1,"station_id":"SUDB"},{"time":1,"i_lat":-6.20132,"station_id":"KAT","i_long":106.816351,"transit":false,"distance":471,"station_name":"Karet","line":1,"is_transit":false},{"i_long":106.811091,"line":1,"station_id":"THB","is_transit":true,"time":5,"transit":true,"station_name":"Tanah Abang","distance":2029,"i_lat":-6.185545},{"time":6,"station_id":"PLM","station_name":"Palmerah","line":6,"transit":false,"i_lat":-6.207404,"is_transit":false,"i_long":106.79689,"distance":3191},{"station_name":"Kebayoran","time":7,"station_id":"KBY","is_transit":false,"distance":3737,"i_lat":-6.237242,"transit":false,"i_long":106.780334,"line":6},{"line":6,"transit":false,"i_long":106.74273,"station_name":"Pondokranji","distance":6218,"is_transit":false,"station_id":"PDJ","time":8,"i_lat":-6.276362},{"is_transit":false,"distance":2179,"station_id":"JMU","line":6,"station_name":"Jurangmangu","transit":false,"time":3,"i_long":106.728916,"i_lat":-6.288927},{"i_lat":-6.296963,"transit":false,"is_transit":false,"line":6,"station_id":"SDM","distance":1994,"station_name":"Sudimara","time":4,"i_long":106.712277}],[{"station_name":"Klenderbaru","is_transit":false,"i_lat":-6.217455,"i_long":106.939679,"distance":0,"transit":false,"line":1,"station_id":"KLDB","time":0},{"is_transit":false,"i_long":106.922662,"distance":1305,"time":1,"i_lat":-6.215568,"station_id":"BUA","line":1,"transit":false,"station_name":"Buaran"},{"distance":3100,"time":2,"station_id":"KLD","is_transit":false,"transit":false,"i_lat":-6.2135,"i_long":106.899548,"station_name":"Klender","line":1},{"line":1,"distance":3395,"i_long":106.86807400000001,"transit":true,"time":3,"station_id":"JNG","is_transit":true,"i_lat":-6.215091,"station_name":"Jatinegara"},{"i_lat":-6.209188,"distance":1236,"station_id":"POK","transit":false,"is_transit":false,"station_name":"Pondok Jati","time":2,"i_long":106.861737,"line":11},{"time":2,"i_long":106.855437,"station_name":"Kramat","transit":false,"distance":1829,"i_lat":-6.193792,"line":11,"is_transit":false,"station_id":"KMT"},{"i_lat":-6.185975,"is_transit":false,"transit":false,"i_long":106.850107,"line":11,"distance":973,"station_name":"Gang Sentiong","time":1,"station_id":"GST"},{"i_long":106.84368,"is_transit":false,"time":8,"line":11,"station_name":"Pasar Senen","i_lat":-6.174784,"station_id":"PSE","transit":false,"distance":1567},{"station_name":"Kemayoran","line":11,"time":4,"station_id":"KMO","transit":false,"i_long":106.839204,"i_lat":-6.161728,"is_transit":false,"distance":1436},{"i_lat":-6.14505,"i_long":106.836569,"distance":1901,"line":11,"station_name":"Rajawali","is_transit":false,"station_id":"RJW","time":5,"transit":false},{"line":4,"i_long":106.826365,"station_name":"Kampung Bandan","transit":true,"i_lat":-6.132549,"station_id":"KPB","time":3,"is_transit":true,"distance":1444},{"station_name":"Angke","station_id":"AK","is_transit":false,"time":9,"i_lat":-6.144674,"i_long":106.79867,"distance":4102,"transit":false,"line":1},{"distance":1230,"i_long":106.800832,"i_lat":-6.155215,"transit":false,"time":4,"line":1,"station_id":"DU","station_name":"Duri","is_transit":false},{"time":8,"station_id":"THB","i_lat":-6.185545,"line":1,"is_transit":true,"transit":true,"distance":3632,"i_long":106.811091,"station_name":"Tanah Abang"},{"station_name":"Palmerah","transit":false,"time":6,"distance":3191,"station_id":"PLM","is_transit":false,"line":6,"i_lat":-6.207404,"i_long":106.79689},{"station_name":"Kebayoran","transit":false,"station_id":"KBY","time":7,"i_lat":-6.237242,"is_transit":false,"distance":3737,"i_long":106.780334,"line":6},{"distance":6218,"i_long":106.74273,"station_name":"Pondokranji","line":6,"transit":false,"time":8,"station_id":"PDJ","i_lat":-6.276362,"is_transit":false},{"is_transit":false,"time":3,"distance":2179,"transit":false,"i_long":106.728916,"station_id":"JMU","line":6,"i_lat":-6.288927,"station_name":"Jurangmangu"},{"station_name":"Sudimara","i_long":106.712277,"distance":1994,"station_id":"SDM","is_transit":false,"line":6,"i_lat":-6.296963,"time":4,"transit":false}],[{"i_long":106.939679,"time":0,"i_lat":-6.217455,"station_id":"KLDB","transit":false,"is_transit":false,"line":1,"distance":0,"station_name":"Klenderbaru"},{"is_transit":false,"distance":1305,"time":1,"i_long":106.922662,"transit":false,"station_name":"Buaran","i_lat":-6.215568,"line":1,"station_id":"BUA"},{"is_transit":false,"line":1,"distance":3100,"time":2,"transit":false,"i_long":106.899548,"station_name":"Klender","station_id":"KLD","i_lat":-6.2135},{"line":1,"distance":3395,"i_lat":-6.215091,"station_name":"Jatinegara","i_long":106.86807400000001,"time":3,"is_transit":false,"station_id":"JNG","transit":false},{"distance":1377,"station_id":"MTR","transit":false,"line":1,"i_long":106.858896,"is_transit":false,"station_name":"Matraman","i_lat":-6.212485,"time":2},{"is_transit":true,"time":2,"distance":1275,"line":2,"station_id":"MRI","i_lat":-6.209883,"transit":true,"station_name":"Manggarai","i_long":106.84912},{"station_id":"CKI","distance":1590,"is_transit":false,"i_lat":-6.198556,"transit":false,"station_name":"Cikini","time":4,"line":2,"i_long":106.840169},{"distance":1750,"time":3,"transit":false,"line":2,"station_id":"GDD","is_transit":false,"i_long":106.832183,"station_name":"Gondangdia","i_lat":-6.186295},{"is_transit":false,"i_lat":-6.166716,"transit":false,"line":2,"i_long":106.828284,"station_id":"JUA","time":4,"distance":2015,"station_name":"Juanda"},{"distance":1149,"i_long":106.827103,"time":2,"transit":false,"i_lat":-6.160725,"line":2,"station_name":"Sawah Besar","station_id":"SW","is_transit":false},{"is_transit":false,"distance":906,"line":2,"transit":false,"i_lat":-6.149769,"i_long":106.82482,"station_id":"MGB","station_name":"Manggabesar","time":2},{"transit":false,"distance":1080,"time":2,"i_lat":-6.141205,"i_long":106.820901,"station_name":"Jayakarta","is_transit":false,"line":2,"station_id":"JAY"},{"distance":1264,"transit":true,"is_transit":true,"i_lat":-6.137569,"i_long":106.812439,"line":2,"station_name":"Jakarta Kota","station_id":"JAKK","time":4},{"transit":true,"line":4,"time":3,"station_id":"KPB","is_transit":true,"i_lat":-6.132549,"station_name":"Kampung Bandan","i_long":106.826365,"distance":1364},{"distance":4102,"line":1,"station_id":"AK","time":9,"is_transit":false,"i_long":106.79867,"transit":false,"station_name":"Angke","i_lat":-6.144674},{"time":4,"distance":1230,"station_name":"Duri","station_id":"DU","transit":false,"i_lat":-6.155215,"i_long":106.800832,"line":1,"is_transit":false},{"line":1,"distance":3632,"i_lat":-6.185545,"station_name":"Tanah Abang","time":8,"i_long":106.811091,"transit":true,"is_transit":true,"station_id":"THB"},{"i_lat":-6.207404,"line":6,"i_long":106.79689,"is_transit":false,"transit":false,"time":6,"station_id":"PLM","distance":3191,"station_name":"Palmerah"},{"station_name":"Kebayoran","is_transit":false,"transit":false,"station_id":"KBY","i_lat":-6.237242,"distance":3737,"time":7,"i_long":106.780334,"line":6},{"station_id":"PDJ","i_lat":-6.276362,"distance":6218,"transit":false,"is_transit":false,"time":8,"station_name":"Pondokranji","i_long":106.74273,"line":6},{"time":3,"i_long":106.728916,"i_lat":-6.288927,"station_id":"JMU","line":6,"distance":2179,"station_name":"Jurangmangu","transit":false,"is_transit":false},{"time":4,"station_name":"Sudimara","i_lat":-6.296963,"line":6,"transit":false,"is_transit":false,"distance":1994,"station_id":"SDM","i_long":106.712277}],[{"i_lat":-6.217455,"transit":false,"distance":0,"station_id":"KLDB","time":0,"station_name":"Klenderbaru","line":1,"i_long":106.939679,"is_transit":false},{"line":1,"transit":false,"i_long":106.922662,"station_id":"BUA","station_name":"Buaran","is_transit":false,"time":1,"distance":1305,"i_lat":-6.215568},{"transit":false,"i_lat":-6.2135,"is_transit":false,"line":1,"station_id":"KLD","time":2,"distance":3100,"i_long":106.899548,"station_name":"Klender"},{"is_transit":true,"distance":3395,"station_id":"JNG","time":3,"i_lat":-6.215091,"station_name":"Jatinegara","i_long":106.86807400000001,"transit":true,"line":1},{"transit":false,"is_transit":false,"time":2,"distance":1236,"station_id":"POK","line":11,"i_long":106.861737,"i_lat":-6.209188,"station_name":"Pondok Jati"},{"station_id":"KMT","time":2,"is_transit":false,"i_lat":-6.193792,"distance":1829,"station_name":"Kramat","i_long":106.855437,"transit":false,"line":11},{"station_id":"GST","station_name":"Gang Sentiong","time":1,"is_transit":false,"i_lat":-6.185975,"i_long":106.850107,"transit":false,"line":11,"distance":973},{"i_lat":-6.174784,"time":8,"distance":1567,"station_id":"PSE","transit":false,"line":11,"station_name":"Pasar Senen","is_transit":false,"i_long":106.84368},{"line":11,"transit":false,"distance":1436,"time":4,"station_id":"KMO","i_long":106.839204,"i_lat":-6.161728,"station_name":"Kemayoran","is_transit":false},{"time":5,"transit":false,"station_name":"Rajawali","line":11,"i_lat":-6.14505,"i_long":106.836569,"is_transit":false,"distance":1901,"station_id":"RJW"},{"time":3,"station_name":"Kampung Bandan","distance":1444,"i_lat":-6.132549,"station_id":"KPB","is_transit":true,"transit":true,"i_long":106.826365,"line":4},{"distance":1364,"transit":true,"station_name":"Jakarta Kota","time":3,"station_id":"JAKK","is_transit":true,"i_lat":-6.137569,"line":2,"i_long":106.812439},{"station_name":"Jayakarta","i_lat":-6.141205,"is_transit":false,"time":4,"transit":false,"line":2,"i_long":106.820901,"station_id":"JAY","distance":1264},{"line":2,"is_transit":false,"distance":1080,"transit":false,"time":2,"i_lat":-6.149769,"i_long":106.82482,"station_name":"Manggabesar","station_id":"MGB"},{"station_id":"SW","is_transit":false,"transit":false,"station_name":"Sawah Besar","line":2,"distance":906,"time":2,"i_lat":-6.160725,"i_long":106.827103},{"i_long":106.828284,"i_lat":-6.166716,"line":2,"station_id":"JUA","time":2,"distance":1149,"station_name":"Juanda","is_transit":false,"transit":false},{"station_id":"GDD","distance":2015,"is_transit":false,"station_name":"Gondangdia","transit":false,"i_long":106.832183,"line":2,"time":4,"i_lat":-6.186295},{"time":3,"i_lat":-6.198556,"transit":false,"line":2,"distance":1750,"station_id":"CKI","i_long":106.840169,"station_name":"Cikini","is_transit":false},{"line":2,"station_id":"MRI","station_name":"Manggarai","is_transit":true,"distance":1590,"i_long":106.84912,"transit":true,"time":4,"i_lat":-6.209883},{"is_transit":false,"station_id":"SUD","time":4,"line":1,"distance":3186,"station_name":"Sudirman","transit":false,"i_lat":-6.202263,"i_long":106.822649},{"station_id":"SUDB","is_transit":false,"transit":false,"i_long":106.819881,"line":1,"station_name":"Sudirman Baru","time":1,"i_lat":-6.201433,"distance":280},{"line":1,"station_name":"Karet","is_transit":false,"i_lat":-6.20132,"transit":false,"station_id":"KAT","distance":471,"i_long":106.816351,"time":1},{"i_long":106.811091,"transit":true,"time":5,"i_lat":-6.185545,"line":1,"distance":2029,"is_transit":true,"station_id":"THB","station_name":"Tanah Abang"},{"is_transit":false,"distance":3191,"i_long":106.79689,"i_lat":-6.207404,"station_name":"Palmerah","time":6,"line":6,"station_id":"PLM","transit":false},{"i_lat":-6.237242,"line":6,"i_long":106.780334,"time":7,"transit":false,"station_id":"KBY","distance":3737,"station_name":"Kebayoran","is_transit":false},{"is_transit":false,"i_lat":-6.276362,"transit":false,"distance":6218,"station_name":"Pondokranji","station_id":"PDJ","time":8,"i_long":106.74273,"line":6},{"station_id":"JMU","transit":false,"i_lat":-6.288927,"distance":2179,"line":6,"i_long":106.728916,"is_transit":false,"station_name":"Jurangmangu","time":3},{"station_id":"SDM","time":4,"distance":1994,"transit":false,"line":6,"is_transit":false,"station_name":"Sudimara","i_lat":-6.296963,"i_long":106.712277}]]}