{"data":[[{"time":0,"i_lat":-6.217455,"is_transit":false,"transit":false,"station_id":"KLDB","distance":0,"station_name":"Klenderbaru","i_long":106.939679,"line":1},{"distance":1305,"is_transit":false,"i_lat":-6.215568,"time":1,"station_id":"BUA","transit":false,"i_long":106.922662,"line":0,"station_name":"Buaran"},{"i_lat":-6.2135,"distance":3100,"is_transit":false,"station_id":"KLD","station_name":"Klender","transit":false,"time":2,"i_long":106.899548,"line":1},{"distance":3395,"time":3,"is_transit":true,"i_lat":-6.215091,"line":0,"station_name":"Jatinegara","station_id":"JNG","i_long":106.86807400000001,"transit":false},{"i_lat":-6.212485,"distance":1377,"i_long":106.858896,"is_transit":false,"station_id":"MTR","time":2,"transit":false,"line":1,"station_name":"Matraman"},{"distance":1275,"transit":false,"i_long":106.84912,"line":0,"i_lat":-6.209883,"time":2,"station_id":"MRI","is_transit":true,"station_name":"Manggarai"},{"distance":3186,"is_transit":false,"time":4,"i_lat":-6.202263,"line":1,"transit":false,"station_id":"SUD","i_long":106.822649,"station_name":"Sudirman"},{"is_transit":false,"station_id":"SUDB","station_name":"Sudirman Baru","transit":false,"line":1,"i_long":106.819881,"time":1,"distance":280,"i_lat":-6.201433}],[{"station_id":"KLDB","station_name":"Klenderbaru","distance":0,"transit":false,"i_lat":-6.217455,"is_transit":false,"time":0,"line":1,"i_long":106.939679},{"station_name":"Buaran","distance":1305,"i_lat":-6.215568,"station_id":"BUA","is_transit":false,"time":1,"transit":false,"i_long":106.922662,"line":0},{"time":2,"distance":3100,"line":1,"station_name":"Klender","is_transit":false,"transit":false,"station_id":"KLD","i_lat":-6.2135,"i_long":106.899548},{"transit":true,"station_id":"JNG","is_transit":true,"station_name":"Jatinegara","distance":3395,"i_lat":-6.215091,"i_long":106.86807400000001,"time":3,"line":0},{"line":11,"i_long":106.861737,"is_transit":false,"station_id":"POK","time":2,"distance":1236,"station_name":"Pondok Jati","transit":false,"i_lat":-6.209188},{"transit":false,"i_long":106.855437,"is_transit":false,"station_name":"Kramat","station_id":"KMT","distance":1829,"i_lat":-6.193792,"line":11,"time":2},{"time":1,"station_name":"Gang Sentiong","station_id":"GST","i_long":106.850107,"line":11,"transit":false,"distance":973,"i_lat":-6.185975,"is_transit":false},{"time":8,"transit":false,"i_long":106.84368,"line":11,"i_lat":-6.174784,"station_id":"PSE","station_name":"Pasar Senen","distance":1567,"is_transit":false},{"time":4,"station_id":"KMO","is_transit":false,"station_name":"Kemayoran","transit":false,"i_lat":-6.161728,"i_long":106.839204,"line":11,"distance":1436},{"time":5,"station_id":"RJW","transit":false,"i_long":106.836569,"station_name":"Rajawali","line":11,"is_transit":false,"i_lat":-6.14505,"distance":1901},{"line":0,"transit":true,"station_name":"Kampung Bandan","time":3,"distance":1444,"station_id":"KPB","is_transit":true,"i_lat":-6.132549,"i_long":106.826365},{"i_lat":-6.144674,"i_long":106.79867,"station_name":"Angke","time":9,"transit":false,"is_transit":false,"station_id":"AK","line":0,"distance":4102},{"i_long":106.800832,"line":1,"station_id":"DU","station_name":"Duri","is_transit":true,"distance":1230,"transit":true,"i_lat":-6.155215,"time":4},{"transit":false,"station_id":"THB","is_transit":true,"i_lat":-6.185545,"i_long":106.811091,"time":8,"distance":3632,"line":1,"station_name":"Tanah Abang"},{"time":5,"line":1,"i_lat":-6.20132,"is_transit":false,"station_name":"Karet","distance":2029,"transit":false,"i_long":106.816351,"station_id":"KAT"},{"transit":false,"i_long":106.819881,"station_name":"Sudirman Baru","station_id":"SUDB","time":1,"is_transit":false,"line":1,"distance":471,"i_lat":-6.201433}],[{"distance":0,"transit":false,"station_name":"Klenderbaru","i_long":106.939679,"i_lat":-6.217455,"time":0,"line":1,"station_id":"KLDB","is_transit":false},{"line":0,"station_id":"BUA","distance":1305,"transit":false,"i_lat":-6.215568,"time":1,"i_long":106.922662,"is_transit":false,"station_name":"Buaran"},{"i_long":106.899548,"station_id":"KLD","distance":3100,"transit":false,"time":2,"line":1,"i_lat":-6.2135,"is_transit":false,"station_name":"Klender"},{"distance":3395,"is_transit":true,"line":0,"i_lat":-6.215091,"station_id":"JNG","i_long":106.86807400000001,"transit":false,"time":3,"station_name":"Jatinegara"},{"station_id":"MTR","line":1,"time":2,"transit":false,"distance":1377,"station_name":"Matraman","i_long":106.858896,"is_transit":false,"i_lat":-6.212485},{"i_long":106.84912,"line":0,"i_lat":-6.209883,"is_transit":true,"time":2,"station_name":"Manggarai","distance":1275,"station_id":"MRI","transit":true},{"i_lat":-6.198556,"is_transit":false,"distance":1590,"i_long":106.840169,"station_id":"CKI","transit":false,"station_name":"Cikini","time":4,"line":0},{"station_id":"GDD","distance":1750,"transit":false,"time":3,"i_long":106.832183,"i_lat":-6.186295,"line":2,"is_transit":false,"station_name":"Gondangdia"},{"station_name":"Juanda","is_transit":false,"distance":2015,"i_long":106.828284,"line":2,"transit":false,"i_lat":-6.166716,"station_id":"JUA","time":4},{"station_id":"SW","is_transit":false,"transit":false,"time":2,"i_long":106.827103,"line":2,"i_lat":-6.160725,"distance":1149,"station_name":"Sawah Besar"},{"is_transit":false,"line":2,"time":2,"station_name":"Manggabesar","distance":906,"i_lat":-6.149769,"station_id":"MGB","transit":false,"i_long":106.82482},{"station_name":"Jayakarta","is_transit":false,"transit":false,"line":7,"i_long":106.820901,"i_lat":-6.141205,"time":2,"distance":1080,"station_id":"JAY"},{"station_name":"Jakarta Kota","i_lat":-6.137569,"distance":1264,"i_long":106.812439,"transit":true,"line":0,"time":4,"station_id":"JAKK","is_transit":true},{"i_lat":-6.132549,"station_id":"KPB","i_long":106.826365,"line":0,"transit":false,"distance":1364,"time":3,"station_name":"Kampung Bandan","is_transit":true},{"time":9,"is_transit":false,"station_name":"Angke","transit":false,"i_lat":-6.144674,"distance":4102,"i_long":106.79867,"line":0,"station_id":"AK"},{"distance":1230,"i_lat":-6.155215,"time":4,"line":1,"station_name":"Duri","station_id":"DU","transit":true,"is_transit":true,"i_long":106.800832},{"station_name":"Tanah Abang","station_id":"THB","is_transit":true,"i_lat":-6.185545,"line":1,"time":8,"distance":3632,"transit":false,"i_long":106.811091},{"time":5,"station_id":"KAT","transit":false,"distance":2029,"i_lat":-6.20132,"i_long":106.816351,"is_transit":false,"station_name":"Karet","line":1},{"i_long":106.819881,"is_transit":false,"i_lat":-6.201433,"line":1,"distance":471,"transit":false,"station_id":"SUDB","time":1,"station_name":"Sudirman Baru"}],[{"station_name":"Klenderbaru","station_id":"KLDB","line":1,"i_lat":-6.217455,"distance":0,"i_long":106.939679,"time":0,"is_transit":false,"transit":false},{"station_name":"Buaran","time":1,"i_lat":-6.215568,"line":0,"distance":1305,"i_long":106.922662,"station_id":"BUA","is_transit":false,"transit":false},{"station_id":"KLD","station_name":"Klender","is_transit":false,"i_lat":-6.2135,"transit":false,"i_long":106.899548,"time":2,"distance":3100,"line":1},{"line":0,"is_transit":true,"station_id":"JNG","distance":3395,"time":3,"i_lat":-6.215091,"station_name":"Jatinegara","transit":true,"i_long":106.86807400000001},{"station_name":"Pondok Jati","i_long":106.861737,"station_id":"POK","transit":false,"time":2,"i_lat":-6.209188,"distance":1236,"line":11,"is_transit":false},{"distance":1829,"transit":false,"i_long":106.855437,"station_name":"Kramat","i_lat":-6.193792,"station_id":"KMT","time":2,"is_transit":false,"line":11},{"i_lat":-6.185975,"line":11,"time":1,"transit":false,"station_id":"GST","distance":973,"is_transit":false,"i_long":106.850107,"station_name":"Gang Sentiong"},{"is_transit":false,"station_id":"PSE","i_long":106.84368,"station_name":"Pasar Senen","distance":1567,"line":11,"transit":false,"time":8,"i_lat":-6.174784},{"station_name":"Kemayoran","distance":1436,"line":11,"transit":false,"is_transit":false,"station_id":"KMO","time":4,"i_long":106.839204,"i_lat":-6.161728},{"station_name":"Rajawali","time":5,"station_id":"RJW","transit":false,"i_long":106.836569,"distance":1901,"i_lat":-6.14505,"is_transit":false,"line":11},{"is_transit":true,"distance":1444,"station_id":"KPB","i_lat":-6.132549,"line":0,"i_long":106.826365,"time":3,"station_name":"Kampung Bandan","transit":true},{"transit":true,"station_name":"Jakarta Kota","i_lat":-6.137569,"i_long":106.812439,"time":3,"is_transit":true,"line":0,"distance":1364,"station_id":"JAKK"},{"distance":1264,"i_long":106.820901,"transit":false,"time":4,"line":7,"station_name":"Jayakarta","i_lat":-6.141205,"station_id":"JAY","is_transit":false},{"line":2,"i_lat":-6.149769,"distance":1080,"time":2,"station_id":"MGB","i_long":106.82482,"transit":false,"station_name":"Manggabesar","is_transit":false},{"station_id":"SW","distance":906,"transit":false,"time":2,"station_name":"Sawah Besar","i_long":106.827103,"is_transit":false,"i_lat":-6.160725,"line":2},{"station_name":"Juanda","station_id":"JUA","is_transit":false,"transit":false,"i_lat":-6.166716,"line":2,"distance":1149,"time":2,"i_long":106.828284},{"time":4,"is_transit":false,"transit":false,"station_id":"GDD","station_name":"Gondangdia","i_lat":-6.186295,"line":2,"i_long":106.832183,"distance":2015},{"time":3,"is_transit":false,"distance":1750,"transit":false,"i_long":106.840169,"line":0,"i_lat":-6.198556,"station_id":"CKI","station_name":"Cikini"},{"transit":true,"i_long":106.84912,"is_transit":true,"station_name":"Manggarai","time":4,"station_id":"MRI","i_lat":-6.209883,"line":0,"distance":1590},{"i_long":106.822649,"time":4,"station_name":"Sudirman","is_transit":false,"distance":3186,"station_id":"SUD","i_lat":-6.202263,"transit":false,"line":1},{"transit":false,"station_name":"Sudirman Baru","i_lat":-6.201433,"distance":280,"i_long":106.819881,"is_transit":false,"time":1,"station_id":"SUDB","line":1}]]}