{"data":[[{"i_lat":-6.217455,"is_transit":false,"transit":false,"time":0,"distance":0,"station_id":"KLDB","i_long":106.939679,"station_name":"Klenderbaru","line":1},{"time":1,"is_transit":false,"station_name":"Buaran","station_id":"BUA","line":0,"i_long":106.922662,"transit":false,"distance":1305,"i_lat":-6.215568},{"line":1,"station_name":"Klender","i_long":106.899548,"is_transit":false,"station_id":"KLD","transit":false,"time":2,"i_lat":-6.2135,"distance":3100},{"i_long":106.86807400000001,"station_id":"JNG","time":3,"distance":3395,"line":0,"station_name":"Jatinegara","transit":false,"i_lat":-6.215091,"is_transit":true},{"time":2,"i_lat":-6.212485,"transit":false,"station_name":"Matraman","i_long":106.858896,"is_transit":false,"distance":1377,"station_id":"MTR","line":1},{"is_transit":true,"station_name":"Manggarai","i_lat":-6.209883,"station_id":"MRI","transit":false,"distance":1275,"i_long":106.84912,"line":0,"time":2},{"station_id":"SUD","distance":3186,"is_transit":false,"i_lat":-6.202263,"station_name":"Sudirman","transit":false,"i_long":106.822649,"line":1,"time":4},{"station_name":"Sudirman Baru","line":1,"transit":false,"distance":280,"is_transit":false,"i_long":106.819881,"time":1,"i_lat":-6.201433,"station_id":"SUDB"},{"i_lat":-6.20132,"i_long":106.816351,"is_transit":false,"time":1,"distance":471,"line":1,"station_name":"Karet","station_id":"KAT","transit":false},{"is_transit":true,"line":1,"i_lat":-6.185545,"transit":true,"time":5,"station_id":"THB","distance":2029,"station_name":"Tanah Abang","i_long":106.811091},{"station_name":"Palmerah","i_lat":-6.207404,"is_transit":false,"line":6,"station_id":"PLM","time":6,"transit":false,"distance":3191,"i_long":106.79689},{"line":6,"station_name":"Kebayoran","station_id":"KBY","time":7,"i_long":106.780334,"is_transit":false,"transit":false,"distance":3737,"i_lat":-6.237242},{"time":8,"station_id":"PDJ","is_transit":false,"i_long":106.74273,"transit":false,"distance":6218,"i_lat":-6.276362,"station_name":"Pondokranji","line":6},{"line":6,"station_id":"JMU","i_lat":-6.288927,"station_name":"Jurangmangu","is_transit":false,"distance":2179,"transit":false,"time":3,"i_long":106.728916},{"time":4,"station_id":"SDM","station_name":"Sudimara","i_lat":-6.296963,"transit":false,"i_long":106.712277,"line":6,"distance":1994,"is_transit":false},{"distance":4566,"time":6,"station_id":"RU","station_name":"Rawa Buntu","i_lat":-6.314823,"is_transit":false,"transit":false,"i_long":106.675475,"line":6},{"station_name":"Serpong","station_id":"SRP","is_transit":false,"i_lat":-6.319871,"i_long":106.66566,"transit":false,"line":6,"distance":2413,"time":4},{"i_lat":-6.32484,"is_transit":false,"time":4,"station_id":"CSK","station_name":"Cisauk","i_long":106.640411,"line":0,"distance":1784,"transit":false},{"transit":false,"is_transit":false,"station_id":"CC","i_long":106.617853,"station_name":"Cicayur","line":0,"i_lat":-6.329547,"time":4,"distance":2519},{"i_lat":-6.3441410000000005,"is_transit":false,"transit":false,"station_name":"Parung Panjang","distance":5968,"time":8,"i_long":106.568863,"station_id":"PRP","line":6}],[{"time":0,"station_id":"KLDB","i_lat":-6.217455,"station_name":"Klenderbaru","is_transit":false,"distance":0,"i_long":106.939679,"transit":false,"line":1},{"transit":false,"station_name":"Buaran","is_transit":false,"i_long":106.922662,"distance":1305,"i_lat":-6.215568,"line":0,"time":1,"station_id":"BUA"},{"i_lat":-6.2135,"transit":false,"line":1,"time":2,"station_id":"KLD","i_long":106.899548,"distance":3100,"is_transit":false,"station_name":"Klender"},{"is_transit":true,"transit":true,"distance":3395,"line":0,"time":3,"station_id":"JNG","i_lat":-6.215091,"station_name":"Jatinegara","i_long":106.86807400000001},{"station_id":"POK","i_lat":-6.209188,"line":11,"is_transit":false,"time":2,"i_long":106.861737,"station_name":"Pondok Jati","distance":1236,"transit":false},{"station_name":"Kramat","i_long":106.855437,"is_transit":false,"transit":false,"station_id":"KMT","time":2,"line":11,"i_lat":-6.193792,"distance":1829},{"i_lat":-6.185975,"station_name":"Gang Sentiong","time":1,"transit":false,"distance":973,"station_id":"GST","is_transit":false,"line":11,"i_long":106.850107},{"station_name":"Pasar Senen","distance":1567,"line":11,"time":8,"is_transit":false,"transit":false,"i_long":106.84368,"station_id":"PSE","i_lat":-6.174784},{"transit":false,"time":4,"is_transit":false,"i_lat":-6.161728,"i_long":106.839204,"station_id":"KMO","station_name":"Kemayoran","distance":1436,"line":11},{"transit":false,"distance":1901,"i_lat":-6.14505,"station_name":"Rajawali","time":5,"station_id":"RJW","i_long":106.836569,"is_transit":false,"line":11},{"distance":1444,"station_name":"Kampung Bandan","station_id":"KPB","i_long":106.826365,"line":0,"time":3,"transit":true,"i_lat":-6.132549,"is_transit":true},{"transit":false,"line":0,"i_lat":-6.144674,"distance":4102,"is_transit":false,"time":9,"station_id":"AK","station_name":"Angke","i_long":106.79867},{"line":1,"transit":true,"is_transit":true,"station_id":"DU","i_long":106.800832,"time":4,"i_lat":-6.155215,"distance":1230,"station_name":"Duri"},{"i_long":106.811091,"station_name":"Tanah Abang","line":1,"distance":3632,"is_transit":true,"time":8,"transit":true,"station_id":"THB","i_lat":-6.185545},{"line":6,"is_transit":false,"i_long":106.79689,"time":6,"station_name":"Palmerah","distance":3191,"i_lat":-6.207404,"transit":false,"station_id":"PLM"},{"line":6,"distance":3737,"is_transit":false,"i_lat":-6.237242,"transit":false,"i_long":106.780334,"station_id":"KBY","time":7,"station_name":"Kebayoran"},{"distance":6218,"station_id":"PDJ","i_lat":-6.276362,"line":6,"i_long":106.74273,"is_transit":false,"station_name":"Pondokranji","transit":false,"time":8},{"time":3,"line":6,"i_lat":-6.288927,"i_long":106.728916,"station_id":"JMU","station_name":"Jurangmangu","transit":false,"distance":2179,"is_transit":false},{"line":6,"distance":1994,"i_long":106.712277,"i_lat":-6.296963,"station_id":"SDM","time":4,"is_transit":false,"station_name":"Sudimara","transit":false},{"time":6,"station_name":"Rawa Buntu","i_lat":-6.314823,"line":6,"transit":false,"distance":4566,"is_transit":false,"station_id":"RU","i_long":106.675475},{"station_id":"SRP","i_lat":-6.319871,"i_long":106.66566,"line":6,"time":4,"distance":2413,"station_name":"Serpong","is_transit":false,"transit":false},{"i_long":106.640411,"transit":false,"station_name":"Cisauk","station_id":"CSK","distance":1784,"time":4,"is_transit":false,"i_lat":-6.32484,"line":0},{"time":4,"transit":false,"i_long":106.617853,"is_transit":false,"i_lat":-6.329547,"station_name":"Cicayur","station_id":"CC","line":0,"distance":2519},{"station_name":"Parung Panjang","station_id":"PRP","i_lat":-6.3441410000000005,"transit":false,"time":8,"distance":5968,"is_transit":false,"i_long":106.568863,"line":6}],[{"station_name":"Klenderbaru","time":0,"transit":false,"station_id":"KLDB","is_transit":false,"i_lat":-6.217455,"i_long":106.939679,"distance":0,"line":1},{"line":0,"distance":1305,"i_long":106.922662,"is_transit":false,"time":1,"i_lat":-6.215568,"transit":false,"station_name":"Buaran","station_id":"BUA"},{"station_id":"KLD","time":2,"line":1,"transit":false,"i_lat":-6.2135,"i_long":106.899548,"station_name":"Klender","distance":3100,"is_transit":false},{"is_transit":true,"station_name":"Jatinegara","transit":false,"i_long":106.86807400000001,"line":0,"distance":3395,"i_lat":-6.215091,"time":3,"station_id":"JNG"},{"transit":false,"i_long":106.858896,"time":2,"station_id":"MTR","line":1,"distance":1377,"station_name":"Matraman","i_lat":-6.212485,"is_transit":false},{"station_id":"MRI","line":0,"is_transit":true,"time":2,"i_long":106.84912,"distance":1275,"i_lat":-6.209883,"transit":true,"station_name":"Manggarai"},{"i_long":106.840169,"line":0,"distance":1590,"station_id":"CKI","station_name":"Cikini","is_transit":false,"i_lat":-6.198556,"time":4,"transit":false},{"i_lat":-6.186295,"station_id":"GDD","distance":1750,"i_long":106.832183,"time":3,"transit":false,"line":2,"is_transit":false,"station_name":"Gondangdia"},{"line":2,"station_name":"Juanda","is_transit":false,"distance":2015,"station_id":"JUA","transit":false,"i_long":106.828284,"time":4,"i_lat":-6.166716},{"distance":1149,"i_long":106.827103,"line":2,"transit":false,"station_name":"Sawah Besar","station_id":"SW","is_transit":false,"i_lat":-6.160725,"time":2},{"station_id":"MGB","i_lat":-6.149769,"time":2,"station_name":"Manggabesar","is_transit":false,"distance":906,"i_long":106.82482,"transit":false,"line":2},{"i_lat":-6.141205,"distance":1080,"station_id":"JAY","transit":false,"i_long":106.820901,"time":2,"station_name":"Jayakarta","is_transit":false,"line":7},{"station_id":"JAKK","i_lat":-6.137569,"station_name":"Jakarta Kota","i_long":106.812439,"is_transit":true,"line":0,"time":4,"transit":true,"distance":1264},{"is_transit":true,"transit":false,"station_id":"KPB","i_long":106.826365,"station_name":"Kampung Bandan","distance":1364,"line":0,"time":3,"i_lat":-6.132549},{"i_lat":-6.144674,"line":0,"i_long":106.79867,"station_id":"AK","station_name":"Angke","transit":false,"time":9,"is_transit":false,"distance":4102},{"station_id":"DU","is_transit":true,"transit":true,"time":4,"distance":1230,"i_lat":-6.155215,"i_long":106.800832,"station_name":"Duri","line":1},{"distance":3632,"time":8,"i_long":106.811091,"station_name":"Tanah Abang","is_transit":true,"line":1,"station_id":"THB","i_lat":-6.185545,"transit":true},{"transit":false,"i_lat":-6.207404,"station_name":"Palmerah","line":6,"distance":3191,"is_transit":false,"time":6,"i_long":106.79689,"station_id":"PLM"},{"is_transit":false,"transit":false,"i_lat":-6.237242,"i_long":106.780334,"station_name":"Kebayoran","line":6,"time":7,"distance":3737,"station_id":"KBY"},{"distance":6218,"line":6,"is_transit":false,"station_name":"Pondokranji","transit":false,"station_id":"PDJ","time":8,"i_long":106.74273,"i_lat":-6.276362},{"time":3,"station_name":"Jurangmangu","is_transit":false,"distance":2179,"transit":false,"station_id":"JMU","i_long":106.728916,"i_lat":-6.288927,"line":6},{"line":6,"station_name":"Sudimara","i_long":106.712277,"transit":false,"station_id":"SDM","i_lat":-6.296963,"is_transit":false,"distance":1994,"time":4},{"i_lat":-6.314823,"transit":false,"distance":4566,"line":6,"station_name":"Rawa Buntu","i_long":106.675475,"is_transit":false,"station_id":"RU","time":6},{"distance":2413,"is_transit":false,"transit":false,"station_id":"SRP","line":6,"i_lat":-6.319871,"i_long":106.66566,"time":4,"station_name":"Serpong"},{"i_lat":-6.32484,"station_id":"CSK","transit":false,"line":0,"is_transit":false,"station_name":"Cisauk","distance":1784,"i_long":106.640411,"time":4},{"station_id":"CC","time":4,"station_name":"Cicayur","distance":2519,"i_lat":-6.329547,"transit":false,"i_long":106.617853,"line":0,"is_transit":false},{"distance":5968,"station_id":"PRP","i_lat":-6.3441410000000005,"i_long":106.568863,"line":6,"transit":false,"is_transit":false,"time":8,"station_name":"Parung Panjang"}],[{"station_name":"Klenderbaru","station_id":"KLDB","distance":0,"i_long":106.939679,"line":1,"is_transit":false,"transit":false,"i_lat":-6.217455,"time":0},{"station_name":"Buaran","station_id":"BUA","is_transit":false,"i_long":106.922662,"i_lat":-6.215568,"time":1,"transit":false,"distance":1305,"line":0},{"transit":false,"is_transit":false,"station_name":"Klender","line":1,"time":2,"i_lat":-6.2135,"distance":3100,"i_long":106.899548,"station_id":"KLD"},{"i_long":106.86807400000001,"time":3,"line":0,"is_transit":true,"i_lat":-6.215091,"distance":3395,"station_name":"Jatinegara","transit":true,"station_id":"JNG"},{"i_lat":-6.209188,"transit":false,"is_transit":false,"station_name":"Pondok Jati","time":2,"distance":1236,"station_id":"POK","i_long":106.861737,"line":11},{"is_transit":false,"station_id":"KMT","transit":false,"i_lat":-6.193792,"i_long":106.855437,"time":2,"distance":1829,"line":11,"station_name":"Kramat"},{"distance":973,"line":11,"is_transit":false,"station_name":"Gang Sentiong","i_lat":-6.185975,"i_long":106.850107,"time":1,"transit":false,"station_id":"GST"},{"station_id":"PSE","is_transit":false,"station_name":"Pasar Senen","transit":false,"i_lat":-6.174784,"i_long":106.84368,"distance":1567,"line":11,"time":8},{"transit":false,"distance":1436,"time":4,"station_id":"KMO","line":11,"is_transit":false,"i_lat":-6.161728,"i_long":106.839204,"station_name":"Kemayoran"},{"line":11,"is_transit":false,"i_lat":-6.14505,"distance":1901,"i_long":106.836569,"station_name":"Rajawali","transit":false,"station_id":"RJW","time":5},{"line":0,"i_long":106.826365,"is_transit":true,"transit":true,"time":3,"station_id":"KPB","i_lat":-6.132549,"station_name":"Kampung Bandan","distance":1444},{"line":0,"transit":true,"distance":1364,"is_transit":true,"station_name":"Jakarta Kota","station_id":"JAKK","time":3,"i_long":106.812439,"i_lat":-6.137569},{"line":7,"transit":false,"distance":1264,"is_transit":false,"station_name":"Jayakarta","time":4,"station_id":"JAY","i_lat":-6.141205,"i_long":106.820901},{"is_transit":false,"i_lat":-6.149769,"transit":false,"distance":1080,"station_id":"MGB","station_name":"Manggabesar","i_long":106.82482,"time":2,"line":2},{"time":2,"i_lat":-6.160725,"line":2,"station_name":"Sawah Besar","distance":906,"is_transit":false,"station_id":"SW","transit":false,"i_long":106.827103},{"station_name":"Juanda","i_long":106.828284,"distance":1149,"line":2,"time":2,"is_transit":false,"transit":false,"station_id":"JUA","i_lat":-6.166716},{"transit":false,"i_long":106.832183,"is_transit":false,"distance":2015,"station_id":"GDD","line":2,"station_name":"Gondangdia","time":4,"i_lat":-6.186295},{"distance":1750,"station_id":"CKI","is_transit":false,"transit":false,"station_name":"Cikini","time":3,"i_long":106.840169,"i_lat":-6.198556,"line":0},{"time":4,"station_id":"MRI","transit":true,"distance":1590,"is_transit":true,"i_lat":-6.209883,"i_long":106.84912,"line":0,"station_name":"Manggarai"},{"i_long":106.822649,"is_transit":false,"i_lat":-6.202263,"time":4,"transit":false,"station_name":"Sudirman","line":1,"station_id":"SUD","distance":3186},{"line":1,"distance":280,"i_long":106.819881,"i_lat":-6.201433,"station_id":"SUDB","is_transit":false,"time":1,"station_name":"Sudirman Baru","transit":false},{"line":1,"transit":false,"station_name":"Karet","station_id":"KAT","i_long":106.816351,"is_transit":false,"time":1,"i_lat":-6.20132,"distance":471},{"time":5,"i_long":106.811091,"station_name":"Tanah Abang","i_lat":-6.185545,"distance":2029,"transit":true,"station_id":"THB","is_transit":true,"line":1},{"line":6,"station_id":"PLM","distance":3191,"is_transit":false,"i_lat":-6.207404,"transit":false,"i_long":106.79689,"time":6,"station_name":"Palmerah"},{"station_id":"KBY","station_name":"Kebayoran","time":7,"i_long":106.780334,"transit":false,"line":6,"is_transit":false,"distance":3737,"i_lat":-6.237242},{"time":8,"station_id":"PDJ","line":6,"i_lat":-6.276362,"i_long":106.74273,"station_name":"Pondokranji","distance":6218,"is_transit":false,"transit":false},{"station_name":"Jurangmangu","distance":2179,"is_transit":false,"station_id":"JMU","i_long":106.728916,"i_lat":-6.288927,"transit":false,"line":6,"time":3},{"is_transit":false,"transit":false,"i_long":106.712277,"line":6,"distance":1994,"time":4,"station_name":"Sudimara","station_id":"SDM","i_lat":-6.296963},{"transit":false,"i_long":106.675475,"station_name":"Rawa Buntu","station_id":"RU","i_lat":-6.314823,"distance":4566,"line":6,"is_transit":false,"time":6},{"transit":false,"i_lat":-6.319871,"is_transit":false,"station_id":"SRP","line":6,"time":4,"distance":2413,"i_long":106.66566,"station_name":"Serpong"},{"transit":false,"station_name":"Cisauk","is_transit":false,"i_long":106.640411,"distance":1784,"line":0,"station_id":"CSK","i_lat":-6.32484,"time":4},{"transit":false,"distance":2519,"station_id":"CC","i_lat":-6.329547,"station_name":"Cicayur","is_transit":false,"time":4,"line":0,"i_long":106.617853},{"i_lat":-6.3441410000000005,"time":8,"i_long":106.568863,"distance":5968,"is_transit":false,"transit":false,"station_id":"PRP","line":6,"station_name":"Parung Panjang"}]]}