{"data":[[{"i_lat":-6.217455,"station_id":"KLDB","transit":false,"station_name":"Klenderbaru","time":0,"is_transit":false,"distance":0,"i_long":106.939679,"line":1},{"transit":false,"station_name":"Buaran","i_long":106.922662,"is_transit":false,"i_lat":-6.215568,"station_id":"BUA","time":1,"distance":1305,"line":1},{"transit":false,"distance":3100,"station_name":"Klender","station_id":"KLD","i_lat":-6.2135,"i_long":106.899548,"time":2,"is_transit":false,"line":1},{"i_lat":-6.215091,"is_transit":false,"i_long":106.86807400000001,"transit":false,"station_id":"JNG","time":3,"station_name":"Jatinegara","line":1,"distance":3395},{"distance":1377,"line":1,"is_transit":false,"station_name":"Matraman","station_id":"MTR","time":2,"i_lat":-6.212485,"i_long":106.858896,"transit":false},{"station_id":"MRI","time":2,"is_transit":true,"distance":1275,"i_lat":-6.209883,"line":2,"transit":true,"station_name":"Manggarai","i_long":106.84912},{"is_transit":false,"transit":false,"station_name":"Tebet","time":4,"station_id":"TEB","distance":2610,"i_lat":-6.226659,"line":2,"i_long":106.857948},{"transit":false,"i_long":106.856607,"station_name":"Cawang","line":2,"distance":1230,"i_lat":-6.242512,"time":2,"is_transit":false,"station_id":"CW"},{"i_lat":-6.255332,"time":3,"distance":1546,"is_transit":false,"line":2,"station_id":"DRN","i_long":106.85449,"station_name":"Duren Kalibata","transit":false},{"time":2,"distance":824,"i_long":106.851577,"station_name":"Pasar Minggu Baru","station_id":"PSMB","i_lat":-6.263214,"line":2,"is_transit":false,"transit":false},{"station_id":"PSM","line":2,"station_name":"Pasar Minggu","is_transit":false,"transit":false,"distance":2380,"i_lat":-6.2842400000000005,"i_long":106.843999,"time":2},{"line":2,"station_id":"TNT","station_name":"Tanjung Barat","time":4,"transit":false,"distance":2820,"i_lat":-6.3080680000000005,"is_transit":false,"i_long":106.838896},{"is_transit":false,"i_long":106.832616,"time":3,"station_name":"Lenteng Agung","station_id":"LNA","distance":2671,"i_lat":-6.330363,"line":2,"transit":false},{"i_long":106.834175,"line":2,"transit":false,"time":2,"is_transit":false,"station_name":"Univ. Pancasila","distance":1029,"i_lat":-6.339291,"station_id":"UP"},{"distance":2264,"i_long":106.831474,"station_name":"Univ. Indonesia","station_id":"UI","transit":false,"time":3,"is_transit":false,"line":2,"i_lat":-6.360749},{"station_name":"Pondok Cina","station_id":"POC","transit":false,"time":2,"i_long":106.831114,"line":2,"distance":1109,"is_transit":false,"i_lat":-6.369073},{"time":4,"distance":2727,"station_id":"DPB","is_transit":false,"station_name":"Depokbaru","i_lat":-6.391065,"transit":false,"i_long":106.819451,"line":2},{"distance":1584,"is_transit":false,"i_long":106.816926,"station_id":"DP","transit":false,"i_lat":-6.405256,"time":3,"line":2,"station_name":"Depok"},{"is_transit":true,"i_long":106.800298,"station_id":"CTA","station_name":"Citayam","distance":5084,"i_lat":-6.448811,"time":6,"line":2,"transit":true},{"transit":false,"distance":0,"i_lat":-6.460735,"station_id":"PDRG","line":21,"i_long":106.824374,"station_name":"Pondok Rajeg","is_transit":false,"time":0},{"station_id":"CBN","is_transit":false,"line":21,"i_long":106.851978,"station_name":"Cibinong","time":0,"distance":0,"transit":false,"i_lat":-6.46424}],[{"station_id":"KLDB","is_transit":false,"transit":false,"time":0,"i_lat":-6.217455,"i_long":106.939679,"station_name":"Klenderbaru","distance":0,"line":1},{"distance":1305,"line":1,"station_id":"BUA","station_name":"Buaran","is_transit":false,"i_long":106.922662,"time":1,"transit":false,"i_lat":-6.215568},{"station_name":"Klender","station_id":"KLD","transit":false,"line":1,"is_transit":false,"distance":3100,"i_long":106.899548,"time":2,"i_lat":-6.2135},{"is_transit":true,"time":3,"i_long":106.86807400000001,"line":1,"transit":true,"station_id":"JNG","distance":3395,"i_lat":-6.215091,"station_name":"Jatinegara"},{"time":2,"i_lat":-6.209188,"line":11,"station_id":"POK","station_name":"Pondok Jati","is_transit":false,"i_long":106.861737,"transit":false,"distance":1236},{"transit":false,"time":2,"station_id":"KMT","i_lat":-6.193792,"station_name":"Kramat","is_transit":false,"distance":1829,"i_long":106.855437,"line":11},{"station_name":"Gang Sentiong","is_transit":false,"time":1,"line":11,"station_id":"GST","distance":973,"i_lat":-6.185975,"i_long":106.850107,"transit":false},{"distance":1567,"time":8,"station_id":"PSE","i_lat":-6.174784,"station_name":"Pasar Senen","i_long":106.84368,"line":11,"is_transit":false,"transit":false},{"distance":1436,"transit":false,"station_name":"Kemayoran","station_id":"KMO","time":4,"i_long":106.839204,"is_transit":false,"i_lat":-6.161728,"line":11},{"line":11,"station_id":"RJW","time":5,"transit":false,"i_lat":-6.14505,"distance":1901,"i_long":106.836569,"is_transit":false,"station_name":"Rajawali"},{"transit":true,"is_transit":true,"station_name":"Kampung Bandan","line":4,"station_id":"KPB","time":3,"i_long":106.826365,"i_lat":-6.132549,"distance":1444},{"i_long":106.79867,"distance":4102,"station_name":"Angke","line":1,"time":9,"is_transit":false,"transit":false,"i_lat":-6.144674,"station_id":"AK"},{"distance":1230,"time":4,"is_transit":false,"station_name":"Duri","transit":false,"line":1,"station_id":"DU","i_lat":-6.155215,"i_long":106.800832},{"i_lat":-6.185545,"line":1,"is_transit":false,"time":8,"distance":3632,"i_long":106.811091,"transit":false,"station_name":"Tanah Abang","station_id":"THB"},{"transit":false,"line":1,"time":5,"is_transit":false,"station_id":"KAT","distance":2029,"station_name":"Karet","i_lat":-6.20132,"i_long":106.816351},{"i_long":106.819881,"i_lat":-6.201433,"station_name":"Sudirman Baru","transit":false,"station_id":"SUDB","time":1,"is_transit":false,"distance":471,"line":1},{"transit":false,"distance":280,"station_name":"Sudirman","i_lat":-6.202263,"station_id":"SUD","line":1,"time":1,"i_long":106.822649,"is_transit":false},{"is_transit":true,"transit":true,"station_id":"MRI","time":4,"i_long":106.84912,"distance":3186,"i_lat":-6.209883,"line":2,"station_name":"Manggarai"},{"station_name":"Tebet","is_transit":false,"distance":2610,"i_long":106.857948,"station_id":"TEB","line":2,"time":4,"transit":false,"i_lat":-6.226659},{"time":2,"i_lat":-6.242512,"station_name":"Cawang","distance":1230,"line":2,"station_id":"CW","i_long":106.856607,"transit":false,"is_transit":false},{"i_lat":-6.255332,"line":2,"i_long":106.85449,"transit":false,"station_name":"Duren Kalibata","station_id":"DRN","is_transit":false,"distance":1546,"time":3},{"i_lat":-6.263214,"line":2,"station_id":"PSMB","i_long":106.851577,"is_transit":false,"distance":824,"time":2,"transit":false,"station_name":"Pasar Minggu Baru"},{"is_transit":false,"station_name":"Pasar Minggu","line":2,"transit":false,"station_id":"PSM","i_long":106.843999,"distance":2380,"i_lat":-6.2842400000000005,"time":2},{"transit":false,"time":4,"i_lat":-6.3080680000000005,"line":2,"is_transit":false,"i_long":106.838896,"station_name":"Tanjung Barat","station_id":"TNT","distance":2820},{"is_transit":false,"transit":false,"station_name":"Lenteng Agung","station_id":"LNA","distance":2671,"i_lat":-6.330363,"time":3,"line":2,"i_long":106.832616},{"station_name":"Univ. Pancasila","station_id":"UP","is_transit":false,"i_long":106.834175,"line":2,"i_lat":-6.339291,"time":2,"distance":1029,"transit":false},{"transit":false,"distance":2264,"is_transit":false,"station_name":"Univ. Indonesia","i_long":106.831474,"station_id":"UI","line":2,"time":3,"i_lat":-6.360749},{"i_long":106.831114,"transit":false,"i_lat":-6.369073,"station_name":"Pondok Cina","line":2,"station_id":"POC","time":2,"is_transit":false,"distance":1109},{"line":2,"is_transit":false,"station_name":"Depokbaru","time":4,"transit":false,"station_id":"DPB","distance":2727,"i_lat":-6.391065,"i_long":106.819451},{"station_id":"DP","station_name":"Depok","time":3,"transit":false,"distance":1584,"i_long":106.816926,"is_transit":false,"line":2,"i_lat":-6.405256},{"i_long":106.800298,"distance":5084,"transit":true,"time":6,"i_lat":-6.448811,"line":2,"is_transit":true,"station_id":"CTA","station_name":"Citayam"},{"i_long":106.824374,"transit":false,"station_id":"PDRG","time":0,"is_transit":false,"i_lat":-6.460735,"distance":0,"line":21,"station_name":"Pondok Rajeg"},{"station_id":"CBN","time":0,"station_name":"Cibinong","transit":false,"is_transit":false,"distance":0,"i_lat":-6.46424,"i_long":106.851978,"line":21}],[{"i_long":106.939679,"station_name":"Klenderbaru","station_id":"KLDB","is_transit":false,"transit":false,"distance":0,"i_lat":-6.217455,"time":0,"line":1},{"time":1,"is_transit":false,"distance":1305,"i_long":106.922662,"line":1,"i_lat":-6.215568,"station_id":"BUA","transit":false,"station_name":"Buaran"},{"station_id":"KLD","line":1,"i_long":106.899548,"distance":3100,"transit":false,"is_transit":false,"time":2,"i_lat":-6.2135,"station_name":"Klender"},{"i_lat":-6.215091,"distance":3395,"station_id":"JNG","i_long":106.86807400000001,"transit":true,"line":1,"station_name":"Jatinegara","time":3,"is_transit":true},{"transit":false,"station_id":"POK","station_name":"Pondok Jati","is_transit":false,"distance":1236,"i_lat":-6.209188,"time":2,"line":11,"i_long":106.861737},{"is_transit":false,"distance":1829,"i_long":106.855437,"station_id":"KMT","i_lat":-6.193792,"transit":false,"station_name":"Kramat","line":11,"time":2},{"station_name":"Gang Sentiong","i_long":106.850107,"transit":false,"i_lat":-6.185975,"distance":973,"time":1,"is_transit":false,"line":11,"station_id":"GST"},{"i_long":106.84368,"transit":false,"station_id":"PSE","i_lat":-6.174784,"is_transit":false,"line":11,"time":8,"station_name":"Pasar Senen","distance":1567},{"distance":1436,"station_name":"Kemayoran","i_long":106.839204,"line":11,"station_id":"KMO","is_transit":false,"i_lat":-6.161728,"transit":false,"time":4},{"i_lat":-6.14505,"time":5,"station_id":"RJW","distance":1901,"is_transit":false,"i_long":106.836569,"station_name":"Rajawali","transit":false,"line":11},{"distance":1444,"i_lat":-6.132549,"station_id":"KPB","station_name":"Kampung Bandan","transit":true,"time":3,"i_long":106.826365,"line":4,"is_transit":true},{"i_long":106.812439,"distance":1364,"time":3,"line":2,"transit":true,"i_lat":-6.137569,"station_name":"Jakarta Kota","station_id":"JAKK","is_transit":true},{"is_transit":false,"station_name":"Jayakarta","distance":1264,"line":2,"i_lat":-6.141205,"station_id":"JAY","i_long":106.820901,"time":4,"transit":false},{"station_name":"Manggabesar","transit":false,"distance":1080,"station_id":"MGB","time":2,"i_lat":-6.149769,"line":2,"is_transit":false,"i_long":106.82482},{"transit":false,"i_lat":-6.160725,"i_long":106.827103,"distance":906,"station_id":"SW","is_transit":false,"line":2,"time":2,"station_name":"Sawah Besar"},{"time":2,"line":2,"is_transit":false,"i_long":106.828284,"distance":1149,"station_name":"Juanda","station_id":"JUA","i_lat":-6.166716,"transit":false},{"time":4,"i_lat":-6.186295,"transit":false,"is_transit":false,"line":2,"distance":2015,"i_long":106.832183,"station_name":"Gondangdia","station_id":"GDD"},{"distance":1750,"i_long":106.840169,"is_transit":false,"i_lat":-6.198556,"transit":false,"station_name":"Cikini","time":3,"station_id":"CKI","line":2},{"station_id":"MRI","transit":false,"is_transit":false,"distance":1590,"station_name":"Manggarai","i_lat":-6.209883,"i_long":106.84912,"line":2,"time":4},{"line":2,"i_lat":-6.226659,"i_long":106.857948,"station_id":"TEB","time":4,"station_name":"Tebet","is_transit":false,"transit":false,"distance":2610},{"i_long":106.856607,"line":2,"station_id":"CW","time":2,"distance":1230,"transit":false,"is_transit":false,"i_lat":-6.242512,"station_name":"Cawang"},{"distance":1546,"is_transit":false,"station_id":"DRN","station_name":"Duren Kalibata","time":3,"transit":false,"i_lat":-6.255332,"i_long":106.85449,"line":2},{"station_id":"PSMB","is_transit":false,"distance":824,"i_lat":-6.263214,"line":2,"transit":false,"station_name":"Pasar Minggu Baru","time":2,"i_long":106.851577},{"line":2,"station_name":"Pasar Minggu","i_long":106.843999,"distance":2380,"transit":false,"i_lat":-6.2842400000000005,"time":2,"station_id":"PSM","is_transit":false},{"transit":false,"line":2,"is_transit":false,"i_long":106.838896,"i_lat":-6.3080680000000005,"time":4,"station_name":"Tanjung Barat","station_id":"TNT","distance":2820},{"is_transit":false,"station_name":"Lenteng Agung","i_long":106.832616,"time":3,"station_id":"LNA","i_lat":-6.330363,"line":2,"distance":2671,"transit":false},{"i_long":106.834175,"transit":false,"line":2,"distance":1029,"is_transit":false,"station_id":"UP","station_name":"Univ. Pancasila","i_lat":-6.339291,"time":2},{"line":2,"is_transit":false,"i_lat":-6.360749,"distance":2264,"transit":false,"station_name":"Univ. Indonesia","station_id":"UI","time":3,"i_long":106.831474},{"i_lat":-6.369073,"station_name":"Pondok Cina","transit":false,"is_transit":false,"i_long":106.831114,"time":2,"line":2,"distance":1109,"station_id":"POC"},{"time":4,"is_transit":false,"transit":false,"station_name":"Depokbaru","station_id":"DPB","distance":2727,"i_lat":-6.391065,"line":2,"i_long":106.819451},{"i_long":106.816926,"i_lat":-6.405256,"is_transit":false,"time":3,"station_name":"Depok","transit":false,"distance":1584,"line":2,"station_id":"DP"},{"i_lat":-6.448811,"station_name":"Citayam","station_id":"CTA","i_long":106.800298,"line":2,"transit":true,"is_transit":true,"time":6,"distance":5084},{"time":0,"i_long":106.824374,"station_name":"Pondok Rajeg","line":21,"i_lat":-6.460735,"is_transit":false,"transit":false,"distance":0,"station_id":"PDRG"},{"is_transit":false,"i_lat":-6.46424,"i_long":106.851978,"time":0,"distance":0,"line":21,"transit":false,"station_id":"CBN","station_name":"Cibinong"}]]}