{"data":[[{"station_id":"KLDB","i_lat":-6.217455,"line":1,"i_long":106.939679,"distance":0,"is_transit":false,"station_name":"Klenderbaru","transit":false,"time":0},{"i_lat":-6.215568,"line":1,"distance":1305,"transit":false,"is_transit":false,"station_id":"BUA","station_name":"Buaran","i_long":106.922662,"time":1},{"i_long":106.899548,"is_transit":false,"time":2,"station_id":"KLD","transit":false,"distance":3100,"station_name":"Klender","line":1,"i_lat":-6.2135},{"distance":3395,"line":1,"is_transit":false,"station_id":"JNG","station_name":"Jatinegara","i_lat":-6.215091,"i_long":106.86807400000001,"time":3,"transit":false},{"station_id":"MTR","distance":1377,"time":2,"is_transit":false,"i_lat":-6.212485,"i_long":106.858896,"line":1,"station_name":"Matraman","transit":false},{"i_lat":-6.209883,"transit":true,"distance":1275,"is_transit":true,"station_name":"Manggarai","line":2,"time":2,"station_id":"MRI","i_long":106.84912},{"station_id":"TEB","distance":2610,"i_long":106.857948,"i_lat":-6.226659,"station_name":"Tebet","transit":false,"time":4,"is_transit":false,"line":2},{"i_lat":-6.242512,"i_long":106.856607,"line":2,"distance":1230,"time":2,"is_transit":false,"station_id":"CW","transit":false,"station_name":"Cawang"},{"station_name":"Duren Kalibata","station_id":"DRN","distance":1546,"i_lat":-6.255332,"transit":false,"is_transit":false,"time":3,"i_long":106.85449,"line":2},{"distance":824,"station_name":"Pasar Minggu Baru","line":2,"transit":false,"i_long":106.851577,"station_id":"PSMB","is_transit":false,"i_lat":-6.263214,"time":2},{"time":2,"distance":2380,"is_transit":false,"i_lat":-6.2842400000000005,"i_long":106.843999,"line":2,"station_name":"Pasar Minggu","transit":false,"station_id":"PSM"},{"line":2,"i_long":106.838896,"station_id":"TNT","distance":2820,"i_lat":-6.3080680000000005,"transit":false,"time":4,"is_transit":false,"station_name":"Tanjung Barat"},{"i_long":106.832616,"line":2,"station_id":"LNA","transit":false,"time":3,"station_name":"Lenteng Agung","distance":2671,"is_transit":false,"i_lat":-6.330363},{"i_lat":-6.339291,"i_long":106.834175,"transit":false,"time":2,"distance":1029,"station_id":"UP","line":2,"is_transit":false,"station_name":"Univ. Pancasila"},{"transit":false,"station_name":"Univ. Indonesia","i_long":106.831474,"distance":2264,"line":2,"station_id":"UI","i_lat":-6.360749,"time":3,"is_transit":false},{"station_id":"POC","distance":1109,"i_lat":-6.369073,"is_transit":false,"i_long":106.831114,"line":2,"time":2,"transit":false,"station_name":"Pondok Cina"},{"distance":2727,"time":4,"i_lat":-6.391065,"line":2,"is_transit":false,"station_id":"DPB","i_long":106.819451,"station_name":"Depokbaru","transit":false},{"station_name":"Depok","is_transit":false,"distance":1584,"transit":false,"i_long":106.816926,"time":3,"station_id":"DP","line":2,"i_lat":-6.405256},{"distance":5084,"i_long":106.800298,"station_name":"Citayam","transit":false,"is_transit":false,"station_id":"CTA","time":6,"line":2,"i_lat":-6.448811},{"i_lat":-6.493243,"distance":5197,"station_name":"Bojonggede","i_long":106.792719,"line":2,"time":5,"transit":false,"is_transit":false,"station_id":"BJD"}],[{"station_id":"KLDB","transit":false,"is_transit":false,"station_name":"Klenderbaru","line":1,"distance":0,"i_long":106.939679,"i_lat":-6.217455,"time":0},{"station_name":"Buaran","i_lat":-6.215568,"transit":false,"distance":1305,"station_id":"BUA","line":1,"time":1,"is_transit":false,"i_long":106.922662},{"line":1,"transit":false,"time":2,"i_lat":-6.2135,"is_transit":false,"distance":3100,"station_name":"Klender","i_long":106.899548,"station_id":"KLD"},{"distance":3395,"station_id":"JNG","time":3,"i_long":106.86807400000001,"station_name":"Jatinegara","i_lat":-6.215091,"is_transit":true,"transit":true,"line":1},{"is_transit":false,"i_long":106.861737,"station_id":"POK","time":2,"station_name":"Pondok Jati","i_lat":-6.209188,"line":11,"transit":false,"distance":1236},{"distance":1829,"time":2,"is_transit":false,"transit":false,"station_id":"KMT","i_long":106.855437,"station_name":"Kramat","i_lat":-6.193792,"line":11},{"transit":false,"line":11,"i_lat":-6.185975,"i_long":106.850107,"distance":973,"station_name":"Gang Sentiong","time":1,"is_transit":false,"station_id":"GST"},{"i_lat":-6.174784,"is_transit":false,"station_name":"Pasar Senen","transit":false,"time":8,"distance":1567,"line":11,"i_long":106.84368,"station_id":"PSE"},{"is_transit":false,"i_lat":-6.161728,"time":4,"distance":1436,"station_id":"KMO","transit":false,"station_name":"Kemayoran","i_long":106.839204,"line":11},{"station_id":"RJW","transit":false,"station_name":"Rajawali","distance":1901,"time":5,"i_lat":-6.14505,"line":11,"i_long":106.836569,"is_transit":false},{"transit":true,"i_long":106.826365,"line":4,"time":3,"station_id":"KPB","is_transit":true,"station_name":"Kampung Bandan","i_lat":-6.132549,"distance":1444},{"distance":4102,"time":9,"i_long":106.79867,"station_id":"AK","transit":false,"is_transit":false,"i_lat":-6.144674,"line":1,"station_name":"Angke"},{"line":1,"distance":1230,"transit":false,"time":4,"station_name":"Duri","station_id":"DU","is_transit":false,"i_lat":-6.155215,"i_long":106.800832},{"time":8,"is_transit":false,"station_name":"Tanah Abang","distance":3632,"i_lat":-6.185545,"transit":false,"line":1,"i_long":106.811091,"station_id":"THB"},{"station_id":"KAT","time":5,"line":1,"i_long":106.816351,"transit":false,"is_transit":false,"i_lat":-6.20132,"distance":2029,"station_name":"Karet"},{"station_name":"Sudirman Baru","transit":false,"i_lat":-6.201433,"time":1,"line":1,"is_transit":false,"station_id":"SUDB","i_long":106.819881,"distance":471},{"transit":false,"is_transit":false,"station_name":"Sudirman","i_long":106.822649,"time":1,"station_id":"SUD","distance":280,"i_lat":-6.202263,"line":1},{"station_name":"Manggarai","station_id":"MRI","transit":true,"is_transit":true,"i_lat":-6.209883,"i_long":106.84912,"line":2,"distance":3186,"time":4},{"line":2,"station_id":"TEB","station_name":"Tebet","transit":false,"i_long":106.857948,"distance":2610,"time":4,"is_transit":false,"i_lat":-6.226659},{"station_name":"Cawang","i_lat":-6.242512,"transit":false,"is_transit":false,"i_long":106.856607,"distance":1230,"time":2,"station_id":"CW","line":2},{"station_name":"Duren Kalibata","is_transit":false,"time":3,"i_lat":-6.255332,"station_id":"DRN","i_long":106.85449,"transit":false,"line":2,"distance":1546},{"i_long":106.851577,"time":2,"station_id":"PSMB","distance":824,"i_lat":-6.263214,"line":2,"is_transit":false,"transit":false,"station_name":"Pasar Minggu Baru"},{"is_transit":false,"transit":false,"time":2,"i_lat":-6.2842400000000005,"distance":2380,"i_long":106.843999,"station_name":"Pasar Minggu","line":2,"station_id":"PSM"},{"transit":false,"time":4,"is_transit":false,"i_lat":-6.3080680000000005,"i_long":106.838896,"distance":2820,"station_name":"Tanjung Barat","station_id":"TNT","line":2},{"i_long":106.832616,"line":2,"station_id":"LNA","transit":false,"is_transit":false,"time":3,"distance":2671,"station_name":"Lenteng Agung","i_lat":-6.330363},{"distance":1029,"i_lat":-6.339291,"transit":false,"i_long":106.834175,"station_name":"Univ. Pancasila","is_transit":false,"line":2,"time":2,"station_id":"UP"},{"time":3,"station_name":"Univ. Indonesia","distance":2264,"station_id":"UI","i_long":106.831474,"i_lat":-6.360749,"transit":false,"line":2,"is_transit":false},{"station_name":"Pondok Cina","distance":1109,"transit":false,"i_long":106.831114,"time":2,"is_transit":false,"station_id":"POC","line":2,"i_lat":-6.369073},{"transit":false,"line":2,"is_transit":false,"station_name":"Depokbaru","i_long":106.819451,"distance":2727,"station_id":"DPB","i_lat":-6.391065,"time":4},{"station_id":"DP","station_name":"Depok","time":3,"is_transit":false,"line":2,"distance":1584,"i_long":106.816926,"transit":false,"i_lat":-6.405256},{"station_name":"Citayam","is_transit":false,"i_lat":-6.448811,"transit":false,"distance":5084,"time":6,"i_long":106.800298,"line":2,"station_id":"CTA"},{"time":5,"distance":5197,"station_name":"Bojonggede","is_transit":false,"i_lat":-6.493243,"i_long":106.792719,"station_id":"BJD","transit":false,"line":2}],[{"transit":false,"distance":0,"i_long":106.939679,"station_id":"KLDB","is_transit":false,"station_name":"Klenderbaru","i_lat":-6.217455,"time":0,"line":1},{"station_id":"BUA","transit":false,"distance":1305,"time":1,"i_long":106.922662,"station_name":"Buaran","is_transit":false,"i_lat":-6.215568,"line":1},{"time":2,"distance":3100,"station_id":"KLD","transit":false,"i_long":106.899548,"station_name":"Klender","is_transit":false,"line":1,"i_lat":-6.2135},{"i_lat":-6.215091,"station_id":"JNG","distance":3395,"is_transit":true,"station_name":"Jatinegara","i_long":106.86807400000001,"time":3,"line":1,"transit":true},{"i_lat":-6.209188,"station_name":"Pondok Jati","i_long":106.861737,"time":2,"station_id":"POK","line":11,"distance":1236,"transit":false,"is_transit":false},{"i_long":106.855437,"station_id":"KMT","transit":false,"time":2,"distance":1829,"i_lat":-6.193792,"station_name":"Kramat","line":11,"is_transit":false},{"line":11,"transit":false,"distance":973,"time":1,"station_name":"Gang Sentiong","is_transit":false,"station_id":"GST","i_lat":-6.185975,"i_long":106.850107},{"time":8,"i_lat":-6.174784,"is_transit":false,"transit":false,"i_long":106.84368,"station_id":"PSE","station_name":"Pasar Senen","distance":1567,"line":11},{"is_transit":false,"i_long":106.839204,"line":11,"time":4,"station_id":"KMO","distance":1436,"transit":false,"station_name":"Kemayoran","i_lat":-6.161728},{"transit":false,"time":5,"i_lat":-6.14505,"distance":1901,"i_long":106.836569,"line":11,"is_transit":false,"station_name":"Rajawali","station_id":"RJW"},{"time":3,"station_name":"Kampung Bandan","line":4,"station_id":"KPB","transit":true,"is_transit":true,"i_long":106.826365,"distance":1444,"i_lat":-6.132549},{"distance":1364,"time":3,"station_name":"Jakarta Kota","i_lat":-6.137569,"is_transit":true,"i_long":106.812439,"line":2,"station_id":"JAKK","transit":true},{"is_transit":false,"station_id":"JAY","i_long":106.820901,"i_lat":-6.141205,"time":4,"line":2,"transit":false,"distance":1264,"station_name":"Jayakarta"},{"is_transit":false,"time":2,"i_lat":-6.149769,"i_long":106.82482,"line":2,"distance":1080,"station_id":"MGB","station_name":"Manggabesar","transit":false},{"transit":false,"is_transit":false,"station_name":"Sawah Besar","i_lat":-6.160725,"line":2,"i_long":106.827103,"station_id":"SW","distance":906,"time":2},{"i_lat":-6.166716,"station_id":"JUA","i_long":106.828284,"time":2,"transit":false,"is_transit":false,"line":2,"distance":1149,"station_name":"Juanda"},{"time":4,"distance":2015,"station_id":"GDD","station_name":"Gondangdia","transit":false,"i_long":106.832183,"line":2,"is_transit":false,"i_lat":-6.186295},{"is_transit":false,"station_name":"Cikini","time":3,"i_lat":-6.198556,"i_long":106.840169,"distance":1750,"line":2,"station_id":"CKI","transit":false},{"station_id":"MRI","transit":false,"is_transit":false,"i_long":106.84912,"station_name":"Manggarai","i_lat":-6.209883,"line":2,"time":4,"distance":1590},{"time":4,"transit":false,"i_lat":-6.226659,"station_name":"Tebet","distance":2610,"station_id":"TEB","i_long":106.857948,"line":2,"is_transit":false},{"transit":false,"line":2,"i_lat":-6.242512,"i_long":106.856607,"station_id":"CW","time":2,"is_transit":false,"distance":1230,"station_name":"Cawang"},{"is_transit":false,"station_name":"Duren Kalibata","i_long":106.85449,"i_lat":-6.255332,"distance":1546,"line":2,"time":3,"transit":false,"station_id":"DRN"},{"line":2,"station_name":"Pasar Minggu Baru","i_lat":-6.263214,"distance":824,"transit":false,"station_id":"PSMB","is_transit":false,"i_long":106.851577,"time":2},{"is_transit":false,"time":2,"station_id":"PSM","transit":false,"i_lat":-6.2842400000000005,"line":2,"i_long":106.843999,"station_name":"Pasar Minggu","distance":2380},{"time":4,"station_name":"Tanjung Barat","distance":2820,"is_transit":false,"station_id":"TNT","transit":false,"i_long":106.838896,"line":2,"i_lat":-6.3080680000000005},{"i_lat":-6.330363,"i_long":106.832616,"time":3,"station_name":"Lenteng Agung","transit":false,"distance":2671,"is_transit":false,"station_id":"LNA","line":2},{"transit":false,"station_id":"UP","i_long":106.834175,"line":2,"distance":1029,"time":2,"is_transit":false,"station_name":"Univ. Pancasila","i_lat":-6.339291},{"transit":false,"station_name":"Univ. Indonesia","i_long":106.831474,"is_transit":false,"line":2,"i_lat":-6.360749,"time":3,"station_id":"UI","distance":2264},{"transit":false,"station_name":"Pondok Cina","time":2,"i_long":106.831114,"i_lat":-6.369073,"distance":1109,"line":2,"is_transit":false,"station_id":"POC"},{"i_lat":-6.391065,"line":2,"station_id":"DPB","distance":2727,"i_long":106.819451,"transit":false,"time":4,"is_transit":false,"station_name":"Depokbaru"},{"station_id":"DP","i_long":106.816926,"is_transit":false,"station_name":"Depok","line":2,"time":3,"transit":false,"distance":1584,"i_lat":-6.405256},{"is_transit":false,"transit":false,"station_name":"Citayam","time":6,"distance":5084,"i_lat":-6.448811,"i_long":106.800298,"station_id":"CTA","line":2},{"distance":5197,"time":5,"is_transit":false,"station_id":"BJD","station_name":"Bojonggede","i_lat":-6.493243,"i_long":106.792719,"transit":false,"line":2}]]}