{"data":[[{"distance":0,"is_transit":false,"time":0,"station_name":"Klenderbaru","i_lat":-6.217455,"i_long":106.939679,"line":1,"transit":false,"station_id":"KLDB"},{"station_id":"BUA","is_transit":false,"transit":false,"i_lat":-6.215568,"i_long":106.922662,"station_name":"Buaran","time":1,"line":1,"distance":1305},{"time":2,"i_lat":-6.2135,"station_id":"KLD","line":1,"is_transit":false,"transit":false,"i_long":106.899548,"station_name":"Klender","distance":3100},{"transit":false,"is_transit":false,"distance":3395,"line":1,"i_lat":-6.215091,"time":3,"station_id":"JNG","station_name":"Jatinegara","i_long":106.86807400000001},{"time":2,"station_id":"MTR","is_transit":false,"transit":false,"distance":1377,"i_long":106.858896,"station_name":"Matraman","i_lat":-6.212485,"line":1},{"i_long":106.84912,"transit":false,"line":2,"i_lat":-6.209883,"distance":1275,"is_transit":false,"station_id":"MRI","station_name":"Manggarai","time":2},{"transit":false,"line":1,"time":4,"distance":3186,"station_id":"SUD","station_name":"Sudirman","i_long":106.822649,"i_lat":-6.202263,"is_transit":false},{"time":1,"distance":280,"is_transit":false,"station_id":"SUDB","transit":false,"i_lat":-6.201433,"station_name":"Sudirman Baru","line":1,"i_long":106.819881},{"i_lat":-6.20132,"distance":471,"i_long":106.816351,"station_id":"KAT","time":1,"station_name":"Karet","is_transit":false,"line":1,"transit":false},{"transit":true,"station_id":"THB","distance":2029,"i_lat":-6.185545,"line":1,"is_transit":true,"time":5,"station_name":"Tanah Abang","i_long":106.811091},{"station_id":"PLM","is_transit":false,"i_long":106.79689,"line":6,"i_lat":-6.207404,"time":6,"distance":3191,"transit":false,"station_name":"Palmerah"},{"transit":false,"line":6,"station_id":"KBY","i_lat":-6.237242,"time":7,"i_long":106.780334,"is_transit":false,"distance":3737,"station_name":"Kebayoran"},{"distance":6218,"i_lat":-6.276362,"i_long":106.74273,"station_name":"Pondokranji","is_transit":false,"transit":false,"line":6,"station_id":"PDJ","time":8},{"is_transit":false,"i_long":106.728916,"station_name":"Jurangmangu","i_lat":-6.288927,"time":3,"distance":2179,"station_id":"JMU","transit":false,"line":6},{"i_lat":-6.296963,"line":6,"distance":1994,"i_long":106.712277,"time":4,"station_name":"Sudimara","is_transit":false,"transit":false,"station_id":"SDM"},{"line":6,"time":6,"is_transit":false,"station_id":"RU","transit":false,"i_lat":-6.314823,"distance":4566,"station_name":"Rawa Buntu","i_long":106.675475},{"distance":2413,"time":4,"i_lat":-6.319871,"station_id":"SRP","line":6,"i_long":106.66566,"station_name":"Serpong","is_transit":false,"transit":false},{"time":4,"i_long":106.640411,"i_lat":-6.32484,"is_transit":false,"station_name":"Cisauk","station_id":"CSK","transit":false,"distance":1784,"line":3},{"i_lat":-6.329547,"is_transit":false,"transit":false,"line":3,"time":4,"station_id":"CC","distance":2519,"station_name":"Cicayur","i_long":106.617853},{"i_lat":-6.3441410000000005,"time":8,"station_name":"Parung Panjang","i_long":106.568863,"distance":5968,"is_transit":false,"station_id":"PRP","line":6,"transit":false},{"i_long":106.508482,"time":9,"i_lat":-6.354349,"distance":7025,"station_id":"CJT","station_name":"Cilejit","transit":false,"line":3,"is_transit":false}],[{"i_lat":-6.217455,"i_long":106.939679,"is_transit":false,"time":0,"line":1,"station_name":"Klenderbaru","distance":0,"transit":false,"station_id":"KLDB"},{"line":1,"i_lat":-6.215568,"i_long":106.922662,"distance":1305,"time":1,"is_transit":false,"station_name":"Buaran","station_id":"BUA","transit":false},{"station_name":"Klender","i_lat":-6.2135,"station_id":"KLD","is_transit":false,"transit":false,"i_long":106.899548,"distance":3100,"time":2,"line":1},{"line":1,"time":3,"transit":true,"i_long":106.86807400000001,"station_id":"JNG","distance":3395,"station_name":"Jatinegara","i_lat":-6.215091,"is_transit":true},{"i_lat":-6.209188,"station_name":"Pondok Jati","distance":1236,"is_transit":false,"line":11,"station_id":"POK","time":2,"transit":false,"i_long":106.861737},{"i_lat":-6.193792,"time":2,"is_transit":false,"station_id":"KMT","station_name":"Kramat","i_long":106.855437,"line":11,"transit":false,"distance":1829},{"line":11,"transit":false,"station_name":"Gang Sentiong","station_id":"GST","distance":973,"is_transit":false,"i_lat":-6.185975,"time":1,"i_long":106.850107},{"distance":1567,"transit":false,"i_lat":-6.174784,"i_long":106.84368,"is_transit":false,"station_id":"PSE","time":8,"station_name":"Pasar Senen","line":11},{"distance":1436,"transit":false,"station_name":"Kemayoran","station_id":"KMO","is_transit":false,"i_lat":-6.161728,"i_long":106.839204,"line":11,"time":4},{"station_name":"Rajawali","time":5,"distance":1901,"is_transit":false,"line":11,"station_id":"RJW","i_lat":-6.14505,"transit":false,"i_long":106.836569},{"i_long":106.826365,"i_lat":-6.132549,"time":3,"is_transit":true,"station_name":"Kampung Bandan","distance":1444,"line":4,"station_id":"KPB","transit":true},{"line":1,"station_name":"Angke","i_long":106.79867,"transit":false,"distance":4102,"time":9,"station_id":"AK","is_transit":false,"i_lat":-6.144674},{"is_transit":false,"line":1,"i_lat":-6.155215,"time":4,"transit":false,"distance":1230,"station_id":"DU","i_long":106.800832,"station_name":"Duri"},{"line":1,"station_id":"THB","distance":3632,"is_transit":true,"transit":true,"time":8,"station_name":"Tanah Abang","i_lat":-6.185545,"i_long":106.811091},{"is_transit":false,"station_id":"PLM","i_lat":-6.207404,"distance":3191,"transit":false,"line":6,"i_long":106.79689,"station_name":"Palmerah","time":6},{"i_lat":-6.237242,"station_id":"KBY","time":7,"is_transit":false,"i_long":106.780334,"transit":false,"distance":3737,"line":6,"station_name":"Kebayoran"},{"distance":6218,"transit":false,"i_lat":-6.276362,"time":8,"i_long":106.74273,"station_id":"PDJ","line":6,"station_name":"Pondokranji","is_transit":false},{"line":6,"distance":2179,"transit":false,"time":3,"station_name":"Jurangmangu","i_lat":-6.288927,"station_id":"JMU","is_transit":false,"i_long":106.728916},{"line":6,"time":4,"distance":1994,"transit":false,"i_long":106.712277,"station_name":"Sudimara","i_lat":-6.296963,"station_id":"SDM","is_transit":false},{"distance":4566,"station_id":"RU","transit":false,"time":6,"is_transit":false,"station_name":"Rawa Buntu","i_lat":-6.314823,"i_long":106.675475,"line":6},{"i_lat":-6.319871,"i_long":106.66566,"distance":2413,"time":4,"transit":false,"station_id":"SRP","is_transit":false,"line":6,"station_name":"Serpong"},{"transit":false,"i_long":106.640411,"line":3,"time":4,"i_lat":-6.32484,"is_transit":false,"distance":1784,"station_id":"CSK","station_name":"Cisauk"},{"i_long":106.617853,"line":3,"time":4,"station_name":"Cicayur","transit":false,"distance":2519,"is_transit":false,"i_lat":-6.329547,"station_id":"CC"},{"station_id":"PRP","is_transit":false,"distance":5968,"i_long":106.568863,"time":8,"station_name":"Parung Panjang","transit":false,"i_lat":-6.3441410000000005,"line":6},{"is_transit":false,"station_id":"CJT","i_long":106.508482,"time":9,"station_name":"Cilejit","transit":false,"i_lat":-6.354349,"distance":7025,"line":3}],[{"station_id":"KLDB","i_lat":-6.217455,"i_long":106.939679,"line":1,"station_name":"Klenderbaru","time":0,"transit":false,"distance":0,"is_transit":false},{"distance":1305,"station_name":"Buaran","is_transit":false,"transit":false,"station_id":"BUA","i_lat":-6.215568,"i_long":106.922662,"line":1,"time":1},{"i_lat":-6.2135,"station_id":"KLD","station_name":"Klender","is_transit":false,"distance":3100,"i_long":106.899548,"line":1,"transit":false,"time":2},{"transit":false,"distance":3395,"is_transit":false,"time":3,"station_id":"JNG","i_long":106.86807400000001,"i_lat":-6.215091,"line":1,"station_name":"Jatinegara"},{"transit":false,"line":1,"station_id":"MTR","i_lat":-6.212485,"time":2,"distance":1377,"i_long":106.858896,"is_transit":false,"station_name":"Matraman"},{"i_lat":-6.209883,"transit":true,"i_long":106.84912,"line":2,"time":2,"station_id":"MRI","distance":1275,"station_name":"Manggarai","is_transit":true},{"station_id":"CKI","i_lat":-6.198556,"time":4,"i_long":106.840169,"station_name":"Cikini","transit":false,"line":2,"is_transit":false,"distance":1590},{"distance":1750,"i_lat":-6.186295,"line":2,"transit":false,"station_id":"GDD","time":3,"is_transit":false,"i_long":106.832183,"station_name":"Gondangdia"},{"is_transit":false,"i_lat":-6.166716,"time":4,"station_id":"JUA","station_name":"Juanda","distance":2015,"transit":false,"i_long":106.828284,"line":2},{"line":2,"transit":false,"station_id":"SW","i_lat":-6.160725,"station_name":"Sawah Besar","i_long":106.827103,"distance":1149,"time":2,"is_transit":false},{"is_transit":false,"station_id":"MGB","i_long":106.82482,"line":2,"station_name":"Manggabesar","i_lat":-6.149769,"transit":false,"distance":906,"time":2},{"distance":1080,"station_id":"JAY","i_long":106.820901,"time":2,"i_lat":-6.141205,"line":2,"station_name":"Jayakarta","is_transit":false,"transit":false},{"station_id":"JAKK","time":4,"is_transit":true,"i_lat":-6.137569,"line":2,"station_name":"Jakarta Kota","distance":1264,"i_long":106.812439,"transit":true},{"is_transit":true,"time":3,"i_long":106.826365,"station_name":"Kampung Bandan","distance":1364,"i_lat":-6.132549,"line":4,"station_id":"KPB","transit":true},{"transit":false,"i_long":106.79867,"line":1,"station_id":"AK","time":9,"is_transit":false,"distance":4102,"i_lat":-6.144674,"station_name":"Angke"},{"time":4,"station_name":"Duri","i_long":106.800832,"transit":false,"i_lat":-6.155215,"distance":1230,"is_transit":false,"line":1,"station_id":"DU"},{"line":1,"time":8,"transit":true,"is_transit":true,"i_long":106.811091,"station_id":"THB","distance":3632,"station_name":"Tanah Abang","i_lat":-6.185545},{"distance":3191,"i_long":106.79689,"station_id":"PLM","i_lat":-6.207404,"line":6,"transit":false,"station_name":"Palmerah","is_transit":false,"time":6},{"line":6,"distance":3737,"i_lat":-6.237242,"station_id":"KBY","station_name":"Kebayoran","time":7,"transit":false,"i_long":106.780334,"is_transit":false},{"time":8,"i_lat":-6.276362,"i_long":106.74273,"station_id":"PDJ","distance":6218,"station_name":"Pondokranji","line":6,"is_transit":false,"transit":false},{"is_transit":false,"distance":2179,"station_name":"Jurangmangu","transit":false,"i_lat":-6.288927,"station_id":"JMU","time":3,"i_long":106.728916,"line":6},{"line":6,"time":4,"station_id":"SDM","i_long":106.712277,"distance":1994,"transit":false,"is_transit":false,"station_name":"Sudimara","i_lat":-6.296963},{"station_id":"RU","i_long":106.675475,"i_lat":-6.314823,"transit":false,"station_name":"Rawa Buntu","time":6,"is_transit":false,"distance":4566,"line":6},{"time":4,"transit":false,"line":6,"station_name":"Serpong","station_id":"SRP","distance":2413,"is_transit":false,"i_long":106.66566,"i_lat":-6.319871},{"station_id":"CSK","is_transit":false,"i_long":106.640411,"time":4,"transit":false,"i_lat":-6.32484,"station_name":"Cisauk","distance":1784,"line":3},{"time":4,"line":3,"i_lat":-6.329547,"station_name":"Cicayur","i_long":106.617853,"station_id":"CC","distance":2519,"transit":false,"is_transit":false},{"line":6,"i_lat":-6.3441410000000005,"is_transit":false,"transit":false,"distance":5968,"station_name":"Parung Panjang","station_id":"PRP","time":8,"i_long":106.568863},{"i_long":106.508482,"line":3,"transit":false,"time":9,"station_name":"Cilejit","station_id":"CJT","distance":7025,"is_transit":false,"i_lat":-6.354349}],[{"i_long":106.939679,"distance":0,"transit":false,"line":1,"station_id":"KLDB","i_lat":-6.217455,"station_name":"Klenderbaru","is_transit":false,"time":0},{"station_id":"BUA","i_long":106.922662,"distance":1305,"line":1,"station_name":"Buaran","transit":false,"time":1,"is_transit":false,"i_lat":-6.215568},{"i_long":106.899548,"i_lat":-6.2135,"transit":false,"station_name":"Klender","is_transit":false,"time":2,"line":1,"distance":3100,"station_id":"KLD"},{"line":1,"i_long":106.86807400000001,"is_transit":true,"time":3,"station_name":"Jatinegara","i_lat":-6.215091,"transit":true,"station_id":"JNG","distance":3395},{"is_transit":false,"station_id":"POK","distance":1236,"i_lat":-6.209188,"line":11,"transit":false,"i_long":106.861737,"time":2,"station_name":"Pondok Jati"},{"transit":false,"i_long":106.855437,"distance":1829,"station_name":"Kramat","is_transit":false,"line":11,"station_id":"KMT","time":2,"i_lat":-6.193792},{"i_long":106.850107,"station_name":"Gang Sentiong","i_lat":-6.185975,"line":11,"distance":973,"is_transit":false,"transit":false,"time":1,"station_id":"GST"},{"station_id":"PSE","transit":false,"is_transit":false,"station_name":"Pasar Senen","time":8,"distance":1567,"i_long":106.84368,"line":11,"i_lat":-6.174784},{"distance":1436,"time":4,"station_name":"Kemayoran","is_transit":false,"i_lat":-6.161728,"station_id":"KMO","transit":false,"i_long":106.839204,"line":11},{"i_lat":-6.14505,"station_id":"RJW","i_long":106.836569,"time":5,"line":11,"station_name":"Rajawali","is_transit":false,"distance":1901,"transit":false},{"time":3,"station_name":"Kampung Bandan","transit":true,"i_long":106.826365,"station_id":"KPB","is_transit":true,"distance":1444,"i_lat":-6.132549,"line":4},{"i_lat":-6.137569,"transit":true,"time":3,"station_name":"Jakarta Kota","distance":1364,"line":2,"station_id":"JAKK","i_long":106.812439,"is_transit":true},{"i_long":106.820901,"station_id":"JAY","distance":1264,"i_lat":-6.141205,"station_name":"Jayakarta","transit":false,"line":2,"is_transit":false,"time":4},{"station_name":"Manggabesar","station_id":"MGB","line":2,"time":2,"is_transit":false,"distance":1080,"i_lat":-6.149769,"i_long":106.82482,"transit":false},{"station_id":"SW","line":2,"i_long":106.827103,"time":2,"station_name":"Sawah Besar","transit":false,"distance":906,"is_transit":false,"i_lat":-6.160725},{"time":2,"i_long":106.828284,"distance":1149,"line":2,"is_transit":false,"station_id":"JUA","station_name":"Juanda","i_lat":-6.166716,"transit":false},{"time":4,"station_id":"GDD","i_long":106.832183,"transit":false,"i_lat":-6.186295,"is_transit":false,"station_name":"Gondangdia","distance":2015,"line":2},{"distance":1750,"station_id":"CKI","time":3,"is_transit":false,"i_lat":-6.198556,"i_long":106.840169,"line":2,"station_name":"Cikini","transit":false},{"i_lat":-6.209883,"time":4,"distance":1590,"is_transit":true,"transit":true,"i_long":106.84912,"station_name":"Manggarai","line":2,"station_id":"MRI"},{"station_id":"SUD","distance":3186,"i_lat":-6.202263,"station_name":"Sudirman","i_long":106.822649,"transit":false,"line":1,"is_transit":false,"time":4},{"transit":false,"station_name":"Sudirman Baru","i_lat":-6.201433,"i_long":106.819881,"time":1,"distance":280,"line":1,"is_transit":false,"station_id":"SUDB"},{"is_transit":false,"time":1,"transit":false,"distance":471,"line":1,"i_lat":-6.20132,"i_long":106.816351,"station_id":"KAT","station_name":"Karet"},{"line":1,"i_long":106.811091,"i_lat":-6.185545,"time":5,"distance":2029,"station_id":"THB","station_name":"Tanah Abang","transit":true,"is_transit":true},{"line":6,"time":6,"is_transit":false,"i_long":106.79689,"station_id":"PLM","transit":false,"station_name":"Palmerah","distance":3191,"i_lat":-6.207404},{"is_transit":false,"time":7,"transit":false,"i_lat":-6.237242,"distance":3737,"station_id":"KBY","line":6,"i_long":106.780334,"station_name":"Kebayoran"},{"time":8,"distance":6218,"line":6,"is_transit":false,"transit":false,"i_long":106.74273,"station_id":"PDJ","i_lat":-6.276362,"station_name":"Pondokranji"},{"is_transit":false,"time":3,"station_id":"JMU","distance":2179,"line":6,"i_long":106.728916,"station_name":"Jurangmangu","i_lat":-6.288927,"transit":false},{"i_lat":-6.296963,"transit":false,"station_id":"SDM","station_name":"Sudimara","distance":1994,"time":4,"is_transit":false,"i_long":106.712277,"line":6},{"time":6,"is_transit":false,"transit":false,"station_name":"Rawa Buntu","station_id":"RU","i_lat":-6.314823,"i_long":106.675475,"line":6,"distance":4566},{"station_id":"SRP","time":4,"station_name":"Serpong","is_transit":false,"i_lat":-6.319871,"transit":false,"distance":2413,"line":6,"i_long":106.66566},{"i_lat":-6.32484,"line":3,"station_id":"CSK","is_transit":false,"time":4,"station_name":"Cisauk","transit":false,"distance":1784,"i_long":106.640411},{"time":4,"station_id":"CC","station_name":"Cicayur","i_lat":-6.329547,"is_transit":false,"distance":2519,"i_long":106.617853,"transit":false,"line":3},{"line":6,"i_lat":-6.3441410000000005,"station_name":"Parung Panjang","station_id":"PRP","is_transit":false,"i_long":106.568863,"time":8,"transit":false,"distance":5968},{"is_transit":false,"time":9,"distance":7025,"line":3,"station_name":"Cilejit","i_long":106.508482,"transit":false,"station_id":"CJT","i_lat":-6.354349}]]}