{"data":[[{"station_name":"Klenderbaru","is_transit":false,"line":1,"distance":0,"transit":false,"i_long":106.939679,"i_lat":-6.217455,"station_id":"KLDB","time":0},{"distance":1305,"is_transit":false,"i_long":106.922662,"station_id":"BUA","station_name":"Buaran","i_lat":-6.215568,"time":1,"transit":false,"line":1},{"is_transit":false,"i_long":106.899548,"line":1,"i_lat":-6.2135,"station_name":"Klender","transit":false,"distance":3100,"station_id":"KLD","time":2},{"line":1,"station_id":"JNG","station_name":"Jatinegara","distance":3395,"i_lat":-6.215091,"is_transit":false,"time":3,"transit":false,"i_long":106.86807400000001},{"time":2,"station_name":"Matraman","is_transit":false,"transit":false,"distance":1377,"line":1,"station_id":"MTR","i_lat":-6.212485,"i_long":106.858896},{"distance":1275,"station_name":"Manggarai","station_id":"MRI","is_transit":true,"i_long":106.84912,"i_lat":-6.209883,"line":2,"time":2,"transit":true},{"distance":2610,"i_lat":-6.226659,"station_name":"Tebet","station_id":"TEB","line":2,"i_long":106.857948,"transit":false,"time":4,"is_transit":false},{"station_id":"CW","distance":1230,"time":2,"i_lat":-6.242512,"transit":false,"line":2,"i_long":106.856607,"station_name":"Cawang","is_transit":false},{"station_name":"Duren Kalibata","i_long":106.85449,"time":3,"i_lat":-6.255332,"is_transit":false,"distance":1546,"station_id":"DRN","line":2,"transit":false},{"is_transit":false,"i_lat":-6.263214,"station_name":"Pasar Minggu Baru","station_id":"PSMB","time":2,"line":2,"i_long":106.851577,"transit":false,"distance":824},{"station_name":"Pasar Minggu","transit":false,"is_transit":false,"station_id":"PSM","i_long":106.843999,"time":2,"distance":2380,"i_lat":-6.2842400000000005,"line":2},{"transit":false,"station_id":"TNT","i_long":106.838896,"line":2,"time":4,"station_name":"Tanjung Barat","is_transit":false,"i_lat":-6.3080680000000005,"distance":2820},{"transit":false,"station_id":"LNA","station_name":"Lenteng Agung","distance":2671,"i_lat":-6.330363,"line":2,"is_transit":false,"i_long":106.832616,"time":3},{"station_name":"Univ. Pancasila","i_lat":-6.339291,"i_long":106.834175,"transit":false,"distance":1029,"station_id":"UP","line":2,"is_transit":false,"time":2},{"is_transit":false,"transit":false,"i_lat":-6.360749,"station_name":"Univ. Indonesia","line":2,"distance":2264,"time":3,"i_long":106.831474,"station_id":"UI"},{"is_transit":false,"i_lat":-6.369073,"i_long":106.831114,"transit":false,"station_name":"Pondok Cina","distance":1109,"station_id":"POC","line":2,"time":2},{"station_name":"Depokbaru","line":2,"distance":2727,"station_id":"DPB","transit":false,"i_long":106.819451,"is_transit":false,"time":4,"i_lat":-6.391065},{"line":2,"i_lat":-6.405256,"station_name":"Depok","time":3,"i_long":106.816926,"station_id":"DP","is_transit":false,"distance":1584,"transit":false},{"i_lat":-6.448811,"i_long":106.800298,"line":2,"time":6,"transit":true,"is_transit":true,"station_name":"Citayam","station_id":"CTA","distance":5084},{"i_long":106.824374,"distance":0,"i_lat":-6.460735,"time":0,"is_transit":false,"line":21,"station_name":"Pondok Rajeg","transit":false,"station_id":"PDRG"},{"is_transit":false,"i_lat":-6.46424,"distance":0,"station_name":"Cibinong","transit":false,"station_id":"CBN","i_long":106.851978,"time":0,"line":21}],[{"station_name":"Klenderbaru","station_id":"KLDB","i_lat":-6.217455,"time":0,"is_transit":false,"transit":false,"line":1,"i_long":106.939679,"distance":0},{"station_id":"BUA","is_transit":false,"transit":false,"line":1,"i_lat":-6.215568,"time":1,"i_long":106.922662,"distance":1305,"station_name":"Buaran"},{"is_transit":false,"station_id":"KLD","distance":3100,"line":1,"transit":false,"i_lat":-6.2135,"station_name":"Klender","time":2,"i_long":106.899548},{"i_long":106.86807400000001,"station_name":"Jatinegara","station_id":"JNG","line":1,"i_lat":-6.215091,"distance":3395,"transit":true,"is_transit":true,"time":3},{"transit":false,"is_transit":false,"time":2,"distance":1236,"i_long":106.861737,"station_name":"Pondok Jati","station_id":"POK","i_lat":-6.209188,"line":11},{"i_long":106.855437,"station_name":"Kramat","time":2,"station_id":"KMT","distance":1829,"i_lat":-6.193792,"transit":false,"is_transit":false,"line":11},{"transit":false,"i_long":106.850107,"line":11,"is_transit":false,"i_lat":-6.185975,"distance":973,"time":1,"station_id":"GST","station_name":"Gang Sentiong"},{"i_long":106.84368,"line":11,"time":8,"transit":false,"station_name":"Pasar Senen","station_id":"PSE","distance":1567,"is_transit":false,"i_lat":-6.174784},{"i_long":106.839204,"transit":false,"time":4,"station_id":"KMO","station_name":"Kemayoran","line":11,"distance":1436,"i_lat":-6.161728,"is_transit":false},{"distance":1901,"station_name":"Rajawali","station_id":"RJW","i_lat":-6.14505,"i_long":106.836569,"transit":false,"line":11,"time":5,"is_transit":false},{"station_id":"KPB","line":4,"is_transit":true,"time":3,"station_name":"Kampung Bandan","distance":1444,"i_lat":-6.132549,"transit":true,"i_long":106.826365},{"line":1,"distance":4102,"station_id":"AK","i_lat":-6.144674,"time":9,"is_transit":false,"station_name":"Angke","transit":false,"i_long":106.79867},{"i_long":106.800832,"time":4,"distance":1230,"is_transit":false,"transit":false,"station_name":"Duri","station_id":"DU","i_lat":-6.155215,"line":1},{"is_transit":false,"station_name":"Tanah Abang","i_lat":-6.185545,"line":1,"time":8,"distance":3632,"i_long":106.811091,"station_id":"THB","transit":false},{"line":1,"distance":2029,"i_lat":-6.20132,"is_transit":false,"transit":false,"station_id":"KAT","time":5,"i_long":106.816351,"station_name":"Karet"},{"i_lat":-6.201433,"station_name":"Sudirman Baru","i_long":106.819881,"time":1,"distance":471,"is_transit":false,"line":1,"transit":false,"station_id":"SUDB"},{"distance":280,"line":1,"time":1,"transit":false,"i_long":106.822649,"is_transit":false,"station_name":"Sudirman","station_id":"SUD","i_lat":-6.202263},{"transit":true,"line":2,"station_id":"MRI","distance":3186,"station_name":"Manggarai","is_transit":true,"time":4,"i_lat":-6.209883,"i_long":106.84912},{"transit":false,"station_id":"TEB","is_transit":false,"i_long":106.857948,"station_name":"Tebet","i_lat":-6.226659,"time":4,"line":2,"distance":2610},{"station_id":"CW","time":2,"distance":1230,"transit":false,"station_name":"Cawang","i_lat":-6.242512,"i_long":106.856607,"line":2,"is_transit":false},{"is_transit":false,"i_long":106.85449,"i_lat":-6.255332,"station_id":"DRN","station_name":"Duren Kalibata","time":3,"transit":false,"line":2,"distance":1546},{"is_transit":false,"transit":false,"i_lat":-6.263214,"i_long":106.851577,"station_name":"Pasar Minggu Baru","time":2,"line":2,"distance":824,"station_id":"PSMB"},{"station_id":"PSM","line":2,"transit":false,"distance":2380,"station_name":"Pasar Minggu","i_long":106.843999,"i_lat":-6.2842400000000005,"time":2,"is_transit":false},{"station_name":"Tanjung Barat","is_transit":false,"station_id":"TNT","i_long":106.838896,"time":4,"distance":2820,"transit":false,"line":2,"i_lat":-6.3080680000000005},{"station_id":"LNA","station_name":"Lenteng Agung","distance":2671,"i_long":106.832616,"transit":false,"is_transit":false,"i_lat":-6.330363,"time":3,"line":2},{"time":2,"distance":1029,"station_name":"Univ. Pancasila","i_long":106.834175,"is_transit":false,"station_id":"UP","transit":false,"i_lat":-6.339291,"line":2},{"station_id":"UI","station_name":"Univ. Indonesia","line":2,"distance":2264,"transit":false,"i_long":106.831474,"is_transit":false,"i_lat":-6.360749,"time":3},{"transit":false,"time":2,"station_id":"POC","i_lat":-6.369073,"line":2,"i_long":106.831114,"station_name":"Pondok Cina","distance":1109,"is_transit":false},{"i_lat":-6.391065,"is_transit":false,"distance":2727,"transit":false,"station_name":"Depokbaru","station_id":"DPB","line":2,"time":4,"i_long":106.819451},{"distance":1584,"station_id":"DP","transit":false,"is_transit":false,"line":2,"station_name":"Depok","time":3,"i_lat":-6.405256,"i_long":106.816926},{"i_long":106.800298,"station_name":"Citayam","station_id":"CTA","time":6,"i_lat":-6.448811,"line":2,"distance":5084,"transit":true,"is_transit":true},{"time":0,"station_id":"PDRG","i_lat":-6.460735,"station_name":"Pondok Rajeg","transit":false,"i_long":106.824374,"line":21,"is_transit":false,"distance":0},{"station_id":"CBN","station_name":"Cibinong","transit":false,"distance":0,"i_lat":-6.46424,"time":0,"i_long":106.851978,"is_transit":false,"line":21}],[{"station_id":"KLDB","transit":false,"time":0,"i_long":106.939679,"station_name":"Klenderbaru","line":1,"distance":0,"is_transit":false,"i_lat":-6.217455},{"distance":1305,"station_name":"Buaran","time":1,"transit":false,"station_id":"BUA","is_transit":false,"i_lat":-6.215568,"line":1,"i_long":106.922662},{"transit":false,"is_transit":false,"station_id":"KLD","station_name":"Klender","i_lat":-6.2135,"i_long":106.899548,"line":1,"time":2,"distance":3100},{"i_lat":-6.215091,"station_id":"JNG","line":1,"distance":3395,"i_long":106.86807400000001,"is_transit":true,"transit":true,"time":3,"station_name":"Jatinegara"},{"i_lat":-6.209188,"line":11,"i_long":106.861737,"transit":false,"time":2,"station_id":"POK","distance":1236,"station_name":"Pondok Jati","is_transit":false},{"i_long":106.855437,"time":2,"i_lat":-6.193792,"station_name":"Kramat","distance":1829,"is_transit":false,"transit":false,"line":11,"station_id":"KMT"},{"is_transit":false,"transit":false,"time":1,"i_lat":-6.185975,"line":11,"station_id":"GST","i_long":106.850107,"distance":973,"station_name":"Gang Sentiong"},{"distance":1567,"station_id":"PSE","i_long":106.84368,"line":11,"i_lat":-6.174784,"transit":false,"station_name":"Pasar Senen","is_transit":false,"time":8},{"distance":1436,"line":11,"is_transit":false,"i_long":106.839204,"time":4,"transit":false,"i_lat":-6.161728,"station_id":"KMO","station_name":"Kemayoran"},{"i_lat":-6.14505,"line":11,"distance":1901,"station_name":"Rajawali","transit":false,"is_transit":false,"i_long":106.836569,"station_id":"RJW","time":5},{"station_id":"KPB","i_lat":-6.132549,"time":3,"station_name":"Kampung Bandan","transit":true,"i_long":106.826365,"distance":1444,"is_transit":true,"line":4},{"time":3,"i_lat":-6.137569,"i_long":106.812439,"station_name":"Jakarta Kota","is_transit":true,"transit":true,"line":2,"distance":1364,"station_id":"JAKK"},{"line":2,"time":4,"station_name":"Jayakarta","transit":false,"distance":1264,"i_long":106.820901,"i_lat":-6.141205,"is_transit":false,"station_id":"JAY"},{"station_name":"Manggabesar","i_long":106.82482,"line":2,"is_transit":false,"transit":false,"time":2,"station_id":"MGB","distance":1080,"i_lat":-6.149769},{"station_id":"SW","i_long":106.827103,"time":2,"is_transit":false,"distance":906,"i_lat":-6.160725,"line":2,"transit":false,"station_name":"Sawah Besar"},{"i_long":106.828284,"station_id":"JUA","station_name":"Juanda","transit":false,"i_lat":-6.166716,"distance":1149,"line":2,"time":2,"is_transit":false},{"time":4,"line":2,"distance":2015,"station_id":"GDD","i_lat":-6.186295,"is_transit":false,"transit":false,"station_name":"Gondangdia","i_long":106.832183},{"station_id":"CKI","i_long":106.840169,"line":2,"distance":1750,"station_name":"Cikini","is_transit":false,"i_lat":-6.198556,"transit":false,"time":3},{"time":4,"distance":1590,"transit":false,"is_transit":false,"line":2,"i_long":106.84912,"station_id":"MRI","i_lat":-6.209883,"station_name":"Manggarai"},{"transit":false,"is_transit":false,"i_long":106.857948,"time":4,"distance":2610,"i_lat":-6.226659,"station_name":"Tebet","line":2,"station_id":"TEB"},{"time":2,"station_id":"CW","i_long":106.856607,"transit":false,"line":2,"i_lat":-6.242512,"distance":1230,"station_name":"Cawang","is_transit":false},{"time":3,"line":2,"transit":false,"i_long":106.85449,"i_lat":-6.255332,"is_transit":false,"station_id":"DRN","distance":1546,"station_name":"Duren Kalibata"},{"i_long":106.851577,"time":2,"station_name":"Pasar Minggu Baru","transit":false,"line":2,"is_transit":false,"station_id":"PSMB","distance":824,"i_lat":-6.263214},{"station_name":"Pasar Minggu","is_transit":false,"i_lat":-6.2842400000000005,"station_id":"PSM","transit":false,"line":2,"distance":2380,"time":2,"i_long":106.843999},{"line":2,"distance":2820,"is_transit":false,"time":4,"station_name":"Tanjung Barat","transit":false,"i_lat":-6.3080680000000005,"station_id":"TNT","i_long":106.838896},{"station_id":"LNA","transit":false,"is_transit":false,"line":2,"i_long":106.832616,"time":3,"i_lat":-6.330363,"distance":2671,"station_name":"Lenteng Agung"},{"i_long":106.834175,"time":2,"transit":false,"station_name":"Univ. Pancasila","i_lat":-6.339291,"line":2,"distance":1029,"is_transit":false,"station_id":"UP"},{"distance":2264,"station_id":"UI","i_long":106.831474,"line":2,"station_name":"Univ. Indonesia","transit":false,"i_lat":-6.360749,"is_transit":false,"time":3},{"distance":1109,"station_name":"Pondok Cina","transit":false,"station_id":"POC","i_lat":-6.369073,"i_long":106.831114,"is_transit":false,"line":2,"time":2},{"distance":2727,"transit":false,"station_id":"DPB","i_long":106.819451,"is_transit":false,"line":2,"time":4,"i_lat":-6.391065,"station_name":"Depokbaru"},{"line":2,"transit":false,"time":3,"is_transit":false,"i_long":106.816926,"station_id":"DP","distance":1584,"i_lat":-6.405256,"station_name":"Depok"},{"line":2,"time":6,"station_name":"Citayam","transit":true,"i_lat":-6.448811,"distance":5084,"station_id":"CTA","is_transit":true,"i_long":106.800298},{"distance":0,"station_id":"PDRG","station_name":"Pondok Rajeg","transit":false,"i_long":106.824374,"i_lat":-6.460735,"line":21,"time":0,"is_transit":false},{"time":0,"distance":0,"station_name":"Cibinong","transit":false,"i_long":106.851978,"line":21,"is_transit":false,"i_lat":-6.46424,"station_id":"CBN"}]]}