{"data":[[{"is_transit":false,"i_long":106.939679,"i_lat":-6.217455,"transit":false,"distance":0,"time":0,"line":1,"station_name":"Klenderbaru","station_id":"KLDB"},{"distance":1305,"i_lat":-6.215568,"station_name":"Buaran","station_id":"BUA","transit":false,"time":1,"i_long":106.922662,"line":0,"is_transit":false},{"i_long":106.899548,"i_lat":-6.2135,"is_transit":false,"time":2,"station_name":"Klender","distance":3100,"transit":false,"line":1,"station_id":"KLD"},{"distance":3395,"i_long":106.86807400000001,"station_name":"Jatinegara","i_lat":-6.215091,"transit":false,"line":0,"station_id":"JNG","is_transit":true,"time":3},{"line":1,"i_long":106.858896,"station_name":"Matraman","station_id":"MTR","i_lat":-6.212485,"is_transit":false,"transit":false,"time":2,"distance":1377},{"transit":true,"i_long":106.84912,"time":2,"station_id":"MRI","i_lat":-6.209883,"line":0,"station_name":"Manggarai","distance":1275,"is_transit":true},{"i_lat":-6.226659,"transit":false,"i_long":106.857948,"line":2,"is_transit":false,"distance":2610,"time":4,"station_name":"Tebet","station_id":"TEB"},{"i_long":106.856607,"time":2,"distance":1230,"is_transit":false,"transit":false,"line":0,"station_name":"Cawang","i_lat":-6.242512,"station_id":"CW"},{"i_lat":-6.255332,"i_long":106.85449,"line":0,"time":3,"is_transit":false,"distance":1546,"station_id":"DRN","transit":false,"station_name":"Duren Kalibata"},{"i_lat":-6.263214,"line":2,"i_long":106.851577,"transit":false,"time":2,"station_id":"PSMB","is_transit":false,"distance":824,"station_name":"Pasar Minggu Baru"},{"i_long":106.843999,"is_transit":false,"station_name":"Pasar Minggu","i_lat":-6.2842400000000005,"time":2,"station_id":"PSM","transit":false,"line":2,"distance":2380},{"distance":2820,"transit":false,"station_id":"TNT","i_long":106.838896,"time":4,"station_name":"Tanjung Barat","line":2,"is_transit":false,"i_lat":-6.3080680000000005},{"time":3,"distance":2671,"station_name":"Lenteng Agung","transit":false,"i_lat":-6.330363,"i_long":106.832616,"line":2,"is_transit":false,"station_id":"LNA"},{"station_name":"Univ. Pancasila","line":2,"transit":false,"i_lat":-6.339291,"station_id":"UP","is_transit":false,"i_long":106.834175,"time":2,"distance":1029},{"station_id":"UI","time":3,"is_transit":false,"station_name":"Univ. Indonesia","i_long":106.831474,"distance":2264,"i_lat":-6.360749,"transit":false,"line":2},{"time":2,"i_long":106.831114,"station_id":"POC","line":2,"station_name":"Pondok Cina","distance":1109,"i_lat":-6.369073,"is_transit":false,"transit":false},{"transit":false,"station_name":"Depokbaru","station_id":"DPB","distance":2727,"i_lat":-6.391065,"time":4,"is_transit":false,"i_long":106.819451,"line":0},{"is_transit":false,"time":3,"i_long":106.816926,"transit":false,"distance":1584,"line":0,"i_lat":-6.405256,"station_name":"Depok","station_id":"DP"},{"i_lat":-6.448811,"i_long":106.800298,"transit":false,"line":1,"distance":5084,"time":6,"is_transit":true,"station_name":"Citayam","station_id":"CTA"},{"i_lat":-6.493243,"time":5,"line":0,"i_long":106.792719,"station_id":"BJD","is_transit":false,"distance":5197,"transit":false,"station_name":"Bojonggede"}],[{"i_lat":-6.217455,"line":1,"transit":false,"station_name":"Klenderbaru","is_transit":false,"i_long":106.939679,"time":0,"station_id":"KLDB","distance":0},{"time":1,"i_lat":-6.215568,"station_id":"BUA","station_name":"Buaran","distance":1305,"transit":false,"i_long":106.922662,"line":0,"is_transit":false},{"station_id":"KLD","i_lat":-6.2135,"distance":3100,"transit":false,"line":1,"station_name":"Klender","i_long":106.899548,"time":2,"is_transit":false},{"time":3,"station_name":"Jatinegara","i_long":106.86807400000001,"i_lat":-6.215091,"is_transit":true,"transit":true,"distance":3395,"line":0,"station_id":"JNG"},{"station_id":"POK","i_lat":-6.209188,"is_transit":false,"distance":1236,"transit":false,"station_name":"Pondok Jati","i_long":106.861737,"line":11,"time":2},{"is_transit":false,"station_id":"KMT","distance":1829,"station_name":"Kramat","transit":false,"i_lat":-6.193792,"i_long":106.855437,"line":11,"time":2},{"station_name":"Gang Sentiong","distance":973,"station_id":"GST","i_lat":-6.185975,"line":11,"time":1,"is_transit":false,"i_long":106.850107,"transit":false},{"i_lat":-6.174784,"distance":1567,"station_id":"PSE","time":8,"i_long":106.84368,"transit":false,"is_transit":false,"station_name":"Pasar Senen","line":11},{"is_transit":false,"transit":false,"line":11,"station_name":"Kemayoran","time":4,"distance":1436,"station_id":"KMO","i_lat":-6.161728,"i_long":106.839204},{"line":11,"station_id":"RJW","i_long":106.836569,"is_transit":false,"station_name":"Rajawali","i_lat":-6.14505,"time":5,"distance":1901,"transit":false},{"i_long":106.826365,"i_lat":-6.132549,"station_id":"KPB","line":0,"distance":1444,"station_name":"Kampung Bandan","is_transit":true,"transit":true,"time":3},{"time":9,"i_lat":-6.144674,"is_transit":false,"transit":false,"i_long":106.79867,"line":0,"distance":4102,"station_id":"AK","station_name":"Angke"},{"line":1,"distance":1230,"i_long":106.800832,"is_transit":true,"transit":true,"time":4,"station_id":"DU","station_name":"Duri","i_lat":-6.155215},{"line":1,"i_lat":-6.185545,"station_id":"THB","station_name":"Tanah Abang","distance":3632,"is_transit":true,"transit":false,"i_long":106.811091,"time":8},{"time":5,"station_name":"Karet","line":1,"i_long":106.816351,"distance":2029,"is_transit":false,"i_lat":-6.20132,"transit":false,"station_id":"KAT"},{"distance":471,"i_lat":-6.201433,"line":1,"i_long":106.819881,"is_transit":false,"transit":false,"time":1,"station_id":"SUDB","station_name":"Sudirman Baru"},{"i_lat":-6.202263,"station_id":"SUD","time":1,"distance":280,"is_transit":false,"station_name":"Sudirman","line":1,"i_long":106.822649,"transit":false},{"i_lat":-6.209883,"station_id":"MRI","distance":3186,"i_long":106.84912,"station_name":"Manggarai","transit":true,"is_transit":true,"time":4,"line":0},{"station_name":"Tebet","i_lat":-6.226659,"line":2,"time":4,"distance":2610,"i_long":106.857948,"station_id":"TEB","is_transit":false,"transit":false},{"i_long":106.856607,"line":0,"station_id":"CW","station_name":"Cawang","i_lat":-6.242512,"is_transit":false,"time":2,"distance":1230,"transit":false},{"station_id":"DRN","distance":1546,"i_lat":-6.255332,"i_long":106.85449,"line":0,"time":3,"transit":false,"is_transit":false,"station_name":"Duren Kalibata"},{"is_transit":false,"i_lat":-6.263214,"transit":false,"line":2,"time":2,"distance":824,"station_name":"Pasar Minggu Baru","station_id":"PSMB","i_long":106.851577},{"i_lat":-6.2842400000000005,"station_name":"Pasar Minggu","i_long":106.843999,"line":2,"station_id":"PSM","distance":2380,"time":2,"transit":false,"is_transit":false},{"station_name":"Tanjung Barat","line":2,"distance":2820,"transit":false,"i_long":106.838896,"is_transit":false,"station_id":"TNT","time":4,"i_lat":-6.3080680000000005},{"station_id":"LNA","distance":2671,"time":3,"i_long":106.832616,"line":2,"i_lat":-6.330363,"station_name":"Lenteng Agung","transit":false,"is_transit":false},{"i_long":106.834175,"distance":1029,"i_lat":-6.339291,"station_name":"Univ. Pancasila","line":2,"transit":false,"station_id":"UP","is_transit":false,"time":2},{"station_name":"Univ. Indonesia","transit":false,"station_id":"UI","distance":2264,"time":3,"i_lat":-6.360749,"is_transit":false,"line":2,"i_long":106.831474},{"station_id":"POC","is_transit":false,"time":2,"station_name":"Pondok Cina","i_lat":-6.369073,"distance":1109,"transit":false,"i_long":106.831114,"line":2},{"station_id":"DPB","is_transit":false,"line":0,"station_name":"Depokbaru","i_long":106.819451,"i_lat":-6.391065,"transit":false,"distance":2727,"time":4},{"station_name":"Depok","station_id":"DP","i_long":106.816926,"time":3,"transit":false,"is_transit":false,"i_lat":-6.405256,"distance":1584,"line":0},{"station_name":"Citayam","is_transit":true,"line":1,"transit":false,"i_long":106.800298,"distance":5084,"station_id":"CTA","i_lat":-6.448811,"time":6},{"distance":5197,"station_name":"Bojonggede","is_transit":false,"line":0,"transit":false,"time":5,"station_id":"BJD","i_lat":-6.493243,"i_long":106.792719}],[{"i_long":106.939679,"is_transit":false,"line":1,"time":0,"transit":false,"station_id":"KLDB","i_lat":-6.217455,"distance":0,"station_name":"Klenderbaru"},{"i_lat":-6.215568,"is_transit":false,"time":1,"transit":false,"station_id":"BUA","station_name":"Buaran","distance":1305,"i_long":106.922662,"line":0},{"distance":3100,"line":1,"time":2,"station_name":"Klender","is_transit":false,"i_long":106.899548,"transit":false,"station_id":"KLD","i_lat":-6.2135},{"station_id":"JNG","station_name":"Jatinegara","is_transit":true,"distance":3395,"line":0,"i_long":106.86807400000001,"i_lat":-6.215091,"transit":true,"time":3},{"i_long":106.861737,"station_id":"POK","i_lat":-6.209188,"time":2,"is_transit":false,"distance":1236,"transit":false,"line":11,"station_name":"Pondok Jati"},{"station_name":"Kramat","time":2,"i_long":106.855437,"line":11,"transit":false,"distance":1829,"station_id":"KMT","i_lat":-6.193792,"is_transit":false},{"time":1,"distance":973,"station_id":"GST","station_name":"Gang Sentiong","i_long":106.850107,"line":11,"transit":false,"i_lat":-6.185975,"is_transit":false},{"station_id":"PSE","time":8,"line":11,"station_name":"Pasar Senen","transit":false,"i_lat":-6.174784,"is_transit":false,"i_long":106.84368,"distance":1567},{"i_long":106.839204,"transit":false,"i_lat":-6.161728,"station_name":"Kemayoran","line":11,"station_id":"KMO","is_transit":false,"time":4,"distance":1436},{"line":11,"transit":false,"is_transit":false,"station_name":"Rajawali","station_id":"RJW","i_long":106.836569,"time":5,"distance":1901,"i_lat":-6.14505},{"transit":true,"time":3,"distance":1444,"station_name":"Kampung Bandan","i_lat":-6.132549,"station_id":"KPB","is_transit":true,"i_long":106.826365,"line":0},{"i_long":106.812439,"time":3,"distance":1364,"i_lat":-6.137569,"station_name":"Jakarta Kota","station_id":"JAKK","transit":true,"line":0,"is_transit":true},{"station_id":"JAY","distance":1264,"transit":false,"time":4,"station_name":"Jayakarta","is_transit":false,"i_lat":-6.141205,"i_long":106.820901,"line":7},{"distance":1080,"line":2,"is_transit":false,"transit":false,"time":2,"station_name":"Manggabesar","station_id":"MGB","i_lat":-6.149769,"i_long":106.82482},{"i_lat":-6.160725,"is_transit":false,"distance":906,"i_long":106.827103,"transit":false,"line":2,"time":2,"station_name":"Sawah Besar","station_id":"SW"},{"station_id":"JUA","transit":false,"time":2,"is_transit":false,"station_name":"Juanda","line":2,"i_lat":-6.166716,"distance":1149,"i_long":106.828284},{"transit":false,"station_name":"Gondangdia","i_lat":-6.186295,"time":4,"i_long":106.832183,"is_transit":false,"station_id":"GDD","line":2,"distance":2015},{"station_name":"Cikini","time":3,"i_lat":-6.198556,"station_id":"CKI","line":0,"distance":1750,"i_long":106.840169,"is_transit":false,"transit":false},{"i_long":106.84912,"line":0,"station_name":"Manggarai","i_lat":-6.209883,"distance":1590,"transit":true,"station_id":"MRI","time":4,"is_transit":true},{"transit":false,"i_long":106.857948,"time":4,"line":2,"is_transit":false,"station_id":"TEB","i_lat":-6.226659,"distance":2610,"station_name":"Tebet"},{"i_lat":-6.242512,"line":0,"i_long":106.856607,"distance":1230,"station_name":"Cawang","is_transit":false,"station_id":"CW","time":2,"transit":false},{"is_transit":false,"transit":false,"distance":1546,"line":0,"station_name":"Duren Kalibata","i_long":106.85449,"station_id":"DRN","i_lat":-6.255332,"time":3},{"transit":false,"line":2,"time":2,"distance":824,"is_transit":false,"i_long":106.851577,"station_id":"PSMB","i_lat":-6.263214,"station_name":"Pasar Minggu Baru"},{"station_name":"Pasar Minggu","i_long":106.843999,"distance":2380,"i_lat":-6.2842400000000005,"line":2,"time":2,"is_transit":false,"transit":false,"station_id":"PSM"},{"i_lat":-6.3080680000000005,"distance":2820,"line":2,"station_name":"Tanjung Barat","time":4,"is_transit":false,"station_id":"TNT","transit":false,"i_long":106.838896},{"time":3,"transit":false,"i_lat":-6.330363,"i_long":106.832616,"distance":2671,"station_name":"Lenteng Agung","is_transit":false,"station_id":"LNA","line":2},{"i_long":106.834175,"station_name":"Univ. Pancasila","i_lat":-6.339291,"is_transit":false,"distance":1029,"time":2,"station_id":"UP","transit":false,"line":2},{"station_name":"Univ. Indonesia","i_long":106.831474,"distance":2264,"time":3,"line":2,"i_lat":-6.360749,"station_id":"UI","is_transit":false,"transit":false},{"distance":1109,"i_lat":-6.369073,"line":2,"i_long":106.831114,"station_name":"Pondok Cina","station_id":"POC","is_transit":false,"transit":false,"time":2},{"i_lat":-6.391065,"line":0,"station_name":"Depokbaru","is_transit":false,"station_id":"DPB","i_long":106.819451,"distance":2727,"transit":false,"time":4},{"is_transit":false,"i_lat":-6.405256,"time":3,"station_id":"DP","i_long":106.816926,"distance":1584,"station_name":"Depok","line":0,"transit":false},{"station_name":"Citayam","i_long":106.800298,"line":1,"station_id":"CTA","is_transit":true,"transit":false,"distance":5084,"i_lat":-6.448811,"time":6},{"station_name":"Bojonggede","distance":5197,"i_lat":-6.493243,"i_long":106.792719,"line":0,"is_transit":false,"time":5,"transit":false,"station_id":"BJD"}]]}