{"data":[[{"station_id":"KLDB","distance":0,"is_transit":false,"i_long":106.939679,"station_name":"Klenderbaru","time":0,"transit":false,"i_lat":-6.217455,"line":1},{"time":1,"i_lat":-6.215568,"is_transit":false,"station_id":"BUA","i_long":106.922662,"distance":1305,"transit":false,"line":1,"station_name":"Buaran"},{"station_id":"KLD","is_transit":false,"time":2,"distance":3100,"i_long":106.899548,"i_lat":-6.2135,"station_name":"Klender","transit":false,"line":1},{"is_transit":false,"i_long":106.86807400000001,"i_lat":-6.215091,"station_id":"JNG","line":1,"time":3,"distance":3395,"transit":false,"station_name":"Jatinegara"},{"i_long":106.858896,"is_transit":false,"i_lat":-6.212485,"distance":1377,"line":1,"transit":false,"station_name":"Matraman","station_id":"MTR","time":2},{"transit":true,"i_long":106.84912,"station_name":"Manggarai","distance":1275,"is_transit":true,"i_lat":-6.209883,"line":2,"time":2,"station_id":"MRI"},{"transit":false,"station_name":"Tebet","distance":2610,"line":2,"is_transit":false,"time":4,"i_long":106.857948,"station_id":"TEB","i_lat":-6.226659},{"transit":false,"i_long":106.856607,"is_transit":false,"i_lat":-6.242512,"time":2,"line":2,"station_id":"CW","station_name":"Cawang","distance":1230},{"time":3,"is_transit":false,"transit":false,"station_id":"DRN","i_long":106.85449,"station_name":"Duren Kalibata","i_lat":-6.255332,"line":2,"distance":1546},{"transit":false,"station_name":"Pasar Minggu Baru","i_long":106.851577,"distance":824,"time":2,"station_id":"PSMB","i_lat":-6.263214,"is_transit":false,"line":2},{"station_name":"Pasar Minggu","transit":false,"station_id":"PSM","is_transit":false,"distance":2380,"i_lat":-6.2842400000000005,"i_long":106.843999,"time":2,"line":2},{"transit":false,"i_long":106.838896,"distance":2820,"i_lat":-6.3080680000000005,"time":4,"station_name":"Tanjung Barat","station_id":"TNT","line":2,"is_transit":false},{"transit":false,"time":3,"i_lat":-6.330363,"station_id":"LNA","is_transit":false,"station_name":"Lenteng Agung","distance":2671,"i_long":106.832616,"line":2},{"line":2,"station_name":"Univ. Pancasila","time":2,"transit":false,"station_id":"UP","i_lat":-6.339291,"is_transit":false,"i_long":106.834175,"distance":1029},{"station_id":"UI","station_name":"Univ. Indonesia","time":3,"i_long":106.831474,"distance":2264,"transit":false,"line":2,"is_transit":false,"i_lat":-6.360749},{"is_transit":false,"time":2,"i_long":106.831114,"line":2,"station_name":"Pondok Cina","station_id":"POC","i_lat":-6.369073,"distance":1109,"transit":false},{"station_name":"Depokbaru","distance":2727,"is_transit":false,"i_long":106.819451,"line":2,"i_lat":-6.391065,"transit":false,"station_id":"DPB","time":4},{"transit":false,"is_transit":false,"i_long":106.816926,"distance":1584,"i_lat":-6.405256,"station_id":"DP","time":3,"station_name":"Depok","line":2},{"i_long":106.800298,"time":6,"station_id":"CTA","is_transit":false,"station_name":"Citayam","distance":5084,"i_lat":-6.448811,"transit":false,"line":2},{"time":5,"i_long":106.792719,"transit":false,"is_transit":false,"distance":5197,"station_name":"Bojonggede","i_lat":-6.493243,"line":2,"station_id":"BJD"}],[{"is_transit":false,"i_lat":-6.217455,"transit":false,"station_name":"Klenderbaru","time":0,"line":1,"i_long":106.939679,"distance":0,"station_id":"KLDB"},{"is_transit":false,"line":1,"station_id":"BUA","i_long":106.922662,"distance":1305,"i_lat":-6.215568,"transit":false,"time":1,"station_name":"Buaran"},{"station_id":"KLD","station_name":"Klender","i_lat":-6.2135,"line":1,"i_long":106.899548,"time":2,"transit":false,"is_transit":false,"distance":3100},{"time":3,"i_lat":-6.215091,"is_transit":true,"transit":true,"line":1,"distance":3395,"station_id":"JNG","station_name":"Jatinegara","i_long":106.86807400000001},{"distance":1236,"line":11,"i_lat":-6.209188,"i_long":106.861737,"station_name":"Pondok Jati","time":2,"transit":false,"station_id":"POK","is_transit":false},{"is_transit":false,"i_lat":-6.193792,"transit":false,"line":11,"time":2,"distance":1829,"station_id":"KMT","station_name":"Kramat","i_long":106.855437},{"station_name":"Gang Sentiong","time":1,"line":11,"station_id":"GST","i_lat":-6.185975,"distance":973,"is_transit":false,"i_long":106.850107,"transit":false},{"station_name":"Pasar Senen","line":11,"is_transit":false,"i_lat":-6.174784,"time":8,"transit":false,"i_long":106.84368,"station_id":"PSE","distance":1567},{"station_id":"KMO","line":11,"time":4,"is_transit":false,"transit":false,"station_name":"Kemayoran","i_lat":-6.161728,"distance":1436,"i_long":106.839204},{"is_transit":false,"distance":1901,"i_long":106.836569,"station_id":"RJW","line":11,"time":5,"station_name":"Rajawali","i_lat":-6.14505,"transit":false},{"is_transit":true,"transit":true,"time":3,"i_long":106.826365,"station_name":"Kampung Bandan","distance":1444,"station_id":"KPB","i_lat":-6.132549,"line":4},{"transit":false,"i_long":106.79867,"station_name":"Angke","time":9,"distance":4102,"station_id":"AK","i_lat":-6.144674,"line":1,"is_transit":false},{"distance":1230,"is_transit":false,"i_lat":-6.155215,"i_long":106.800832,"transit":false,"station_name":"Duri","station_id":"DU","time":4,"line":1},{"station_id":"THB","distance":3632,"i_long":106.811091,"time":8,"station_name":"Tanah Abang","is_transit":false,"transit":false,"line":1,"i_lat":-6.185545},{"is_transit":false,"i_lat":-6.20132,"i_long":106.816351,"station_name":"Karet","distance":2029,"line":1,"transit":false,"station_id":"KAT","time":5},{"station_id":"SUDB","transit":false,"distance":471,"i_lat":-6.201433,"line":1,"station_name":"Sudirman Baru","is_transit":false,"time":1,"i_long":106.819881},{"time":1,"i_long":106.822649,"station_name":"Sudirman","i_lat":-6.202263,"line":1,"distance":280,"transit":false,"station_id":"SUD","is_transit":false},{"i_lat":-6.209883,"time":4,"is_transit":true,"transit":true,"distance":3186,"station_id":"MRI","station_name":"Manggarai","line":2,"i_long":106.84912},{"transit":false,"line":2,"is_transit":false,"distance":2610,"time":4,"i_long":106.857948,"station_name":"Tebet","i_lat":-6.226659,"station_id":"TEB"},{"is_transit":false,"distance":1230,"line":2,"time":2,"transit":false,"station_name":"Cawang","i_long":106.856607,"station_id":"CW","i_lat":-6.242512},{"i_lat":-6.255332,"line":2,"station_id":"DRN","time":3,"is_transit":false,"i_long":106.85449,"station_name":"Duren Kalibata","distance":1546,"transit":false},{"i_lat":-6.263214,"line":2,"is_transit":false,"station_id":"PSMB","station_name":"Pasar Minggu Baru","transit":false,"i_long":106.851577,"distance":824,"time":2},{"i_lat":-6.2842400000000005,"station_name":"Pasar Minggu","station_id":"PSM","line":2,"transit":false,"time":2,"distance":2380,"i_long":106.843999,"is_transit":false},{"i_lat":-6.3080680000000005,"i_long":106.838896,"line":2,"station_name":"Tanjung Barat","distance":2820,"is_transit":false,"station_id":"TNT","transit":false,"time":4},{"station_id":"LNA","transit":false,"distance":2671,"line":2,"station_name":"Lenteng Agung","i_lat":-6.330363,"i_long":106.832616,"time":3,"is_transit":false},{"time":2,"is_transit":false,"station_name":"Univ. Pancasila","station_id":"UP","i_lat":-6.339291,"distance":1029,"transit":false,"i_long":106.834175,"line":2},{"distance":2264,"i_lat":-6.360749,"station_name":"Univ. Indonesia","i_long":106.831474,"transit":false,"station_id":"UI","line":2,"time":3,"is_transit":false},{"transit":false,"time":2,"distance":1109,"station_id":"POC","station_name":"Pondok Cina","line":2,"is_transit":false,"i_long":106.831114,"i_lat":-6.369073},{"transit":false,"is_transit":false,"station_id":"DPB","line":2,"distance":2727,"time":4,"i_lat":-6.391065,"station_name":"Depokbaru","i_long":106.819451},{"distance":1584,"time":3,"i_long":106.816926,"transit":false,"station_id":"DP","is_transit":false,"line":2,"station_name":"Depok","i_lat":-6.405256},{"line":2,"transit":false,"distance":5084,"time":6,"i_long":106.800298,"station_name":"Citayam","station_id":"CTA","is_transit":false,"i_lat":-6.448811},{"line":2,"i_lat":-6.493243,"station_id":"BJD","i_long":106.792719,"transit":false,"is_transit":false,"station_name":"Bojonggede","time":5,"distance":5197}],[{"i_lat":-6.217455,"station_name":"Klenderbaru","transit":false,"distance":0,"i_long":106.939679,"station_id":"KLDB","line":1,"is_transit":false,"time":0},{"is_transit":false,"i_long":106.922662,"station_id":"BUA","line":1,"transit":false,"station_name":"Buaran","time":1,"i_lat":-6.215568,"distance":1305},{"station_id":"KLD","distance":3100,"time":2,"is_transit":false,"station_name":"Klender","i_long":106.899548,"line":1,"i_lat":-6.2135,"transit":false},{"is_transit":true,"station_name":"Jatinegara","station_id":"JNG","distance":3395,"i_lat":-6.215091,"i_long":106.86807400000001,"transit":true,"time":3,"line":1},{"is_transit":false,"time":2,"distance":1236,"station_name":"Pondok Jati","station_id":"POK","i_long":106.861737,"line":11,"transit":false,"i_lat":-6.209188},{"transit":false,"distance":1829,"station_name":"Kramat","time":2,"i_long":106.855437,"line":11,"i_lat":-6.193792,"is_transit":false,"station_id":"KMT"},{"is_transit":false,"station_id":"GST","i_lat":-6.185975,"time":1,"station_name":"Gang Sentiong","i_long":106.850107,"transit":false,"distance":973,"line":11},{"line":11,"distance":1567,"is_transit":false,"i_lat":-6.174784,"time":8,"i_long":106.84368,"station_id":"PSE","station_name":"Pasar Senen","transit":false},{"i_long":106.839204,"station_name":"Kemayoran","station_id":"KMO","is_transit":false,"distance":1436,"transit":false,"line":11,"i_lat":-6.161728,"time":4},{"line":11,"station_name":"Rajawali","is_transit":false,"transit":false,"time":5,"station_id":"RJW","i_lat":-6.14505,"distance":1901,"i_long":106.836569},{"station_id":"KPB","i_lat":-6.132549,"transit":true,"is_transit":true,"distance":1444,"time":3,"station_name":"Kampung Bandan","i_long":106.826365,"line":4},{"is_transit":true,"time":3,"distance":1364,"i_long":106.812439,"line":2,"i_lat":-6.137569,"transit":true,"station_id":"JAKK","station_name":"Jakarta Kota"},{"transit":false,"i_lat":-6.141205,"distance":1264,"i_long":106.820901,"is_transit":false,"time":4,"station_id":"JAY","line":2,"station_name":"Jayakarta"},{"transit":false,"distance":1080,"i_lat":-6.149769,"station_id":"MGB","line":2,"station_name":"Manggabesar","is_transit":false,"time":2,"i_long":106.82482},{"line":2,"time":2,"distance":906,"station_name":"Sawah Besar","i_lat":-6.160725,"transit":false,"is_transit":false,"station_id":"SW","i_long":106.827103},{"station_id":"JUA","i_long":106.828284,"i_lat":-6.166716,"distance":1149,"transit":false,"line":2,"time":2,"station_name":"Juanda","is_transit":false},{"transit":false,"is_transit":false,"time":4,"station_id":"GDD","i_lat":-6.186295,"station_name":"Gondangdia","distance":2015,"i_long":106.832183,"line":2},{"time":3,"distance":1750,"station_name":"Cikini","i_lat":-6.198556,"station_id":"CKI","is_transit":false,"i_long":106.840169,"transit":false,"line":2},{"distance":1590,"station_id":"MRI","i_long":106.84912,"line":2,"is_transit":false,"i_lat":-6.209883,"transit":false,"time":4,"station_name":"Manggarai"},{"i_long":106.857948,"is_transit":false,"distance":2610,"station_id":"TEB","i_lat":-6.226659,"station_name":"Tebet","line":2,"time":4,"transit":false},{"line":2,"time":2,"is_transit":false,"station_name":"Cawang","transit":false,"station_id":"CW","distance":1230,"i_lat":-6.242512,"i_long":106.856607},{"transit":false,"station_name":"Duren Kalibata","station_id":"DRN","distance":1546,"i_long":106.85449,"i_lat":-6.255332,"line":2,"is_transit":false,"time":3},{"is_transit":false,"station_id":"PSMB","station_name":"Pasar Minggu Baru","distance":824,"transit":false,"i_long":106.851577,"time":2,"i_lat":-6.263214,"line":2},{"is_transit":false,"i_long":106.843999,"line":2,"transit":false,"distance":2380,"i_lat":-6.2842400000000005,"station_name":"Pasar Minggu","station_id":"PSM","time":2},{"distance":2820,"i_long":106.838896,"station_id":"TNT","is_transit":false,"line":2,"station_name":"Tanjung Barat","i_lat":-6.3080680000000005,"time":4,"transit":false},{"time":3,"is_transit":false,"i_lat":-6.330363,"station_id":"LNA","i_long":106.832616,"line":2,"distance":2671,"transit":false,"station_name":"Lenteng Agung"},{"transit":false,"line":2,"time":2,"distance":1029,"station_name":"Univ. Pancasila","is_transit":false,"station_id":"UP","i_lat":-6.339291,"i_long":106.834175},{"is_transit":false,"time":3,"distance":2264,"station_name":"Univ. Indonesia","transit":false,"i_long":106.831474,"i_lat":-6.360749,"line":2,"station_id":"UI"},{"time":2,"i_lat":-6.369073,"i_long":106.831114,"line":2,"station_id":"POC","transit":false,"distance":1109,"is_transit":false,"station_name":"Pondok Cina"},{"time":4,"is_transit":false,"i_long":106.819451,"station_name":"Depokbaru","transit":false,"distance":2727,"station_id":"DPB","line":2,"i_lat":-6.391065},{"time":3,"transit":false,"distance":1584,"station_id":"DP","i_long":106.816926,"station_name":"Depok","i_lat":-6.405256,"is_transit":false,"line":2},{"transit":false,"line":2,"station_name":"Citayam","is_transit":false,"time":6,"distance":5084,"station_id":"CTA","i_lat":-6.448811,"i_long":106.800298},{"i_long":106.792719,"station_name":"Bojonggede","time":5,"is_transit":false,"transit":false,"line":2,"distance":5197,"station_id":"BJD","i_lat":-6.493243}]]}