{"data":[[{"distance":0,"is_transit":false,"station_id":"KLDB","transit":false,"station_name":"Klenderbaru","i_lat":-6.217455,"time":0,"i_long":106.939679,"line":1},{"station_name":"Cakung","is_transit":false,"distance":1385,"i_long":106.951283,"time":8,"station_id":"CUK","line":0,"transit":false,"i_lat":-6.219053},{"i_lat":-6.224515,"station_name":"Kranji","time":3,"line":1,"distance":3097,"transit":false,"station_id":"KRI","i_long":106.977657,"is_transit":false},{"station_id":"BKS","is_transit":false,"station_name":"Bekasi","transit":false,"distance":2520,"i_lat":-6.236616,"line":0,"time":4,"i_long":106.997013},{"i_lat":-6.248029,"time":2,"is_transit":false,"i_long":107.016735,"distance":2368,"line":0,"station_name":"Bekasi Timur","transit":false,"station_id":"BKST"},{"time":7,"is_transit":false,"station_id":"TB","i_lat":-6.258864,"transit":false,"distance":4460,"station_name":"Tambun","i_long":107.055722,"line":1},{"i_long":107.083084,"i_lat":-6.261877,"station_id":"CIT","line":0,"is_transit":false,"time":3,"distance":3420,"station_name":"Cibitung","transit":false},{"station_name":"Metland Telaga Murni","time":2,"station_id":"TLM","distance":2800,"line":1,"is_transit":false,"i_long":107.093313,"transit":false,"i_lat":-6.262938},{"is_transit":false,"distance":3689,"i_long":107.144613,"i_lat":-6.2553149999999995,"station_id":"CKR","time":4,"line":0,"station_name":"Cikarang","transit":false}]]}