{"data":[[{"i_long":106.939679,"distance":0,"is_transit":false,"i_lat":-6.217455,"time":0,"transit":false,"station_name":"Klenderbaru","station_id":"KLDB","line":1},{"time":1,"i_long":106.922662,"distance":1305,"station_name":"Buaran","is_transit":false,"station_id":"BUA","i_lat":-6.215568,"transit":false,"line":0},{"station_name":"Klender","transit":false,"station_id":"KLD","is_transit":false,"i_lat":-6.2135,"i_long":106.899548,"time":2,"distance":3100,"line":1},{"i_long":106.86807400000001,"line":0,"i_lat":-6.215091,"distance":3395,"transit":false,"station_id":"JNG","station_name":"Jatinegara","is_transit":true,"time":3},{"line":1,"time":2,"distance":1377,"is_transit":false,"transit":false,"i_lat":-6.212485,"i_long":106.858896,"station_id":"MTR","station_name":"Matraman"},{"is_transit":true,"station_id":"MRI","i_long":106.84912,"line":0,"time":2,"station_name":"Manggarai","transit":false,"i_lat":-6.209883,"distance":1275},{"time":4,"station_name":"Sudirman","i_lat":-6.202263,"distance":3186,"i_long":106.822649,"transit":false,"station_id":"SUD","line":1,"is_transit":false},{"is_transit":false,"distance":280,"transit":false,"station_id":"SUDB","i_lat":-6.201433,"station_name":"Sudirman Baru","i_long":106.819881,"line":1,"time":1},{"i_long":106.816351,"station_id":"KAT","is_transit":false,"transit":false,"station_name":"Karet","distance":471,"line":1,"i_lat":-6.20132,"time":1},{"station_id":"THB","station_name":"Tanah Abang","is_transit":true,"transit":false,"line":1,"i_long":106.811091,"time":5,"i_lat":-6.185545,"distance":2029},{"i_long":106.800832,"station_name":"Duri","is_transit":true,"station_id":"DU","transit":true,"time":8,"distance":3632,"i_lat":-6.155215,"line":1},{"transit":false,"is_transit":false,"time":3,"i_lat":-6.162021,"i_long":106.788277,"station_name":"Grogol","distance":1700,"line":5,"station_id":"GGL"},{"time":2,"transit":false,"station_name":"Pesing","i_lat":-6.161433,"line":5,"i_long":106.771379,"is_transit":false,"distance":2036,"station_id":"PSG"},{"distance":1614,"station_id":"TKO","is_transit":false,"i_long":106.756522,"time":2,"station_name":"Taman Kota","transit":false,"i_lat":-6.1587309999999995,"line":5},{"time":2,"station_id":"BOI","i_lat":-6.159876,"i_long":106.737035,"distance":2334,"line":0,"station_name":"Bojongindah","transit":false,"is_transit":false},{"is_transit":false,"i_lat":-6.162758,"station_id":"RW","line":5,"transit":false,"station_name":"Rawa Buaya","time":4,"distance":1152,"i_long":106.723064},{"i_lat":-6.166068,"station_id":"KDS","transit":false,"line":5,"distance":2504,"station_name":"Kalideres","time":3,"i_long":106.701612,"is_transit":false}],[{"station_name":"Klenderbaru","is_transit":false,"time":0,"transit":false,"station_id":"KLDB","i_lat":-6.217455,"distance":0,"line":1,"i_long":106.939679},{"time":1,"distance":1305,"i_long":106.922662,"station_name":"Buaran","i_lat":-6.215568,"station_id":"BUA","transit":false,"is_transit":false,"line":0},{"station_name":"Klender","is_transit":false,"time":2,"station_id":"KLD","transit":false,"i_long":106.899548,"line":1,"distance":3100,"i_lat":-6.2135},{"transit":true,"i_long":106.86807400000001,"i_lat":-6.215091,"line":0,"station_name":"Jatinegara","time":3,"station_id":"JNG","is_transit":true,"distance":3395},{"is_transit":false,"time":2,"distance":1236,"i_long":106.861737,"station_id":"POK","station_name":"Pondok Jati","i_lat":-6.209188,"transit":false,"line":11},{"station_id":"KMT","distance":1829,"transit":false,"is_transit":false,"line":11,"time":2,"i_long":106.855437,"i_lat":-6.193792,"station_name":"Kramat"},{"i_lat":-6.185975,"time":1,"transit":false,"line":11,"distance":973,"station_name":"Gang Sentiong","is_transit":false,"i_long":106.850107,"station_id":"GST"},{"station_id":"PSE","station_name":"Pasar Senen","line":11,"distance":1567,"is_transit":false,"transit":false,"i_lat":-6.174784,"i_long":106.84368,"time":8},{"station_name":"Kemayoran","is_transit":false,"i_long":106.839204,"time":4,"station_id":"KMO","line":11,"distance":1436,"i_lat":-6.161728,"transit":false},{"station_name":"Rajawali","time":5,"line":11,"transit":false,"station_id":"RJW","i_long":106.836569,"i_lat":-6.14505,"is_transit":false,"distance":1901},{"line":0,"is_transit":true,"station_id":"KPB","time":3,"i_lat":-6.132549,"station_name":"Kampung Bandan","distance":1444,"transit":true,"i_long":106.826365},{"is_transit":false,"distance":4102,"station_name":"Angke","time":9,"transit":false,"i_lat":-6.144674,"i_long":106.79867,"line":0,"station_id":"AK"},{"is_transit":true,"station_name":"Duri","transit":true,"time":4,"i_long":106.800832,"distance":1230,"line":1,"station_id":"DU","i_lat":-6.155215},{"line":5,"i_long":106.788277,"is_transit":false,"station_id":"GGL","station_name":"Grogol","distance":1700,"transit":false,"time":3,"i_lat":-6.162021},{"line":5,"transit":false,"i_lat":-6.161433,"station_name":"Pesing","distance":2036,"time":2,"station_id":"PSG","is_transit":false,"i_long":106.771379},{"station_id":"TKO","transit":false,"time":2,"distance":1614,"station_name":"Taman Kota","i_lat":-6.1587309999999995,"i_long":106.756522,"line":5,"is_transit":false},{"time":2,"station_id":"BOI","distance":2334,"station_name":"Bojongindah","transit":false,"i_long":106.737035,"is_transit":false,"i_lat":-6.159876,"line":0},{"line":5,"station_id":"RW","station_name":"Rawa Buaya","is_transit":false,"time":4,"i_lat":-6.162758,"distance":1152,"transit":false,"i_long":106.723064},{"time":3,"distance":2504,"line":5,"is_transit":false,"i_lat":-6.166068,"transit":false,"i_long":106.701612,"station_name":"Kalideres","station_id":"KDS"}],[{"line":1,"i_lat":-6.217455,"i_long":106.939679,"station_id":"KLDB","station_name":"Klenderbaru","is_transit":false,"distance":0,"transit":false,"time":0},{"i_long":106.922662,"line":0,"transit":false,"is_transit":false,"station_id":"BUA","i_lat":-6.215568,"time":1,"station_name":"Buaran","distance":1305},{"time":2,"i_lat":-6.2135,"station_name":"Klender","distance":3100,"station_id":"KLD","is_transit":false,"transit":false,"i_long":106.899548,"line":1},{"is_transit":true,"time":3,"station_name":"Jatinegara","i_lat":-6.215091,"line":0,"transit":false,"i_long":106.86807400000001,"distance":3395,"station_id":"JNG"},{"is_transit":false,"transit":false,"i_lat":-6.212485,"station_name":"Matraman","distance":1377,"i_long":106.858896,"line":1,"station_id":"MTR","time":2},{"station_id":"MRI","line":0,"i_long":106.84912,"time":2,"distance":1275,"station_name":"Manggarai","transit":true,"is_transit":true,"i_lat":-6.209883},{"i_long":106.840169,"station_name":"Cikini","distance":1590,"line":0,"transit":false,"station_id":"CKI","is_transit":false,"time":4,"i_lat":-6.198556},{"station_name":"Gondangdia","i_long":106.832183,"transit":false,"station_id":"GDD","time":3,"is_transit":false,"distance":1750,"line":2,"i_lat":-6.186295},{"station_name":"Juanda","distance":2015,"transit":false,"line":2,"time":4,"station_id":"JUA","i_long":106.828284,"i_lat":-6.166716,"is_transit":false},{"station_id":"SW","is_transit":false,"time":2,"distance":1149,"transit":false,"i_lat":-6.160725,"i_long":106.827103,"line":2,"station_name":"Sawah Besar"},{"i_lat":-6.149769,"line":2,"transit":false,"distance":906,"time":2,"is_transit":false,"i_long":106.82482,"station_id":"MGB","station_name":"Manggabesar"},{"station_id":"JAY","transit":false,"i_lat":-6.141205,"distance":1080,"is_transit":false,"time":2,"station_name":"Jayakarta","i_long":106.820901,"line":7},{"distance":1264,"line":0,"station_id":"JAKK","time":4,"transit":true,"i_lat":-6.137569,"i_long":106.812439,"is_transit":true,"station_name":"Jakarta Kota"},{"time":3,"i_lat":-6.132549,"is_transit":true,"station_name":"Kampung Bandan","i_long":106.826365,"line":0,"transit":false,"station_id":"KPB","distance":1364},{"distance":4102,"is_transit":false,"station_id":"AK","station_name":"Angke","i_lat":-6.144674,"i_long":106.79867,"line":0,"transit":false,"time":9},{"transit":true,"i_lat":-6.155215,"is_transit":true,"i_long":106.800832,"line":1,"station_name":"Duri","time":4,"station_id":"DU","distance":1230},{"station_name":"Grogol","station_id":"GGL","time":3,"transit":false,"line":5,"i_lat":-6.162021,"distance":1700,"is_transit":false,"i_long":106.788277},{"transit":false,"line":5,"station_name":"Pesing","is_transit":false,"time":2,"distance":2036,"i_long":106.771379,"i_lat":-6.161433,"station_id":"PSG"},{"distance":1614,"i_lat":-6.1587309999999995,"station_id":"TKO","transit":false,"time":2,"i_long":106.756522,"line":5,"station_name":"Taman Kota","is_transit":false},{"distance":2334,"line":0,"is_transit":false,"station_name":"Bojongindah","transit":false,"time":2,"station_id":"BOI","i_lat":-6.159876,"i_long":106.737035},{"station_id":"RW","distance":1152,"i_long":106.723064,"i_lat":-6.162758,"station_name":"Rawa Buaya","time":4,"is_transit":false,"transit":false,"line":5},{"distance":2504,"station_id":"KDS","i_long":106.701612,"time":3,"line":5,"is_transit":false,"transit":false,"station_name":"Kalideres","i_lat":-6.166068}],[{"i_lat":-6.217455,"distance":0,"station_name":"Klenderbaru","is_transit":false,"station_id":"KLDB","line":1,"time":0,"i_long":106.939679,"transit":false},{"time":1,"i_long":106.922662,"station_id":"BUA","transit":false,"distance":1305,"i_lat":-6.215568,"is_transit":false,"station_name":"Buaran","line":0},{"i_long":106.899548,"is_transit":false,"station_id":"KLD","i_lat":-6.2135,"transit":false,"time":2,"line":1,"station_name":"Klender","distance":3100},{"i_long":106.86807400000001,"distance":3395,"station_id":"JNG","i_lat":-6.215091,"transit":true,"is_transit":true,"time":3,"line":0,"station_name":"Jatinegara"},{"distance":1236,"station_name":"Pondok Jati","line":11,"time":2,"station_id":"POK","is_transit":false,"i_lat":-6.209188,"transit":false,"i_long":106.861737},{"is_transit":false,"distance":1829,"station_id":"KMT","transit":false,"i_lat":-6.193792,"line":11,"time":2,"station_name":"Kramat","i_long":106.855437},{"station_id":"GST","time":1,"distance":973,"i_lat":-6.185975,"station_name":"Gang Sentiong","line":11,"is_transit":false,"i_long":106.850107,"transit":false},{"station_id":"PSE","transit":false,"i_long":106.84368,"line":11,"time":8,"is_transit":false,"station_name":"Pasar Senen","distance":1567,"i_lat":-6.174784},{"is_transit":false,"station_id":"KMO","transit":false,"time":4,"i_long":106.839204,"line":11,"station_name":"Kemayoran","distance":1436,"i_lat":-6.161728},{"transit":false,"distance":1901,"i_lat":-6.14505,"line":11,"station_name":"Rajawali","station_id":"RJW","time":5,"i_long":106.836569,"is_transit":false},{"station_name":"Kampung Bandan","distance":1444,"i_long":106.826365,"is_transit":true,"station_id":"KPB","line":0,"transit":true,"i_lat":-6.132549,"time":3},{"is_transit":true,"station_name":"Jakarta Kota","i_lat":-6.137569,"distance":1364,"i_long":106.812439,"line":0,"station_id":"JAKK","time":3,"transit":true},{"time":4,"line":7,"i_lat":-6.141205,"station_id":"JAY","transit":false,"station_name":"Jayakarta","is_transit":false,"distance":1264,"i_long":106.820901},{"i_long":106.82482,"time":2,"station_name":"Manggabesar","is_transit":false,"distance":1080,"transit":false,"i_lat":-6.149769,"line":2,"station_id":"MGB"},{"distance":906,"transit":false,"station_id":"SW","line":2,"station_name":"Sawah Besar","i_long":106.827103,"is_transit":false,"time":2,"i_lat":-6.160725},{"station_name":"Juanda","station_id":"JUA","time":2,"distance":1149,"i_lat":-6.166716,"i_long":106.828284,"is_transit":false,"transit":false,"line":2},{"i_lat":-6.186295,"station_id":"GDD","time":4,"station_name":"Gondangdia","distance":2015,"line":2,"i_long":106.832183,"transit":false,"is_transit":false},{"transit":false,"station_name":"Cikini","i_lat":-6.198556,"i_long":106.840169,"time":3,"is_transit":false,"line":0,"distance":1750,"station_id":"CKI"},{"distance":1590,"i_long":106.84912,"transit":true,"time":4,"line":0,"station_name":"Manggarai","i_lat":-6.209883,"station_id":"MRI","is_transit":true},{"line":1,"i_lat":-6.202263,"distance":3186,"time":4,"station_id":"SUD","i_long":106.822649,"transit":false,"station_name":"Sudirman","is_transit":false},{"station_id":"SUDB","distance":280,"transit":false,"time":1,"station_name":"Sudirman Baru","i_long":106.819881,"is_transit":false,"i_lat":-6.201433,"line":1},{"station_name":"Karet","station_id":"KAT","is_transit":false,"transit":false,"i_lat":-6.20132,"line":1,"distance":471,"time":1,"i_long":106.816351},{"time":5,"is_transit":true,"transit":false,"station_id":"THB","station_name":"Tanah Abang","i_lat":-6.185545,"line":1,"i_long":106.811091,"distance":2029},{"i_lat":-6.155215,"station_id":"DU","i_long":106.800832,"station_name":"Duri","distance":3632,"is_transit":true,"transit":true,"line":1,"time":8},{"station_id":"GGL","station_name":"Grogol","i_lat":-6.162021,"is_transit":false,"i_long":106.788277,"transit":false,"time":3,"line":5,"distance":1700},{"station_id":"PSG","station_name":"Pesing","transit":false,"line":5,"i_long":106.771379,"is_transit":false,"distance":2036,"time":2,"i_lat":-6.161433},{"time":2,"is_transit":false,"transit":false,"distance":1614,"i_lat":-6.1587309999999995,"i_long":106.756522,"station_name":"Taman Kota","line":5,"station_id":"TKO"},{"station_id":"BOI","i_long":106.737035,"is_transit":false,"time":2,"line":0,"distance":2334,"transit":false,"i_lat":-6.159876,"station_name":"Bojongindah"},{"is_transit":false,"line":5,"i_long":106.723064,"time":4,"distance":1152,"station_name":"Rawa Buaya","station_id":"RW","transit":false,"i_lat":-6.162758},{"station_id":"KDS","time":3,"station_name":"Kalideres","is_transit":false,"distance":2504,"i_lat":-6.166068,"transit":false,"i_long":106.701612,"line":5}]]}