{"data":[[{"distance":0,"station_id":"KMO","transit":false,"time":0,"i_lat":-6.161728,"i_long":106.839204,"line":11,"is_transit":false,"station_name":"Kemayoran"},{"i_long":106.836569,"i_lat":-6.14505,"line":11,"station_id":"RJW","distance":1901,"transit":false,"time":5,"is_transit":false,"station_name":"Rajawali"},{"transit":true,"is_transit":true,"i_long":106.826365,"station_id":"KPB","station_name":"Kampung Bandan","i_lat":-6.132549,"line":4,"time":3,"distance":1444},{"station_name":"Jakarta Kota","distance":1364,"transit":true,"time":3,"line":2,"station_id":"JAKK","is_transit":true,"i_long":106.812439,"i_lat":-6.137569},{"is_transit":false,"line":2,"i_long":106.820901,"i_lat":-6.141205,"station_name":"Jayakarta","station_id":"JAY","transit":false,"distance":1264,"time":4}],[{"time":0,"station_name":"Kemayoran","is_transit":false,"line":11,"station_id":"KMO","distance":0,"i_long":106.839204,"i_lat":-6.161728,"transit":false},{"station_name":"Pasar Senen","station_id":"PSE","distance":1436,"i_lat":-6.174784,"transit":false,"is_transit":false,"time":4,"i_long":106.84368,"line":11},{"time":8,"distance":1567,"station_name":"Gang Sentiong","station_id":"GST","is_transit":false,"i_long":106.850107,"line":11,"transit":false,"i_lat":-6.185975},{"line":11,"i_lat":-6.193792,"i_long":106.855437,"distance":973,"station_id":"KMT","station_name":"Kramat","time":1,"transit":false,"is_transit":false},{"station_name":"Pondok Jati","i_lat":-6.209188,"time":2,"station_id":"POK","is_transit":false,"line":11,"distance":1829,"transit":false,"i_long":106.861737},{"time":9,"i_lat":-6.215091,"station_id":"JNG","transit":true,"distance":1236,"station_name":"Jatinegara","i_long":106.86807400000001,"line":1,"is_transit":true},{"station_id":"MTR","distance":1377,"station_name":"Matraman","is_transit":false,"transit":false,"line":1,"i_lat":-6.212485,"time":2,"i_long":106.858896},{"is_transit":true,"time":2,"station_name":"Manggarai","transit":true,"i_long":106.84912,"station_id":"MRI","i_lat":-6.209883,"line":2,"distance":1275},{"transit":false,"line":2,"is_transit":false,"station_id":"CKI","distance":1590,"i_lat":-6.198556,"time":4,"i_long":106.840169,"station_name":"Cikini"},{"station_id":"GDD","is_transit":false,"distance":1750,"line":2,"transit":false,"time":3,"station_name":"Gondangdia","i_lat":-6.186295,"i_long":106.832183},{"transit":false,"i_long":106.828284,"station_id":"JUA","time":4,"distance":2015,"is_transit":false,"i_lat":-6.166716,"line":2,"station_name":"Juanda"},{"line":2,"time":2,"i_long":106.827103,"is_transit":false,"distance":1149,"station_name":"Sawah Besar","transit":false,"station_id":"SW","i_lat":-6.160725},{"station_name":"Manggabesar","distance":906,"transit":false,"i_long":106.82482,"is_transit":false,"station_id":"MGB","i_lat":-6.149769,"line":2,"time":2},{"transit":false,"time":2,"is_transit":false,"station_name":"Jayakarta","i_long":106.820901,"i_lat":-6.141205,"distance":1080,"station_id":"JAY","line":2}],[{"i_long":106.839204,"transit":false,"station_name":"Kemayoran","line":11,"distance":0,"is_transit":false,"station_id":"KMO","i_lat":-6.161728,"time":0},{"station_name":"Rajawali","line":11,"i_lat":-6.14505,"station_id":"RJW","time":5,"is_transit":false,"i_long":106.836569,"distance":1901,"transit":false},{"i_long":106.826365,"station_id":"KPB","time":3,"i_lat":-6.132549,"line":4,"station_name":"Kampung Bandan","transit":true,"is_transit":true,"distance":1444},{"transit":false,"i_lat":-6.144674,"i_long":106.79867,"distance":4102,"is_transit":false,"line":1,"time":9,"station_name":"Angke","station_id":"AK"},{"i_lat":-6.155215,"time":4,"station_id":"DU","is_transit":false,"transit":false,"i_long":106.800832,"station_name":"Duri","line":1,"distance":1230},{"i_lat":-6.185545,"line":1,"i_long":106.811091,"transit":false,"distance":3632,"time":8,"station_name":"Tanah Abang","is_transit":false,"station_id":"THB"},{"distance":2029,"station_name":"Karet","is_transit":false,"i_long":106.816351,"line":1,"transit":false,"i_lat":-6.20132,"time":5,"station_id":"KAT"},{"time":1,"i_long":106.819881,"station_id":"SUDB","distance":471,"is_transit":false,"i_lat":-6.201433,"transit":false,"station_name":"Sudirman Baru","line":1},{"distance":280,"station_id":"SUD","time":1,"transit":false,"i_lat":-6.202263,"line":1,"station_name":"Sudirman","is_transit":false,"i_long":106.822649},{"transit":true,"i_long":106.84912,"station_id":"MRI","i_lat":-6.209883,"line":2,"distance":3186,"is_transit":true,"time":4,"station_name":"Manggarai"},{"station_id":"CKI","is_transit":false,"transit":false,"distance":1590,"station_name":"Cikini","i_long":106.840169,"line":2,"time":4,"i_lat":-6.198556},{"i_lat":-6.186295,"i_long":106.832183,"line":2,"station_name":"Gondangdia","is_transit":false,"time":3,"distance":1750,"transit":false,"station_id":"GDD"},{"line":2,"station_id":"JUA","is_transit":false,"distance":2015,"transit":false,"time":4,"i_lat":-6.166716,"station_name":"Juanda","i_long":106.828284},{"transit":false,"station_name":"Sawah Besar","station_id":"SW","distance":1149,"i_long":106.827103,"time":2,"is_transit":false,"i_lat":-6.160725,"line":2},{"time":2,"i_long":106.82482,"transit":false,"is_transit":false,"distance":906,"station_id":"MGB","line":2,"i_lat":-6.149769,"station_name":"Manggabesar"},{"i_lat":-6.141205,"transit":false,"time":2,"i_long":106.820901,"line":2,"distance":1080,"station_id":"JAY","station_name":"Jayakarta","is_transit":false}],[{"i_long":106.839204,"line":11,"time":0,"station_id":"KMO","station_name":"Kemayoran","is_transit":false,"i_lat":-6.161728,"distance":0,"transit":false},{"transit":false,"is_transit":false,"i_long":106.84368,"distance":1436,"line":11,"station_name":"Pasar Senen","station_id":"PSE","time":4,"i_lat":-6.174784},{"is_transit":false,"i_long":106.850107,"station_id":"GST","i_lat":-6.185975,"station_name":"Gang Sentiong","time":8,"distance":1567,"transit":false,"line":11},{"i_lat":-6.193792,"transit":false,"line":11,"station_name":"Kramat","time":1,"i_long":106.855437,"distance":973,"is_transit":false,"station_id":"KMT"},{"i_long":106.861737,"time":2,"distance":1829,"is_transit":false,"station_id":"POK","transit":false,"station_name":"Pondok Jati","i_lat":-6.209188,"line":11},{"time":9,"station_id":"JNG","is_transit":true,"distance":1236,"i_lat":-6.215091,"line":1,"i_long":106.86807400000001,"station_name":"Jatinegara","transit":true},{"line":1,"time":2,"distance":1377,"station_name":"Matraman","i_lat":-6.212485,"transit":false,"is_transit":false,"i_long":106.858896,"station_id":"MTR"},{"station_name":"Manggarai","i_lat":-6.209883,"time":2,"line":2,"distance":1275,"station_id":"MRI","i_long":106.84912,"is_transit":false,"transit":false},{"i_long":106.822649,"station_name":"Sudirman","is_transit":false,"i_lat":-6.202263,"transit":false,"line":1,"distance":3186,"station_id":"SUD","time":4},{"i_long":106.819881,"station_id":"SUDB","time":1,"distance":280,"line":1,"transit":false,"station_name":"Sudirman Baru","is_transit":false,"i_lat":-6.201433},{"transit":false,"time":1,"station_id":"KAT","distance":471,"is_transit":false,"line":1,"station_name":"Karet","i_long":106.816351,"i_lat":-6.20132},{"time":5,"station_id":"THB","transit":false,"i_long":106.811091,"line":1,"i_lat":-6.185545,"distance":2029,"station_name":"Tanah Abang","is_transit":false},{"time":8,"station_id":"DU","is_transit":false,"distance":3632,"i_long":106.800832,"station_name":"Duri","line":1,"i_lat":-6.155215,"transit":false},{"distance":1230,"i_lat":-6.144674,"is_transit":false,"station_name":"Angke","transit":false,"time":4,"line":1,"i_long":106.79867,"station_id":"AK"},{"is_transit":true,"i_lat":-6.132549,"i_long":106.826365,"line":4,"distance":4102,"time":9,"station_id":"KPB","station_name":"Kampung Bandan","transit":true},{"distance":1364,"station_name":"Jakarta Kota","is_transit":true,"line":2,"time":3,"transit":true,"i_long":106.812439,"i_lat":-6.137569,"station_id":"JAKK"},{"station_name":"Jayakarta","station_id":"JAY","transit":false,"line":2,"i_lat":-6.141205,"time":4,"is_transit":false,"i_long":106.820901,"distance":1264}]]}