{"data":[[{"i_lat":-6.161728,"distance":0,"transit":false,"station_name":"Kemayoran","is_transit":false,"line":11,"station_id":"KMO","time":0,"i_long":106.839204},{"time":4,"distance":1436,"i_long":106.84368,"station_id":"PSE","transit":false,"i_lat":-6.174784,"station_name":"Pasar Senen","is_transit":false,"line":11},{"transit":false,"distance":1567,"station_name":"Gang Sentiong","is_transit":false,"i_lat":-6.185975,"time":8,"i_long":106.850107,"line":11,"station_id":"GST"},{"station_name":"Kramat","line":11,"distance":973,"i_long":106.855437,"transit":false,"i_lat":-6.193792,"time":1,"is_transit":false,"station_id":"KMT"},{"station_name":"Pondok Jati","time":2,"station_id":"POK","distance":1829,"i_lat":-6.209188,"transit":false,"is_transit":false,"i_long":106.861737,"line":11},{"line":1,"distance":1236,"i_long":106.86807400000001,"is_transit":true,"transit":true,"time":9,"station_id":"JNG","station_name":"Jatinegara","i_lat":-6.215091},{"station_name":"Matraman","line":1,"i_lat":-6.212485,"distance":1377,"i_long":106.858896,"is_transit":false,"transit":false,"time":2,"station_id":"MTR"},{"station_name":"Manggarai","station_id":"MRI","time":2,"line":2,"transit":true,"is_transit":true,"i_long":106.84912,"distance":1275,"i_lat":-6.209883},{"transit":false,"distance":2610,"is_transit":false,"line":2,"time":4,"station_id":"TEB","station_name":"Tebet","i_long":106.857948,"i_lat":-6.226659},{"distance":1230,"station_id":"CW","is_transit":false,"transit":false,"i_lat":-6.242512,"station_name":"Cawang","line":2,"i_long":106.856607,"time":2},{"i_lat":-6.255332,"station_name":"Duren Kalibata","i_long":106.85449,"distance":1546,"time":3,"is_transit":false,"line":2,"station_id":"DRN","transit":false}],[{"i_lat":-6.161728,"is_transit":false,"station_name":"Kemayoran","station_id":"KMO","distance":0,"time":0,"line":11,"transit":false,"i_long":106.839204},{"i_long":106.836569,"time":5,"distance":1901,"is_transit":false,"station_id":"RJW","station_name":"Rajawali","transit":false,"line":11,"i_lat":-6.14505},{"station_id":"KPB","distance":1444,"is_transit":true,"i_long":106.826365,"time":3,"transit":true,"station_name":"Kampung Bandan","i_lat":-6.132549,"line":4},{"distance":4102,"transit":false,"station_name":"Angke","station_id":"AK","i_lat":-6.144674,"time":9,"i_long":106.79867,"line":1,"is_transit":false},{"station_name":"Duri","i_long":106.800832,"station_id":"DU","transit":false,"distance":1230,"is_transit":false,"time":4,"i_lat":-6.155215,"line":1},{"i_long":106.811091,"distance":3632,"station_id":"THB","is_transit":false,"i_lat":-6.185545,"time":8,"line":1,"station_name":"Tanah Abang","transit":false},{"i_long":106.816351,"station_id":"KAT","time":5,"distance":2029,"station_name":"Karet","transit":false,"is_transit":false,"line":1,"i_lat":-6.20132},{"i_long":106.819881,"distance":471,"is_transit":false,"time":1,"line":1,"transit":false,"station_name":"Sudirman Baru","i_lat":-6.201433,"station_id":"SUDB"},{"station_id":"SUD","is_transit":false,"station_name":"Sudirman","transit":false,"line":1,"i_long":106.822649,"i_lat":-6.202263,"distance":280,"time":1},{"time":4,"distance":3186,"station_name":"Manggarai","transit":true,"station_id":"MRI","i_lat":-6.209883,"i_long":106.84912,"is_transit":true,"line":2},{"i_long":106.857948,"line":2,"station_name":"Tebet","time":4,"transit":false,"station_id":"TEB","distance":2610,"i_lat":-6.226659,"is_transit":false},{"distance":1230,"transit":false,"i_lat":-6.242512,"is_transit":false,"time":2,"station_name":"Cawang","i_long":106.856607,"line":2,"station_id":"CW"},{"transit":false,"i_lat":-6.255332,"line":2,"time":3,"station_id":"DRN","is_transit":false,"i_long":106.85449,"distance":1546,"station_name":"Duren Kalibata"}],[{"transit":false,"i_long":106.839204,"i_lat":-6.161728,"is_transit":false,"time":0,"distance":0,"station_name":"Kemayoran","line":11,"station_id":"KMO"},{"i_long":106.836569,"station_id":"RJW","time":5,"station_name":"Rajawali","is_transit":false,"i_lat":-6.14505,"transit":false,"line":11,"distance":1901},{"line":4,"distance":1444,"time":3,"station_id":"KPB","station_name":"Kampung Bandan","is_transit":true,"i_lat":-6.132549,"i_long":106.826365,"transit":true},{"time":3,"i_long":106.812439,"i_lat":-6.137569,"is_transit":true,"transit":true,"distance":1364,"station_name":"Jakarta Kota","station_id":"JAKK","line":2},{"distance":1264,"time":4,"transit":false,"i_long":106.820901,"is_transit":false,"line":2,"station_name":"Jayakarta","i_lat":-6.141205,"station_id":"JAY"},{"station_id":"MGB","i_lat":-6.149769,"line":2,"distance":1080,"i_long":106.82482,"is_transit":false,"transit":false,"station_name":"Manggabesar","time":2},{"station_name":"Sawah Besar","transit":false,"line":2,"station_id":"SW","is_transit":false,"i_lat":-6.160725,"distance":906,"time":2,"i_long":106.827103},{"is_transit":false,"i_long":106.828284,"i_lat":-6.166716,"distance":1149,"station_id":"JUA","station_name":"Juanda","transit":false,"line":2,"time":2},{"station_name":"Gondangdia","is_transit":false,"i_lat":-6.186295,"distance":2015,"station_id":"GDD","time":4,"transit":false,"i_long":106.832183,"line":2},{"i_lat":-6.198556,"station_id":"CKI","transit":false,"i_long":106.840169,"time":3,"distance":1750,"station_name":"Cikini","is_transit":false,"line":2},{"is_transit":false,"i_long":106.84912,"i_lat":-6.209883,"line":2,"station_id":"MRI","time":4,"distance":1590,"station_name":"Manggarai","transit":false},{"i_long":106.857948,"line":2,"station_id":"TEB","time":4,"station_name":"Tebet","transit":false,"is_transit":false,"i_lat":-6.226659,"distance":2610},{"station_id":"CW","line":2,"i_long":106.856607,"distance":1230,"is_transit":false,"transit":false,"time":2,"i_lat":-6.242512,"station_name":"Cawang"},{"station_name":"Duren Kalibata","distance":1546,"time":3,"transit":false,"i_lat":-6.255332,"line":2,"station_id":"DRN","i_long":106.85449,"is_transit":false}]]}