{"data":[[{"transit":false,"distance":0,"line":11,"is_transit":false,"i_lat":-6.161728,"station_name":"Kemayoran","i_long":106.839204,"station_id":"KMO","time":0},{"station_name":"Rajawali","transit":false,"distance":1901,"time":5,"i_lat":-6.14505,"i_long":106.836569,"is_transit":false,"line":11,"station_id":"RJW"},{"i_long":106.826365,"transit":true,"is_transit":true,"station_name":"Kampung Bandan","line":0,"station_id":"KPB","distance":1444,"i_lat":-6.132549,"time":3},{"station_name":"Angke","line":0,"station_id":"AK","transit":false,"is_transit":false,"time":9,"i_long":106.79867,"i_lat":-6.144674,"distance":4102},{"is_transit":true,"time":4,"distance":1230,"station_id":"DU","i_lat":-6.155215,"i_long":106.800832,"transit":true,"station_name":"Duri","line":1},{"distance":1700,"time":3,"transit":false,"station_id":"GGL","i_lat":-6.162021,"station_name":"Grogol","i_long":106.788277,"line":5,"is_transit":false},{"station_id":"PSG","distance":2036,"transit":false,"time":2,"station_name":"Pesing","i_long":106.771379,"is_transit":false,"i_lat":-6.161433,"line":5}],[{"is_transit":false,"station_name":"Kemayoran","i_lat":-6.161728,"line":11,"station_id":"KMO","transit":false,"time":0,"distance":0,"i_long":106.839204},{"line":11,"i_long":106.84368,"station_id":"PSE","station_name":"Pasar Senen","distance":1436,"transit":false,"time":4,"is_transit":false,"i_lat":-6.174784},{"transit":false,"is_transit":false,"distance":1567,"line":11,"station_id":"GST","station_name":"Gang Sentiong","time":8,"i_lat":-6.185975,"i_long":106.850107},{"transit":false,"time":1,"is_transit":false,"distance":973,"station_name":"Kramat","i_lat":-6.193792,"i_long":106.855437,"line":11,"station_id":"KMT"},{"distance":1829,"transit":false,"station_name":"Pondok Jati","i_long":106.861737,"time":2,"line":11,"is_transit":false,"station_id":"POK","i_lat":-6.209188},{"i_lat":-6.215091,"station_id":"JNG","line":0,"transit":true,"is_transit":true,"time":9,"i_long":106.86807400000001,"station_name":"Jatinegara","distance":1236},{"distance":1377,"i_lat":-6.212485,"station_name":"Matraman","line":1,"is_transit":false,"station_id":"MTR","i_long":106.858896,"time":2,"transit":false},{"i_lat":-6.209883,"distance":1275,"i_long":106.84912,"station_id":"MRI","time":2,"transit":false,"line":0,"is_transit":true,"station_name":"Manggarai"},{"time":4,"i_long":106.822649,"transit":false,"is_transit":false,"station_id":"SUD","station_name":"Sudirman","i_lat":-6.202263,"line":1,"distance":3186},{"is_transit":false,"station_id":"SUDB","transit":false,"i_long":106.819881,"i_lat":-6.201433,"line":1,"station_name":"Sudirman Baru","time":1,"distance":280},{"time":1,"station_name":"Karet","distance":471,"i_lat":-6.20132,"is_transit":false,"i_long":106.816351,"line":1,"station_id":"KAT","transit":false},{"is_transit":true,"station_id":"THB","i_long":106.811091,"line":1,"distance":2029,"i_lat":-6.185545,"station_name":"Tanah Abang","time":5,"transit":false},{"station_name":"Duri","line":1,"is_transit":true,"i_long":106.800832,"transit":true,"station_id":"DU","i_lat":-6.155215,"distance":3632,"time":8},{"station_name":"Grogol","distance":1700,"i_long":106.788277,"i_lat":-6.162021,"is_transit":false,"time":3,"line":5,"station_id":"GGL","transit":false},{"station_id":"PSG","i_long":106.771379,"is_transit":false,"time":2,"station_name":"Pesing","i_lat":-6.161433,"line":5,"transit":false,"distance":2036}],[{"is_transit":false,"station_id":"KMO","station_name":"Kemayoran","transit":false,"time":0,"distance":0,"line":11,"i_lat":-6.161728,"i_long":106.839204},{"time":5,"i_long":106.836569,"station_id":"RJW","transit":false,"line":11,"is_transit":false,"distance":1901,"i_lat":-6.14505,"station_name":"Rajawali"},{"distance":1444,"transit":true,"station_name":"Kampung Bandan","time":3,"station_id":"KPB","is_transit":true,"i_long":106.826365,"i_lat":-6.132549,"line":0},{"station_id":"JAKK","distance":1364,"line":0,"station_name":"Jakarta Kota","i_lat":-6.137569,"is_transit":true,"i_long":106.812439,"transit":true,"time":3},{"is_transit":false,"distance":1264,"time":4,"station_id":"JAY","transit":false,"station_name":"Jayakarta","i_long":106.820901,"i_lat":-6.141205,"line":7},{"line":2,"is_transit":false,"distance":1080,"i_lat":-6.149769,"transit":false,"time":2,"station_id":"MGB","station_name":"Manggabesar","i_long":106.82482},{"transit":false,"is_transit":false,"station_name":"Sawah Besar","distance":906,"line":2,"i_lat":-6.160725,"i_long":106.827103,"station_id":"SW","time":2},{"time":2,"station_id":"JUA","transit":false,"line":2,"i_long":106.828284,"i_lat":-6.166716,"station_name":"Juanda","is_transit":false,"distance":1149},{"i_long":106.832183,"station_id":"GDD","is_transit":false,"transit":false,"line":2,"station_name":"Gondangdia","distance":2015,"i_lat":-6.186295,"time":4},{"i_long":106.840169,"time":3,"station_id":"CKI","i_lat":-6.198556,"station_name":"Cikini","distance":1750,"line":0,"is_transit":false,"transit":false},{"i_lat":-6.209883,"time":4,"i_long":106.84912,"distance":1590,"line":0,"is_transit":true,"station_id":"MRI","station_name":"Manggarai","transit":true},{"i_long":106.822649,"i_lat":-6.202263,"is_transit":false,"distance":3186,"time":4,"station_name":"Sudirman","line":1,"transit":false,"station_id":"SUD"},{"time":1,"station_name":"Sudirman Baru","station_id":"SUDB","i_lat":-6.201433,"distance":280,"is_transit":false,"i_long":106.819881,"line":1,"transit":false},{"i_lat":-6.20132,"line":1,"transit":false,"is_transit":false,"station_id":"KAT","time":1,"i_long":106.816351,"station_name":"Karet","distance":471},{"distance":2029,"transit":false,"station_id":"THB","station_name":"Tanah Abang","i_long":106.811091,"is_transit":true,"i_lat":-6.185545,"time":5,"line":1},{"i_long":106.800832,"is_transit":true,"transit":true,"i_lat":-6.155215,"station_id":"DU","station_name":"Duri","time":8,"distance":3632,"line":1},{"is_transit":false,"i_long":106.788277,"station_id":"GGL","time":3,"station_name":"Grogol","i_lat":-6.162021,"line":5,"distance":1700,"transit":false},{"station_id":"PSG","i_lat":-6.161433,"station_name":"Pesing","i_long":106.771379,"distance":2036,"line":5,"is_transit":false,"transit":false,"time":2}],[{"station_id":"KMO","time":0,"is_transit":false,"distance":0,"i_long":106.839204,"line":11,"station_name":"Kemayoran","i_lat":-6.161728,"transit":false},{"i_long":106.84368,"station_id":"PSE","distance":1436,"i_lat":-6.174784,"is_transit":false,"time":4,"transit":false,"line":11,"station_name":"Pasar Senen"},{"station_id":"GST","distance":1567,"i_lat":-6.185975,"time":8,"i_long":106.850107,"transit":false,"is_transit":false,"station_name":"Gang Sentiong","line":11},{"distance":973,"i_lat":-6.193792,"station_id":"KMT","is_transit":false,"transit":false,"time":1,"line":11,"i_long":106.855437,"station_name":"Kramat"},{"i_long":106.861737,"transit":false,"station_name":"Pondok Jati","distance":1829,"i_lat":-6.209188,"line":11,"is_transit":false,"time":2,"station_id":"POK"},{"line":0,"station_id":"JNG","distance":1236,"time":9,"i_lat":-6.215091,"i_long":106.86807400000001,"station_name":"Jatinegara","is_transit":true,"transit":true},{"station_id":"MTR","time":2,"station_name":"Matraman","distance":1377,"i_lat":-6.212485,"i_long":106.858896,"line":1,"is_transit":false,"transit":false},{"i_long":106.84912,"line":0,"station_id":"MRI","time":2,"station_name":"Manggarai","distance":1275,"i_lat":-6.209883,"is_transit":true,"transit":true},{"i_lat":-6.198556,"is_transit":false,"station_name":"Cikini","i_long":106.840169,"time":4,"transit":false,"line":0,"station_id":"CKI","distance":1590},{"transit":false,"station_name":"Gondangdia","i_lat":-6.186295,"i_long":106.832183,"time":3,"station_id":"GDD","distance":1750,"line":2,"is_transit":false},{"time":4,"station_id":"JUA","transit":false,"station_name":"Juanda","is_transit":false,"line":2,"distance":2015,"i_lat":-6.166716,"i_long":106.828284},{"line":2,"is_transit":false,"station_name":"Sawah Besar","time":2,"i_long":106.827103,"distance":1149,"station_id":"SW","i_lat":-6.160725,"transit":false},{"i_lat":-6.149769,"i_long":106.82482,"station_id":"MGB","is_transit":false,"distance":906,"time":2,"line":2,"transit":false,"station_name":"Manggabesar"},{"distance":1080,"station_id":"JAY","transit":false,"station_name":"Jayakarta","i_lat":-6.141205,"line":7,"is_transit":false,"time":2,"i_long":106.820901},{"time":4,"station_id":"JAKK","transit":true,"i_lat":-6.137569,"i_long":106.812439,"is_transit":true,"line":0,"station_name":"Jakarta Kota","distance":1264},{"transit":false,"i_lat":-6.132549,"station_id":"KPB","time":3,"is_transit":true,"distance":1364,"station_name":"Kampung Bandan","i_long":106.826365,"line":0},{"distance":4102,"i_lat":-6.144674,"line":0,"i_long":106.79867,"station_name":"Angke","station_id":"AK","time":9,"is_transit":false,"transit":false},{"is_transit":true,"station_id":"DU","line":1,"i_long":106.800832,"time":4,"distance":1230,"i_lat":-6.155215,"transit":true,"station_name":"Duri"},{"time":3,"line":5,"distance":1700,"station_name":"Grogol","transit":false,"is_transit":false,"station_id":"GGL","i_lat":-6.162021,"i_long":106.788277},{"station_id":"PSG","transit":false,"distance":2036,"i_lat":-6.161433,"i_long":106.771379,"station_name":"Pesing","is_transit":false,"line":5,"time":2}]]}