{"data":[[{"i_lat":-6.161728,"station_name":"Kemayoran","station_id":"KMO","i_long":106.839204,"line":11,"is_transit":false,"time":0,"transit":false,"distance":0},{"transit":false,"time":4,"i_long":106.84368,"line":11,"i_lat":-6.174784,"distance":1436,"is_transit":false,"station_name":"Pasar Senen","station_id":"PSE"},{"i_lat":-6.185975,"time":8,"distance":1567,"station_name":"Gang Sentiong","line":11,"transit":false,"i_long":106.850107,"station_id":"GST","is_transit":false},{"distance":973,"station_name":"Kramat","is_transit":false,"transit":false,"i_lat":-6.193792,"i_long":106.855437,"station_id":"KMT","time":1,"line":11},{"station_id":"POK","i_lat":-6.209188,"i_long":106.861737,"is_transit":false,"transit":false,"station_name":"Pondok Jati","line":11,"time":2,"distance":1829},{"transit":true,"station_id":"JNG","station_name":"Jatinegara","is_transit":true,"i_lat":-6.215091,"line":1,"time":9,"distance":1236,"i_long":106.86807400000001},{"is_transit":false,"transit":false,"distance":1377,"time":2,"i_long":106.858896,"i_lat":-6.212485,"line":1,"station_name":"Matraman","station_id":"MTR"},{"transit":true,"distance":1275,"i_long":106.84912,"station_name":"Manggarai","i_lat":-6.209883,"is_transit":true,"station_id":"MRI","line":2,"time":2},{"transit":false,"i_long":106.857948,"i_lat":-6.226659,"line":2,"station_name":"Tebet","station_id":"TEB","time":4,"distance":2610,"is_transit":false},{"distance":1230,"is_transit":false,"station_id":"CW","time":2,"station_name":"Cawang","transit":false,"i_lat":-6.242512,"i_long":106.856607,"line":2},{"distance":1546,"station_name":"Duren Kalibata","line":2,"transit":false,"time":3,"station_id":"DRN","i_long":106.85449,"i_lat":-6.255332,"is_transit":false},{"is_transit":false,"transit":false,"i_long":106.851577,"time":2,"station_name":"Pasar Minggu Baru","i_lat":-6.263214,"station_id":"PSMB","distance":824,"line":2},{"station_id":"PSM","station_name":"Pasar Minggu","i_long":106.843999,"time":2,"distance":2380,"transit":false,"i_lat":-6.2842400000000005,"is_transit":false,"line":2},{"transit":false,"line":2,"station_id":"TNT","is_transit":false,"i_lat":-6.3080680000000005,"station_name":"Tanjung Barat","i_long":106.838896,"time":4,"distance":2820},{"station_id":"LNA","station_name":"Lenteng Agung","i_lat":-6.330363,"is_transit":false,"i_long":106.832616,"time":3,"line":2,"distance":2671,"transit":false},{"i_long":106.834175,"distance":1029,"station_id":"UP","transit":false,"station_name":"Univ. Pancasila","time":2,"i_lat":-6.339291,"line":2,"is_transit":false},{"line":2,"station_name":"Univ. Indonesia","i_long":106.831474,"distance":2264,"station_id":"UI","transit":false,"time":3,"is_transit":false,"i_lat":-6.360749},{"distance":1109,"i_lat":-6.369073,"is_transit":false,"transit":false,"station_name":"Pondok Cina","station_id":"POC","time":2,"i_long":106.831114,"line":2},{"i_long":106.819451,"transit":false,"line":2,"station_id":"DPB","station_name":"Depokbaru","is_transit":false,"time":4,"distance":2727,"i_lat":-6.391065},{"i_long":106.816926,"line":2,"station_id":"DP","distance":1584,"transit":false,"i_lat":-6.405256,"is_transit":false,"station_name":"Depok","time":3}],[{"station_name":"Kemayoran","i_long":106.839204,"distance":0,"station_id":"KMO","i_lat":-6.161728,"is_transit":false,"time":0,"line":11,"transit":false},{"i_long":106.836569,"i_lat":-6.14505,"station_id":"RJW","distance":1901,"is_transit":false,"line":11,"station_name":"Rajawali","transit":false,"time":5},{"transit":true,"is_transit":true,"time":3,"station_name":"Kampung Bandan","i_lat":-6.132549,"i_long":106.826365,"distance":1444,"line":4,"station_id":"KPB"},{"i_long":106.79867,"time":9,"station_id":"AK","i_lat":-6.144674,"line":1,"is_transit":false,"distance":4102,"station_name":"Angke","transit":false},{"time":4,"distance":1230,"transit":false,"i_long":106.800832,"i_lat":-6.155215,"is_transit":false,"line":1,"station_id":"DU","station_name":"Duri"},{"line":1,"station_id":"THB","transit":false,"time":8,"distance":3632,"is_transit":false,"station_name":"Tanah Abang","i_lat":-6.185545,"i_long":106.811091},{"station_id":"KAT","station_name":"Karet","transit":false,"i_lat":-6.20132,"time":5,"distance":2029,"line":1,"i_long":106.816351,"is_transit":false},{"is_transit":false,"i_long":106.819881,"line":1,"i_lat":-6.201433,"station_name":"Sudirman Baru","station_id":"SUDB","distance":471,"time":1,"transit":false},{"is_transit":false,"i_lat":-6.202263,"distance":280,"line":1,"station_name":"Sudirman","transit":false,"station_id":"SUD","i_long":106.822649,"time":1},{"station_id":"MRI","transit":true,"station_name":"Manggarai","line":2,"distance":3186,"time":4,"is_transit":true,"i_lat":-6.209883,"i_long":106.84912},{"is_transit":false,"station_id":"TEB","distance":2610,"transit":false,"i_lat":-6.226659,"time":4,"station_name":"Tebet","i_long":106.857948,"line":2},{"station_name":"Cawang","i_long":106.856607,"line":2,"i_lat":-6.242512,"station_id":"CW","distance":1230,"time":2,"is_transit":false,"transit":false},{"i_long":106.85449,"station_name":"Duren Kalibata","station_id":"DRN","line":2,"transit":false,"time":3,"is_transit":false,"i_lat":-6.255332,"distance":1546},{"line":2,"station_name":"Pasar Minggu Baru","station_id":"PSMB","distance":824,"is_transit":false,"i_long":106.851577,"i_lat":-6.263214,"time":2,"transit":false},{"i_long":106.843999,"station_id":"PSM","time":2,"is_transit":false,"line":2,"transit":false,"distance":2380,"i_lat":-6.2842400000000005,"station_name":"Pasar Minggu"},{"i_lat":-6.3080680000000005,"is_transit":false,"station_name":"Tanjung Barat","time":4,"i_long":106.838896,"line":2,"transit":false,"station_id":"TNT","distance":2820},{"is_transit":false,"transit":false,"time":3,"distance":2671,"station_name":"Lenteng Agung","station_id":"LNA","line":2,"i_lat":-6.330363,"i_long":106.832616},{"station_name":"Univ. Pancasila","time":2,"i_long":106.834175,"i_lat":-6.339291,"is_transit":false,"line":2,"distance":1029,"transit":false,"station_id":"UP"},{"line":2,"i_lat":-6.360749,"station_id":"UI","i_long":106.831474,"transit":false,"is_transit":false,"distance":2264,"station_name":"Univ. Indonesia","time":3},{"line":2,"time":2,"i_long":106.831114,"station_name":"Pondok Cina","station_id":"POC","distance":1109,"i_lat":-6.369073,"is_transit":false,"transit":false},{"line":2,"transit":false,"distance":2727,"i_lat":-6.391065,"time":4,"station_name":"Depokbaru","station_id":"DPB","i_long":106.819451,"is_transit":false},{"distance":1584,"station_id":"DP","time":3,"line":2,"station_name":"Depok","is_transit":false,"i_lat":-6.405256,"i_long":106.816926,"transit":false}],[{"distance":0,"line":11,"time":0,"transit":false,"is_transit":false,"i_lat":-6.161728,"station_name":"Kemayoran","i_long":106.839204,"station_id":"KMO"},{"line":11,"distance":1901,"time":5,"station_name":"Rajawali","transit":false,"i_lat":-6.14505,"i_long":106.836569,"station_id":"RJW","is_transit":false},{"line":4,"station_name":"Kampung Bandan","i_long":106.826365,"distance":1444,"time":3,"is_transit":true,"i_lat":-6.132549,"transit":true,"station_id":"KPB"},{"station_name":"Jakarta Kota","station_id":"JAKK","i_lat":-6.137569,"time":3,"distance":1364,"i_long":106.812439,"line":2,"transit":true,"is_transit":true},{"station_name":"Jayakarta","station_id":"JAY","time":4,"transit":false,"line":2,"distance":1264,"is_transit":false,"i_long":106.820901,"i_lat":-6.141205},{"transit":false,"station_id":"MGB","i_lat":-6.149769,"is_transit":false,"station_name":"Manggabesar","line":2,"distance":1080,"time":2,"i_long":106.82482},{"is_transit":false,"time":2,"station_name":"Sawah Besar","i_lat":-6.160725,"line":2,"transit":false,"station_id":"SW","i_long":106.827103,"distance":906},{"station_name":"Juanda","is_transit":false,"station_id":"JUA","line":2,"time":2,"distance":1149,"i_long":106.828284,"i_lat":-6.166716,"transit":false},{"line":2,"station_name":"Gondangdia","distance":2015,"i_lat":-6.186295,"station_id":"GDD","is_transit":false,"transit":false,"i_long":106.832183,"time":4},{"station_id":"CKI","time":3,"i_long":106.840169,"transit":false,"station_name":"Cikini","line":2,"is_transit":false,"i_lat":-6.198556,"distance":1750},{"station_name":"Manggarai","time":4,"line":2,"transit":false,"i_long":106.84912,"distance":1590,"station_id":"MRI","i_lat":-6.209883,"is_transit":false},{"distance":2610,"line":2,"i_lat":-6.226659,"station_name":"Tebet","transit":false,"is_transit":false,"time":4,"i_long":106.857948,"station_id":"TEB"},{"line":2,"i_lat":-6.242512,"time":2,"transit":false,"station_name":"Cawang","is_transit":false,"distance":1230,"station_id":"CW","i_long":106.856607},{"station_id":"DRN","i_long":106.85449,"is_transit":false,"i_lat":-6.255332,"line":2,"time":3,"distance":1546,"transit":false,"station_name":"Duren Kalibata"},{"station_name":"Pasar Minggu Baru","station_id":"PSMB","i_long":106.851577,"transit":false,"i_lat":-6.263214,"is_transit":false,"time":2,"distance":824,"line":2},{"station_name":"Pasar Minggu","station_id":"PSM","time":2,"line":2,"is_transit":false,"i_lat":-6.2842400000000005,"transit":false,"i_long":106.843999,"distance":2380},{"transit":false,"is_transit":false,"station_name":"Tanjung Barat","i_lat":-6.3080680000000005,"time":4,"i_long":106.838896,"distance":2820,"line":2,"station_id":"TNT"},{"distance":2671,"station_name":"Lenteng Agung","line":2,"is_transit":false,"station_id":"LNA","time":3,"i_lat":-6.330363,"i_long":106.832616,"transit":false},{"station_id":"UP","time":2,"is_transit":false,"line":2,"transit":false,"distance":1029,"station_name":"Univ. Pancasila","i_lat":-6.339291,"i_long":106.834175},{"line":2,"is_transit":false,"i_lat":-6.360749,"station_name":"Univ. Indonesia","time":3,"station_id":"UI","transit":false,"i_long":106.831474,"distance":2264},{"is_transit":false,"i_lat":-6.369073,"time":2,"transit":false,"line":2,"station_id":"POC","distance":1109,"station_name":"Pondok Cina","i_long":106.831114},{"station_name":"Depokbaru","line":2,"station_id":"DPB","i_lat":-6.391065,"distance":2727,"time":4,"is_transit":false,"transit":false,"i_long":106.819451},{"i_lat":-6.405256,"line":2,"time":3,"distance":1584,"i_long":106.816926,"station_id":"DP","station_name":"Depok","is_transit":false,"transit":false}]]}