{"data":[[{"transit":false,"station_id":"KMO","i_lat":-6.161728,"line":11,"i_long":106.839204,"station_name":"Kemayoran","is_transit":false,"time":0,"distance":0},{"station_name":"Pasar Senen","is_transit":false,"distance":1436,"time":4,"i_lat":-6.174784,"station_id":"PSE","i_long":106.84368,"line":11,"transit":false},{"i_lat":-6.185975,"time":8,"transit":false,"is_transit":false,"i_long":106.850107,"line":11,"station_name":"Gang Sentiong","station_id":"GST","distance":1567},{"is_transit":false,"station_name":"Kramat","i_lat":-6.193792,"station_id":"KMT","i_long":106.855437,"transit":false,"distance":973,"line":11,"time":1},{"time":2,"line":11,"i_long":106.861737,"is_transit":false,"distance":1829,"i_lat":-6.209188,"station_name":"Pondok Jati","station_id":"POK","transit":false},{"station_id":"JNG","station_name":"Jatinegara","transit":true,"i_lat":-6.215091,"i_long":106.86807400000001,"line":1,"time":9,"distance":1236,"is_transit":true},{"distance":1377,"station_name":"Matraman","time":2,"i_lat":-6.212485,"i_long":106.858896,"station_id":"MTR","line":1,"transit":false,"is_transit":false},{"transit":true,"time":2,"line":2,"is_transit":true,"i_lat":-6.209883,"station_id":"MRI","distance":1275,"i_long":106.84912,"station_name":"Manggarai"},{"i_long":106.857948,"i_lat":-6.226659,"station_name":"Tebet","transit":false,"time":4,"distance":2610,"station_id":"TEB","is_transit":false,"line":2},{"station_id":"CW","i_lat":-6.242512,"station_name":"Cawang","transit":false,"line":2,"is_transit":false,"distance":1230,"time":2,"i_long":106.856607},{"time":3,"distance":1546,"i_lat":-6.255332,"line":2,"station_id":"DRN","i_long":106.85449,"transit":false,"station_name":"Duren Kalibata","is_transit":false}],[{"is_transit":false,"time":0,"line":11,"station_id":"KMO","distance":0,"i_lat":-6.161728,"station_name":"Kemayoran","i_long":106.839204,"transit":false},{"time":5,"line":11,"is_transit":false,"transit":false,"distance":1901,"i_long":106.836569,"station_id":"RJW","i_lat":-6.14505,"station_name":"Rajawali"},{"transit":true,"i_long":106.826365,"line":4,"time":3,"distance":1444,"station_id":"KPB","i_lat":-6.132549,"is_transit":true,"station_name":"Kampung Bandan"},{"is_transit":false,"i_long":106.79867,"i_lat":-6.144674,"station_name":"Angke","time":9,"station_id":"AK","transit":false,"distance":4102,"line":1},{"station_id":"DU","time":4,"i_long":106.800832,"station_name":"Duri","is_transit":false,"i_lat":-6.155215,"line":1,"transit":false,"distance":1230},{"station_name":"Tanah Abang","time":8,"transit":false,"distance":3632,"is_transit":false,"i_lat":-6.185545,"line":1,"station_id":"THB","i_long":106.811091},{"is_transit":false,"time":5,"distance":2029,"station_name":"Karet","station_id":"KAT","i_lat":-6.20132,"i_long":106.816351,"line":1,"transit":false},{"station_id":"SUDB","i_long":106.819881,"i_lat":-6.201433,"transit":false,"time":1,"distance":471,"line":1,"station_name":"Sudirman Baru","is_transit":false},{"station_id":"SUD","station_name":"Sudirman","i_lat":-6.202263,"i_long":106.822649,"distance":280,"transit":false,"is_transit":false,"time":1,"line":1},{"station_name":"Manggarai","transit":true,"time":4,"is_transit":true,"line":2,"station_id":"MRI","distance":3186,"i_lat":-6.209883,"i_long":106.84912},{"transit":false,"time":4,"i_lat":-6.226659,"station_name":"Tebet","is_transit":false,"line":2,"station_id":"TEB","distance":2610,"i_long":106.857948},{"i_lat":-6.242512,"line":2,"station_name":"Cawang","i_long":106.856607,"station_id":"CW","distance":1230,"time":2,"is_transit":false,"transit":false},{"station_name":"Duren Kalibata","time":3,"i_long":106.85449,"transit":false,"station_id":"DRN","i_lat":-6.255332,"line":2,"is_transit":false,"distance":1546}],[{"i_lat":-6.161728,"distance":0,"i_long":106.839204,"transit":false,"line":11,"station_name":"Kemayoran","station_id":"KMO","is_transit":false,"time":0},{"i_long":106.836569,"line":11,"i_lat":-6.14505,"station_name":"Rajawali","is_transit":false,"station_id":"RJW","time":5,"transit":false,"distance":1901},{"line":4,"station_name":"Kampung Bandan","time":3,"station_id":"KPB","i_lat":-6.132549,"transit":true,"is_transit":true,"distance":1444,"i_long":106.826365},{"station_name":"Jakarta Kota","i_long":106.812439,"station_id":"JAKK","time":3,"line":2,"is_transit":true,"transit":true,"distance":1364,"i_lat":-6.137569},{"distance":1264,"i_lat":-6.141205,"line":2,"transit":false,"station_id":"JAY","is_transit":false,"time":4,"i_long":106.820901,"station_name":"Jayakarta"},{"is_transit":false,"time":2,"station_name":"Manggabesar","distance":1080,"transit":false,"station_id":"MGB","i_lat":-6.149769,"line":2,"i_long":106.82482},{"time":2,"transit":false,"i_lat":-6.160725,"i_long":106.827103,"distance":906,"line":2,"station_id":"SW","station_name":"Sawah Besar","is_transit":false},{"time":2,"distance":1149,"line":2,"is_transit":false,"i_lat":-6.166716,"transit":false,"station_id":"JUA","station_name":"Juanda","i_long":106.828284},{"i_long":106.832183,"station_name":"Gondangdia","line":2,"is_transit":false,"time":4,"distance":2015,"i_lat":-6.186295,"transit":false,"station_id":"GDD"},{"time":3,"distance":1750,"transit":false,"station_id":"CKI","line":2,"is_transit":false,"i_lat":-6.198556,"i_long":106.840169,"station_name":"Cikini"},{"station_name":"Manggarai","transit":false,"station_id":"MRI","distance":1590,"time":4,"is_transit":false,"i_lat":-6.209883,"line":2,"i_long":106.84912},{"is_transit":false,"transit":false,"line":2,"i_long":106.857948,"i_lat":-6.226659,"distance":2610,"station_name":"Tebet","time":4,"station_id":"TEB"},{"is_transit":false,"station_name":"Cawang","transit":false,"distance":1230,"line":2,"station_id":"CW","time":2,"i_lat":-6.242512,"i_long":106.856607},{"transit":false,"station_name":"Duren Kalibata","time":3,"station_id":"DRN","distance":1546,"is_transit":false,"i_lat":-6.255332,"line":2,"i_long":106.85449}]]}