{"data":[[{"transit":false,"distance":0,"is_transit":false,"i_long":106.839204,"station_id":"KMO","time":0,"station_name":"Kemayoran","i_lat":-6.161728,"line":11},{"station_name":"Rajawali","i_long":106.836569,"is_transit":false,"distance":1901,"transit":false,"line":11,"station_id":"RJW","time":5,"i_lat":-6.14505},{"station_id":"KPB","time":3,"i_lat":-6.132549,"is_transit":true,"distance":1444,"transit":true,"station_name":"Kampung Bandan","i_long":106.826365,"line":4},{"is_transit":false,"line":1,"transit":false,"station_id":"AK","i_long":106.79867,"distance":4102,"i_lat":-6.144674,"station_name":"Angke","time":9},{"line":1,"i_lat":-6.155215,"station_name":"Duri","transit":true,"is_transit":true,"distance":1230,"time":4,"station_id":"DU","i_long":106.800832},{"station_id":"GGL","i_lat":-6.162021,"is_transit":false,"distance":1700,"i_long":106.788277,"line":5,"transit":false,"station_name":"Grogol","time":3},{"transit":false,"i_long":106.771379,"time":2,"distance":2036,"is_transit":false,"station_name":"Pesing","i_lat":-6.161433,"line":5,"station_id":"PSG"}],[{"station_name":"Kemayoran","distance":0,"i_long":106.839204,"time":0,"line":11,"i_lat":-6.161728,"is_transit":false,"transit":false,"station_id":"KMO"},{"is_transit":false,"transit":false,"i_lat":-6.174784,"distance":1436,"time":4,"station_id":"PSE","station_name":"Pasar Senen","line":11,"i_long":106.84368},{"is_transit":false,"time":8,"i_lat":-6.185975,"station_name":"Gang Sentiong","line":11,"transit":false,"distance":1567,"station_id":"GST","i_long":106.850107},{"is_transit":false,"time":1,"line":11,"station_id":"KMT","transit":false,"station_name":"Kramat","distance":973,"i_lat":-6.193792,"i_long":106.855437},{"i_lat":-6.209188,"time":2,"station_name":"Pondok Jati","distance":1829,"station_id":"POK","line":11,"i_long":106.861737,"is_transit":false,"transit":false},{"i_lat":-6.215091,"line":1,"i_long":106.86807400000001,"time":9,"transit":true,"station_id":"JNG","station_name":"Jatinegara","distance":1236,"is_transit":true},{"transit":false,"station_name":"Matraman","is_transit":false,"time":2,"i_lat":-6.212485,"line":1,"i_long":106.858896,"station_id":"MTR","distance":1377},{"time":2,"line":2,"station_name":"Manggarai","distance":1275,"i_lat":-6.209883,"is_transit":false,"transit":false,"station_id":"MRI","i_long":106.84912},{"time":4,"transit":false,"is_transit":false,"station_id":"SUD","line":1,"i_long":106.822649,"i_lat":-6.202263,"distance":3186,"station_name":"Sudirman"},{"station_name":"Sudirman Baru","line":1,"is_transit":false,"transit":false,"station_id":"SUDB","i_lat":-6.201433,"i_long":106.819881,"distance":280,"time":1},{"time":1,"station_name":"Karet","i_long":106.816351,"line":1,"i_lat":-6.20132,"station_id":"KAT","distance":471,"transit":false,"is_transit":false},{"i_lat":-6.185545,"is_transit":false,"transit":false,"station_name":"Tanah Abang","distance":2029,"station_id":"THB","i_long":106.811091,"time":5,"line":1},{"line":1,"i_lat":-6.155215,"is_transit":true,"station_id":"DU","i_long":106.800832,"distance":3632,"time":8,"transit":true,"station_name":"Duri"},{"transit":false,"time":3,"is_transit":false,"station_id":"GGL","distance":1700,"station_name":"Grogol","i_lat":-6.162021,"i_long":106.788277,"line":5},{"is_transit":false,"distance":2036,"transit":false,"station_id":"PSG","line":5,"i_lat":-6.161433,"station_name":"Pesing","i_long":106.771379,"time":2}],[{"time":0,"station_name":"Kemayoran","distance":0,"i_lat":-6.161728,"line":11,"i_long":106.839204,"is_transit":false,"station_id":"KMO","transit":false},{"station_name":"Rajawali","i_lat":-6.14505,"line":11,"is_transit":false,"time":5,"station_id":"RJW","distance":1901,"transit":false,"i_long":106.836569},{"transit":true,"distance":1444,"station_name":"Kampung Bandan","time":3,"is_transit":true,"station_id":"KPB","i_long":106.826365,"i_lat":-6.132549,"line":4},{"is_transit":true,"i_lat":-6.137569,"i_long":106.812439,"transit":true,"line":2,"station_name":"Jakarta Kota","distance":1364,"time":3,"station_id":"JAKK"},{"i_lat":-6.141205,"transit":false,"is_transit":false,"station_id":"JAY","time":4,"station_name":"Jayakarta","distance":1264,"i_long":106.820901,"line":2},{"i_lat":-6.149769,"is_transit":false,"i_long":106.82482,"station_name":"Manggabesar","time":2,"distance":1080,"transit":false,"line":2,"station_id":"MGB"},{"distance":906,"i_lat":-6.160725,"transit":false,"is_transit":false,"station_id":"SW","line":2,"station_name":"Sawah Besar","i_long":106.827103,"time":2},{"time":2,"i_lat":-6.166716,"i_long":106.828284,"line":2,"is_transit":false,"distance":1149,"transit":false,"station_id":"JUA","station_name":"Juanda"},{"transit":false,"distance":2015,"station_id":"GDD","time":4,"i_long":106.832183,"line":2,"i_lat":-6.186295,"is_transit":false,"station_name":"Gondangdia"},{"transit":false,"i_long":106.840169,"is_transit":false,"station_name":"Cikini","station_id":"CKI","i_lat":-6.198556,"time":3,"line":2,"distance":1750},{"distance":1590,"is_transit":true,"i_long":106.84912,"time":4,"transit":true,"station_id":"MRI","i_lat":-6.209883,"station_name":"Manggarai","line":2},{"distance":3186,"is_transit":false,"time":4,"line":1,"i_lat":-6.202263,"station_name":"Sudirman","i_long":106.822649,"transit":false,"station_id":"SUD"},{"transit":false,"i_lat":-6.201433,"i_long":106.819881,"station_name":"Sudirman Baru","station_id":"SUDB","distance":280,"time":1,"line":1,"is_transit":false},{"is_transit":false,"i_lat":-6.20132,"station_name":"Karet","transit":false,"distance":471,"time":1,"i_long":106.816351,"line":1,"station_id":"KAT"},{"time":5,"station_id":"THB","station_name":"Tanah Abang","i_long":106.811091,"line":1,"i_lat":-6.185545,"transit":false,"is_transit":false,"distance":2029},{"is_transit":true,"station_name":"Duri","i_long":106.800832,"distance":3632,"transit":true,"station_id":"DU","time":8,"i_lat":-6.155215,"line":1},{"station_id":"GGL","station_name":"Grogol","transit":false,"time":3,"is_transit":false,"i_lat":-6.162021,"i_long":106.788277,"line":5,"distance":1700},{"transit":false,"time":2,"distance":2036,"is_transit":false,"i_lat":-6.161433,"line":5,"i_long":106.771379,"station_id":"PSG","station_name":"Pesing"}],[{"time":0,"is_transit":false,"i_lat":-6.161728,"transit":false,"i_long":106.839204,"line":11,"station_id":"KMO","station_name":"Kemayoran","distance":0},{"is_transit":false,"i_lat":-6.174784,"station_id":"PSE","line":11,"station_name":"Pasar Senen","transit":false,"time":4,"i_long":106.84368,"distance":1436},{"distance":1567,"i_long":106.850107,"is_transit":false,"time":8,"transit":false,"station_id":"GST","station_name":"Gang Sentiong","i_lat":-6.185975,"line":11},{"transit":false,"station_id":"KMT","is_transit":false,"distance":973,"station_name":"Kramat","i_long":106.855437,"line":11,"i_lat":-6.193792,"time":1},{"transit":false,"line":11,"distance":1829,"is_transit":false,"station_name":"Pondok Jati","time":2,"station_id":"POK","i_lat":-6.209188,"i_long":106.861737},{"line":1,"i_long":106.86807400000001,"time":9,"transit":true,"station_id":"JNG","i_lat":-6.215091,"is_transit":true,"distance":1236,"station_name":"Jatinegara"},{"transit":false,"time":2,"i_lat":-6.212485,"is_transit":false,"i_long":106.858896,"line":1,"distance":1377,"station_id":"MTR","station_name":"Matraman"},{"time":2,"is_transit":true,"line":2,"i_lat":-6.209883,"station_id":"MRI","station_name":"Manggarai","i_long":106.84912,"transit":true,"distance":1275},{"time":4,"transit":false,"line":2,"i_lat":-6.198556,"distance":1590,"station_name":"Cikini","station_id":"CKI","i_long":106.840169,"is_transit":false},{"time":3,"is_transit":false,"station_id":"GDD","station_name":"Gondangdia","line":2,"i_long":106.832183,"distance":1750,"transit":false,"i_lat":-6.186295},{"station_id":"JUA","distance":2015,"transit":false,"line":2,"is_transit":false,"station_name":"Juanda","time":4,"i_long":106.828284,"i_lat":-6.166716},{"transit":false,"i_lat":-6.160725,"i_long":106.827103,"time":2,"is_transit":false,"line":2,"station_id":"SW","distance":1149,"station_name":"Sawah Besar"},{"line":2,"is_transit":false,"i_lat":-6.149769,"station_id":"MGB","distance":906,"station_name":"Manggabesar","transit":false,"time":2,"i_long":106.82482},{"distance":1080,"transit":false,"time":2,"station_name":"Jayakarta","i_lat":-6.141205,"is_transit":false,"station_id":"JAY","line":2,"i_long":106.820901},{"is_transit":true,"distance":1264,"station_id":"JAKK","time":4,"i_lat":-6.137569,"i_long":106.812439,"station_name":"Jakarta Kota","transit":true,"line":2},{"transit":true,"time":3,"is_transit":true,"station_id":"KPB","i_long":106.826365,"station_name":"Kampung Bandan","i_lat":-6.132549,"distance":1364,"line":4},{"i_long":106.79867,"i_lat":-6.144674,"transit":false,"distance":4102,"is_transit":false,"station_id":"AK","station_name":"Angke","line":1,"time":9},{"station_id":"DU","station_name":"Duri","i_lat":-6.155215,"line":1,"i_long":106.800832,"distance":1230,"transit":true,"is_transit":true,"time":4},{"i_long":106.788277,"transit":false,"station_id":"GGL","station_name":"Grogol","distance":1700,"i_lat":-6.162021,"is_transit":false,"line":5,"time":3},{"time":2,"is_transit":false,"transit":false,"i_lat":-6.161433,"line":5,"distance":2036,"station_name":"Pesing","i_long":106.771379,"station_id":"PSG"}]]}