{"data":[[{"station_name":"Kemayoran","distance":0,"time":0,"station_id":"KMO","is_transit":false,"line":11,"i_lat":-6.161728,"i_long":106.839204,"transit":false},{"is_transit":false,"i_lat":-6.174784,"station_name":"Pasar Senen","distance":1436,"station_id":"PSE","transit":false,"i_long":106.84368,"time":4,"line":11},{"transit":false,"line":11,"is_transit":false,"i_lat":-6.185975,"time":8,"station_name":"Gang Sentiong","station_id":"GST","i_long":106.850107,"distance":1567},{"transit":false,"i_lat":-6.193792,"station_name":"Kramat","i_long":106.855437,"distance":973,"is_transit":false,"line":11,"time":1,"station_id":"KMT"},{"distance":1829,"station_id":"POK","i_long":106.861737,"time":2,"transit":false,"station_name":"Pondok Jati","is_transit":false,"i_lat":-6.209188,"line":11},{"is_transit":true,"i_lat":-6.215091,"i_long":106.86807400000001,"station_name":"Jatinegara","time":9,"line":1,"distance":1236,"station_id":"JNG","transit":true},{"time":2,"line":1,"i_lat":-6.212485,"is_transit":false,"station_id":"MTR","station_name":"Matraman","transit":false,"i_long":106.858896,"distance":1377},{"is_transit":true,"distance":1275,"station_name":"Manggarai","time":2,"station_id":"MRI","line":2,"i_long":106.84912,"transit":true,"i_lat":-6.209883},{"i_lat":-6.226659,"line":2,"time":4,"transit":false,"i_long":106.857948,"station_id":"TEB","distance":2610,"is_transit":false,"station_name":"Tebet"},{"distance":1230,"station_id":"CW","transit":false,"time":2,"station_name":"Cawang","i_long":106.856607,"is_transit":false,"i_lat":-6.242512,"line":2},{"is_transit":false,"line":2,"station_id":"DRN","i_lat":-6.255332,"i_long":106.85449,"time":3,"transit":false,"distance":1546,"station_name":"Duren Kalibata"},{"line":2,"i_long":106.851577,"distance":824,"is_transit":false,"station_id":"PSMB","time":2,"transit":false,"i_lat":-6.263214,"station_name":"Pasar Minggu Baru"},{"station_id":"PSM","i_long":106.843999,"is_transit":false,"time":2,"i_lat":-6.2842400000000005,"station_name":"Pasar Minggu","transit":false,"line":2,"distance":2380},{"distance":2820,"time":4,"i_lat":-6.3080680000000005,"line":2,"is_transit":false,"i_long":106.838896,"station_id":"TNT","transit":false,"station_name":"Tanjung Barat"},{"time":3,"station_name":"Lenteng Agung","line":2,"station_id":"LNA","i_long":106.832616,"distance":2671,"i_lat":-6.330363,"is_transit":false,"transit":false},{"distance":1029,"transit":false,"is_transit":false,"i_long":106.834175,"station_name":"Univ. Pancasila","station_id":"UP","time":2,"line":2,"i_lat":-6.339291},{"i_lat":-6.360749,"i_long":106.831474,"distance":2264,"line":2,"time":3,"station_name":"Univ. Indonesia","is_transit":false,"station_id":"UI","transit":false},{"line":2,"station_id":"POC","i_long":106.831114,"transit":false,"station_name":"Pondok Cina","is_transit":false,"i_lat":-6.369073,"distance":1109,"time":2},{"distance":2727,"is_transit":false,"time":4,"i_lat":-6.391065,"transit":false,"i_long":106.819451,"station_id":"DPB","station_name":"Depokbaru","line":2},{"i_lat":-6.405256,"line":2,"transit":false,"i_long":106.816926,"station_name":"Depok","time":3,"distance":1584,"is_transit":false,"station_id":"DP"}],[{"station_name":"Kemayoran","time":0,"is_transit":false,"i_lat":-6.161728,"distance":0,"line":11,"station_id":"KMO","transit":false,"i_long":106.839204},{"station_name":"Rajawali","is_transit":false,"transit":false,"i_long":106.836569,"line":11,"distance":1901,"station_id":"RJW","i_lat":-6.14505,"time":5},{"distance":1444,"station_id":"KPB","time":3,"transit":true,"i_lat":-6.132549,"i_long":106.826365,"line":4,"station_name":"Kampung Bandan","is_transit":true},{"distance":4102,"station_id":"AK","line":1,"transit":false,"station_name":"Angke","i_lat":-6.144674,"i_long":106.79867,"time":9,"is_transit":false},{"line":1,"transit":false,"distance":1230,"i_lat":-6.155215,"station_name":"Duri","station_id":"DU","time":4,"is_transit":false,"i_long":106.800832},{"station_id":"THB","transit":false,"station_name":"Tanah Abang","time":8,"is_transit":false,"i_long":106.811091,"distance":3632,"line":1,"i_lat":-6.185545},{"time":5,"station_id":"KAT","line":1,"i_lat":-6.20132,"station_name":"Karet","is_transit":false,"transit":false,"distance":2029,"i_long":106.816351},{"distance":471,"is_transit":false,"station_id":"SUDB","i_long":106.819881,"i_lat":-6.201433,"time":1,"station_name":"Sudirman Baru","transit":false,"line":1},{"station_id":"SUD","station_name":"Sudirman","line":1,"time":1,"transit":false,"i_long":106.822649,"distance":280,"i_lat":-6.202263,"is_transit":false},{"is_transit":true,"i_lat":-6.209883,"line":2,"time":4,"transit":true,"station_name":"Manggarai","distance":3186,"station_id":"MRI","i_long":106.84912},{"time":4,"transit":false,"i_long":106.857948,"distance":2610,"station_name":"Tebet","line":2,"i_lat":-6.226659,"is_transit":false,"station_id":"TEB"},{"time":2,"transit":false,"i_long":106.856607,"distance":1230,"station_name":"Cawang","i_lat":-6.242512,"station_id":"CW","is_transit":false,"line":2},{"distance":1546,"i_long":106.85449,"is_transit":false,"time":3,"line":2,"station_id":"DRN","transit":false,"station_name":"Duren Kalibata","i_lat":-6.255332},{"station_id":"PSMB","station_name":"Pasar Minggu Baru","distance":824,"is_transit":false,"i_long":106.851577,"time":2,"i_lat":-6.263214,"transit":false,"line":2},{"station_name":"Pasar Minggu","time":2,"is_transit":false,"transit":false,"i_lat":-6.2842400000000005,"i_long":106.843999,"line":2,"distance":2380,"station_id":"PSM"},{"is_transit":false,"distance":2820,"time":4,"i_lat":-6.3080680000000005,"transit":false,"i_long":106.838896,"station_name":"Tanjung Barat","line":2,"station_id":"TNT"},{"station_name":"Lenteng Agung","transit":false,"i_lat":-6.330363,"distance":2671,"i_long":106.832616,"station_id":"LNA","line":2,"time":3,"is_transit":false},{"transit":false,"station_id":"UP","line":2,"station_name":"Univ. Pancasila","i_lat":-6.339291,"i_long":106.834175,"is_transit":false,"distance":1029,"time":2},{"is_transit":false,"station_id":"UI","time":3,"transit":false,"i_long":106.831474,"line":2,"distance":2264,"station_name":"Univ. Indonesia","i_lat":-6.360749},{"station_id":"POC","transit":false,"time":2,"line":2,"distance":1109,"i_long":106.831114,"is_transit":false,"station_name":"Pondok Cina","i_lat":-6.369073},{"i_long":106.819451,"distance":2727,"station_id":"DPB","is_transit":false,"time":4,"transit":false,"i_lat":-6.391065,"station_name":"Depokbaru","line":2},{"is_transit":false,"station_id":"DP","line":2,"transit":false,"distance":1584,"i_lat":-6.405256,"time":3,"i_long":106.816926,"station_name":"Depok"}],[{"transit":false,"line":11,"i_long":106.839204,"station_id":"KMO","station_name":"Kemayoran","is_transit":false,"distance":0,"i_lat":-6.161728,"time":0},{"station_name":"Rajawali","time":5,"transit":false,"i_lat":-6.14505,"i_long":106.836569,"line":11,"distance":1901,"station_id":"RJW","is_transit":false},{"distance":1444,"station_name":"Kampung Bandan","i_long":106.826365,"i_lat":-6.132549,"line":4,"station_id":"KPB","transit":true,"time":3,"is_transit":true},{"i_long":106.812439,"distance":1364,"transit":true,"is_transit":true,"line":2,"station_name":"Jakarta Kota","time":3,"station_id":"JAKK","i_lat":-6.137569},{"station_name":"Jayakarta","i_long":106.820901,"is_transit":false,"station_id":"JAY","distance":1264,"time":4,"transit":false,"i_lat":-6.141205,"line":2},{"line":2,"distance":1080,"station_name":"Manggabesar","i_lat":-6.149769,"i_long":106.82482,"time":2,"is_transit":false,"station_id":"MGB","transit":false},{"i_long":106.827103,"line":2,"distance":906,"station_id":"SW","i_lat":-6.160725,"station_name":"Sawah Besar","transit":false,"is_transit":false,"time":2},{"station_name":"Juanda","is_transit":false,"i_lat":-6.166716,"station_id":"JUA","line":2,"distance":1149,"transit":false,"time":2,"i_long":106.828284},{"station_name":"Gondangdia","is_transit":false,"i_lat":-6.186295,"line":2,"distance":2015,"time":4,"i_long":106.832183,"station_id":"GDD","transit":false},{"station_id":"CKI","station_name":"Cikini","i_long":106.840169,"line":2,"time":3,"is_transit":false,"distance":1750,"transit":false,"i_lat":-6.198556},{"time":4,"is_transit":false,"i_lat":-6.209883,"transit":false,"station_name":"Manggarai","station_id":"MRI","i_long":106.84912,"distance":1590,"line":2},{"is_transit":false,"station_id":"TEB","station_name":"Tebet","time":4,"transit":false,"distance":2610,"i_lat":-6.226659,"line":2,"i_long":106.857948},{"line":2,"time":2,"i_lat":-6.242512,"transit":false,"i_long":106.856607,"station_id":"CW","distance":1230,"station_name":"Cawang","is_transit":false},{"station_id":"DRN","is_transit":false,"line":2,"time":3,"i_long":106.85449,"station_name":"Duren Kalibata","distance":1546,"i_lat":-6.255332,"transit":false},{"station_id":"PSMB","distance":824,"is_transit":false,"i_lat":-6.263214,"station_name":"Pasar Minggu Baru","i_long":106.851577,"transit":false,"line":2,"time":2},{"distance":2380,"time":2,"is_transit":false,"line":2,"i_long":106.843999,"i_lat":-6.2842400000000005,"station_name":"Pasar Minggu","transit":false,"station_id":"PSM"},{"is_transit":false,"station_id":"TNT","time":4,"i_lat":-6.3080680000000005,"i_long":106.838896,"transit":false,"station_name":"Tanjung Barat","distance":2820,"line":2},{"station_id":"LNA","distance":2671,"time":3,"i_lat":-6.330363,"is_transit":false,"station_name":"Lenteng Agung","transit":false,"line":2,"i_long":106.832616},{"station_name":"Univ. Pancasila","time":2,"transit":false,"i_lat":-6.339291,"distance":1029,"is_transit":false,"i_long":106.834175,"line":2,"station_id":"UP"},{"time":3,"station_id":"UI","i_long":106.831474,"transit":false,"i_lat":-6.360749,"line":2,"distance":2264,"station_name":"Univ. Indonesia","is_transit":false},{"station_id":"POC","station_name":"Pondok Cina","i_lat":-6.369073,"time":2,"distance":1109,"is_transit":false,"transit":false,"i_long":106.831114,"line":2},{"station_id":"DPB","i_lat":-6.391065,"i_long":106.819451,"station_name":"Depokbaru","line":2,"transit":false,"time":4,"distance":2727,"is_transit":false},{"is_transit":false,"i_lat":-6.405256,"line":2,"time":3,"station_id":"DP","i_long":106.816926,"transit":false,"distance":1584,"station_name":"Depok"}]]}