{"data":[[{"i_long":106.839204,"time":0,"is_transit":false,"station_id":"KMO","transit":false,"station_name":"Kemayoran","i_lat":-6.161728,"distance":0,"line":11},{"is_transit":false,"i_lat":-6.174784,"i_long":106.84368,"distance":1436,"time":4,"transit":false,"station_name":"Pasar Senen","line":11,"station_id":"PSE"},{"station_name":"Gang Sentiong","station_id":"GST","distance":1567,"line":11,"is_transit":false,"i_lat":-6.185975,"i_long":106.850107,"time":8,"transit":false},{"station_name":"Kramat","line":11,"is_transit":false,"station_id":"KMT","i_lat":-6.193792,"time":1,"transit":false,"i_long":106.855437,"distance":973},{"time":2,"i_long":106.861737,"i_lat":-6.209188,"is_transit":false,"line":11,"distance":1829,"transit":false,"station_id":"POK","station_name":"Pondok Jati"},{"time":9,"i_lat":-6.215091,"station_name":"Jatinegara","is_transit":true,"i_long":106.86807400000001,"distance":1236,"station_id":"JNG","transit":true,"line":1},{"distance":1377,"i_long":106.858896,"transit":false,"station_name":"Matraman","is_transit":false,"i_lat":-6.212485,"line":1,"time":2,"station_id":"MTR"},{"line":2,"time":2,"is_transit":true,"station_id":"MRI","station_name":"Manggarai","distance":1275,"i_lat":-6.209883,"i_long":106.84912,"transit":true},{"line":2,"time":4,"station_id":"TEB","i_long":106.857948,"distance":2610,"transit":false,"station_name":"Tebet","is_transit":false,"i_lat":-6.226659},{"line":2,"station_id":"CW","i_lat":-6.242512,"is_transit":false,"station_name":"Cawang","time":2,"distance":1230,"transit":false,"i_long":106.856607},{"transit":false,"distance":1546,"station_name":"Duren Kalibata","time":3,"station_id":"DRN","i_lat":-6.255332,"line":2,"is_transit":false,"i_long":106.85449},{"distance":824,"i_lat":-6.263214,"transit":false,"is_transit":false,"line":2,"i_long":106.851577,"time":2,"station_name":"Pasar Minggu Baru","station_id":"PSMB"},{"line":2,"distance":2380,"transit":false,"i_lat":-6.2842400000000005,"is_transit":false,"i_long":106.843999,"station_id":"PSM","station_name":"Pasar Minggu","time":2},{"station_id":"TNT","transit":false,"is_transit":false,"station_name":"Tanjung Barat","i_lat":-6.3080680000000005,"time":4,"distance":2820,"i_long":106.838896,"line":2},{"station_name":"Lenteng Agung","time":3,"distance":2671,"i_lat":-6.330363,"i_long":106.832616,"transit":false,"station_id":"LNA","line":2,"is_transit":false},{"station_name":"Univ. Pancasila","is_transit":false,"i_long":106.834175,"station_id":"UP","line":2,"i_lat":-6.339291,"distance":1029,"transit":false,"time":2},{"i_long":106.831474,"distance":2264,"is_transit":false,"time":3,"station_name":"Univ. Indonesia","i_lat":-6.360749,"transit":false,"line":2,"station_id":"UI"}],[{"station_name":"Kemayoran","transit":false,"line":11,"is_transit":false,"distance":0,"station_id":"KMO","i_lat":-6.161728,"i_long":106.839204,"time":0},{"time":5,"i_lat":-6.14505,"i_long":106.836569,"distance":1901,"transit":false,"station_name":"Rajawali","line":11,"is_transit":false,"station_id":"RJW"},{"station_id":"KPB","i_lat":-6.132549,"i_long":106.826365,"station_name":"Kampung Bandan","is_transit":true,"transit":true,"line":4,"time":3,"distance":1444},{"distance":4102,"station_name":"Angke","time":9,"line":1,"station_id":"AK","is_transit":false,"transit":false,"i_long":106.79867,"i_lat":-6.144674},{"i_lat":-6.155215,"transit":false,"station_name":"Duri","is_transit":false,"i_long":106.800832,"station_id":"DU","line":1,"distance":1230,"time":4},{"is_transit":false,"i_long":106.811091,"station_id":"THB","line":1,"i_lat":-6.185545,"time":8,"transit":false,"distance":3632,"station_name":"Tanah Abang"},{"i_long":106.816351,"time":5,"station_id":"KAT","transit":false,"is_transit":false,"i_lat":-6.20132,"line":1,"distance":2029,"station_name":"Karet"},{"station_name":"Sudirman Baru","is_transit":false,"distance":471,"i_lat":-6.201433,"line":1,"transit":false,"i_long":106.819881,"station_id":"SUDB","time":1},{"time":1,"i_lat":-6.202263,"station_id":"SUD","transit":false,"station_name":"Sudirman","distance":280,"line":1,"is_transit":false,"i_long":106.822649},{"distance":3186,"i_lat":-6.209883,"line":2,"is_transit":true,"station_name":"Manggarai","time":4,"i_long":106.84912,"station_id":"MRI","transit":true},{"is_transit":false,"i_lat":-6.226659,"i_long":106.857948,"station_name":"Tebet","time":4,"distance":2610,"transit":false,"line":2,"station_id":"TEB"},{"line":2,"station_name":"Cawang","i_lat":-6.242512,"station_id":"CW","time":2,"distance":1230,"transit":false,"is_transit":false,"i_long":106.856607},{"time":3,"line":2,"station_name":"Duren Kalibata","is_transit":false,"i_lat":-6.255332,"distance":1546,"station_id":"DRN","i_long":106.85449,"transit":false},{"station_id":"PSMB","line":2,"transit":false,"is_transit":false,"distance":824,"time":2,"station_name":"Pasar Minggu Baru","i_lat":-6.263214,"i_long":106.851577},{"line":2,"station_name":"Pasar Minggu","time":2,"transit":false,"i_lat":-6.2842400000000005,"is_transit":false,"i_long":106.843999,"station_id":"PSM","distance":2380},{"i_lat":-6.3080680000000005,"i_long":106.838896,"station_name":"Tanjung Barat","time":4,"distance":2820,"station_id":"TNT","transit":false,"line":2,"is_transit":false},{"distance":2671,"is_transit":false,"time":3,"line":2,"i_lat":-6.330363,"i_long":106.832616,"station_name":"Lenteng Agung","transit":false,"station_id":"LNA"},{"station_name":"Univ. Pancasila","line":2,"distance":1029,"station_id":"UP","time":2,"transit":false,"is_transit":false,"i_lat":-6.339291,"i_long":106.834175},{"is_transit":false,"line":2,"i_long":106.831474,"transit":false,"i_lat":-6.360749,"station_id":"UI","time":3,"station_name":"Univ. Indonesia","distance":2264}],[{"i_long":106.839204,"time":0,"distance":0,"line":11,"station_name":"Kemayoran","is_transit":false,"transit":false,"i_lat":-6.161728,"station_id":"KMO"},{"time":5,"station_name":"Rajawali","line":11,"distance":1901,"i_long":106.836569,"transit":false,"is_transit":false,"i_lat":-6.14505,"station_id":"RJW"},{"i_lat":-6.132549,"line":4,"distance":1444,"is_transit":true,"i_long":106.826365,"time":3,"transit":true,"station_name":"Kampung Bandan","station_id":"KPB"},{"transit":true,"distance":1364,"line":2,"station_id":"JAKK","i_long":106.812439,"time":3,"station_name":"Jakarta Kota","is_transit":true,"i_lat":-6.137569},{"station_id":"JAY","is_transit":false,"distance":1264,"i_lat":-6.141205,"i_long":106.820901,"line":2,"time":4,"transit":false,"station_name":"Jayakarta"},{"station_name":"Manggabesar","i_long":106.82482,"distance":1080,"line":2,"station_id":"MGB","transit":false,"is_transit":false,"i_lat":-6.149769,"time":2},{"station_name":"Sawah Besar","station_id":"SW","distance":906,"time":2,"transit":false,"is_transit":false,"i_lat":-6.160725,"line":2,"i_long":106.827103},{"i_long":106.828284,"line":2,"time":2,"i_lat":-6.166716,"station_id":"JUA","distance":1149,"transit":false,"station_name":"Juanda","is_transit":false},{"time":4,"station_name":"Gondangdia","is_transit":false,"i_lat":-6.186295,"station_id":"GDD","line":2,"distance":2015,"i_long":106.832183,"transit":false},{"distance":1750,"i_lat":-6.198556,"station_name":"Cikini","i_long":106.840169,"time":3,"line":2,"transit":false,"station_id":"CKI","is_transit":false},{"time":4,"line":2,"transit":false,"distance":1590,"station_name":"Manggarai","i_lat":-6.209883,"station_id":"MRI","i_long":106.84912,"is_transit":false},{"station_id":"TEB","distance":2610,"i_long":106.857948,"time":4,"station_name":"Tebet","transit":false,"is_transit":false,"line":2,"i_lat":-6.226659},{"station_id":"CW","transit":false,"distance":1230,"is_transit":false,"station_name":"Cawang","i_long":106.856607,"line":2,"time":2,"i_lat":-6.242512},{"time":3,"line":2,"i_lat":-6.255332,"is_transit":false,"distance":1546,"station_id":"DRN","transit":false,"i_long":106.85449,"station_name":"Duren Kalibata"},{"distance":824,"transit":false,"station_name":"Pasar Minggu Baru","i_lat":-6.263214,"time":2,"i_long":106.851577,"station_id":"PSMB","is_transit":false,"line":2},{"i_lat":-6.2842400000000005,"distance":2380,"transit":false,"is_transit":false,"i_long":106.843999,"time":2,"station_name":"Pasar Minggu","station_id":"PSM","line":2},{"station_name":"Tanjung Barat","time":4,"is_transit":false,"i_lat":-6.3080680000000005,"transit":false,"distance":2820,"line":2,"station_id":"TNT","i_long":106.838896},{"station_name":"Lenteng Agung","line":2,"station_id":"LNA","is_transit":false,"distance":2671,"i_lat":-6.330363,"time":3,"transit":false,"i_long":106.832616},{"line":2,"i_long":106.834175,"transit":false,"time":2,"station_id":"UP","is_transit":false,"i_lat":-6.339291,"distance":1029,"station_name":"Univ. Pancasila"},{"time":3,"transit":false,"station_name":"Univ. Indonesia","distance":2264,"is_transit":false,"i_long":106.831474,"i_lat":-6.360749,"line":2,"station_id":"UI"}]]}