{"data":[[{"distance":0,"i_long":106.839204,"station_name":"Kemayoran","station_id":"KMO","i_lat":-6.161728,"is_transit":false,"transit":false,"time":0,"line":11},{"station_name":"Rajawali","station_id":"RJW","is_transit":false,"transit":false,"distance":1901,"i_long":106.836569,"line":11,"i_lat":-6.14505,"time":5},{"transit":true,"i_long":106.826365,"line":4,"station_name":"Kampung Bandan","is_transit":true,"time":3,"station_id":"KPB","distance":1444,"i_lat":-6.132549},{"distance":1364,"transit":true,"time":3,"line":2,"station_id":"JAKK","station_name":"Jakarta Kota","is_transit":true,"i_long":106.812439,"i_lat":-6.137569},{"station_name":"Jayakarta","station_id":"JAY","is_transit":false,"time":4,"distance":1264,"transit":false,"i_long":106.820901,"line":2,"i_lat":-6.141205}],[{"distance":0,"is_transit":false,"i_lat":-6.161728,"transit":false,"station_id":"KMO","time":0,"i_long":106.839204,"line":11,"station_name":"Kemayoran"},{"transit":false,"i_long":106.84368,"time":4,"station_id":"PSE","is_transit":false,"station_name":"Pasar Senen","distance":1436,"i_lat":-6.174784,"line":11},{"time":8,"station_id":"GST","line":11,"is_transit":false,"transit":false,"i_lat":-6.185975,"i_long":106.850107,"distance":1567,"station_name":"Gang Sentiong"},{"station_id":"KMT","line":11,"time":1,"transit":false,"i_lat":-6.193792,"is_transit":false,"station_name":"Kramat","distance":973,"i_long":106.855437},{"is_transit":false,"distance":1829,"i_long":106.861737,"transit":false,"time":2,"line":11,"station_id":"POK","i_lat":-6.209188,"station_name":"Pondok Jati"},{"distance":1236,"i_lat":-6.215091,"time":9,"station_id":"JNG","is_transit":true,"station_name":"Jatinegara","transit":true,"i_long":106.86807400000001,"line":1},{"transit":false,"station_name":"Matraman","i_lat":-6.212485,"station_id":"MTR","time":2,"i_long":106.858896,"line":1,"distance":1377,"is_transit":false},{"i_lat":-6.209883,"line":2,"station_id":"MRI","transit":true,"time":2,"is_transit":true,"i_long":106.84912,"station_name":"Manggarai","distance":1275},{"is_transit":false,"station_name":"Cikini","distance":1590,"line":2,"transit":false,"time":4,"i_lat":-6.198556,"i_long":106.840169,"station_id":"CKI"},{"i_long":106.832183,"transit":false,"station_id":"GDD","distance":1750,"is_transit":false,"time":3,"i_lat":-6.186295,"station_name":"Gondangdia","line":2},{"station_id":"JUA","i_long":106.828284,"station_name":"Juanda","line":2,"distance":2015,"is_transit":false,"time":4,"transit":false,"i_lat":-6.166716},{"time":2,"i_long":106.827103,"station_name":"Sawah Besar","is_transit":false,"line":2,"i_lat":-6.160725,"station_id":"SW","transit":false,"distance":1149},{"line":2,"station_name":"Manggabesar","transit":false,"station_id":"MGB","is_transit":false,"time":2,"i_lat":-6.149769,"distance":906,"i_long":106.82482},{"is_transit":false,"i_lat":-6.141205,"distance":1080,"i_long":106.820901,"line":2,"station_name":"Jayakarta","time":2,"transit":false,"station_id":"JAY"}],[{"i_lat":-6.161728,"i_long":106.839204,"transit":false,"station_name":"Kemayoran","time":0,"line":11,"station_id":"KMO","distance":0,"is_transit":false},{"transit":false,"i_lat":-6.14505,"distance":1901,"station_name":"Rajawali","station_id":"RJW","time":5,"i_long":106.836569,"is_transit":false,"line":11},{"station_id":"KPB","station_name":"Kampung Bandan","i_lat":-6.132549,"time":3,"i_long":106.826365,"is_transit":true,"line":4,"transit":true,"distance":1444},{"station_id":"AK","i_long":106.79867,"station_name":"Angke","line":1,"distance":4102,"transit":false,"is_transit":false,"time":9,"i_lat":-6.144674},{"station_id":"DU","i_lat":-6.155215,"station_name":"Duri","transit":false,"distance":1230,"i_long":106.800832,"is_transit":false,"line":1,"time":4},{"station_id":"THB","is_transit":false,"station_name":"Tanah Abang","time":8,"distance":3632,"transit":false,"line":1,"i_lat":-6.185545,"i_long":106.811091},{"transit":false,"station_name":"Karet","i_lat":-6.20132,"i_long":106.816351,"distance":2029,"time":5,"line":1,"is_transit":false,"station_id":"KAT"},{"distance":471,"station_name":"Sudirman Baru","time":1,"line":1,"i_lat":-6.201433,"is_transit":false,"station_id":"SUDB","i_long":106.819881,"transit":false},{"i_long":106.822649,"i_lat":-6.202263,"line":1,"distance":280,"transit":false,"time":1,"station_name":"Sudirman","is_transit":false,"station_id":"SUD"},{"i_long":106.84912,"station_id":"MRI","i_lat":-6.209883,"line":2,"transit":true,"time":4,"distance":3186,"station_name":"Manggarai","is_transit":true},{"station_id":"CKI","station_name":"Cikini","time":4,"distance":1590,"is_transit":false,"i_lat":-6.198556,"transit":false,"i_long":106.840169,"line":2},{"line":2,"station_id":"GDD","station_name":"Gondangdia","distance":1750,"i_lat":-6.186295,"i_long":106.832183,"time":3,"is_transit":false,"transit":false},{"is_transit":false,"transit":false,"time":4,"i_long":106.828284,"distance":2015,"station_name":"Juanda","line":2,"station_id":"JUA","i_lat":-6.166716},{"transit":false,"i_lat":-6.160725,"is_transit":false,"i_long":106.827103,"station_id":"SW","line":2,"time":2,"station_name":"Sawah Besar","distance":1149},{"time":2,"distance":906,"is_transit":false,"station_id":"MGB","i_long":106.82482,"transit":false,"line":2,"station_name":"Manggabesar","i_lat":-6.149769},{"is_transit":false,"transit":false,"i_lat":-6.141205,"station_id":"JAY","station_name":"Jayakarta","line":2,"distance":1080,"time":2,"i_long":106.820901}],[{"is_transit":false,"time":0,"distance":0,"station_id":"KMO","station_name":"Kemayoran","transit":false,"line":11,"i_long":106.839204,"i_lat":-6.161728},{"i_long":106.84368,"station_name":"Pasar Senen","is_transit":false,"i_lat":-6.174784,"station_id":"PSE","transit":false,"time":4,"distance":1436,"line":11},{"distance":1567,"transit":false,"i_long":106.850107,"time":8,"i_lat":-6.185975,"line":11,"is_transit":false,"station_id":"GST","station_name":"Gang Sentiong"},{"distance":973,"i_long":106.855437,"line":11,"time":1,"is_transit":false,"i_lat":-6.193792,"transit":false,"station_name":"Kramat","station_id":"KMT"},{"station_id":"POK","i_lat":-6.209188,"i_long":106.861737,"line":11,"is_transit":false,"time":2,"transit":false,"distance":1829,"station_name":"Pondok Jati"},{"time":9,"transit":true,"station_name":"Jatinegara","distance":1236,"i_long":106.86807400000001,"is_transit":true,"station_id":"JNG","i_lat":-6.215091,"line":1},{"line":1,"is_transit":false,"transit":false,"station_name":"Matraman","distance":1377,"station_id":"MTR","time":2,"i_long":106.858896,"i_lat":-6.212485},{"station_id":"MRI","i_lat":-6.209883,"i_long":106.84912,"transit":false,"is_transit":false,"station_name":"Manggarai","distance":1275,"time":2,"line":2},{"distance":3186,"station_name":"Sudirman","i_long":106.822649,"is_transit":false,"i_lat":-6.202263,"line":1,"station_id":"SUD","transit":false,"time":4},{"i_lat":-6.201433,"i_long":106.819881,"is_transit":false,"line":1,"transit":false,"time":1,"station_id":"SUDB","station_name":"Sudirman Baru","distance":280},{"is_transit":false,"station_id":"KAT","time":1,"transit":false,"distance":471,"i_lat":-6.20132,"i_long":106.816351,"line":1,"station_name":"Karet"},{"is_transit":false,"station_name":"Tanah Abang","i_lat":-6.185545,"i_long":106.811091,"line":1,"distance":2029,"transit":false,"time":5,"station_id":"THB"},{"station_id":"DU","distance":3632,"i_lat":-6.155215,"i_long":106.800832,"is_transit":false,"transit":false,"station_name":"Duri","time":8,"line":1},{"i_long":106.79867,"line":1,"station_id":"AK","time":4,"station_name":"Angke","distance":1230,"transit":false,"i_lat":-6.144674,"is_transit":false},{"is_transit":true,"i_lat":-6.132549,"time":9,"transit":true,"station_id":"KPB","distance":4102,"i_long":106.826365,"station_name":"Kampung Bandan","line":4},{"station_id":"JAKK","i_lat":-6.137569,"transit":true,"is_transit":true,"i_long":106.812439,"line":2,"time":3,"distance":1364,"station_name":"Jakarta Kota"},{"i_long":106.820901,"distance":1264,"station_name":"Jayakarta","line":2,"transit":false,"is_transit":false,"station_id":"JAY","i_lat":-6.141205,"time":4}]]}