{"data":[[{"line":11,"station_id":"KMO","i_long":106.839204,"time":0,"distance":0,"i_lat":-6.161728,"station_name":"Kemayoran","is_transit":false,"transit":false},{"station_id":"RJW","i_lat":-6.14505,"time":5,"transit":false,"distance":1901,"line":11,"i_long":106.836569,"is_transit":false,"station_name":"Rajawali"},{"transit":true,"station_id":"KPB","distance":1444,"station_name":"Kampung Bandan","line":4,"i_lat":-6.132549,"is_transit":true,"time":3,"i_long":106.826365},{"i_lat":-6.137569,"distance":1364,"transit":true,"line":2,"time":3,"i_long":106.812439,"is_transit":true,"station_id":"JAKK","station_name":"Jakarta Kota"},{"i_lat":-6.141205,"i_long":106.820901,"line":2,"time":4,"transit":false,"is_transit":false,"distance":1264,"station_id":"JAY","station_name":"Jayakarta"}],[{"is_transit":false,"i_lat":-6.161728,"time":0,"line":11,"station_id":"KMO","transit":false,"station_name":"Kemayoran","distance":0,"i_long":106.839204},{"is_transit":false,"distance":1436,"i_lat":-6.174784,"transit":false,"i_long":106.84368,"time":4,"line":11,"station_name":"Pasar Senen","station_id":"PSE"},{"i_lat":-6.185975,"i_long":106.850107,"station_id":"GST","is_transit":false,"distance":1567,"transit":false,"station_name":"Gang Sentiong","line":11,"time":8},{"i_long":106.855437,"line":11,"transit":false,"station_name":"Kramat","time":1,"distance":973,"is_transit":false,"station_id":"KMT","i_lat":-6.193792},{"line":11,"i_lat":-6.209188,"station_id":"POK","distance":1829,"is_transit":false,"station_name":"Pondok Jati","i_long":106.861737,"transit":false,"time":2},{"is_transit":true,"time":9,"station_name":"Jatinegara","i_lat":-6.215091,"i_long":106.86807400000001,"transit":true,"station_id":"JNG","distance":1236,"line":1},{"time":2,"station_name":"Matraman","transit":false,"station_id":"MTR","distance":1377,"i_long":106.858896,"is_transit":false,"i_lat":-6.212485,"line":1},{"is_transit":true,"station_id":"MRI","line":2,"distance":1275,"i_long":106.84912,"time":2,"i_lat":-6.209883,"transit":true,"station_name":"Manggarai"},{"i_lat":-6.198556,"transit":false,"line":2,"station_id":"CKI","time":4,"i_long":106.840169,"distance":1590,"station_name":"Cikini","is_transit":false},{"line":2,"station_id":"GDD","station_name":"Gondangdia","i_lat":-6.186295,"transit":false,"distance":1750,"is_transit":false,"time":3,"i_long":106.832183},{"transit":false,"station_name":"Juanda","station_id":"JUA","is_transit":false,"i_lat":-6.166716,"time":4,"distance":2015,"i_long":106.828284,"line":2},{"distance":1149,"time":2,"line":2,"transit":false,"is_transit":false,"i_long":106.827103,"station_name":"Sawah Besar","i_lat":-6.160725,"station_id":"SW"},{"station_name":"Manggabesar","time":2,"distance":906,"i_lat":-6.149769,"i_long":106.82482,"line":2,"transit":false,"is_transit":false,"station_id":"MGB"},{"transit":false,"i_lat":-6.141205,"time":2,"i_long":106.820901,"is_transit":false,"line":2,"station_name":"Jayakarta","distance":1080,"station_id":"JAY"}],[{"is_transit":false,"i_long":106.839204,"distance":0,"station_id":"KMO","transit":false,"line":11,"time":0,"i_lat":-6.161728,"station_name":"Kemayoran"},{"time":5,"i_lat":-6.14505,"station_name":"Rajawali","i_long":106.836569,"station_id":"RJW","distance":1901,"line":11,"is_transit":false,"transit":false},{"station_id":"KPB","is_transit":true,"distance":1444,"i_long":106.826365,"transit":true,"time":3,"i_lat":-6.132549,"station_name":"Kampung Bandan","line":4},{"station_id":"AK","i_long":106.79867,"transit":false,"line":1,"station_name":"Angke","distance":4102,"time":9,"is_transit":false,"i_lat":-6.144674},{"distance":1230,"station_id":"DU","station_name":"Duri","is_transit":false,"time":4,"i_lat":-6.155215,"i_long":106.800832,"line":1,"transit":false},{"i_lat":-6.185545,"distance":3632,"station_name":"Tanah Abang","transit":false,"is_transit":false,"line":1,"time":8,"station_id":"THB","i_long":106.811091},{"transit":false,"i_lat":-6.20132,"time":5,"distance":2029,"i_long":106.816351,"station_name":"Karet","is_transit":false,"station_id":"KAT","line":1},{"i_long":106.819881,"line":1,"i_lat":-6.201433,"transit":false,"station_name":"Sudirman Baru","is_transit":false,"station_id":"SUDB","time":1,"distance":471},{"station_name":"Sudirman","distance":280,"time":1,"i_lat":-6.202263,"station_id":"SUD","transit":false,"is_transit":false,"i_long":106.822649,"line":1},{"station_id":"MRI","is_transit":true,"time":4,"i_lat":-6.209883,"transit":true,"station_name":"Manggarai","i_long":106.84912,"line":2,"distance":3186},{"is_transit":false,"station_name":"Cikini","i_long":106.840169,"line":2,"transit":false,"station_id":"CKI","time":4,"distance":1590,"i_lat":-6.198556},{"i_long":106.832183,"line":2,"is_transit":false,"time":3,"station_name":"Gondangdia","station_id":"GDD","i_lat":-6.186295,"distance":1750,"transit":false},{"station_name":"Juanda","transit":false,"is_transit":false,"i_long":106.828284,"station_id":"JUA","time":4,"line":2,"distance":2015,"i_lat":-6.166716},{"i_long":106.827103,"station_id":"SW","distance":1149,"transit":false,"is_transit":false,"i_lat":-6.160725,"time":2,"line":2,"station_name":"Sawah Besar"},{"is_transit":false,"time":2,"line":2,"i_long":106.82482,"station_name":"Manggabesar","distance":906,"i_lat":-6.149769,"transit":false,"station_id":"MGB"},{"station_id":"JAY","is_transit":false,"i_lat":-6.141205,"time":2,"i_long":106.820901,"line":2,"transit":false,"station_name":"Jayakarta","distance":1080}],[{"line":11,"station_id":"KMO","is_transit":false,"time":0,"distance":0,"i_lat":-6.161728,"transit":false,"station_name":"Kemayoran","i_long":106.839204},{"i_long":106.84368,"time":4,"line":11,"station_id":"PSE","station_name":"Pasar Senen","is_transit":false,"distance":1436,"transit":false,"i_lat":-6.174784},{"line":11,"station_id":"GST","i_long":106.850107,"transit":false,"station_name":"Gang Sentiong","is_transit":false,"distance":1567,"i_lat":-6.185975,"time":8},{"i_lat":-6.193792,"i_long":106.855437,"station_id":"KMT","line":11,"transit":false,"station_name":"Kramat","distance":973,"time":1,"is_transit":false},{"is_transit":false,"i_lat":-6.209188,"station_name":"Pondok Jati","time":2,"transit":false,"station_id":"POK","distance":1829,"i_long":106.861737,"line":11},{"i_lat":-6.215091,"i_long":106.86807400000001,"line":1,"transit":true,"is_transit":true,"station_id":"JNG","time":9,"distance":1236,"station_name":"Jatinegara"},{"line":1,"time":2,"i_lat":-6.212485,"station_name":"Matraman","station_id":"MTR","distance":1377,"i_long":106.858896,"is_transit":false,"transit":false},{"line":2,"station_name":"Manggarai","station_id":"MRI","time":2,"i_long":106.84912,"distance":1275,"transit":false,"is_transit":false,"i_lat":-6.209883},{"distance":3186,"i_lat":-6.202263,"station_id":"SUD","line":1,"time":4,"i_long":106.822649,"transit":false,"is_transit":false,"station_name":"Sudirman"},{"transit":false,"station_id":"SUDB","i_lat":-6.201433,"is_transit":false,"line":1,"time":1,"station_name":"Sudirman Baru","distance":280,"i_long":106.819881},{"station_name":"Karet","i_long":106.816351,"is_transit":false,"distance":471,"line":1,"time":1,"station_id":"KAT","i_lat":-6.20132,"transit":false},{"transit":false,"i_lat":-6.185545,"distance":2029,"i_long":106.811091,"station_name":"Tanah Abang","time":5,"station_id":"THB","line":1,"is_transit":false},{"station_name":"Duri","line":1,"i_long":106.800832,"transit":false,"distance":3632,"i_lat":-6.155215,"station_id":"DU","time":8,"is_transit":false},{"transit":false,"station_name":"Angke","distance":1230,"line":1,"i_lat":-6.144674,"is_transit":false,"time":4,"i_long":106.79867,"station_id":"AK"},{"is_transit":true,"distance":4102,"i_long":106.826365,"transit":true,"i_lat":-6.132549,"station_id":"KPB","line":4,"station_name":"Kampung Bandan","time":9},{"distance":1364,"station_name":"Jakarta Kota","is_transit":true,"station_id":"JAKK","time":3,"i_lat":-6.137569,"i_long":106.812439,"line":2,"transit":true},{"station_name":"Jayakarta","i_long":106.820901,"transit":false,"station_id":"JAY","is_transit":false,"distance":1264,"time":4,"line":2,"i_lat":-6.141205}]]}