{"data":[[{"station_id":"KMO","time":0,"i_long":106.839204,"station_name":"Kemayoran","is_transit":false,"distance":0,"i_lat":-6.161728,"line":11,"transit":false},{"i_long":106.836569,"station_name":"Rajawali","is_transit":false,"station_id":"RJW","transit":false,"i_lat":-6.14505,"time":5,"distance":1901,"line":11},{"time":3,"transit":true,"station_name":"Kampung Bandan","is_transit":true,"line":4,"distance":1444,"i_lat":-6.132549,"i_long":106.826365,"station_id":"KPB"},{"transit":false,"is_transit":false,"line":1,"station_id":"AK","i_lat":-6.144674,"distance":4102,"i_long":106.79867,"time":9,"station_name":"Angke"},{"i_lat":-6.155215,"distance":1230,"station_name":"Duri","i_long":106.800832,"station_id":"DU","time":4,"line":1,"transit":true,"is_transit":true},{"time":3,"transit":false,"distance":1700,"line":5,"i_lat":-6.162021,"i_long":106.788277,"station_name":"Grogol","is_transit":false,"station_id":"GGL"},{"i_lat":-6.161433,"station_name":"Pesing","transit":false,"time":2,"i_long":106.771379,"line":5,"distance":2036,"station_id":"PSG","is_transit":false}],[{"station_name":"Kemayoran","transit":false,"distance":0,"station_id":"KMO","time":0,"i_long":106.839204,"i_lat":-6.161728,"line":11,"is_transit":false},{"distance":1436,"station_id":"PSE","time":4,"line":11,"station_name":"Pasar Senen","i_long":106.84368,"is_transit":false,"transit":false,"i_lat":-6.174784},{"i_long":106.850107,"distance":1567,"transit":false,"station_name":"Gang Sentiong","time":8,"station_id":"GST","is_transit":false,"i_lat":-6.185975,"line":11},{"i_long":106.855437,"line":11,"station_name":"Kramat","transit":false,"i_lat":-6.193792,"station_id":"KMT","time":1,"is_transit":false,"distance":973},{"is_transit":false,"time":2,"i_lat":-6.209188,"station_name":"Pondok Jati","station_id":"POK","distance":1829,"transit":false,"i_long":106.861737,"line":11},{"is_transit":true,"i_lat":-6.215091,"time":9,"line":1,"transit":true,"distance":1236,"i_long":106.86807400000001,"station_id":"JNG","station_name":"Jatinegara"},{"line":1,"time":2,"transit":false,"is_transit":false,"distance":1377,"i_lat":-6.212485,"station_name":"Matraman","i_long":106.858896,"station_id":"MTR"},{"is_transit":false,"i_lat":-6.209883,"station_id":"MRI","transit":false,"i_long":106.84912,"station_name":"Manggarai","time":2,"line":2,"distance":1275},{"station_name":"Sudirman","distance":3186,"transit":false,"i_long":106.822649,"i_lat":-6.202263,"time":4,"line":1,"is_transit":false,"station_id":"SUD"},{"line":1,"distance":280,"i_lat":-6.201433,"is_transit":false,"transit":false,"station_id":"SUDB","station_name":"Sudirman Baru","time":1,"i_long":106.819881},{"line":1,"station_id":"KAT","time":1,"i_long":106.816351,"station_name":"Karet","distance":471,"transit":false,"i_lat":-6.20132,"is_transit":false},{"time":5,"i_long":106.811091,"distance":2029,"transit":false,"i_lat":-6.185545,"station_name":"Tanah Abang","line":1,"is_transit":false,"station_id":"THB"},{"time":8,"distance":3632,"transit":true,"is_transit":true,"station_name":"Duri","i_lat":-6.155215,"station_id":"DU","i_long":106.800832,"line":1},{"transit":false,"station_id":"GGL","time":3,"distance":1700,"is_transit":false,"i_long":106.788277,"station_name":"Grogol","i_lat":-6.162021,"line":5},{"station_id":"PSG","transit":false,"i_long":106.771379,"time":2,"line":5,"station_name":"Pesing","distance":2036,"i_lat":-6.161433,"is_transit":false}],[{"i_long":106.839204,"line":11,"time":0,"station_name":"Kemayoran","distance":0,"is_transit":false,"i_lat":-6.161728,"station_id":"KMO","transit":false},{"time":5,"i_long":106.836569,"transit":false,"station_id":"RJW","is_transit":false,"i_lat":-6.14505,"station_name":"Rajawali","distance":1901,"line":11},{"station_name":"Kampung Bandan","distance":1444,"transit":true,"is_transit":true,"i_long":106.826365,"station_id":"KPB","line":4,"time":3,"i_lat":-6.132549},{"i_lat":-6.137569,"i_long":106.812439,"distance":1364,"station_id":"JAKK","time":3,"transit":true,"station_name":"Jakarta Kota","is_transit":true,"line":2},{"i_lat":-6.141205,"time":4,"is_transit":false,"station_name":"Jayakarta","distance":1264,"station_id":"JAY","transit":false,"line":2,"i_long":106.820901},{"i_long":106.82482,"transit":false,"station_id":"MGB","distance":1080,"i_lat":-6.149769,"station_name":"Manggabesar","time":2,"line":2,"is_transit":false},{"station_name":"Sawah Besar","line":2,"station_id":"SW","distance":906,"i_lat":-6.160725,"is_transit":false,"time":2,"transit":false,"i_long":106.827103},{"station_name":"Juanda","is_transit":false,"transit":false,"distance":1149,"i_long":106.828284,"station_id":"JUA","line":2,"time":2,"i_lat":-6.166716},{"i_lat":-6.186295,"station_id":"GDD","distance":2015,"station_name":"Gondangdia","line":2,"is_transit":false,"i_long":106.832183,"transit":false,"time":4},{"i_lat":-6.198556,"station_name":"Cikini","transit":false,"is_transit":false,"time":3,"distance":1750,"i_long":106.840169,"station_id":"CKI","line":2},{"distance":1590,"station_name":"Manggarai","is_transit":true,"station_id":"MRI","i_lat":-6.209883,"transit":true,"i_long":106.84912,"time":4,"line":2},{"i_lat":-6.202263,"i_long":106.822649,"station_id":"SUD","is_transit":false,"distance":3186,"line":1,"transit":false,"station_name":"Sudirman","time":4},{"is_transit":false,"time":1,"i_long":106.819881,"transit":false,"line":1,"i_lat":-6.201433,"distance":280,"station_name":"Sudirman Baru","station_id":"SUDB"},{"line":1,"time":1,"station_name":"Karet","i_long":106.816351,"transit":false,"distance":471,"station_id":"KAT","is_transit":false,"i_lat":-6.20132},{"is_transit":false,"distance":2029,"time":5,"line":1,"station_name":"Tanah Abang","i_long":106.811091,"i_lat":-6.185545,"station_id":"THB","transit":false},{"station_id":"DU","line":1,"transit":true,"station_name":"Duri","is_transit":true,"time":8,"distance":3632,"i_long":106.800832,"i_lat":-6.155215},{"station_name":"Grogol","i_lat":-6.162021,"distance":1700,"line":5,"station_id":"GGL","is_transit":false,"transit":false,"time":3,"i_long":106.788277},{"time":2,"is_transit":false,"i_long":106.771379,"i_lat":-6.161433,"station_name":"Pesing","distance":2036,"transit":false,"station_id":"PSG","line":5}],[{"station_id":"KMO","line":11,"i_long":106.839204,"transit":false,"distance":0,"station_name":"Kemayoran","i_lat":-6.161728,"is_transit":false,"time":0},{"time":4,"i_lat":-6.174784,"i_long":106.84368,"distance":1436,"station_name":"Pasar Senen","station_id":"PSE","line":11,"transit":false,"is_transit":false},{"transit":false,"is_transit":false,"i_long":106.850107,"line":11,"station_name":"Gang Sentiong","station_id":"GST","distance":1567,"time":8,"i_lat":-6.185975},{"i_long":106.855437,"station_id":"KMT","time":1,"station_name":"Kramat","distance":973,"line":11,"i_lat":-6.193792,"is_transit":false,"transit":false},{"station_id":"POK","i_long":106.861737,"time":2,"transit":false,"i_lat":-6.209188,"distance":1829,"line":11,"station_name":"Pondok Jati","is_transit":false},{"time":9,"distance":1236,"transit":true,"station_id":"JNG","is_transit":true,"station_name":"Jatinegara","line":1,"i_long":106.86807400000001,"i_lat":-6.215091},{"distance":1377,"transit":false,"station_id":"MTR","i_long":106.858896,"is_transit":false,"time":2,"line":1,"i_lat":-6.212485,"station_name":"Matraman"},{"distance":1275,"line":2,"is_transit":true,"station_name":"Manggarai","station_id":"MRI","i_long":106.84912,"i_lat":-6.209883,"time":2,"transit":true},{"station_id":"CKI","i_lat":-6.198556,"distance":1590,"is_transit":false,"i_long":106.840169,"line":2,"station_name":"Cikini","transit":false,"time":4},{"transit":false,"time":3,"is_transit":false,"station_name":"Gondangdia","distance":1750,"line":2,"i_lat":-6.186295,"station_id":"GDD","i_long":106.832183},{"line":2,"station_id":"JUA","transit":false,"time":4,"station_name":"Juanda","distance":2015,"i_lat":-6.166716,"is_transit":false,"i_long":106.828284},{"station_name":"Sawah Besar","station_id":"SW","transit":false,"line":2,"time":2,"i_lat":-6.160725,"i_long":106.827103,"distance":1149,"is_transit":false},{"i_long":106.82482,"is_transit":false,"station_name":"Manggabesar","line":2,"time":2,"transit":false,"station_id":"MGB","distance":906,"i_lat":-6.149769},{"station_id":"JAY","i_long":106.820901,"distance":1080,"i_lat":-6.141205,"is_transit":false,"station_name":"Jayakarta","time":2,"line":2,"transit":false},{"station_name":"Jakarta Kota","station_id":"JAKK","time":4,"i_lat":-6.137569,"i_long":106.812439,"line":2,"distance":1264,"transit":true,"is_transit":true},{"line":4,"station_id":"KPB","is_transit":true,"transit":true,"station_name":"Kampung Bandan","distance":1364,"i_lat":-6.132549,"time":3,"i_long":106.826365},{"distance":4102,"line":1,"transit":false,"i_lat":-6.144674,"i_long":106.79867,"is_transit":false,"station_name":"Angke","station_id":"AK","time":9},{"line":1,"i_long":106.800832,"is_transit":true,"transit":true,"station_id":"DU","distance":1230,"station_name":"Duri","i_lat":-6.155215,"time":4},{"station_name":"Grogol","time":3,"transit":false,"distance":1700,"station_id":"GGL","i_long":106.788277,"line":5,"i_lat":-6.162021,"is_transit":false},{"distance":2036,"i_long":106.771379,"transit":false,"station_name":"Pesing","i_lat":-6.161433,"station_id":"PSG","line":5,"is_transit":false,"time":2}]]}