{"data":[[{"transit":false,"line":11,"is_transit":false,"station_name":"Kemayoran","time":0,"station_id":"KMO","distance":0,"i_lat":-6.161728,"i_long":106.839204},{"i_lat":-6.14505,"distance":1901,"transit":false,"station_id":"RJW","is_transit":false,"i_long":106.836569,"time":5,"station_name":"Rajawali","line":11},{"transit":true,"is_transit":true,"i_lat":-6.132549,"distance":1444,"i_long":106.826365,"station_name":"Kampung Bandan","time":3,"station_id":"KPB","line":4},{"is_transit":false,"distance":4102,"time":9,"i_long":106.79867,"station_id":"AK","transit":false,"line":1,"i_lat":-6.144674,"station_name":"Angke"},{"line":1,"station_id":"DU","time":4,"i_lat":-6.155215,"is_transit":false,"station_name":"Duri","i_long":106.800832,"transit":false,"distance":1230},{"distance":3632,"i_lat":-6.185545,"station_id":"THB","station_name":"Tanah Abang","line":1,"transit":false,"is_transit":false,"i_long":106.811091,"time":8},{"time":5,"transit":false,"i_lat":-6.20132,"i_long":106.816351,"station_name":"Karet","line":1,"distance":2029,"station_id":"KAT","is_transit":false},{"distance":471,"transit":false,"is_transit":false,"line":1,"station_name":"Sudirman Baru","i_lat":-6.201433,"station_id":"SUDB","time":1,"i_long":106.819881}],[{"is_transit":false,"i_lat":-6.161728,"station_id":"KMO","i_long":106.839204,"station_name":"Kemayoran","line":11,"distance":0,"time":0,"transit":false},{"transit":false,"i_lat":-6.174784,"i_long":106.84368,"station_id":"PSE","is_transit":false,"station_name":"Pasar Senen","time":4,"distance":1436,"line":11},{"time":8,"i_lat":-6.185975,"i_long":106.850107,"distance":1567,"line":11,"station_id":"GST","station_name":"Gang Sentiong","transit":false,"is_transit":false},{"station_name":"Kramat","line":11,"i_long":106.855437,"is_transit":false,"i_lat":-6.193792,"station_id":"KMT","transit":false,"distance":973,"time":1},{"station_id":"POK","time":2,"is_transit":false,"i_long":106.861737,"distance":1829,"station_name":"Pondok Jati","transit":false,"i_lat":-6.209188,"line":11},{"i_lat":-6.215091,"line":1,"station_id":"JNG","station_name":"Jatinegara","is_transit":true,"i_long":106.86807400000001,"distance":1236,"time":9,"transit":true},{"station_name":"Matraman","distance":1377,"line":1,"is_transit":false,"i_lat":-6.212485,"station_id":"MTR","time":2,"i_long":106.858896,"transit":false},{"is_transit":false,"time":2,"station_name":"Manggarai","i_long":106.84912,"distance":1275,"line":2,"i_lat":-6.209883,"station_id":"MRI","transit":false},{"time":4,"station_name":"Sudirman","line":1,"station_id":"SUD","i_lat":-6.202263,"distance":3186,"transit":false,"is_transit":false,"i_long":106.822649},{"station_id":"SUDB","i_long":106.819881,"time":1,"station_name":"Sudirman Baru","transit":false,"distance":280,"i_lat":-6.201433,"is_transit":false,"line":1}],[{"station_name":"Kemayoran","is_transit":false,"transit":false,"station_id":"KMO","i_long":106.839204,"time":0,"line":11,"distance":0,"i_lat":-6.161728},{"transit":false,"station_name":"Rajawali","is_transit":false,"i_lat":-6.14505,"station_id":"RJW","i_long":106.836569,"distance":1901,"time":5,"line":11},{"time":3,"line":4,"i_lat":-6.132549,"transit":true,"i_long":106.826365,"station_id":"KPB","station_name":"Kampung Bandan","distance":1444,"is_transit":true},{"is_transit":true,"line":2,"station_name":"Jakarta Kota","distance":1364,"time":3,"i_lat":-6.137569,"i_long":106.812439,"station_id":"JAKK","transit":true},{"distance":1264,"transit":false,"is_transit":false,"station_id":"JAY","i_lat":-6.141205,"i_long":106.820901,"station_name":"Jayakarta","line":2,"time":4},{"station_id":"MGB","time":2,"is_transit":false,"line":2,"transit":false,"i_long":106.82482,"i_lat":-6.149769,"station_name":"Manggabesar","distance":1080},{"transit":false,"time":2,"is_transit":false,"i_lat":-6.160725,"line":2,"station_name":"Sawah Besar","distance":906,"i_long":106.827103,"station_id":"SW"},{"line":2,"i_lat":-6.166716,"time":2,"distance":1149,"station_id":"JUA","station_name":"Juanda","transit":false,"is_transit":false,"i_long":106.828284},{"distance":2015,"line":2,"time":4,"is_transit":false,"i_lat":-6.186295,"transit":false,"station_id":"GDD","i_long":106.832183,"station_name":"Gondangdia"},{"line":2,"transit":false,"is_transit":false,"i_lat":-6.198556,"i_long":106.840169,"time":3,"station_name":"Cikini","distance":1750,"station_id":"CKI"},{"station_name":"Manggarai","is_transit":true,"i_lat":-6.209883,"time":4,"distance":1590,"transit":true,"i_long":106.84912,"station_id":"MRI","line":2},{"distance":3186,"i_long":106.822649,"is_transit":false,"transit":false,"station_name":"Sudirman","i_lat":-6.202263,"line":1,"station_id":"SUD","time":4},{"line":1,"transit":false,"i_long":106.819881,"station_name":"Sudirman Baru","time":1,"i_lat":-6.201433,"station_id":"SUDB","distance":280,"is_transit":false}],[{"i_long":106.839204,"i_lat":-6.161728,"line":11,"station_name":"Kemayoran","is_transit":false,"transit":false,"time":0,"station_id":"KMO","distance":0},{"distance":1436,"time":4,"station_name":"Pasar Senen","is_transit":false,"transit":false,"i_lat":-6.174784,"line":11,"station_id":"PSE","i_long":106.84368},{"station_name":"Gang Sentiong","distance":1567,"i_lat":-6.185975,"line":11,"station_id":"GST","is_transit":false,"transit":false,"i_long":106.850107,"time":8},{"transit":false,"line":11,"station_name":"Kramat","distance":973,"station_id":"KMT","i_long":106.855437,"is_transit":false,"i_lat":-6.193792,"time":1},{"i_lat":-6.209188,"line":11,"distance":1829,"i_long":106.861737,"transit":false,"time":2,"station_id":"POK","is_transit":false,"station_name":"Pondok Jati"},{"station_id":"JNG","station_name":"Jatinegara","time":9,"transit":true,"i_long":106.86807400000001,"distance":1236,"i_lat":-6.215091,"is_transit":true,"line":1},{"transit":false,"distance":1377,"station_id":"MTR","is_transit":false,"i_long":106.858896,"time":2,"station_name":"Matraman","i_lat":-6.212485,"line":1},{"distance":1275,"i_long":106.84912,"line":2,"i_lat":-6.209883,"time":2,"station_id":"MRI","is_transit":true,"transit":true,"station_name":"Manggarai"},{"distance":1590,"line":2,"i_long":106.840169,"i_lat":-6.198556,"station_name":"Cikini","is_transit":false,"station_id":"CKI","transit":false,"time":4},{"station_id":"GDD","time":3,"is_transit":false,"line":2,"i_lat":-6.186295,"station_name":"Gondangdia","transit":false,"distance":1750,"i_long":106.832183},{"i_lat":-6.166716,"distance":2015,"transit":false,"i_long":106.828284,"line":2,"station_id":"JUA","time":4,"is_transit":false,"station_name":"Juanda"},{"i_long":106.827103,"time":2,"station_name":"Sawah Besar","distance":1149,"transit":false,"i_lat":-6.160725,"is_transit":false,"line":2,"station_id":"SW"},{"transit":false,"station_name":"Manggabesar","distance":906,"i_lat":-6.149769,"is_transit":false,"i_long":106.82482,"station_id":"MGB","line":2,"time":2},{"time":2,"station_id":"JAY","transit":false,"station_name":"Jayakarta","i_lat":-6.141205,"i_long":106.820901,"is_transit":false,"line":2,"distance":1080},{"i_lat":-6.137569,"station_name":"Jakarta Kota","line":2,"transit":true,"distance":1264,"time":4,"is_transit":true,"i_long":106.812439,"station_id":"JAKK"},{"station_id":"KPB","is_transit":true,"station_name":"Kampung Bandan","line":4,"transit":true,"i_long":106.826365,"distance":1364,"time":3,"i_lat":-6.132549},{"station_id":"AK","transit":false,"distance":4102,"time":9,"station_name":"Angke","is_transit":false,"i_lat":-6.144674,"i_long":106.79867,"line":1},{"distance":1230,"station_name":"Duri","is_transit":false,"line":1,"time":4,"station_id":"DU","i_lat":-6.155215,"transit":false,"i_long":106.800832},{"time":8,"station_id":"THB","transit":false,"distance":3632,"is_transit":false,"line":1,"i_lat":-6.185545,"station_name":"Tanah Abang","i_long":106.811091},{"station_name":"Karet","time":5,"i_lat":-6.20132,"i_long":106.816351,"distance":2029,"line":1,"is_transit":false,"station_id":"KAT","transit":false},{"station_id":"SUDB","is_transit":false,"line":1,"i_lat":-6.201433,"station_name":"Sudirman Baru","distance":471,"time":1,"transit":false,"i_long":106.819881}]]}