{"data":[[{"i_lat":-6.161728,"station_id":"KMO","is_transit":false,"time":0,"distance":0,"i_long":106.839204,"station_name":"Kemayoran","transit":false,"line":11},{"i_long":106.84368,"is_transit":false,"time":4,"station_id":"PSE","distance":1436,"station_name":"Pasar Senen","transit":false,"line":11,"i_lat":-6.174784},{"line":11,"i_lat":-6.185975,"time":8,"distance":1567,"station_id":"GST","i_long":106.850107,"transit":false,"is_transit":false,"station_name":"Gang Sentiong"},{"is_transit":false,"distance":973,"i_long":106.855437,"station_id":"KMT","i_lat":-6.193792,"transit":false,"station_name":"Kramat","line":11,"time":1},{"line":11,"transit":false,"is_transit":false,"i_long":106.861737,"time":2,"i_lat":-6.209188,"station_id":"POK","distance":1829,"station_name":"Pondok Jati"},{"line":1,"transit":true,"is_transit":true,"station_name":"Jatinegara","distance":1236,"i_long":106.86807400000001,"time":9,"station_id":"JNG","i_lat":-6.215091},{"i_lat":-6.212485,"i_long":106.858896,"time":2,"is_transit":false,"station_name":"Matraman","line":1,"distance":1377,"station_id":"MTR","transit":false},{"i_long":106.84912,"distance":1275,"is_transit":true,"transit":true,"station_id":"MRI","time":2,"station_name":"Manggarai","line":2,"i_lat":-6.209883},{"time":4,"is_transit":false,"i_long":106.857948,"i_lat":-6.226659,"station_id":"TEB","distance":2610,"line":2,"station_name":"Tebet","transit":false},{"is_transit":false,"distance":1230,"line":2,"transit":false,"station_name":"Cawang","i_lat":-6.242512,"i_long":106.856607,"time":2,"station_id":"CW"},{"i_long":106.85449,"station_id":"DRN","time":3,"line":2,"is_transit":false,"transit":false,"distance":1546,"station_name":"Duren Kalibata","i_lat":-6.255332},{"line":2,"station_id":"PSMB","time":2,"transit":false,"i_long":106.851577,"distance":824,"is_transit":false,"station_name":"Pasar Minggu Baru","i_lat":-6.263214},{"time":2,"is_transit":false,"i_long":106.843999,"i_lat":-6.2842400000000005,"distance":2380,"transit":false,"line":2,"station_name":"Pasar Minggu","station_id":"PSM"},{"time":4,"is_transit":false,"station_id":"TNT","station_name":"Tanjung Barat","i_lat":-6.3080680000000005,"distance":2820,"transit":false,"i_long":106.838896,"line":2},{"transit":false,"station_id":"LNA","time":3,"is_transit":false,"station_name":"Lenteng Agung","i_lat":-6.330363,"i_long":106.832616,"distance":2671,"line":2},{"i_lat":-6.339291,"station_name":"Univ. Pancasila","station_id":"UP","distance":1029,"line":2,"is_transit":false,"transit":false,"i_long":106.834175,"time":2},{"station_name":"Univ. Indonesia","transit":false,"is_transit":false,"i_long":106.831474,"time":3,"distance":2264,"station_id":"UI","i_lat":-6.360749,"line":2},{"is_transit":false,"station_name":"Pondok Cina","i_lat":-6.369073,"i_long":106.831114,"transit":false,"station_id":"POC","line":2,"distance":1109,"time":2},{"station_name":"Depokbaru","transit":false,"i_long":106.819451,"is_transit":false,"i_lat":-6.391065,"line":2,"station_id":"DPB","distance":2727,"time":4},{"line":2,"transit":false,"distance":1584,"i_lat":-6.405256,"is_transit":false,"i_long":106.816926,"station_id":"DP","time":3,"station_name":"Depok"},{"distance":5084,"time":6,"station_name":"Citayam","i_long":106.800298,"i_lat":-6.448811,"station_id":"CTA","is_transit":false,"line":2,"transit":false},{"is_transit":false,"i_long":106.792719,"line":2,"station_name":"Bojonggede","time":5,"i_lat":-6.493243,"transit":false,"station_id":"BJD","distance":5197},{"line":2,"distance":4331,"transit":false,"i_lat":-6.530544,"time":5,"is_transit":false,"station_name":"Cilebut","station_id":"CLT","i_long":106.800016}],[{"i_lat":-6.161728,"i_long":106.839204,"line":11,"station_id":"KMO","time":0,"is_transit":false,"transit":false,"station_name":"Kemayoran","distance":0},{"is_transit":false,"i_long":106.836569,"station_id":"RJW","station_name":"Rajawali","transit":false,"time":5,"i_lat":-6.14505,"distance":1901,"line":11},{"distance":1444,"i_lat":-6.132549,"is_transit":true,"transit":true,"station_id":"KPB","line":4,"station_name":"Kampung Bandan","i_long":106.826365,"time":3},{"time":9,"i_lat":-6.144674,"is_transit":false,"transit":false,"i_long":106.79867,"line":1,"station_name":"Angke","station_id":"AK","distance":4102},{"i_long":106.800832,"line":1,"station_name":"Duri","i_lat":-6.155215,"time":4,"transit":false,"distance":1230,"station_id":"DU","is_transit":false},{"distance":3632,"station_name":"Tanah Abang","transit":false,"line":1,"i_lat":-6.185545,"is_transit":false,"station_id":"THB","i_long":106.811091,"time":8},{"time":5,"distance":2029,"line":1,"is_transit":false,"i_long":106.816351,"station_id":"KAT","transit":false,"i_lat":-6.20132,"station_name":"Karet"},{"transit":false,"line":1,"station_id":"SUDB","time":1,"station_name":"Sudirman Baru","distance":471,"is_transit":false,"i_lat":-6.201433,"i_long":106.819881},{"time":1,"transit":false,"is_transit":false,"i_long":106.822649,"station_name":"Sudirman","distance":280,"i_lat":-6.202263,"line":1,"station_id":"SUD"},{"transit":true,"i_long":106.84912,"line":2,"station_id":"MRI","is_transit":true,"i_lat":-6.209883,"distance":3186,"time":4,"station_name":"Manggarai"},{"time":4,"transit":false,"station_name":"Tebet","i_lat":-6.226659,"i_long":106.857948,"distance":2610,"station_id":"TEB","line":2,"is_transit":false},{"is_transit":false,"station_name":"Cawang","transit":false,"i_lat":-6.242512,"i_long":106.856607,"line":2,"station_id":"CW","distance":1230,"time":2},{"station_name":"Duren Kalibata","transit":false,"line":2,"i_lat":-6.255332,"i_long":106.85449,"station_id":"DRN","time":3,"is_transit":false,"distance":1546},{"distance":824,"line":2,"i_lat":-6.263214,"is_transit":false,"transit":false,"station_id":"PSMB","time":2,"station_name":"Pasar Minggu Baru","i_long":106.851577},{"station_name":"Pasar Minggu","time":2,"is_transit":false,"distance":2380,"station_id":"PSM","i_lat":-6.2842400000000005,"transit":false,"i_long":106.843999,"line":2},{"distance":2820,"line":2,"time":4,"station_id":"TNT","station_name":"Tanjung Barat","i_lat":-6.3080680000000005,"i_long":106.838896,"is_transit":false,"transit":false},{"is_transit":false,"station_name":"Lenteng Agung","line":2,"station_id":"LNA","i_long":106.832616,"distance":2671,"time":3,"transit":false,"i_lat":-6.330363},{"i_long":106.834175,"station_id":"UP","is_transit":false,"transit":false,"time":2,"distance":1029,"station_name":"Univ. Pancasila","line":2,"i_lat":-6.339291},{"transit":false,"i_long":106.831474,"station_name":"Univ. Indonesia","i_lat":-6.360749,"line":2,"time":3,"distance":2264,"station_id":"UI","is_transit":false},{"distance":1109,"station_name":"Pondok Cina","transit":false,"is_transit":false,"time":2,"i_lat":-6.369073,"line":2,"station_id":"POC","i_long":106.831114},{"station_name":"Depokbaru","transit":false,"station_id":"DPB","i_lat":-6.391065,"i_long":106.819451,"distance":2727,"is_transit":false,"time":4,"line":2},{"station_name":"Depok","i_lat":-6.405256,"transit":false,"i_long":106.816926,"station_id":"DP","is_transit":false,"line":2,"time":3,"distance":1584},{"distance":5084,"station_name":"Citayam","station_id":"CTA","is_transit":false,"time":6,"i_lat":-6.448811,"transit":false,"i_long":106.800298,"line":2},{"i_long":106.792719,"station_name":"Bojonggede","i_lat":-6.493243,"transit":false,"distance":5197,"line":2,"is_transit":false,"time":5,"station_id":"BJD"},{"is_transit":false,"line":2,"distance":4331,"station_name":"Cilebut","i_long":106.800016,"transit":false,"station_id":"CLT","time":5,"i_lat":-6.530544}],[{"line":11,"time":0,"i_long":106.839204,"i_lat":-6.161728,"distance":0,"station_id":"KMO","station_name":"Kemayoran","transit":false,"is_transit":false},{"i_lat":-6.14505,"i_long":106.836569,"time":5,"distance":1901,"station_name":"Rajawali","transit":false,"line":11,"station_id":"RJW","is_transit":false},{"transit":true,"line":4,"time":3,"distance":1444,"is_transit":true,"i_lat":-6.132549,"i_long":106.826365,"station_name":"Kampung Bandan","station_id":"KPB"},{"time":3,"i_lat":-6.137569,"station_name":"Jakarta Kota","i_long":106.812439,"distance":1364,"station_id":"JAKK","line":2,"transit":true,"is_transit":true},{"is_transit":false,"station_id":"JAY","distance":1264,"station_name":"Jayakarta","transit":false,"line":2,"time":4,"i_lat":-6.141205,"i_long":106.820901},{"is_transit":false,"line":2,"i_lat":-6.149769,"transit":false,"time":2,"distance":1080,"i_long":106.82482,"station_id":"MGB","station_name":"Manggabesar"},{"station_id":"SW","is_transit":false,"station_name":"Sawah Besar","i_lat":-6.160725,"transit":false,"i_long":106.827103,"time":2,"line":2,"distance":906},{"station_name":"Juanda","station_id":"JUA","distance":1149,"i_long":106.828284,"time":2,"i_lat":-6.166716,"transit":false,"line":2,"is_transit":false},{"distance":2015,"station_id":"GDD","is_transit":false,"i_lat":-6.186295,"transit":false,"i_long":106.832183,"time":4,"line":2,"station_name":"Gondangdia"},{"distance":1750,"station_name":"Cikini","transit":false,"is_transit":false,"time":3,"i_lat":-6.198556,"i_long":106.840169,"station_id":"CKI","line":2},{"line":2,"i_long":106.84912,"station_name":"Manggarai","time":4,"i_lat":-6.209883,"distance":1590,"station_id":"MRI","is_transit":false,"transit":false},{"i_long":106.857948,"transit":false,"station_id":"TEB","time":4,"is_transit":false,"station_name":"Tebet","i_lat":-6.226659,"line":2,"distance":2610},{"distance":1230,"time":2,"transit":false,"station_name":"Cawang","line":2,"i_long":106.856607,"station_id":"CW","i_lat":-6.242512,"is_transit":false},{"time":3,"i_lat":-6.255332,"station_id":"DRN","distance":1546,"station_name":"Duren Kalibata","i_long":106.85449,"line":2,"is_transit":false,"transit":false},{"time":2,"distance":824,"is_transit":false,"i_lat":-6.263214,"i_long":106.851577,"line":2,"station_name":"Pasar Minggu Baru","station_id":"PSMB","transit":false},{"i_lat":-6.2842400000000005,"is_transit":false,"station_name":"Pasar Minggu","time":2,"transit":false,"i_long":106.843999,"line":2,"station_id":"PSM","distance":2380},{"line":2,"i_lat":-6.3080680000000005,"time":4,"station_id":"TNT","is_transit":false,"transit":false,"distance":2820,"station_name":"Tanjung Barat","i_long":106.838896},{"i_lat":-6.330363,"is_transit":false,"i_long":106.832616,"line":2,"station_id":"LNA","time":3,"distance":2671,"station_name":"Lenteng Agung","transit":false},{"station_name":"Univ. Pancasila","i_lat":-6.339291,"is_transit":false,"time":2,"line":2,"station_id":"UP","distance":1029,"transit":false,"i_long":106.834175},{"line":2,"station_id":"UI","is_transit":false,"transit":false,"station_name":"Univ. Indonesia","i_lat":-6.360749,"i_long":106.831474,"distance":2264,"time":3},{"station_id":"POC","time":2,"station_name":"Pondok Cina","is_transit":false,"i_long":106.831114,"i_lat":-6.369073,"distance":1109,"transit":false,"line":2},{"distance":2727,"i_lat":-6.391065,"line":2,"is_transit":false,"station_id":"DPB","time":4,"transit":false,"station_name":"Depokbaru","i_long":106.819451},{"station_name":"Depok","distance":1584,"i_long":106.816926,"is_transit":false,"i_lat":-6.405256,"time":3,"station_id":"DP","transit":false,"line":2},{"is_transit":false,"station_id":"CTA","transit":false,"time":6,"station_name":"Citayam","distance":5084,"line":2,"i_lat":-6.448811,"i_long":106.800298},{"time":5,"station_id":"BJD","distance":5197,"transit":false,"station_name":"Bojonggede","i_long":106.792719,"is_transit":false,"i_lat":-6.493243,"line":2},{"station_id":"CLT","time":5,"line":2,"is_transit":false,"transit":false,"distance":4331,"i_lat":-6.530544,"station_name":"Cilebut","i_long":106.800016}]]}