{"data":[[{"is_transit":false,"time":0,"station_id":"KMO","i_long":106.839204,"line":11,"transit":false,"distance":0,"station_name":"Kemayoran","i_lat":-6.161728},{"station_id":"PSE","is_transit":false,"line":11,"i_lat":-6.174784,"time":4,"distance":1436,"station_name":"Pasar Senen","transit":false,"i_long":106.84368},{"i_long":106.850107,"line":11,"station_id":"GST","transit":false,"i_lat":-6.185975,"time":8,"distance":1567,"station_name":"Gang Sentiong","is_transit":false},{"station_name":"Kramat","distance":973,"is_transit":false,"transit":false,"i_lat":-6.193792,"i_long":106.855437,"time":1,"line":11,"station_id":"KMT"},{"transit":false,"station_id":"POK","is_transit":false,"line":11,"i_lat":-6.209188,"i_long":106.861737,"time":2,"station_name":"Pondok Jati","distance":1829},{"time":9,"station_id":"JNG","transit":true,"station_name":"Jatinegara","i_lat":-6.215091,"i_long":106.86807400000001,"line":1,"is_transit":true,"distance":1236},{"transit":false,"line":1,"i_lat":-6.212485,"distance":1377,"station_id":"MTR","i_long":106.858896,"station_name":"Matraman","is_transit":false,"time":2},{"time":2,"distance":1275,"i_long":106.84912,"transit":true,"line":2,"is_transit":true,"i_lat":-6.209883,"station_id":"MRI","station_name":"Manggarai"},{"station_id":"TEB","i_lat":-6.226659,"transit":false,"distance":2610,"time":4,"is_transit":false,"line":2,"station_name":"Tebet","i_long":106.857948},{"is_transit":false,"time":2,"transit":false,"station_name":"Cawang","i_long":106.856607,"line":2,"station_id":"CW","distance":1230,"i_lat":-6.242512},{"transit":false,"station_name":"Duren Kalibata","time":3,"distance":1546,"is_transit":false,"station_id":"DRN","i_long":106.85449,"line":2,"i_lat":-6.255332},{"i_lat":-6.263214,"transit":false,"time":2,"station_name":"Pasar Minggu Baru","distance":824,"i_long":106.851577,"is_transit":false,"line":2,"station_id":"PSMB"},{"i_lat":-6.2842400000000005,"distance":2380,"transit":false,"is_transit":false,"station_name":"Pasar Minggu","station_id":"PSM","i_long":106.843999,"time":2,"line":2},{"distance":2820,"time":4,"transit":false,"is_transit":false,"station_name":"Tanjung Barat","line":2,"i_long":106.838896,"i_lat":-6.3080680000000005,"station_id":"TNT"},{"distance":2671,"station_name":"Lenteng Agung","i_lat":-6.330363,"transit":false,"line":2,"time":3,"i_long":106.832616,"station_id":"LNA","is_transit":false},{"station_name":"Univ. Pancasila","i_lat":-6.339291,"transit":false,"i_long":106.834175,"is_transit":false,"line":2,"time":2,"distance":1029,"station_id":"UP"},{"is_transit":false,"i_lat":-6.360749,"station_id":"UI","distance":2264,"station_name":"Univ. Indonesia","line":2,"i_long":106.831474,"time":3,"transit":false},{"station_id":"POC","distance":1109,"station_name":"Pondok Cina","i_lat":-6.369073,"line":2,"transit":false,"i_long":106.831114,"time":2,"is_transit":false},{"i_lat":-6.391065,"distance":2727,"station_name":"Depokbaru","station_id":"DPB","line":2,"is_transit":false,"i_long":106.819451,"time":4,"transit":false},{"distance":1584,"time":3,"is_transit":false,"station_id":"DP","i_long":106.816926,"transit":false,"line":2,"station_name":"Depok","i_lat":-6.405256},{"is_transit":false,"station_id":"CTA","line":2,"time":6,"distance":5084,"transit":false,"station_name":"Citayam","i_long":106.800298,"i_lat":-6.448811},{"distance":5197,"i_long":106.792719,"time":5,"line":2,"transit":false,"station_name":"Bojonggede","station_id":"BJD","is_transit":false,"i_lat":-6.493243},{"station_name":"Cilebut","line":2,"time":5,"distance":4331,"transit":false,"is_transit":false,"station_id":"CLT","i_long":106.800016,"i_lat":-6.530544}],[{"distance":0,"station_name":"Kemayoran","i_lat":-6.161728,"i_long":106.839204,"station_id":"KMO","line":11,"time":0,"transit":false,"is_transit":false},{"distance":1901,"transit":false,"station_name":"Rajawali","line":11,"time":5,"station_id":"RJW","is_transit":false,"i_lat":-6.14505,"i_long":106.836569},{"transit":true,"i_lat":-6.132549,"i_long":106.826365,"station_id":"KPB","is_transit":true,"distance":1444,"station_name":"Kampung Bandan","line":4,"time":3},{"i_lat":-6.144674,"line":1,"is_transit":false,"station_id":"AK","distance":4102,"station_name":"Angke","time":9,"i_long":106.79867,"transit":false},{"station_name":"Duri","i_long":106.800832,"is_transit":false,"transit":false,"station_id":"DU","line":1,"distance":1230,"i_lat":-6.155215,"time":4},{"transit":false,"i_lat":-6.185545,"line":1,"time":8,"is_transit":false,"i_long":106.811091,"station_id":"THB","station_name":"Tanah Abang","distance":3632},{"i_lat":-6.20132,"line":1,"is_transit":false,"time":5,"transit":false,"station_name":"Karet","i_long":106.816351,"station_id":"KAT","distance":2029},{"station_name":"Sudirman Baru","i_long":106.819881,"transit":false,"time":1,"line":1,"station_id":"SUDB","i_lat":-6.201433,"distance":471,"is_transit":false},{"i_lat":-6.202263,"transit":false,"distance":280,"is_transit":false,"time":1,"i_long":106.822649,"station_id":"SUD","line":1,"station_name":"Sudirman"},{"station_id":"MRI","i_long":106.84912,"is_transit":true,"distance":3186,"transit":true,"line":2,"i_lat":-6.209883,"station_name":"Manggarai","time":4},{"time":4,"station_id":"TEB","transit":false,"distance":2610,"line":2,"i_long":106.857948,"is_transit":false,"station_name":"Tebet","i_lat":-6.226659},{"i_long":106.856607,"time":2,"i_lat":-6.242512,"distance":1230,"line":2,"station_id":"CW","transit":false,"is_transit":false,"station_name":"Cawang"},{"distance":1546,"station_name":"Duren Kalibata","time":3,"station_id":"DRN","line":2,"is_transit":false,"i_lat":-6.255332,"i_long":106.85449,"transit":false},{"i_long":106.851577,"line":2,"distance":824,"is_transit":false,"transit":false,"time":2,"station_name":"Pasar Minggu Baru","station_id":"PSMB","i_lat":-6.263214},{"is_transit":false,"station_id":"PSM","i_long":106.843999,"time":2,"i_lat":-6.2842400000000005,"transit":false,"distance":2380,"line":2,"station_name":"Pasar Minggu"},{"station_id":"TNT","is_transit":false,"i_lat":-6.3080680000000005,"time":4,"station_name":"Tanjung Barat","i_long":106.838896,"distance":2820,"transit":false,"line":2},{"i_lat":-6.330363,"station_id":"LNA","i_long":106.832616,"line":2,"time":3,"is_transit":false,"distance":2671,"transit":false,"station_name":"Lenteng Agung"},{"i_long":106.834175,"distance":1029,"transit":false,"time":2,"line":2,"is_transit":false,"station_name":"Univ. Pancasila","i_lat":-6.339291,"station_id":"UP"},{"transit":false,"i_lat":-6.360749,"is_transit":false,"i_long":106.831474,"line":2,"station_name":"Univ. Indonesia","distance":2264,"time":3,"station_id":"UI"},{"station_name":"Pondok Cina","distance":1109,"i_lat":-6.369073,"is_transit":false,"i_long":106.831114,"line":2,"time":2,"station_id":"POC","transit":false},{"distance":2727,"station_id":"DPB","is_transit":false,"i_lat":-6.391065,"time":4,"i_long":106.819451,"line":2,"transit":false,"station_name":"Depokbaru"},{"time":3,"distance":1584,"is_transit":false,"i_long":106.816926,"i_lat":-6.405256,"line":2,"transit":false,"station_name":"Depok","station_id":"DP"},{"distance":5084,"transit":false,"station_id":"CTA","time":6,"station_name":"Citayam","is_transit":false,"i_lat":-6.448811,"line":2,"i_long":106.800298},{"time":5,"i_lat":-6.493243,"line":2,"i_long":106.792719,"station_name":"Bojonggede","transit":false,"station_id":"BJD","distance":5197,"is_transit":false},{"station_id":"CLT","time":5,"transit":false,"i_long":106.800016,"i_lat":-6.530544,"distance":4331,"station_name":"Cilebut","line":2,"is_transit":false}],[{"i_long":106.839204,"transit":false,"time":0,"line":11,"is_transit":false,"station_id":"KMO","i_lat":-6.161728,"distance":0,"station_name":"Kemayoran"},{"line":11,"i_lat":-6.14505,"is_transit":false,"station_name":"Rajawali","i_long":106.836569,"transit":false,"station_id":"RJW","time":5,"distance":1901},{"time":3,"distance":1444,"i_lat":-6.132549,"station_id":"KPB","line":4,"station_name":"Kampung Bandan","i_long":106.826365,"transit":true,"is_transit":true},{"station_id":"JAKK","line":2,"transit":true,"is_transit":true,"distance":1364,"i_long":106.812439,"station_name":"Jakarta Kota","time":3,"i_lat":-6.137569},{"station_id":"JAY","is_transit":false,"line":2,"time":4,"transit":false,"i_lat":-6.141205,"station_name":"Jayakarta","i_long":106.820901,"distance":1264},{"station_name":"Manggabesar","time":2,"line":2,"is_transit":false,"station_id":"MGB","i_long":106.82482,"distance":1080,"i_lat":-6.149769,"transit":false},{"i_long":106.827103,"time":2,"line":2,"station_name":"Sawah Besar","distance":906,"i_lat":-6.160725,"transit":false,"is_transit":false,"station_id":"SW"},{"station_name":"Juanda","i_lat":-6.166716,"distance":1149,"transit":false,"time":2,"is_transit":false,"line":2,"station_id":"JUA","i_long":106.828284},{"i_long":106.832183,"station_name":"Gondangdia","distance":2015,"station_id":"GDD","time":4,"line":2,"is_transit":false,"transit":false,"i_lat":-6.186295},{"station_name":"Cikini","station_id":"CKI","distance":1750,"transit":false,"i_long":106.840169,"line":2,"i_lat":-6.198556,"time":3,"is_transit":false},{"is_transit":false,"time":4,"distance":1590,"line":2,"station_name":"Manggarai","transit":false,"i_lat":-6.209883,"station_id":"MRI","i_long":106.84912},{"transit":false,"time":4,"distance":2610,"i_long":106.857948,"line":2,"station_name":"Tebet","i_lat":-6.226659,"station_id":"TEB","is_transit":false},{"transit":false,"station_name":"Cawang","i_long":106.856607,"station_id":"CW","distance":1230,"i_lat":-6.242512,"time":2,"line":2,"is_transit":false},{"time":3,"line":2,"is_transit":false,"i_long":106.85449,"i_lat":-6.255332,"station_name":"Duren Kalibata","distance":1546,"station_id":"DRN","transit":false},{"time":2,"distance":824,"station_name":"Pasar Minggu Baru","is_transit":false,"station_id":"PSMB","i_lat":-6.263214,"line":2,"i_long":106.851577,"transit":false},{"line":2,"time":2,"is_transit":false,"distance":2380,"i_lat":-6.2842400000000005,"transit":false,"station_name":"Pasar Minggu","i_long":106.843999,"station_id":"PSM"},{"i_lat":-6.3080680000000005,"i_long":106.838896,"is_transit":false,"line":2,"time":4,"station_id":"TNT","distance":2820,"transit":false,"station_name":"Tanjung Barat"},{"transit":false,"time":3,"station_id":"LNA","station_name":"Lenteng Agung","i_lat":-6.330363,"line":2,"distance":2671,"is_transit":false,"i_long":106.832616},{"i_lat":-6.339291,"line":2,"time":2,"transit":false,"station_name":"Univ. Pancasila","i_long":106.834175,"station_id":"UP","distance":1029,"is_transit":false},{"is_transit":false,"station_name":"Univ. Indonesia","distance":2264,"i_long":106.831474,"time":3,"transit":false,"i_lat":-6.360749,"line":2,"station_id":"UI"},{"i_long":106.831114,"station_id":"POC","time":2,"is_transit":false,"station_name":"Pondok Cina","distance":1109,"transit":false,"i_lat":-6.369073,"line":2},{"i_long":106.819451,"transit":false,"time":4,"station_name":"Depokbaru","line":2,"is_transit":false,"station_id":"DPB","distance":2727,"i_lat":-6.391065},{"station_name":"Depok","line":2,"transit":false,"station_id":"DP","i_long":106.816926,"i_lat":-6.405256,"distance":1584,"time":3,"is_transit":false},{"distance":5084,"is_transit":false,"station_id":"CTA","transit":false,"time":6,"i_lat":-6.448811,"i_long":106.800298,"line":2,"station_name":"Citayam"},{"station_id":"BJD","distance":5197,"transit":false,"time":5,"station_name":"Bojonggede","i_long":106.792719,"line":2,"is_transit":false,"i_lat":-6.493243},{"station_name":"Cilebut","is_transit":false,"time":5,"i_lat":-6.530544,"i_long":106.800016,"transit":false,"station_id":"CLT","line":2,"distance":4331}]]}