{"data":[[{"station_id":"KMO","distance":0,"i_lat":-6.161728,"transit":false,"i_long":106.839204,"station_name":"Kemayoran","time":0,"line":11,"is_transit":false},{"station_id":"RJW","is_transit":false,"i_lat":-6.14505,"time":5,"transit":false,"station_name":"Rajawali","i_long":106.836569,"distance":1901,"line":11}],[{"line":11,"station_name":"Kemayoran","distance":0,"time":0,"i_lat":-6.161728,"i_long":106.839204,"station_id":"KMO","transit":false,"is_transit":false},{"station_name":"Pasar Senen","i_lat":-6.174784,"time":4,"is_transit":false,"line":11,"i_long":106.84368,"distance":1436,"transit":false,"station_id":"PSE"},{"time":8,"i_long":106.850107,"line":11,"is_transit":false,"station_name":"Gang Sentiong","station_id":"GST","transit":false,"distance":1567,"i_lat":-6.185975},{"transit":false,"station_name":"Kramat","is_transit":false,"i_lat":-6.193792,"distance":973,"line":11,"i_long":106.855437,"time":1,"station_id":"KMT"},{"i_long":106.861737,"transit":false,"distance":1829,"i_lat":-6.209188,"line":11,"time":2,"station_name":"Pondok Jati","is_transit":false,"station_id":"POK"},{"i_long":106.86807400000001,"time":9,"station_name":"Jatinegara","i_lat":-6.215091,"is_transit":true,"line":0,"station_id":"JNG","transit":true,"distance":1236},{"transit":false,"is_transit":false,"i_lat":-6.212485,"line":1,"station_name":"Matraman","i_long":106.858896,"distance":1377,"time":2,"station_id":"MTR"},{"time":2,"station_name":"Manggarai","transit":false,"is_transit":true,"i_long":106.84912,"line":0,"distance":1275,"station_id":"MRI","i_lat":-6.209883},{"station_name":"Sudirman","is_transit":false,"time":4,"station_id":"SUD","i_lat":-6.202263,"transit":false,"line":1,"distance":3186,"i_long":106.822649},{"i_lat":-6.201433,"line":1,"time":1,"station_name":"Sudirman Baru","distance":280,"station_id":"SUDB","i_long":106.819881,"is_transit":false,"transit":false},{"i_lat":-6.20132,"is_transit":false,"transit":false,"station_name":"Karet","station_id":"KAT","time":1,"distance":471,"i_long":106.816351,"line":1},{"time":5,"distance":2029,"line":1,"transit":false,"is_transit":true,"station_name":"Tanah Abang","station_id":"THB","i_long":106.811091,"i_lat":-6.185545},{"line":1,"station_id":"DU","i_long":106.800832,"station_name":"Duri","is_transit":true,"time":8,"transit":true,"i_lat":-6.155215,"distance":3632},{"transit":false,"time":4,"is_transit":false,"station_name":"Angke","station_id":"AK","i_lat":-6.144674,"i_long":106.79867,"line":0,"distance":1230},{"time":9,"transit":true,"station_name":"Kampung Bandan","i_lat":-6.132549,"is_transit":true,"i_long":106.826365,"station_id":"KPB","distance":4102,"line":0},{"time":3,"line":11,"transit":false,"i_lat":-6.14505,"i_long":106.836569,"is_transit":false,"station_id":"RJW","station_name":"Rajawali","distance":1444}],[{"station_name":"Kemayoran","i_lat":-6.161728,"transit":false,"station_id":"KMO","time":0,"distance":0,"is_transit":false,"i_long":106.839204,"line":11},{"station_name":"Pasar Senen","distance":1436,"time":4,"i_long":106.84368,"line":11,"station_id":"PSE","i_lat":-6.174784,"is_transit":false,"transit":false},{"station_id":"GST","time":8,"line":11,"is_transit":false,"distance":1567,"i_lat":-6.185975,"transit":false,"i_long":106.850107,"station_name":"Gang Sentiong"},{"transit":false,"distance":973,"station_id":"KMT","time":1,"line":11,"is_transit":false,"i_lat":-6.193792,"i_long":106.855437,"station_name":"Kramat"},{"station_id":"POK","station_name":"Pondok Jati","i_long":106.861737,"transit":false,"is_transit":false,"distance":1829,"time":2,"i_lat":-6.209188,"line":11},{"i_long":106.86807400000001,"line":0,"transit":true,"is_transit":true,"distance":1236,"time":9,"station_name":"Jatinegara","i_lat":-6.215091,"station_id":"JNG"},{"transit":false,"station_name":"Matraman","distance":1377,"i_long":106.858896,"line":1,"time":2,"station_id":"MTR","i_lat":-6.212485,"is_transit":false},{"distance":1275,"transit":true,"i_long":106.84912,"station_id":"MRI","station_name":"Manggarai","time":2,"i_lat":-6.209883,"line":0,"is_transit":true},{"is_transit":false,"station_id":"CKI","i_lat":-6.198556,"line":0,"time":4,"transit":false,"station_name":"Cikini","distance":1590,"i_long":106.840169},{"station_name":"Gondangdia","line":2,"distance":1750,"station_id":"GDD","i_lat":-6.186295,"is_transit":false,"i_long":106.832183,"time":3,"transit":false},{"distance":2015,"i_long":106.828284,"station_name":"Juanda","line":2,"time":4,"is_transit":false,"transit":false,"station_id":"JUA","i_lat":-6.166716},{"transit":false,"distance":1149,"is_transit":false,"station_name":"Sawah Besar","station_id":"SW","i_long":106.827103,"i_lat":-6.160725,"line":2,"time":2},{"line":2,"distance":906,"i_long":106.82482,"station_id":"MGB","is_transit":false,"station_name":"Manggabesar","transit":false,"time":2,"i_lat":-6.149769},{"station_id":"JAY","transit":false,"i_lat":-6.141205,"station_name":"Jayakarta","time":2,"line":7,"distance":1080,"is_transit":false,"i_long":106.820901},{"line":0,"distance":1264,"transit":true,"is_transit":true,"time":4,"i_lat":-6.137569,"i_long":106.812439,"station_id":"JAKK","station_name":"Jakarta Kota"},{"i_long":106.826365,"station_name":"Kampung Bandan","i_lat":-6.132549,"time":3,"line":0,"station_id":"KPB","is_transit":true,"transit":true,"distance":1364},{"time":3,"i_long":106.836569,"station_name":"Rajawali","transit":false,"distance":1444,"is_transit":false,"station_id":"RJW","i_lat":-6.14505,"line":11}]]}