{"data":[[{"distance":0,"station_id":"KMO","transit":false,"time":0,"line":11,"i_long":106.839204,"i_lat":-6.161728,"station_name":"Kemayoran","is_transit":false},{"station_name":"Pasar Senen","line":11,"transit":false,"i_lat":-6.174784,"is_transit":false,"station_id":"PSE","distance":1436,"time":4,"i_long":106.84368},{"distance":1567,"time":8,"i_lat":-6.185975,"station_id":"GST","i_long":106.850107,"line":11,"station_name":"Gang Sentiong","is_transit":false,"transit":false},{"transit":false,"is_transit":false,"station_id":"KMT","distance":973,"time":1,"line":11,"i_lat":-6.193792,"i_long":106.855437,"station_name":"Kramat"},{"distance":1829,"time":2,"station_name":"Pondok Jati","line":11,"station_id":"POK","i_lat":-6.209188,"i_long":106.861737,"transit":false,"is_transit":false},{"station_id":"JNG","i_long":106.86807400000001,"station_name":"Jatinegara","distance":1236,"time":9,"transit":true,"line":1,"i_lat":-6.215091,"is_transit":true},{"distance":1377,"i_lat":-6.212485,"station_id":"MTR","i_long":106.858896,"line":1,"is_transit":false,"transit":false,"time":2,"station_name":"Matraman"},{"distance":1275,"station_name":"Manggarai","i_lat":-6.209883,"i_long":106.84912,"line":2,"transit":true,"is_transit":true,"time":2,"station_id":"MRI"},{"is_transit":false,"i_long":106.857948,"transit":false,"distance":2610,"line":2,"station_id":"TEB","station_name":"Tebet","time":4,"i_lat":-6.226659},{"i_lat":-6.242512,"distance":1230,"station_id":"CW","station_name":"Cawang","i_long":106.856607,"transit":false,"is_transit":false,"time":2,"line":2},{"i_lat":-6.255332,"distance":1546,"i_long":106.85449,"line":2,"station_name":"Duren Kalibata","transit":false,"time":3,"station_id":"DRN","is_transit":false},{"is_transit":false,"i_lat":-6.263214,"transit":false,"time":2,"i_long":106.851577,"line":2,"distance":824,"station_name":"Pasar Minggu Baru","station_id":"PSMB"},{"time":2,"i_lat":-6.2842400000000005,"distance":2380,"line":2,"transit":false,"is_transit":false,"station_name":"Pasar Minggu","i_long":106.843999,"station_id":"PSM"},{"station_name":"Tanjung Barat","is_transit":false,"transit":false,"distance":2820,"station_id":"TNT","i_lat":-6.3080680000000005,"time":4,"i_long":106.838896,"line":2},{"time":3,"distance":2671,"station_name":"Lenteng Agung","transit":false,"i_long":106.832616,"i_lat":-6.330363,"station_id":"LNA","line":2,"is_transit":false},{"station_name":"Univ. Pancasila","transit":false,"line":2,"time":2,"i_long":106.834175,"i_lat":-6.339291,"distance":1029,"station_id":"UP","is_transit":false},{"time":3,"station_id":"UI","distance":2264,"transit":false,"is_transit":false,"i_lat":-6.360749,"i_long":106.831474,"station_name":"Univ. Indonesia","line":2}],[{"transit":false,"line":11,"time":0,"station_name":"Kemayoran","distance":0,"station_id":"KMO","i_long":106.839204,"is_transit":false,"i_lat":-6.161728},{"time":5,"i_lat":-6.14505,"line":11,"station_id":"RJW","distance":1901,"is_transit":false,"transit":false,"station_name":"Rajawali","i_long":106.836569},{"station_id":"KPB","is_transit":true,"time":3,"i_lat":-6.132549,"station_name":"Kampung Bandan","i_long":106.826365,"transit":true,"line":4,"distance":1444},{"line":1,"station_id":"AK","station_name":"Angke","is_transit":false,"transit":false,"i_lat":-6.144674,"i_long":106.79867,"distance":4102,"time":9},{"i_long":106.800832,"is_transit":false,"station_id":"DU","time":4,"station_name":"Duri","transit":false,"distance":1230,"i_lat":-6.155215,"line":1},{"i_lat":-6.185545,"station_id":"THB","line":1,"distance":3632,"transit":false,"is_transit":false,"i_long":106.811091,"station_name":"Tanah Abang","time":8},{"station_name":"Karet","i_lat":-6.20132,"transit":false,"time":5,"station_id":"KAT","i_long":106.816351,"line":1,"is_transit":false,"distance":2029},{"station_name":"Sudirman Baru","station_id":"SUDB","distance":471,"i_long":106.819881,"transit":false,"is_transit":false,"time":1,"i_lat":-6.201433,"line":1},{"time":1,"station_id":"SUD","transit":false,"distance":280,"line":1,"station_name":"Sudirman","is_transit":false,"i_lat":-6.202263,"i_long":106.822649},{"distance":3186,"station_id":"MRI","line":2,"station_name":"Manggarai","is_transit":true,"transit":true,"time":4,"i_long":106.84912,"i_lat":-6.209883},{"station_name":"Tebet","is_transit":false,"station_id":"TEB","distance":2610,"line":2,"transit":false,"i_long":106.857948,"time":4,"i_lat":-6.226659},{"time":2,"i_long":106.856607,"station_name":"Cawang","distance":1230,"transit":false,"station_id":"CW","i_lat":-6.242512,"is_transit":false,"line":2},{"time":3,"i_long":106.85449,"station_id":"DRN","is_transit":false,"i_lat":-6.255332,"distance":1546,"line":2,"station_name":"Duren Kalibata","transit":false},{"station_name":"Pasar Minggu Baru","time":2,"is_transit":false,"i_long":106.851577,"i_lat":-6.263214,"line":2,"station_id":"PSMB","distance":824,"transit":false},{"is_transit":false,"station_id":"PSM","transit":false,"i_lat":-6.2842400000000005,"station_name":"Pasar Minggu","line":2,"distance":2380,"i_long":106.843999,"time":2},{"line":2,"distance":2820,"is_transit":false,"time":4,"i_lat":-6.3080680000000005,"station_name":"Tanjung Barat","transit":false,"station_id":"TNT","i_long":106.838896},{"i_long":106.832616,"station_id":"LNA","i_lat":-6.330363,"line":2,"transit":false,"distance":2671,"time":3,"station_name":"Lenteng Agung","is_transit":false},{"time":2,"station_name":"Univ. Pancasila","i_lat":-6.339291,"i_long":106.834175,"is_transit":false,"transit":false,"station_id":"UP","distance":1029,"line":2},{"distance":2264,"time":3,"line":2,"is_transit":false,"station_name":"Univ. Indonesia","station_id":"UI","i_lat":-6.360749,"i_long":106.831474,"transit":false}],[{"time":0,"i_lat":-6.161728,"is_transit":false,"distance":0,"i_long":106.839204,"station_name":"Kemayoran","station_id":"KMO","line":11,"transit":false},{"i_long":106.836569,"station_id":"RJW","line":11,"station_name":"Rajawali","transit":false,"is_transit":false,"time":5,"i_lat":-6.14505,"distance":1901},{"i_lat":-6.132549,"station_name":"Kampung Bandan","i_long":106.826365,"distance":1444,"transit":true,"station_id":"KPB","time":3,"is_transit":true,"line":4},{"station_name":"Jakarta Kota","distance":1364,"is_transit":true,"i_lat":-6.137569,"station_id":"JAKK","line":2,"time":3,"i_long":106.812439,"transit":true},{"station_id":"JAY","is_transit":false,"distance":1264,"i_lat":-6.141205,"i_long":106.820901,"transit":false,"station_name":"Jayakarta","line":2,"time":4},{"line":2,"station_name":"Manggabesar","transit":false,"distance":1080,"time":2,"station_id":"MGB","i_lat":-6.149769,"is_transit":false,"i_long":106.82482},{"i_lat":-6.160725,"distance":906,"i_long":106.827103,"station_name":"Sawah Besar","time":2,"is_transit":false,"station_id":"SW","line":2,"transit":false},{"station_name":"Juanda","transit":false,"i_long":106.828284,"station_id":"JUA","distance":1149,"i_lat":-6.166716,"is_transit":false,"time":2,"line":2},{"station_id":"GDD","i_lat":-6.186295,"line":2,"distance":2015,"transit":false,"i_long":106.832183,"station_name":"Gondangdia","is_transit":false,"time":4},{"i_lat":-6.198556,"time":3,"transit":false,"station_id":"CKI","i_long":106.840169,"station_name":"Cikini","line":2,"is_transit":false,"distance":1750},{"station_id":"MRI","distance":1590,"i_long":106.84912,"i_lat":-6.209883,"transit":false,"station_name":"Manggarai","is_transit":false,"time":4,"line":2},{"transit":false,"i_long":106.857948,"distance":2610,"station_name":"Tebet","i_lat":-6.226659,"station_id":"TEB","is_transit":false,"line":2,"time":4},{"station_id":"CW","i_lat":-6.242512,"distance":1230,"line":2,"is_transit":false,"transit":false,"time":2,"i_long":106.856607,"station_name":"Cawang"},{"distance":1546,"i_long":106.85449,"i_lat":-6.255332,"line":2,"station_id":"DRN","is_transit":false,"transit":false,"time":3,"station_name":"Duren Kalibata"},{"transit":false,"distance":824,"line":2,"time":2,"station_name":"Pasar Minggu Baru","is_transit":false,"station_id":"PSMB","i_lat":-6.263214,"i_long":106.851577},{"station_name":"Pasar Minggu","i_lat":-6.2842400000000005,"station_id":"PSM","line":2,"is_transit":false,"time":2,"transit":false,"i_long":106.843999,"distance":2380},{"distance":2820,"i_lat":-6.3080680000000005,"is_transit":false,"station_name":"Tanjung Barat","i_long":106.838896,"line":2,"time":4,"transit":false,"station_id":"TNT"},{"station_name":"Lenteng Agung","is_transit":false,"time":3,"i_lat":-6.330363,"i_long":106.832616,"transit":false,"line":2,"station_id":"LNA","distance":2671},{"station_id":"UP","transit":false,"time":2,"distance":1029,"i_lat":-6.339291,"i_long":106.834175,"line":2,"station_name":"Univ. Pancasila","is_transit":false},{"time":3,"i_lat":-6.360749,"line":2,"i_long":106.831474,"distance":2264,"station_id":"UI","transit":false,"station_name":"Univ. Indonesia","is_transit":false}]]}