{"data":[[{"transit":false,"station_name":"Kemayoran","i_lat":-6.161728,"i_long":106.839204,"line":11,"distance":0,"station_id":"KMO","is_transit":false,"time":0},{"station_name":"Pasar Senen","is_transit":false,"distance":1436,"i_lat":-6.174784,"station_id":"PSE","time":4,"i_long":106.84368,"transit":false,"line":11},{"time":8,"transit":false,"i_long":106.850107,"distance":1567,"line":11,"station_id":"GST","station_name":"Gang Sentiong","i_lat":-6.185975,"is_transit":false},{"i_long":106.855437,"station_name":"Kramat","transit":false,"i_lat":-6.193792,"time":1,"is_transit":false,"distance":973,"station_id":"KMT","line":11},{"time":2,"is_transit":false,"i_lat":-6.209188,"line":11,"distance":1829,"i_long":106.861737,"station_name":"Pondok Jati","transit":false,"station_id":"POK"},{"time":9,"line":1,"i_long":106.86807400000001,"i_lat":-6.215091,"transit":true,"station_id":"JNG","station_name":"Jatinegara","is_transit":true,"distance":1236},{"station_id":"MTR","line":1,"i_lat":-6.212485,"distance":1377,"i_long":106.858896,"transit":false,"time":2,"station_name":"Matraman","is_transit":false},{"is_transit":true,"station_name":"Manggarai","transit":true,"i_long":106.84912,"time":2,"distance":1275,"line":2,"i_lat":-6.209883,"station_id":"MRI"},{"i_long":106.857948,"i_lat":-6.226659,"time":4,"transit":false,"distance":2610,"station_name":"Tebet","is_transit":false,"station_id":"TEB","line":2},{"station_id":"CW","i_long":106.856607,"is_transit":false,"distance":1230,"line":2,"transit":false,"station_name":"Cawang","i_lat":-6.242512,"time":2},{"transit":false,"i_lat":-6.255332,"station_id":"DRN","is_transit":false,"time":3,"station_name":"Duren Kalibata","i_long":106.85449,"line":2,"distance":1546},{"transit":false,"time":2,"station_id":"PSMB","is_transit":false,"i_lat":-6.263214,"distance":824,"i_long":106.851577,"line":2,"station_name":"Pasar Minggu Baru"},{"station_name":"Pasar Minggu","i_long":106.843999,"transit":false,"is_transit":false,"station_id":"PSM","time":2,"i_lat":-6.2842400000000005,"line":2,"distance":2380},{"time":4,"station_id":"TNT","i_lat":-6.3080680000000005,"i_long":106.838896,"station_name":"Tanjung Barat","transit":false,"line":2,"distance":2820,"is_transit":false},{"is_transit":false,"station_id":"LNA","i_long":106.832616,"time":3,"i_lat":-6.330363,"transit":false,"distance":2671,"station_name":"Lenteng Agung","line":2},{"i_long":106.834175,"time":2,"distance":1029,"station_id":"UP","i_lat":-6.339291,"transit":false,"is_transit":false,"line":2,"station_name":"Univ. Pancasila"},{"station_id":"UI","station_name":"Univ. Indonesia","transit":false,"is_transit":false,"distance":2264,"i_long":106.831474,"line":2,"i_lat":-6.360749,"time":3}],[{"distance":0,"line":11,"i_lat":-6.161728,"station_id":"KMO","i_long":106.839204,"station_name":"Kemayoran","time":0,"is_transit":false,"transit":false},{"i_lat":-6.14505,"i_long":106.836569,"station_name":"Rajawali","distance":1901,"line":11,"is_transit":false,"station_id":"RJW","time":5,"transit":false},{"station_name":"Kampung Bandan","i_long":106.826365,"line":4,"is_transit":true,"i_lat":-6.132549,"station_id":"KPB","transit":true,"time":3,"distance":1444},{"i_lat":-6.144674,"i_long":106.79867,"distance":4102,"is_transit":false,"station_name":"Angke","station_id":"AK","transit":false,"line":1,"time":9},{"i_long":106.800832,"transit":false,"station_id":"DU","i_lat":-6.155215,"time":4,"station_name":"Duri","distance":1230,"is_transit":false,"line":1},{"i_lat":-6.185545,"is_transit":false,"time":8,"i_long":106.811091,"line":1,"transit":false,"station_id":"THB","distance":3632,"station_name":"Tanah Abang"},{"i_lat":-6.20132,"distance":2029,"station_id":"KAT","transit":false,"time":5,"station_name":"Karet","is_transit":false,"i_long":106.816351,"line":1},{"distance":471,"station_id":"SUDB","i_long":106.819881,"is_transit":false,"transit":false,"i_lat":-6.201433,"line":1,"station_name":"Sudirman Baru","time":1},{"line":1,"distance":280,"station_name":"Sudirman","transit":false,"is_transit":false,"time":1,"i_lat":-6.202263,"station_id":"SUD","i_long":106.822649},{"station_id":"MRI","i_long":106.84912,"transit":true,"i_lat":-6.209883,"is_transit":true,"time":4,"distance":3186,"line":2,"station_name":"Manggarai"},{"station_id":"TEB","i_long":106.857948,"is_transit":false,"transit":false,"time":4,"line":2,"distance":2610,"i_lat":-6.226659,"station_name":"Tebet"},{"i_long":106.856607,"station_id":"CW","line":2,"time":2,"station_name":"Cawang","is_transit":false,"transit":false,"distance":1230,"i_lat":-6.242512},{"station_name":"Duren Kalibata","station_id":"DRN","is_transit":false,"time":3,"i_long":106.85449,"transit":false,"line":2,"i_lat":-6.255332,"distance":1546},{"station_name":"Pasar Minggu Baru","is_transit":false,"distance":824,"line":2,"i_lat":-6.263214,"station_id":"PSMB","transit":false,"time":2,"i_long":106.851577},{"time":2,"i_long":106.843999,"distance":2380,"line":2,"station_name":"Pasar Minggu","transit":false,"i_lat":-6.2842400000000005,"station_id":"PSM","is_transit":false},{"distance":2820,"line":2,"station_name":"Tanjung Barat","i_lat":-6.3080680000000005,"station_id":"TNT","is_transit":false,"transit":false,"time":4,"i_long":106.838896},{"i_long":106.832616,"distance":2671,"station_id":"LNA","line":2,"station_name":"Lenteng Agung","time":3,"i_lat":-6.330363,"transit":false,"is_transit":false},{"is_transit":false,"i_long":106.834175,"distance":1029,"station_id":"UP","line":2,"station_name":"Univ. Pancasila","transit":false,"time":2,"i_lat":-6.339291},{"station_id":"UI","station_name":"Univ. Indonesia","is_transit":false,"i_long":106.831474,"time":3,"distance":2264,"transit":false,"i_lat":-6.360749,"line":2}],[{"distance":0,"station_id":"KMO","is_transit":false,"time":0,"station_name":"Kemayoran","transit":false,"line":11,"i_long":106.839204,"i_lat":-6.161728},{"station_id":"RJW","distance":1901,"station_name":"Rajawali","transit":false,"i_lat":-6.14505,"is_transit":false,"i_long":106.836569,"time":5,"line":11},{"distance":1444,"station_id":"KPB","time":3,"i_lat":-6.132549,"i_long":106.826365,"station_name":"Kampung Bandan","transit":true,"is_transit":true,"line":4},{"distance":1364,"time":3,"is_transit":true,"i_lat":-6.137569,"i_long":106.812439,"line":2,"transit":true,"station_name":"Jakarta Kota","station_id":"JAKK"},{"is_transit":false,"time":4,"distance":1264,"station_name":"Jayakarta","transit":false,"line":2,"station_id":"JAY","i_lat":-6.141205,"i_long":106.820901},{"is_transit":false,"station_name":"Manggabesar","line":2,"i_lat":-6.149769,"time":2,"distance":1080,"i_long":106.82482,"station_id":"MGB","transit":false},{"transit":false,"distance":906,"time":2,"i_long":106.827103,"is_transit":false,"line":2,"station_name":"Sawah Besar","station_id":"SW","i_lat":-6.160725},{"is_transit":false,"distance":1149,"time":2,"i_lat":-6.166716,"station_name":"Juanda","i_long":106.828284,"station_id":"JUA","line":2,"transit":false},{"time":4,"i_lat":-6.186295,"transit":false,"i_long":106.832183,"distance":2015,"is_transit":false,"line":2,"station_id":"GDD","station_name":"Gondangdia"},{"distance":1750,"is_transit":false,"station_name":"Cikini","transit":false,"station_id":"CKI","i_long":106.840169,"line":2,"time":3,"i_lat":-6.198556},{"i_lat":-6.209883,"station_id":"MRI","line":2,"transit":false,"station_name":"Manggarai","is_transit":false,"distance":1590,"i_long":106.84912,"time":4},{"is_transit":false,"transit":false,"time":4,"station_id":"TEB","distance":2610,"line":2,"i_long":106.857948,"i_lat":-6.226659,"station_name":"Tebet"},{"is_transit":false,"time":2,"station_name":"Cawang","i_long":106.856607,"distance":1230,"station_id":"CW","i_lat":-6.242512,"line":2,"transit":false},{"is_transit":false,"transit":false,"i_lat":-6.255332,"station_name":"Duren Kalibata","i_long":106.85449,"station_id":"DRN","time":3,"distance":1546,"line":2},{"station_id":"PSMB","i_lat":-6.263214,"transit":false,"i_long":106.851577,"time":2,"station_name":"Pasar Minggu Baru","distance":824,"is_transit":false,"line":2},{"is_transit":false,"time":2,"distance":2380,"station_id":"PSM","i_long":106.843999,"line":2,"station_name":"Pasar Minggu","i_lat":-6.2842400000000005,"transit":false},{"station_id":"TNT","is_transit":false,"distance":2820,"i_lat":-6.3080680000000005,"time":4,"i_long":106.838896,"station_name":"Tanjung Barat","transit":false,"line":2},{"station_id":"LNA","is_transit":false,"i_lat":-6.330363,"line":2,"transit":false,"station_name":"Lenteng Agung","i_long":106.832616,"time":3,"distance":2671},{"i_lat":-6.339291,"transit":false,"is_transit":false,"station_name":"Univ. Pancasila","line":2,"i_long":106.834175,"distance":1029,"time":2,"station_id":"UP"},{"transit":false,"station_id":"UI","is_transit":false,"i_long":106.831474,"distance":2264,"time":3,"i_lat":-6.360749,"station_name":"Univ. Indonesia","line":2}]]}