{"data":[[{"station_name":"Kemayoran","i_long":106.839204,"line":11,"transit":false,"i_lat":-6.161728,"is_transit":false,"station_id":"KMO","time":0,"distance":0},{"i_long":106.836569,"line":11,"transit":false,"is_transit":false,"station_id":"RJW","distance":1901,"i_lat":-6.14505,"station_name":"Rajawali","time":5}],[{"i_lat":-6.161728,"station_id":"KMO","station_name":"Kemayoran","transit":false,"line":11,"is_transit":false,"time":0,"distance":0,"i_long":106.839204},{"line":11,"station_id":"PSE","station_name":"Pasar Senen","is_transit":false,"i_long":106.84368,"distance":1436,"i_lat":-6.174784,"time":4,"transit":false},{"station_id":"GST","station_name":"Gang Sentiong","distance":1567,"i_long":106.850107,"transit":false,"time":8,"is_transit":false,"i_lat":-6.185975,"line":11},{"station_id":"KMT","station_name":"Kramat","time":1,"i_long":106.855437,"is_transit":false,"line":11,"transit":false,"distance":973,"i_lat":-6.193792},{"i_long":106.861737,"station_id":"POK","is_transit":false,"time":2,"transit":false,"i_lat":-6.209188,"line":11,"station_name":"Pondok Jati","distance":1829},{"is_transit":true,"time":9,"station_id":"JNG","distance":1236,"transit":true,"i_long":106.86807400000001,"line":1,"i_lat":-6.215091,"station_name":"Jatinegara"},{"time":2,"station_name":"Matraman","distance":1377,"transit":false,"i_lat":-6.212485,"station_id":"MTR","i_long":106.858896,"line":1,"is_transit":false},{"is_transit":false,"station_id":"MRI","distance":1275,"i_long":106.84912,"line":2,"station_name":"Manggarai","transit":false,"i_lat":-6.209883,"time":2},{"transit":false,"station_id":"SUD","is_transit":false,"station_name":"Sudirman","i_lat":-6.202263,"i_long":106.822649,"line":1,"time":4,"distance":3186},{"line":1,"time":1,"is_transit":false,"distance":280,"i_long":106.819881,"station_id":"SUDB","station_name":"Sudirman Baru","transit":false,"i_lat":-6.201433},{"i_long":106.816351,"transit":false,"i_lat":-6.20132,"is_transit":false,"line":1,"station_id":"KAT","distance":471,"time":1,"station_name":"Karet"},{"transit":false,"is_transit":false,"i_long":106.811091,"i_lat":-6.185545,"line":1,"time":5,"station_name":"Tanah Abang","station_id":"THB","distance":2029},{"i_long":106.800832,"station_id":"DU","distance":3632,"i_lat":-6.155215,"is_transit":false,"line":1,"time":8,"station_name":"Duri","transit":false},{"distance":1230,"i_long":106.79867,"is_transit":false,"line":1,"i_lat":-6.144674,"transit":false,"station_id":"AK","time":4,"station_name":"Angke"},{"distance":4102,"i_long":106.826365,"line":4,"i_lat":-6.132549,"time":9,"station_id":"KPB","is_transit":true,"station_name":"Kampung Bandan","transit":true},{"station_name":"Rajawali","distance":1444,"i_long":106.836569,"station_id":"RJW","time":3,"is_transit":false,"line":11,"i_lat":-6.14505,"transit":false}],[{"station_name":"Kemayoran","transit":false,"station_id":"KMO","is_transit":false,"distance":0,"time":0,"i_lat":-6.161728,"i_long":106.839204,"line":11},{"i_long":106.84368,"line":11,"distance":1436,"time":4,"station_id":"PSE","transit":false,"i_lat":-6.174784,"station_name":"Pasar Senen","is_transit":false},{"station_id":"GST","i_long":106.850107,"line":11,"is_transit":false,"distance":1567,"transit":false,"time":8,"station_name":"Gang Sentiong","i_lat":-6.185975},{"station_name":"Kramat","station_id":"KMT","distance":973,"i_lat":-6.193792,"time":1,"transit":false,"i_long":106.855437,"line":11,"is_transit":false},{"distance":1829,"station_id":"POK","time":2,"is_transit":false,"i_lat":-6.209188,"station_name":"Pondok Jati","transit":false,"line":11,"i_long":106.861737},{"is_transit":true,"transit":true,"distance":1236,"station_id":"JNG","i_long":106.86807400000001,"i_lat":-6.215091,"station_name":"Jatinegara","time":9,"line":1},{"transit":false,"i_long":106.858896,"station_name":"Matraman","line":1,"station_id":"MTR","is_transit":false,"i_lat":-6.212485,"time":2,"distance":1377},{"i_lat":-6.209883,"transit":true,"i_long":106.84912,"station_id":"MRI","time":2,"line":2,"station_name":"Manggarai","distance":1275,"is_transit":true},{"distance":1590,"i_lat":-6.198556,"is_transit":false,"station_id":"CKI","line":2,"i_long":106.840169,"transit":false,"time":4,"station_name":"Cikini"},{"i_lat":-6.186295,"line":2,"time":3,"station_id":"GDD","i_long":106.832183,"is_transit":false,"distance":1750,"station_name":"Gondangdia","transit":false},{"distance":2015,"i_lat":-6.166716,"station_name":"Juanda","i_long":106.828284,"station_id":"JUA","line":2,"is_transit":false,"transit":false,"time":4},{"station_id":"SW","station_name":"Sawah Besar","transit":false,"line":2,"i_lat":-6.160725,"is_transit":false,"i_long":106.827103,"time":2,"distance":1149},{"distance":906,"station_id":"MGB","time":2,"is_transit":false,"i_lat":-6.149769,"transit":false,"line":2,"station_name":"Manggabesar","i_long":106.82482},{"i_lat":-6.141205,"i_long":106.820901,"is_transit":false,"line":2,"transit":false,"station_name":"Jayakarta","distance":1080,"station_id":"JAY","time":2},{"station_id":"JAKK","time":4,"is_transit":true,"distance":1264,"transit":true,"station_name":"Jakarta Kota","i_lat":-6.137569,"i_long":106.812439,"line":2},{"time":3,"station_name":"Kampung Bandan","distance":1364,"i_lat":-6.132549,"station_id":"KPB","line":4,"i_long":106.826365,"transit":true,"is_transit":true},{"distance":1444,"station_name":"Rajawali","transit":false,"station_id":"RJW","i_long":106.836569,"line":11,"is_transit":false,"i_lat":-6.14505,"time":3}]]}