{"data":[[{"time":0,"station_name":"Kemayoran","i_lat":-6.161728,"transit":false,"i_long":106.839204,"station_id":"KMO","line":11,"is_transit":false,"distance":0},{"line":11,"time":5,"station_id":"RJW","station_name":"Rajawali","distance":1901,"transit":false,"i_lat":-6.14505,"is_transit":false,"i_long":106.836569}],[{"is_transit":false,"station_name":"Kemayoran","i_lat":-6.161728,"line":11,"time":0,"i_long":106.839204,"station_id":"KMO","transit":false,"distance":0},{"distance":1436,"i_lat":-6.174784,"line":11,"i_long":106.84368,"transit":false,"time":4,"station_name":"Pasar Senen","station_id":"PSE","is_transit":false},{"transit":false,"i_lat":-6.185975,"station_name":"Gang Sentiong","i_long":106.850107,"station_id":"GST","distance":1567,"line":11,"is_transit":false,"time":8},{"line":11,"time":1,"station_id":"KMT","i_lat":-6.193792,"station_name":"Kramat","is_transit":false,"distance":973,"i_long":106.855437,"transit":false},{"station_name":"Pondok Jati","i_lat":-6.209188,"i_long":106.861737,"station_id":"POK","line":11,"is_transit":false,"distance":1829,"time":2,"transit":false},{"line":1,"station_id":"JNG","time":9,"i_lat":-6.215091,"i_long":106.86807400000001,"distance":1236,"is_transit":true,"transit":true,"station_name":"Jatinegara"},{"time":2,"line":1,"distance":1377,"station_name":"Matraman","i_lat":-6.212485,"transit":false,"i_long":106.858896,"station_id":"MTR","is_transit":false},{"is_transit":false,"i_long":106.84912,"line":2,"distance":1275,"i_lat":-6.209883,"station_id":"MRI","time":2,"station_name":"Manggarai","transit":false},{"i_lat":-6.202263,"station_id":"SUD","line":1,"is_transit":false,"transit":false,"station_name":"Sudirman","distance":3186,"time":4,"i_long":106.822649},{"station_id":"SUDB","transit":false,"distance":280,"line":1,"i_lat":-6.201433,"station_name":"Sudirman Baru","i_long":106.819881,"time":1,"is_transit":false},{"is_transit":false,"transit":false,"station_id":"KAT","distance":471,"i_long":106.816351,"line":1,"time":1,"i_lat":-6.20132,"station_name":"Karet"},{"i_lat":-6.185545,"transit":false,"line":1,"station_name":"Tanah Abang","distance":2029,"time":5,"i_long":106.811091,"is_transit":false,"station_id":"THB"},{"i_long":106.800832,"is_transit":false,"station_name":"Duri","time":8,"transit":false,"line":1,"station_id":"DU","distance":3632,"i_lat":-6.155215},{"station_id":"AK","distance":1230,"station_name":"Angke","is_transit":false,"time":4,"i_lat":-6.144674,"i_long":106.79867,"transit":false,"line":1},{"station_id":"KPB","i_long":106.826365,"station_name":"Kampung Bandan","is_transit":true,"line":4,"distance":4102,"i_lat":-6.132549,"time":9,"transit":true},{"station_name":"Rajawali","i_lat":-6.14505,"transit":false,"is_transit":false,"line":11,"i_long":106.836569,"time":3,"station_id":"RJW","distance":1444}],[{"station_id":"KMO","distance":0,"transit":false,"i_lat":-6.161728,"line":11,"time":0,"station_name":"Kemayoran","is_transit":false,"i_long":106.839204},{"station_id":"PSE","distance":1436,"line":11,"is_transit":false,"i_long":106.84368,"station_name":"Pasar Senen","transit":false,"i_lat":-6.174784,"time":4},{"i_long":106.850107,"station_name":"Gang Sentiong","station_id":"GST","distance":1567,"transit":false,"line":11,"is_transit":false,"time":8,"i_lat":-6.185975},{"is_transit":false,"station_id":"KMT","line":11,"transit":false,"distance":973,"station_name":"Kramat","time":1,"i_lat":-6.193792,"i_long":106.855437},{"station_name":"Pondok Jati","time":2,"i_long":106.861737,"i_lat":-6.209188,"is_transit":false,"line":11,"distance":1829,"transit":false,"station_id":"POK"},{"is_transit":true,"i_lat":-6.215091,"i_long":106.86807400000001,"time":9,"station_id":"JNG","distance":1236,"line":1,"station_name":"Jatinegara","transit":true},{"is_transit":false,"station_id":"MTR","i_lat":-6.212485,"distance":1377,"transit":false,"station_name":"Matraman","time":2,"line":1,"i_long":106.858896},{"i_lat":-6.209883,"transit":true,"distance":1275,"time":2,"station_name":"Manggarai","i_long":106.84912,"station_id":"MRI","is_transit":true,"line":2},{"i_long":106.840169,"station_id":"CKI","time":4,"distance":1590,"is_transit":false,"line":2,"i_lat":-6.198556,"station_name":"Cikini","transit":false},{"distance":1750,"station_name":"Gondangdia","i_long":106.832183,"line":2,"time":3,"i_lat":-6.186295,"is_transit":false,"transit":false,"station_id":"GDD"},{"i_long":106.828284,"station_id":"JUA","is_transit":false,"transit":false,"station_name":"Juanda","time":4,"i_lat":-6.166716,"distance":2015,"line":2},{"i_long":106.827103,"is_transit":false,"station_id":"SW","line":2,"transit":false,"distance":1149,"time":2,"station_name":"Sawah Besar","i_lat":-6.160725},{"station_id":"MGB","i_long":106.82482,"is_transit":false,"time":2,"station_name":"Manggabesar","transit":false,"i_lat":-6.149769,"line":2,"distance":906},{"station_name":"Jayakarta","transit":false,"line":2,"time":2,"i_lat":-6.141205,"is_transit":false,"distance":1080,"station_id":"JAY","i_long":106.820901},{"i_lat":-6.137569,"transit":true,"station_name":"Jakarta Kota","i_long":106.812439,"is_transit":true,"time":4,"distance":1264,"line":2,"station_id":"JAKK"},{"time":3,"station_name":"Kampung Bandan","i_long":106.826365,"is_transit":true,"transit":true,"i_lat":-6.132549,"station_id":"KPB","line":4,"distance":1364},{"distance":1444,"station_name":"Rajawali","is_transit":false,"i_lat":-6.14505,"transit":false,"line":11,"time":3,"station_id":"RJW","i_long":106.836569}]]}