{"data":[[{"time":0,"i_long":106.839204,"line":11,"transit":false,"station_id":"KMO","is_transit":false,"distance":0,"station_name":"Kemayoran","i_lat":-6.161728},{"station_name":"Rajawali","line":11,"station_id":"RJW","is_transit":false,"time":5,"distance":1901,"i_lat":-6.14505,"i_long":106.836569,"transit":false},{"distance":1444,"station_name":"Kampung Bandan","station_id":"KPB","i_long":106.826365,"time":3,"is_transit":true,"transit":true,"i_lat":-6.132549,"line":0},{"time":9,"line":0,"i_lat":-6.144674,"i_long":106.79867,"station_id":"AK","station_name":"Angke","distance":4102,"is_transit":false,"transit":false},{"i_long":106.800832,"distance":1230,"station_name":"Duri","line":1,"is_transit":true,"i_lat":-6.155215,"transit":true,"station_id":"DU","time":4},{"time":8,"i_lat":-6.185545,"station_name":"Tanah Abang","line":1,"transit":true,"i_long":106.811091,"distance":3632,"station_id":"THB","is_transit":true},{"line":6,"station_id":"PLM","distance":3191,"time":6,"i_lat":-6.207404,"station_name":"Palmerah","is_transit":false,"transit":false,"i_long":106.79689},{"i_long":106.780334,"station_name":"Kebayoran","i_lat":-6.237242,"station_id":"KBY","is_transit":false,"line":6,"transit":false,"time":7,"distance":3737},{"transit":false,"is_transit":false,"line":6,"i_long":106.74273,"time":8,"i_lat":-6.276362,"station_name":"Pondokranji","station_id":"PDJ","distance":6218},{"time":3,"is_transit":false,"transit":false,"line":6,"i_long":106.728916,"distance":2179,"station_id":"JMU","i_lat":-6.288927,"station_name":"Jurangmangu"},{"is_transit":false,"transit":false,"time":4,"line":6,"station_id":"SDM","station_name":"Sudimara","distance":1994,"i_lat":-6.296963,"i_long":106.712277},{"station_id":"RU","i_long":106.675475,"time":6,"i_lat":-6.314823,"line":6,"station_name":"Rawa Buntu","transit":false,"is_transit":false,"distance":4566},{"i_long":106.66566,"station_name":"Serpong","line":6,"is_transit":false,"station_id":"SRP","time":4,"i_lat":-6.319871,"distance":2413,"transit":false},{"station_name":"Cisauk","is_transit":false,"distance":1784,"time":4,"transit":false,"line":0,"station_id":"CSK","i_lat":-6.32484,"i_long":106.640411},{"is_transit":false,"station_id":"CC","station_name":"Cicayur","i_long":106.617853,"transit":false,"distance":2519,"i_lat":-6.329547,"line":0,"time":4},{"line":6,"time":8,"i_long":106.568863,"is_transit":false,"transit":false,"station_id":"PRP","station_name":"Parung Panjang","distance":5968,"i_lat":-6.3441410000000005},{"i_long":106.508482,"is_transit":false,"transit":false,"station_name":"Cilejit","i_lat":-6.354349,"line":0,"station_id":"CJT","distance":7025,"time":9},{"i_long":106.491338,"transit":false,"line":0,"station_id":"DAR","distance":2675,"time":6,"station_name":"Daru","is_transit":false,"i_lat":-6.338021}],[{"line":11,"distance":0,"time":0,"i_lat":-6.161728,"i_long":106.839204,"station_name":"Kemayoran","is_transit":false,"transit":false,"station_id":"KMO"},{"distance":1436,"is_transit":false,"station_name":"Pasar Senen","i_long":106.84368,"station_id":"PSE","line":11,"time":4,"transit":false,"i_lat":-6.174784},{"is_transit":false,"station_id":"GST","time":8,"station_name":"Gang Sentiong","i_long":106.850107,"line":11,"transit":false,"distance":1567,"i_lat":-6.185975},{"transit":false,"i_lat":-6.193792,"station_name":"Kramat","i_long":106.855437,"line":11,"distance":973,"station_id":"KMT","is_transit":false,"time":1},{"is_transit":false,"station_name":"Pondok Jati","transit":false,"time":2,"line":11,"i_lat":-6.209188,"distance":1829,"i_long":106.861737,"station_id":"POK"},{"is_transit":true,"i_lat":-6.215091,"distance":1236,"station_name":"Jatinegara","line":0,"i_long":106.86807400000001,"station_id":"JNG","transit":true,"time":9},{"station_id":"MTR","is_transit":false,"transit":false,"i_lat":-6.212485,"i_long":106.858896,"line":1,"time":2,"station_name":"Matraman","distance":1377},{"station_name":"Manggarai","i_lat":-6.209883,"time":2,"distance":1275,"is_transit":true,"line":0,"transit":false,"station_id":"MRI","i_long":106.84912},{"time":4,"i_lat":-6.202263,"transit":false,"line":1,"station_id":"SUD","i_long":106.822649,"is_transit":false,"distance":3186,"station_name":"Sudirman"},{"distance":280,"station_id":"SUDB","station_name":"Sudirman Baru","time":1,"transit":false,"i_lat":-6.201433,"i_long":106.819881,"is_transit":false,"line":1},{"is_transit":false,"i_lat":-6.20132,"distance":471,"line":1,"i_long":106.816351,"station_name":"Karet","time":1,"station_id":"KAT","transit":false},{"time":5,"i_long":106.811091,"station_id":"THB","station_name":"Tanah Abang","is_transit":true,"i_lat":-6.185545,"transit":true,"line":1,"distance":2029},{"i_lat":-6.207404,"i_long":106.79689,"station_name":"Palmerah","station_id":"PLM","line":6,"transit":false,"distance":3191,"is_transit":false,"time":6},{"distance":3737,"line":6,"time":7,"is_transit":false,"transit":false,"i_long":106.780334,"station_name":"Kebayoran","station_id":"KBY","i_lat":-6.237242},{"transit":false,"line":6,"station_id":"PDJ","is_transit":false,"time":8,"i_lat":-6.276362,"i_long":106.74273,"distance":6218,"station_name":"Pondokranji"},{"line":6,"station_id":"JMU","transit":false,"distance":2179,"time":3,"station_name":"Jurangmangu","i_lat":-6.288927,"is_transit":false,"i_long":106.728916},{"station_name":"Sudimara","is_transit":false,"distance":1994,"time":4,"station_id":"SDM","i_long":106.712277,"transit":false,"i_lat":-6.296963,"line":6},{"line":6,"distance":4566,"station_id":"RU","is_transit":false,"transit":false,"i_lat":-6.314823,"i_long":106.675475,"time":6,"station_name":"Rawa Buntu"},{"station_name":"Serpong","is_transit":false,"station_id":"SRP","transit":false,"distance":2413,"i_lat":-6.319871,"line":6,"i_long":106.66566,"time":4},{"i_long":106.640411,"station_name":"Cisauk","line":0,"transit":false,"time":4,"station_id":"CSK","distance":1784,"i_lat":-6.32484,"is_transit":false},{"is_transit":false,"time":4,"transit":false,"station_id":"CC","i_long":106.617853,"distance":2519,"line":0,"i_lat":-6.329547,"station_name":"Cicayur"},{"is_transit":false,"station_name":"Parung Panjang","transit":false,"line":6,"i_long":106.568863,"i_lat":-6.3441410000000005,"station_id":"PRP","time":8,"distance":5968},{"station_id":"CJT","is_transit":false,"i_long":106.508482,"line":0,"time":9,"station_name":"Cilejit","distance":7025,"i_lat":-6.354349,"transit":false},{"distance":2675,"i_lat":-6.338021,"line":0,"transit":false,"is_transit":false,"i_long":106.491338,"time":6,"station_name":"Daru","station_id":"DAR"}],[{"i_long":106.839204,"i_lat":-6.161728,"time":0,"transit":false,"is_transit":false,"distance":0,"station_name":"Kemayoran","line":11,"station_id":"KMO"},{"transit":false,"station_id":"RJW","time":5,"station_name":"Rajawali","line":11,"distance":1901,"i_lat":-6.14505,"i_long":106.836569,"is_transit":false},{"distance":1444,"station_id":"KPB","time":3,"i_long":106.826365,"station_name":"Kampung Bandan","is_transit":true,"transit":true,"line":0,"i_lat":-6.132549},{"is_transit":true,"station_name":"Jakarta Kota","distance":1364,"station_id":"JAKK","transit":true,"time":3,"i_long":106.812439,"i_lat":-6.137569,"line":0},{"station_id":"JAY","is_transit":false,"i_long":106.820901,"station_name":"Jayakarta","transit":false,"time":4,"distance":1264,"i_lat":-6.141205,"line":7},{"i_lat":-6.149769,"distance":1080,"time":2,"i_long":106.82482,"line":2,"is_transit":false,"station_name":"Manggabesar","station_id":"MGB","transit":false},{"is_transit":false,"station_id":"SW","i_lat":-6.160725,"distance":906,"time":2,"station_name":"Sawah Besar","i_long":106.827103,"line":2,"transit":false},{"transit":false,"i_long":106.828284,"time":2,"distance":1149,"line":2,"station_id":"JUA","station_name":"Juanda","i_lat":-6.166716,"is_transit":false},{"i_lat":-6.186295,"transit":false,"is_transit":false,"station_name":"Gondangdia","time":4,"distance":2015,"i_long":106.832183,"line":2,"station_id":"GDD"},{"is_transit":false,"i_lat":-6.198556,"i_long":106.840169,"station_id":"CKI","station_name":"Cikini","time":3,"distance":1750,"line":0,"transit":false},{"distance":1590,"time":4,"i_long":106.84912,"is_transit":true,"station_name":"Manggarai","i_lat":-6.209883,"line":0,"transit":true,"station_id":"MRI"},{"i_long":106.822649,"is_transit":false,"distance":3186,"station_name":"Sudirman","time":4,"transit":false,"line":1,"i_lat":-6.202263,"station_id":"SUD"},{"time":1,"station_name":"Sudirman Baru","line":1,"i_lat":-6.201433,"i_long":106.819881,"station_id":"SUDB","is_transit":false,"transit":false,"distance":280},{"station_id":"KAT","time":1,"line":1,"is_transit":false,"distance":471,"station_name":"Karet","i_lat":-6.20132,"transit":false,"i_long":106.816351},{"i_long":106.811091,"is_transit":true,"line":1,"i_lat":-6.185545,"transit":true,"time":5,"station_id":"THB","distance":2029,"station_name":"Tanah Abang"},{"transit":false,"i_lat":-6.207404,"line":6,"station_id":"PLM","station_name":"Palmerah","is_transit":false,"time":6,"distance":3191,"i_long":106.79689},{"distance":3737,"line":6,"time":7,"station_id":"KBY","station_name":"Kebayoran","i_lat":-6.237242,"is_transit":false,"i_long":106.780334,"transit":false},{"i_long":106.74273,"station_id":"PDJ","station_name":"Pondokranji","transit":false,"line":6,"distance":6218,"is_transit":false,"time":8,"i_lat":-6.276362},{"station_id":"JMU","station_name":"Jurangmangu","transit":false,"line":6,"distance":2179,"time":3,"is_transit":false,"i_lat":-6.288927,"i_long":106.728916},{"distance":1994,"line":6,"transit":false,"time":4,"station_name":"Sudimara","i_lat":-6.296963,"i_long":106.712277,"station_id":"SDM","is_transit":false},{"time":6,"line":6,"transit":false,"station_name":"Rawa Buntu","distance":4566,"is_transit":false,"i_lat":-6.314823,"i_long":106.675475,"station_id":"RU"},{"i_lat":-6.319871,"distance":2413,"line":6,"station_id":"SRP","time":4,"i_long":106.66566,"station_name":"Serpong","transit":false,"is_transit":false},{"transit":false,"i_long":106.640411,"line":0,"station_name":"Cisauk","is_transit":false,"time":4,"distance":1784,"i_lat":-6.32484,"station_id":"CSK"},{"distance":2519,"line":0,"i_long":106.617853,"transit":false,"is_transit":false,"station_name":"Cicayur","station_id":"CC","time":4,"i_lat":-6.329547},{"line":6,"i_lat":-6.3441410000000005,"transit":false,"time":8,"station_name":"Parung Panjang","i_long":106.568863,"station_id":"PRP","is_transit":false,"distance":5968},{"station_id":"CJT","station_name":"Cilejit","time":9,"is_transit":false,"distance":7025,"i_lat":-6.354349,"line":0,"i_long":106.508482,"transit":false},{"i_lat":-6.338021,"is_transit":false,"i_long":106.491338,"station_name":"Daru","line":0,"distance":2675,"station_id":"DAR","time":6,"transit":false}],[{"station_name":"Kemayoran","is_transit":false,"time":0,"distance":0,"transit":false,"station_id":"KMO","i_lat":-6.161728,"line":11,"i_long":106.839204},{"station_name":"Pasar Senen","station_id":"PSE","transit":false,"i_long":106.84368,"distance":1436,"time":4,"i_lat":-6.174784,"line":11,"is_transit":false},{"i_long":106.850107,"transit":false,"i_lat":-6.185975,"time":8,"station_id":"GST","station_name":"Gang Sentiong","distance":1567,"is_transit":false,"line":11},{"distance":973,"station_name":"Kramat","i_lat":-6.193792,"transit":false,"time":1,"line":11,"station_id":"KMT","i_long":106.855437,"is_transit":false},{"distance":1829,"is_transit":false,"line":11,"station_name":"Pondok Jati","time":2,"transit":false,"i_long":106.861737,"i_lat":-6.209188,"station_id":"POK"},{"is_transit":true,"distance":1236,"i_lat":-6.215091,"transit":true,"line":0,"station_name":"Jatinegara","i_long":106.86807400000001,"time":9,"station_id":"JNG"},{"station_id":"MTR","i_long":106.858896,"transit":false,"line":1,"station_name":"Matraman","time":2,"is_transit":false,"distance":1377,"i_lat":-6.212485},{"time":2,"is_transit":true,"i_long":106.84912,"station_id":"MRI","station_name":"Manggarai","i_lat":-6.209883,"line":0,"distance":1275,"transit":true},{"i_lat":-6.198556,"time":4,"transit":false,"station_id":"CKI","station_name":"Cikini","distance":1590,"is_transit":false,"i_long":106.840169,"line":0},{"i_long":106.832183,"distance":1750,"transit":false,"station_id":"GDD","is_transit":false,"line":2,"time":3,"station_name":"Gondangdia","i_lat":-6.186295},{"station_id":"JUA","distance":2015,"station_name":"Juanda","transit":false,"i_long":106.828284,"line":2,"time":4,"is_transit":false,"i_lat":-6.166716},{"station_name":"Sawah Besar","is_transit":false,"line":2,"i_long":106.827103,"station_id":"SW","transit":false,"time":2,"distance":1149,"i_lat":-6.160725},{"transit":false,"line":2,"station_id":"MGB","i_lat":-6.149769,"time":2,"is_transit":false,"distance":906,"station_name":"Manggabesar","i_long":106.82482},{"line":7,"i_lat":-6.141205,"time":2,"station_name":"Jayakarta","is_transit":false,"distance":1080,"station_id":"JAY","transit":false,"i_long":106.820901},{"station_name":"Jakarta Kota","station_id":"JAKK","time":4,"i_lat":-6.137569,"i_long":106.812439,"line":0,"transit":true,"is_transit":true,"distance":1264},{"station_id":"KPB","distance":1364,"time":3,"i_lat":-6.132549,"station_name":"Kampung Bandan","is_transit":true,"i_long":106.826365,"line":0,"transit":false},{"station_id":"AK","station_name":"Angke","distance":4102,"i_lat":-6.144674,"line":0,"is_transit":false,"time":9,"transit":false,"i_long":106.79867},{"i_lat":-6.155215,"distance":1230,"i_long":106.800832,"line":1,"station_name":"Duri","station_id":"DU","is_transit":true,"transit":true,"time":4},{"transit":true,"station_name":"Tanah Abang","distance":3632,"i_lat":-6.185545,"station_id":"THB","i_long":106.811091,"line":1,"is_transit":true,"time":8},{"distance":3191,"line":6,"station_id":"PLM","is_transit":false,"transit":false,"i_lat":-6.207404,"station_name":"Palmerah","time":6,"i_long":106.79689},{"i_lat":-6.237242,"station_name":"Kebayoran","i_long":106.780334,"station_id":"KBY","line":6,"is_transit":false,"distance":3737,"time":7,"transit":false},{"station_id":"PDJ","station_name":"Pondokranji","is_transit":false,"distance":6218,"transit":false,"line":6,"i_lat":-6.276362,"time":8,"i_long":106.74273},{"i_lat":-6.288927,"station_name":"Jurangmangu","is_transit":false,"time":3,"distance":2179,"transit":false,"i_long":106.728916,"station_id":"JMU","line":6},{"transit":false,"time":4,"i_lat":-6.296963,"station_name":"Sudimara","station_id":"SDM","i_long":106.712277,"line":6,"is_transit":false,"distance":1994},{"is_transit":false,"time":6,"transit":false,"i_long":106.675475,"station_name":"Rawa Buntu","distance":4566,"station_id":"RU","line":6,"i_lat":-6.314823},{"i_long":106.66566,"station_id":"SRP","time":4,"distance":2413,"i_lat":-6.319871,"line":6,"is_transit":false,"transit":false,"station_name":"Serpong"},{"i_lat":-6.32484,"distance":1784,"line":0,"i_long":106.640411,"station_name":"Cisauk","time":4,"station_id":"CSK","transit":false,"is_transit":false},{"is_transit":false,"time":4,"distance":2519,"i_lat":-6.329547,"transit":false,"line":0,"station_id":"CC","i_long":106.617853,"station_name":"Cicayur"},{"line":6,"i_lat":-6.3441410000000005,"is_transit":false,"station_id":"PRP","transit":false,"i_long":106.568863,"station_name":"Parung Panjang","time":8,"distance":5968},{"distance":7025,"i_long":106.508482,"is_transit":false,"line":0,"i_lat":-6.354349,"transit":false,"station_id":"CJT","station_name":"Cilejit","time":9},{"time":6,"distance":2675,"line":0,"is_transit":false,"station_id":"DAR","transit":false,"i_long":106.491338,"i_lat":-6.338021,"station_name":"Daru"}]]}