{"data":[[{"station_id":"KMO","line":11,"transit":false,"distance":0,"station_name":"Kemayoran","i_long":106.839204,"is_transit":false,"i_lat":-6.161728,"time":0},{"i_lat":-6.174784,"line":11,"time":4,"station_id":"PSE","i_long":106.84368,"transit":false,"is_transit":false,"station_name":"Pasar Senen","distance":1436},{"line":11,"transit":false,"is_transit":false,"time":8,"station_name":"Gang Sentiong","distance":1567,"station_id":"GST","i_long":106.850107,"i_lat":-6.185975},{"station_id":"KMT","time":1,"is_transit":false,"i_lat":-6.193792,"i_long":106.855437,"transit":false,"distance":973,"line":11,"station_name":"Kramat"},{"i_long":106.861737,"line":11,"is_transit":false,"i_lat":-6.209188,"station_id":"POK","time":2,"transit":false,"station_name":"Pondok Jati","distance":1829},{"transit":true,"i_long":106.86807400000001,"station_id":"JNG","station_name":"Jatinegara","is_transit":true,"distance":1236,"i_lat":-6.215091,"line":1,"time":9},{"i_long":106.858896,"station_id":"MTR","i_lat":-6.212485,"line":1,"transit":false,"is_transit":false,"time":2,"station_name":"Matraman","distance":1377},{"distance":1275,"station_id":"MRI","is_transit":true,"transit":true,"time":2,"i_lat":-6.209883,"station_name":"Manggarai","i_long":106.84912,"line":2},{"line":2,"station_id":"TEB","station_name":"Tebet","transit":false,"time":4,"i_lat":-6.226659,"i_long":106.857948,"distance":2610,"is_transit":false},{"distance":1230,"transit":false,"station_id":"CW","is_transit":false,"time":2,"i_lat":-6.242512,"line":2,"station_name":"Cawang","i_long":106.856607},{"i_lat":-6.255332,"station_name":"Duren Kalibata","time":3,"i_long":106.85449,"station_id":"DRN","is_transit":false,"distance":1546,"line":2,"transit":false},{"i_long":106.851577,"station_name":"Pasar Minggu Baru","line":2,"station_id":"PSMB","time":2,"distance":824,"transit":false,"i_lat":-6.263214,"is_transit":false},{"transit":false,"station_name":"Pasar Minggu","distance":2380,"i_long":106.843999,"i_lat":-6.2842400000000005,"line":2,"station_id":"PSM","is_transit":false,"time":2},{"transit":false,"is_transit":false,"station_name":"Tanjung Barat","distance":2820,"line":2,"time":4,"i_long":106.838896,"station_id":"TNT","i_lat":-6.3080680000000005},{"transit":false,"distance":2671,"time":3,"line":2,"i_lat":-6.330363,"i_long":106.832616,"station_name":"Lenteng Agung","station_id":"LNA","is_transit":false},{"station_name":"Univ. Pancasila","transit":false,"station_id":"UP","distance":1029,"i_long":106.834175,"line":2,"is_transit":false,"time":2,"i_lat":-6.339291},{"time":3,"transit":false,"is_transit":false,"station_name":"Univ. Indonesia","i_long":106.831474,"line":2,"i_lat":-6.360749,"station_id":"UI","distance":2264},{"transit":false,"station_id":"POC","is_transit":false,"time":2,"i_lat":-6.369073,"station_name":"Pondok Cina","i_long":106.831114,"distance":1109,"line":2},{"time":4,"distance":2727,"transit":false,"station_id":"DPB","station_name":"Depokbaru","i_long":106.819451,"is_transit":false,"line":2,"i_lat":-6.391065},{"is_transit":false,"i_long":106.816926,"line":2,"time":3,"i_lat":-6.405256,"station_id":"DP","distance":1584,"transit":false,"station_name":"Depok"},{"station_id":"CTA","is_transit":false,"distance":5084,"time":6,"i_lat":-6.448811,"station_name":"Citayam","line":2,"transit":false,"i_long":106.800298},{"distance":5197,"transit":false,"station_id":"BJD","station_name":"Bojonggede","is_transit":false,"time":5,"i_long":106.792719,"i_lat":-6.493243,"line":2},{"i_lat":-6.530544,"station_name":"Cilebut","time":5,"i_long":106.800016,"transit":false,"station_id":"CLT","line":2,"is_transit":false,"distance":4331}],[{"station_id":"KMO","is_transit":false,"i_long":106.839204,"time":0,"line":11,"transit":false,"station_name":"Kemayoran","i_lat":-6.161728,"distance":0},{"distance":1901,"station_name":"Rajawali","is_transit":false,"time":5,"i_lat":-6.14505,"line":11,"station_id":"RJW","i_long":106.836569,"transit":false},{"station_name":"Kampung Bandan","is_transit":true,"station_id":"KPB","time":3,"i_lat":-6.132549,"line":4,"i_long":106.826365,"distance":1444,"transit":true},{"time":9,"i_long":106.79867,"transit":false,"line":1,"station_name":"Angke","is_transit":false,"distance":4102,"station_id":"AK","i_lat":-6.144674},{"time":4,"station_name":"Duri","i_long":106.800832,"station_id":"DU","transit":false,"is_transit":false,"distance":1230,"line":1,"i_lat":-6.155215},{"i_lat":-6.185545,"line":1,"transit":false,"is_transit":false,"i_long":106.811091,"time":8,"distance":3632,"station_name":"Tanah Abang","station_id":"THB"},{"station_id":"KAT","is_transit":false,"time":5,"distance":2029,"i_lat":-6.20132,"station_name":"Karet","line":1,"transit":false,"i_long":106.816351},{"transit":false,"i_lat":-6.201433,"i_long":106.819881,"is_transit":false,"station_id":"SUDB","distance":471,"station_name":"Sudirman Baru","line":1,"time":1},{"is_transit":false,"i_lat":-6.202263,"i_long":106.822649,"line":1,"transit":false,"station_name":"Sudirman","station_id":"SUD","time":1,"distance":280},{"time":4,"is_transit":true,"i_lat":-6.209883,"line":2,"station_name":"Manggarai","transit":true,"station_id":"MRI","distance":3186,"i_long":106.84912},{"distance":2610,"station_name":"Tebet","time":4,"i_long":106.857948,"line":2,"transit":false,"station_id":"TEB","is_transit":false,"i_lat":-6.226659},{"i_lat":-6.242512,"time":2,"i_long":106.856607,"distance":1230,"line":2,"station_name":"Cawang","is_transit":false,"transit":false,"station_id":"CW"},{"transit":false,"station_id":"DRN","i_lat":-6.255332,"station_name":"Duren Kalibata","is_transit":false,"time":3,"distance":1546,"i_long":106.85449,"line":2},{"i_long":106.851577,"time":2,"station_name":"Pasar Minggu Baru","station_id":"PSMB","i_lat":-6.263214,"distance":824,"transit":false,"line":2,"is_transit":false},{"time":2,"station_name":"Pasar Minggu","station_id":"PSM","line":2,"i_long":106.843999,"is_transit":false,"distance":2380,"transit":false,"i_lat":-6.2842400000000005},{"time":4,"distance":2820,"transit":false,"station_id":"TNT","is_transit":false,"station_name":"Tanjung Barat","line":2,"i_lat":-6.3080680000000005,"i_long":106.838896},{"transit":false,"station_id":"LNA","station_name":"Lenteng Agung","time":3,"i_lat":-6.330363,"i_long":106.832616,"is_transit":false,"line":2,"distance":2671},{"is_transit":false,"distance":1029,"time":2,"transit":false,"station_name":"Univ. Pancasila","line":2,"i_lat":-6.339291,"i_long":106.834175,"station_id":"UP"},{"station_id":"UI","i_long":106.831474,"transit":false,"station_name":"Univ. Indonesia","is_transit":false,"time":3,"line":2,"distance":2264,"i_lat":-6.360749},{"distance":1109,"is_transit":false,"station_name":"Pondok Cina","i_lat":-6.369073,"line":2,"time":2,"station_id":"POC","i_long":106.831114,"transit":false},{"station_name":"Depokbaru","is_transit":false,"i_lat":-6.391065,"transit":false,"distance":2727,"line":2,"station_id":"DPB","time":4,"i_long":106.819451},{"i_lat":-6.405256,"transit":false,"i_long":106.816926,"time":3,"line":2,"station_name":"Depok","distance":1584,"station_id":"DP","is_transit":false},{"transit":false,"line":2,"distance":5084,"is_transit":false,"i_long":106.800298,"i_lat":-6.448811,"station_id":"CTA","station_name":"Citayam","time":6},{"is_transit":false,"time":5,"distance":5197,"station_name":"Bojonggede","station_id":"BJD","i_long":106.792719,"transit":false,"i_lat":-6.493243,"line":2},{"station_name":"Cilebut","i_lat":-6.530544,"time":5,"i_long":106.800016,"station_id":"CLT","is_transit":false,"line":2,"distance":4331,"transit":false}],[{"is_transit":false,"line":11,"station_name":"Kemayoran","distance":0,"transit":false,"time":0,"i_lat":-6.161728,"i_long":106.839204,"station_id":"KMO"},{"station_name":"Rajawali","distance":1901,"i_lat":-6.14505,"is_transit":false,"i_long":106.836569,"station_id":"RJW","line":11,"time":5,"transit":false},{"distance":1444,"station_id":"KPB","is_transit":true,"station_name":"Kampung Bandan","i_lat":-6.132549,"transit":true,"i_long":106.826365,"line":4,"time":3},{"station_name":"Jakarta Kota","i_long":106.812439,"transit":true,"is_transit":true,"time":3,"distance":1364,"line":2,"station_id":"JAKK","i_lat":-6.137569},{"station_id":"JAY","time":4,"line":2,"transit":false,"distance":1264,"station_name":"Jayakarta","is_transit":false,"i_lat":-6.141205,"i_long":106.820901},{"is_transit":false,"station_name":"Manggabesar","time":2,"distance":1080,"i_lat":-6.149769,"i_long":106.82482,"line":2,"station_id":"MGB","transit":false},{"station_id":"SW","time":2,"i_long":106.827103,"i_lat":-6.160725,"transit":false,"line":2,"station_name":"Sawah Besar","is_transit":false,"distance":906},{"station_name":"Juanda","transit":false,"time":2,"i_lat":-6.166716,"line":2,"is_transit":false,"station_id":"JUA","distance":1149,"i_long":106.828284},{"i_long":106.832183,"i_lat":-6.186295,"is_transit":false,"time":4,"distance":2015,"transit":false,"station_id":"GDD","line":2,"station_name":"Gondangdia"},{"station_id":"CKI","transit":false,"distance":1750,"station_name":"Cikini","is_transit":false,"time":3,"i_lat":-6.198556,"line":2,"i_long":106.840169},{"i_lat":-6.209883,"station_id":"MRI","line":2,"is_transit":false,"time":4,"distance":1590,"transit":false,"station_name":"Manggarai","i_long":106.84912},{"station_name":"Tebet","station_id":"TEB","is_transit":false,"i_lat":-6.226659,"line":2,"transit":false,"distance":2610,"time":4,"i_long":106.857948},{"station_id":"CW","distance":1230,"is_transit":false,"i_long":106.856607,"line":2,"station_name":"Cawang","i_lat":-6.242512,"time":2,"transit":false},{"i_long":106.85449,"transit":false,"station_id":"DRN","is_transit":false,"i_lat":-6.255332,"distance":1546,"station_name":"Duren Kalibata","line":2,"time":3},{"is_transit":false,"i_lat":-6.263214,"station_id":"PSMB","transit":false,"distance":824,"station_name":"Pasar Minggu Baru","time":2,"i_long":106.851577,"line":2},{"transit":false,"station_id":"PSM","time":2,"distance":2380,"station_name":"Pasar Minggu","i_lat":-6.2842400000000005,"i_long":106.843999,"line":2,"is_transit":false},{"distance":2820,"i_long":106.838896,"line":2,"station_name":"Tanjung Barat","station_id":"TNT","is_transit":false,"time":4,"transit":false,"i_lat":-6.3080680000000005},{"station_id":"LNA","station_name":"Lenteng Agung","distance":2671,"i_lat":-6.330363,"time":3,"i_long":106.832616,"is_transit":false,"line":2,"transit":false},{"station_id":"UP","distance":1029,"i_lat":-6.339291,"i_long":106.834175,"line":2,"station_name":"Univ. Pancasila","transit":false,"time":2,"is_transit":false},{"transit":false,"line":2,"station_id":"UI","time":3,"distance":2264,"i_lat":-6.360749,"i_long":106.831474,"station_name":"Univ. Indonesia","is_transit":false},{"station_id":"POC","time":2,"i_long":106.831114,"transit":false,"i_lat":-6.369073,"station_name":"Pondok Cina","is_transit":false,"line":2,"distance":1109},{"station_name":"Depokbaru","transit":false,"is_transit":false,"i_long":106.819451,"i_lat":-6.391065,"time":4,"station_id":"DPB","line":2,"distance":2727},{"time":3,"transit":false,"station_id":"DP","is_transit":false,"distance":1584,"i_lat":-6.405256,"line":2,"i_long":106.816926,"station_name":"Depok"},{"station_id":"CTA","distance":5084,"transit":false,"station_name":"Citayam","i_long":106.800298,"line":2,"is_transit":false,"i_lat":-6.448811,"time":6},{"time":5,"station_name":"Bojonggede","i_long":106.792719,"is_transit":false,"i_lat":-6.493243,"station_id":"BJD","distance":5197,"line":2,"transit":false},{"is_transit":false,"station_name":"Cilebut","i_long":106.800016,"distance":4331,"line":2,"time":5,"transit":false,"station_id":"CLT","i_lat":-6.530544}]]}