{"data":[[{"station_id":"KMO","transit":false,"time":0,"i_lat":-6.161728,"line":11,"station_name":"Kemayoran","is_transit":false,"i_long":106.839204,"distance":0},{"i_lat":-6.14505,"i_long":106.836569,"transit":false,"station_name":"Rajawali","line":11,"time":5,"is_transit":false,"distance":1901,"station_id":"RJW"},{"i_lat":-6.132549,"line":0,"i_long":106.826365,"station_name":"Kampung Bandan","distance":1444,"time":3,"is_transit":true,"transit":true,"station_id":"KPB"},{"line":0,"time":9,"i_lat":-6.144674,"is_transit":false,"station_id":"AK","distance":4102,"transit":false,"station_name":"Angke","i_long":106.79867},{"time":4,"distance":1230,"station_name":"Duri","station_id":"DU","line":1,"i_long":106.800832,"i_lat":-6.155215,"is_transit":true,"transit":true},{"i_lat":-6.185545,"is_transit":true,"station_name":"Tanah Abang","line":1,"i_long":106.811091,"time":8,"transit":false,"distance":3632,"station_id":"THB"},{"time":5,"station_name":"Karet","i_lat":-6.20132,"station_id":"KAT","i_long":106.816351,"is_transit":false,"line":1,"distance":2029,"transit":false},{"i_lat":-6.201433,"is_transit":false,"i_long":106.819881,"line":1,"station_name":"Sudirman Baru","station_id":"SUDB","time":1,"transit":false,"distance":471}],[{"i_lat":-6.161728,"distance":0,"time":0,"is_transit":false,"station_name":"Kemayoran","station_id":"KMO","i_long":106.839204,"line":11,"transit":false},{"station_id":"PSE","line":11,"time":4,"transit":false,"i_lat":-6.174784,"station_name":"Pasar Senen","is_transit":false,"distance":1436,"i_long":106.84368},{"i_lat":-6.185975,"time":8,"line":11,"transit":false,"station_name":"Gang Sentiong","is_transit":false,"distance":1567,"i_long":106.850107,"station_id":"GST"},{"station_name":"Kramat","line":11,"transit":false,"distance":973,"station_id":"KMT","time":1,"i_long":106.855437,"i_lat":-6.193792,"is_transit":false},{"is_transit":false,"transit":false,"i_lat":-6.209188,"time":2,"distance":1829,"i_long":106.861737,"station_name":"Pondok Jati","line":11,"station_id":"POK"},{"time":9,"station_name":"Jatinegara","transit":true,"i_lat":-6.215091,"is_transit":true,"line":0,"i_long":106.86807400000001,"distance":1236,"station_id":"JNG"},{"time":2,"i_lat":-6.212485,"i_long":106.858896,"distance":1377,"is_transit":false,"station_name":"Matraman","line":1,"station_id":"MTR","transit":false},{"station_id":"MRI","is_transit":true,"distance":1275,"i_long":106.84912,"i_lat":-6.209883,"transit":false,"line":0,"time":2,"station_name":"Manggarai"},{"line":1,"i_lat":-6.202263,"distance":3186,"time":4,"transit":false,"station_id":"SUD","i_long":106.822649,"is_transit":false,"station_name":"Sudirman"},{"station_id":"SUDB","i_lat":-6.201433,"distance":280,"i_long":106.819881,"line":1,"time":1,"is_transit":false,"station_name":"Sudirman Baru","transit":false}],[{"station_name":"Kemayoran","station_id":"KMO","is_transit":false,"transit":false,"distance":0,"i_lat":-6.161728,"time":0,"i_long":106.839204,"line":11},{"station_id":"RJW","line":11,"time":5,"station_name":"Rajawali","transit":false,"i_long":106.836569,"i_lat":-6.14505,"is_transit":false,"distance":1901},{"is_transit":true,"transit":true,"distance":1444,"i_lat":-6.132549,"time":3,"station_name":"Kampung Bandan","station_id":"KPB","i_long":106.826365,"line":0},{"i_long":106.812439,"line":0,"i_lat":-6.137569,"distance":1364,"station_name":"Jakarta Kota","transit":true,"time":3,"is_transit":true,"station_id":"JAKK"},{"i_long":106.820901,"i_lat":-6.141205,"station_id":"JAY","is_transit":false,"station_name":"Jayakarta","distance":1264,"time":4,"line":7,"transit":false},{"distance":1080,"station_id":"MGB","i_long":106.82482,"station_name":"Manggabesar","is_transit":false,"i_lat":-6.149769,"line":2,"time":2,"transit":false},{"line":2,"distance":906,"time":2,"transit":false,"is_transit":false,"station_id":"SW","i_lat":-6.160725,"i_long":106.827103,"station_name":"Sawah Besar"},{"station_name":"Juanda","station_id":"JUA","i_lat":-6.166716,"time":2,"transit":false,"distance":1149,"is_transit":false,"i_long":106.828284,"line":2},{"station_id":"GDD","i_lat":-6.186295,"transit":false,"is_transit":false,"i_long":106.832183,"time":4,"line":2,"station_name":"Gondangdia","distance":2015},{"station_id":"CKI","is_transit":false,"time":3,"i_long":106.840169,"i_lat":-6.198556,"station_name":"Cikini","line":0,"distance":1750,"transit":false},{"station_name":"Manggarai","is_transit":true,"station_id":"MRI","time":4,"i_long":106.84912,"transit":true,"distance":1590,"i_lat":-6.209883,"line":0},{"distance":3186,"station_name":"Sudirman","transit":false,"i_lat":-6.202263,"line":1,"i_long":106.822649,"time":4,"station_id":"SUD","is_transit":false},{"station_id":"SUDB","is_transit":false,"i_long":106.819881,"line":1,"station_name":"Sudirman Baru","transit":false,"time":1,"i_lat":-6.201433,"distance":280}],[{"time":0,"i_lat":-6.161728,"transit":false,"station_name":"Kemayoran","i_long":106.839204,"station_id":"KMO","line":11,"distance":0,"is_transit":false},{"transit":false,"time":4,"i_long":106.84368,"distance":1436,"station_name":"Pasar Senen","is_transit":false,"station_id":"PSE","i_lat":-6.174784,"line":11},{"i_lat":-6.185975,"is_transit":false,"station_name":"Gang Sentiong","distance":1567,"i_long":106.850107,"station_id":"GST","line":11,"transit":false,"time":8},{"time":1,"station_name":"Kramat","i_lat":-6.193792,"line":11,"i_long":106.855437,"distance":973,"is_transit":false,"station_id":"KMT","transit":false},{"station_id":"POK","distance":1829,"is_transit":false,"transit":false,"station_name":"Pondok Jati","i_lat":-6.209188,"line":11,"time":2,"i_long":106.861737},{"line":0,"i_long":106.86807400000001,"transit":true,"distance":1236,"is_transit":true,"i_lat":-6.215091,"station_id":"JNG","time":9,"station_name":"Jatinegara"},{"transit":false,"i_long":106.858896,"i_lat":-6.212485,"distance":1377,"line":1,"is_transit":false,"station_id":"MTR","time":2,"station_name":"Matraman"},{"is_transit":true,"station_id":"MRI","station_name":"Manggarai","i_long":106.84912,"time":2,"line":0,"transit":true,"distance":1275,"i_lat":-6.209883},{"is_transit":false,"station_id":"CKI","distance":1590,"time":4,"i_long":106.840169,"transit":false,"station_name":"Cikini","line":0,"i_lat":-6.198556},{"station_name":"Gondangdia","time":3,"i_lat":-6.186295,"i_long":106.832183,"station_id":"GDD","is_transit":false,"transit":false,"line":2,"distance":1750},{"station_name":"Juanda","i_lat":-6.166716,"transit":false,"i_long":106.828284,"time":4,"is_transit":false,"distance":2015,"line":2,"station_id":"JUA"},{"transit":false,"distance":1149,"line":2,"is_transit":false,"i_long":106.827103,"station_id":"SW","i_lat":-6.160725,"station_name":"Sawah Besar","time":2},{"is_transit":false,"i_lat":-6.149769,"i_long":106.82482,"line":2,"station_id":"MGB","transit":false,"distance":906,"time":2,"station_name":"Manggabesar"},{"distance":1080,"station_name":"Jayakarta","is_transit":false,"time":2,"transit":false,"i_lat":-6.141205,"i_long":106.820901,"line":7,"station_id":"JAY"},{"station_id":"JAKK","is_transit":true,"transit":true,"i_lat":-6.137569,"distance":1264,"time":4,"station_name":"Jakarta Kota","i_long":106.812439,"line":0},{"station_name":"Kampung Bandan","i_long":106.826365,"station_id":"KPB","time":3,"transit":false,"distance":1364,"i_lat":-6.132549,"line":0,"is_transit":true},{"time":9,"line":0,"station_name":"Angke","is_transit":false,"distance":4102,"i_lat":-6.144674,"transit":false,"station_id":"AK","i_long":106.79867},{"i_long":106.800832,"line":1,"time":4,"transit":true,"station_name":"Duri","distance":1230,"is_transit":true,"station_id":"DU","i_lat":-6.155215},{"line":1,"station_id":"THB","is_transit":true,"i_long":106.811091,"distance":3632,"i_lat":-6.185545,"time":8,"station_name":"Tanah Abang","transit":false},{"station_name":"Karet","i_lat":-6.20132,"i_long":106.816351,"distance":2029,"line":1,"station_id":"KAT","time":5,"is_transit":false,"transit":false},{"i_lat":-6.201433,"transit":false,"station_name":"Sudirman Baru","station_id":"SUDB","i_long":106.819881,"is_transit":false,"time":1,"distance":471,"line":1}]]}