{"data":[[{"i_long":106.839204,"station_id":"KMO","is_transit":false,"station_name":"Kemayoran","i_lat":-6.161728,"distance":0,"transit":false,"line":11,"time":0},{"station_name":"Rajawali","distance":1901,"transit":false,"is_transit":false,"i_lat":-6.14505,"station_id":"RJW","line":11,"time":5,"i_long":106.836569},{"station_id":"KPB","i_long":106.826365,"i_lat":-6.132549,"transit":true,"is_transit":true,"station_name":"Kampung Bandan","distance":1444,"time":3,"line":4},{"station_name":"Angke","distance":4102,"i_lat":-6.144674,"transit":false,"is_transit":false,"i_long":106.79867,"station_id":"AK","time":9,"line":1},{"i_lat":-6.155215,"station_name":"Duri","distance":1230,"transit":false,"is_transit":false,"time":4,"line":1,"station_id":"DU","i_long":106.800832},{"distance":3632,"station_id":"THB","i_long":106.811091,"line":1,"is_transit":true,"transit":true,"time":8,"station_name":"Tanah Abang","i_lat":-6.185545},{"distance":3191,"line":6,"time":6,"transit":false,"station_id":"PLM","is_transit":false,"i_lat":-6.207404,"i_long":106.79689,"station_name":"Palmerah"},{"is_transit":false,"station_name":"Kebayoran","time":7,"i_lat":-6.237242,"i_long":106.780334,"station_id":"KBY","distance":3737,"transit":false,"line":6},{"distance":6218,"is_transit":false,"time":8,"i_long":106.74273,"i_lat":-6.276362,"line":6,"station_name":"Pondokranji","transit":false,"station_id":"PDJ"},{"time":3,"line":6,"i_long":106.728916,"distance":2179,"i_lat":-6.288927,"station_name":"Jurangmangu","transit":false,"station_id":"JMU","is_transit":false},{"station_id":"SDM","i_lat":-6.296963,"time":4,"distance":1994,"transit":false,"is_transit":false,"i_long":106.712277,"station_name":"Sudimara","line":6},{"is_transit":false,"distance":4566,"time":6,"i_lat":-6.314823,"i_long":106.675475,"station_id":"RU","line":6,"transit":false,"station_name":"Rawa Buntu"},{"is_transit":false,"transit":false,"i_lat":-6.319871,"distance":2413,"i_long":106.66566,"station_name":"Serpong","time":4,"line":6,"station_id":"SRP"},{"time":4,"station_name":"Cisauk","i_lat":-6.32484,"distance":1784,"transit":false,"station_id":"CSK","is_transit":false,"line":3,"i_long":106.640411},{"distance":2519,"station_id":"CC","time":4,"i_lat":-6.329547,"i_long":106.617853,"station_name":"Cicayur","line":3,"is_transit":false,"transit":false},{"station_id":"PRP","transit":false,"i_long":106.568863,"station_name":"Parung Panjang","i_lat":-6.3441410000000005,"time":8,"line":6,"is_transit":false,"distance":5968},{"station_id":"CJT","i_lat":-6.354349,"is_transit":false,"time":9,"line":3,"distance":7025,"station_name":"Cilejit","transit":false,"i_long":106.508482},{"i_lat":-6.338021,"line":0,"distance":2675,"station_name":"Daru","time":6,"transit":false,"station_id":"DAR","i_long":106.491338,"is_transit":false}],[{"transit":false,"is_transit":false,"station_id":"KMO","distance":0,"i_lat":-6.161728,"line":11,"station_name":"Kemayoran","time":0,"i_long":106.839204},{"distance":1436,"station_id":"PSE","time":4,"i_long":106.84368,"is_transit":false,"transit":false,"station_name":"Pasar Senen","i_lat":-6.174784,"line":11},{"transit":false,"distance":1567,"i_lat":-6.185975,"i_long":106.850107,"station_name":"Gang Sentiong","line":11,"station_id":"GST","is_transit":false,"time":8},{"line":11,"station_id":"KMT","i_long":106.855437,"is_transit":false,"i_lat":-6.193792,"transit":false,"station_name":"Kramat","distance":973,"time":1},{"station_id":"POK","line":11,"i_lat":-6.209188,"station_name":"Pondok Jati","i_long":106.861737,"distance":1829,"is_transit":false,"transit":false,"time":2},{"station_name":"Jatinegara","station_id":"JNG","i_lat":-6.215091,"distance":1236,"line":1,"i_long":106.86807400000001,"transit":true,"is_transit":true,"time":9},{"distance":1377,"station_name":"Matraman","transit":false,"station_id":"MTR","i_lat":-6.212485,"i_long":106.858896,"is_transit":false,"time":2,"line":1},{"station_id":"MRI","i_lat":-6.209883,"transit":false,"station_name":"Manggarai","distance":1275,"time":2,"i_long":106.84912,"is_transit":false,"line":2},{"station_id":"SUD","distance":3186,"station_name":"Sudirman","transit":false,"is_transit":false,"time":4,"line":1,"i_long":106.822649,"i_lat":-6.202263},{"line":1,"is_transit":false,"station_name":"Sudirman Baru","transit":false,"time":1,"distance":280,"i_lat":-6.201433,"station_id":"SUDB","i_long":106.819881},{"is_transit":false,"time":1,"line":1,"station_name":"Karet","distance":471,"transit":false,"station_id":"KAT","i_long":106.816351,"i_lat":-6.20132},{"transit":true,"distance":2029,"station_name":"Tanah Abang","i_long":106.811091,"line":1,"is_transit":true,"time":5,"i_lat":-6.185545,"station_id":"THB"},{"station_name":"Palmerah","i_lat":-6.207404,"line":6,"transit":false,"i_long":106.79689,"distance":3191,"station_id":"PLM","is_transit":false,"time":6},{"station_name":"Kebayoran","transit":false,"station_id":"KBY","is_transit":false,"line":6,"time":7,"distance":3737,"i_lat":-6.237242,"i_long":106.780334},{"station_name":"Pondokranji","transit":false,"is_transit":false,"i_lat":-6.276362,"line":6,"distance":6218,"station_id":"PDJ","time":8,"i_long":106.74273},{"transit":false,"i_long":106.728916,"distance":2179,"station_name":"Jurangmangu","station_id":"JMU","time":3,"line":6,"is_transit":false,"i_lat":-6.288927},{"i_long":106.712277,"transit":false,"is_transit":false,"station_name":"Sudimara","station_id":"SDM","time":4,"i_lat":-6.296963,"line":6,"distance":1994},{"transit":false,"i_lat":-6.314823,"station_name":"Rawa Buntu","is_transit":false,"station_id":"RU","distance":4566,"time":6,"i_long":106.675475,"line":6},{"time":4,"distance":2413,"transit":false,"line":6,"i_lat":-6.319871,"i_long":106.66566,"station_name":"Serpong","station_id":"SRP","is_transit":false},{"line":3,"distance":1784,"i_lat":-6.32484,"transit":false,"time":4,"i_long":106.640411,"station_id":"CSK","is_transit":false,"station_name":"Cisauk"},{"station_name":"Cicayur","transit":false,"station_id":"CC","distance":2519,"i_long":106.617853,"line":3,"i_lat":-6.329547,"is_transit":false,"time":4},{"station_name":"Parung Panjang","is_transit":false,"transit":false,"line":6,"station_id":"PRP","distance":5968,"time":8,"i_long":106.568863,"i_lat":-6.3441410000000005},{"time":9,"i_long":106.508482,"line":3,"station_name":"Cilejit","transit":false,"is_transit":false,"i_lat":-6.354349,"distance":7025,"station_id":"CJT"},{"station_name":"Daru","line":0,"time":6,"i_long":106.491338,"is_transit":false,"station_id":"DAR","i_lat":-6.338021,"transit":false,"distance":2675}],[{"station_id":"KMO","i_lat":-6.161728,"i_long":106.839204,"line":11,"distance":0,"is_transit":false,"station_name":"Kemayoran","time":0,"transit":false},{"is_transit":false,"i_lat":-6.14505,"transit":false,"station_name":"Rajawali","i_long":106.836569,"time":5,"line":11,"distance":1901,"station_id":"RJW"},{"line":4,"transit":true,"is_transit":true,"time":3,"station_name":"Kampung Bandan","distance":1444,"i_long":106.826365,"station_id":"KPB","i_lat":-6.132549},{"transit":true,"station_id":"JAKK","is_transit":true,"time":3,"i_long":106.812439,"line":2,"distance":1364,"i_lat":-6.137569,"station_name":"Jakarta Kota"},{"station_id":"JAY","i_lat":-6.141205,"distance":1264,"transit":false,"i_long":106.820901,"line":2,"time":4,"station_name":"Jayakarta","is_transit":false},{"station_name":"Manggabesar","transit":false,"i_long":106.82482,"distance":1080,"i_lat":-6.149769,"line":2,"station_id":"MGB","is_transit":false,"time":2},{"transit":false,"is_transit":false,"time":2,"station_name":"Sawah Besar","distance":906,"i_lat":-6.160725,"i_long":106.827103,"station_id":"SW","line":2},{"time":2,"line":2,"i_long":106.828284,"i_lat":-6.166716,"transit":false,"is_transit":false,"distance":1149,"station_id":"JUA","station_name":"Juanda"},{"station_id":"GDD","i_lat":-6.186295,"i_long":106.832183,"line":2,"transit":false,"is_transit":false,"station_name":"Gondangdia","time":4,"distance":2015},{"transit":false,"time":3,"station_name":"Cikini","is_transit":false,"station_id":"CKI","distance":1750,"i_lat":-6.198556,"i_long":106.840169,"line":2},{"station_name":"Manggarai","line":2,"distance":1590,"transit":true,"time":4,"station_id":"MRI","i_long":106.84912,"i_lat":-6.209883,"is_transit":true},{"time":4,"i_lat":-6.202263,"transit":false,"station_name":"Sudirman","distance":3186,"station_id":"SUD","is_transit":false,"line":1,"i_long":106.822649},{"distance":280,"i_lat":-6.201433,"station_name":"Sudirman Baru","i_long":106.819881,"transit":false,"time":1,"is_transit":false,"station_id":"SUDB","line":1},{"i_lat":-6.20132,"is_transit":false,"i_long":106.816351,"station_id":"KAT","transit":false,"distance":471,"time":1,"station_name":"Karet","line":1},{"distance":2029,"i_lat":-6.185545,"station_name":"Tanah Abang","line":1,"time":5,"transit":true,"station_id":"THB","is_transit":true,"i_long":106.811091},{"transit":false,"is_transit":false,"i_long":106.79689,"station_id":"PLM","time":6,"line":6,"station_name":"Palmerah","distance":3191,"i_lat":-6.207404},{"i_lat":-6.237242,"line":6,"is_transit":false,"time":7,"i_long":106.780334,"station_name":"Kebayoran","distance":3737,"station_id":"KBY","transit":false},{"is_transit":false,"time":8,"i_lat":-6.276362,"i_long":106.74273,"transit":false,"station_id":"PDJ","station_name":"Pondokranji","distance":6218,"line":6},{"distance":2179,"transit":false,"i_long":106.728916,"time":3,"is_transit":false,"i_lat":-6.288927,"station_id":"JMU","station_name":"Jurangmangu","line":6},{"station_name":"Sudimara","station_id":"SDM","transit":false,"i_long":106.712277,"is_transit":false,"time":4,"line":6,"distance":1994,"i_lat":-6.296963},{"transit":false,"line":6,"distance":4566,"time":6,"i_lat":-6.314823,"is_transit":false,"i_long":106.675475,"station_name":"Rawa Buntu","station_id":"RU"},{"i_lat":-6.319871,"i_long":106.66566,"distance":2413,"line":6,"station_id":"SRP","station_name":"Serpong","time":4,"transit":false,"is_transit":false},{"station_id":"CSK","is_transit":false,"distance":1784,"time":4,"station_name":"Cisauk","transit":false,"i_lat":-6.32484,"line":3,"i_long":106.640411},{"station_id":"CC","i_lat":-6.329547,"transit":false,"line":3,"is_transit":false,"i_long":106.617853,"time":4,"station_name":"Cicayur","distance":2519},{"is_transit":false,"transit":false,"i_long":106.568863,"station_name":"Parung Panjang","time":8,"i_lat":-6.3441410000000005,"line":6,"distance":5968,"station_id":"PRP"},{"line":3,"i_long":106.508482,"time":9,"i_lat":-6.354349,"is_transit":false,"station_name":"Cilejit","distance":7025,"transit":false,"station_id":"CJT"},{"station_id":"DAR","is_transit":false,"distance":2675,"time":6,"i_long":106.491338,"transit":false,"line":0,"i_lat":-6.338021,"station_name":"Daru"}],[{"station_name":"Kemayoran","station_id":"KMO","line":11,"transit":false,"distance":0,"i_lat":-6.161728,"time":0,"i_long":106.839204,"is_transit":false},{"station_id":"PSE","station_name":"Pasar Senen","i_long":106.84368,"is_transit":false,"line":11,"distance":1436,"time":4,"i_lat":-6.174784,"transit":false},{"time":8,"station_id":"GST","is_transit":false,"distance":1567,"station_name":"Gang Sentiong","transit":false,"i_lat":-6.185975,"line":11,"i_long":106.850107},{"i_long":106.855437,"is_transit":false,"transit":false,"station_id":"KMT","i_lat":-6.193792,"station_name":"Kramat","distance":973,"time":1,"line":11},{"station_name":"Pondok Jati","i_long":106.861737,"i_lat":-6.209188,"transit":false,"line":11,"time":2,"station_id":"POK","is_transit":false,"distance":1829},{"distance":1236,"transit":true,"station_id":"JNG","line":1,"is_transit":true,"station_name":"Jatinegara","i_lat":-6.215091,"time":9,"i_long":106.86807400000001},{"distance":1377,"station_name":"Matraman","time":2,"i_lat":-6.212485,"i_long":106.858896,"transit":false,"line":1,"is_transit":false,"station_id":"MTR"},{"time":2,"station_id":"MRI","i_lat":-6.209883,"i_long":106.84912,"is_transit":true,"distance":1275,"line":2,"station_name":"Manggarai","transit":true},{"distance":1590,"line":2,"station_id":"CKI","transit":false,"i_long":106.840169,"station_name":"Cikini","time":4,"i_lat":-6.198556,"is_transit":false},{"transit":false,"i_lat":-6.186295,"station_name":"Gondangdia","station_id":"GDD","is_transit":false,"distance":1750,"time":3,"i_long":106.832183,"line":2},{"i_lat":-6.166716,"station_name":"Juanda","station_id":"JUA","time":4,"distance":2015,"is_transit":false,"i_long":106.828284,"line":2,"transit":false},{"station_name":"Sawah Besar","distance":1149,"time":2,"line":2,"i_lat":-6.160725,"station_id":"SW","is_transit":false,"i_long":106.827103,"transit":false},{"station_id":"MGB","i_long":106.82482,"station_name":"Manggabesar","time":2,"is_transit":false,"i_lat":-6.149769,"distance":906,"transit":false,"line":2},{"station_name":"Jayakarta","is_transit":false,"transit":false,"distance":1080,"time":2,"i_lat":-6.141205,"line":2,"i_long":106.820901,"station_id":"JAY"},{"i_long":106.812439,"transit":true,"distance":1264,"time":4,"is_transit":true,"i_lat":-6.137569,"station_id":"JAKK","line":2,"station_name":"Jakarta Kota"},{"time":3,"station_id":"KPB","is_transit":true,"i_lat":-6.132549,"transit":true,"distance":1364,"station_name":"Kampung Bandan","i_long":106.826365,"line":4},{"station_id":"AK","is_transit":false,"i_lat":-6.144674,"transit":false,"line":1,"time":9,"i_long":106.79867,"distance":4102,"station_name":"Angke"},{"distance":1230,"transit":false,"station_id":"DU","is_transit":false,"i_lat":-6.155215,"line":1,"i_long":106.800832,"station_name":"Duri","time":4},{"is_transit":true,"station_id":"THB","time":8,"line":1,"i_long":106.811091,"transit":true,"i_lat":-6.185545,"station_name":"Tanah Abang","distance":3632},{"transit":false,"i_long":106.79689,"line":6,"station_name":"Palmerah","i_lat":-6.207404,"distance":3191,"time":6,"is_transit":false,"station_id":"PLM"},{"distance":3737,"is_transit":false,"line":6,"i_long":106.780334,"transit":false,"time":7,"station_name":"Kebayoran","i_lat":-6.237242,"station_id":"KBY"},{"i_long":106.74273,"is_transit":false,"distance":6218,"line":6,"time":8,"station_id":"PDJ","transit":false,"i_lat":-6.276362,"station_name":"Pondokranji"},{"station_name":"Jurangmangu","transit":false,"time":3,"station_id":"JMU","i_lat":-6.288927,"line":6,"is_transit":false,"i_long":106.728916,"distance":2179},{"station_id":"SDM","transit":false,"station_name":"Sudimara","time":4,"i_long":106.712277,"distance":1994,"i_lat":-6.296963,"is_transit":false,"line":6},{"line":6,"distance":4566,"station_name":"Rawa Buntu","is_transit":false,"time":6,"i_lat":-6.314823,"i_long":106.675475,"transit":false,"station_id":"RU"},{"station_id":"SRP","station_name":"Serpong","distance":2413,"time":4,"i_long":106.66566,"i_lat":-6.319871,"line":6,"is_transit":false,"transit":false},{"distance":1784,"is_transit":false,"station_name":"Cisauk","time":4,"transit":false,"station_id":"CSK","line":3,"i_lat":-6.32484,"i_long":106.640411},{"i_lat":-6.329547,"transit":false,"is_transit":false,"i_long":106.617853,"line":3,"station_name":"Cicayur","distance":2519,"station_id":"CC","time":4},{"line":6,"i_long":106.568863,"is_transit":false,"i_lat":-6.3441410000000005,"station_id":"PRP","transit":false,"station_name":"Parung Panjang","time":8,"distance":5968},{"is_transit":false,"i_long":106.508482,"time":9,"distance":7025,"station_id":"CJT","transit":false,"station_name":"Cilejit","i_lat":-6.354349,"line":3},{"time":6,"transit":false,"line":0,"i_lat":-6.338021,"i_long":106.491338,"station_id":"DAR","is_transit":false,"station_name":"Daru","distance":2675}]]}