{"data":[[{"line":11,"station_name":"Kemayoran","transit":false,"time":0,"station_id":"KMO","is_transit":false,"i_lat":-6.161728,"distance":0,"i_long":106.839204},{"station_name":"Pasar Senen","i_long":106.84368,"distance":1436,"line":11,"time":4,"station_id":"PSE","i_lat":-6.174784,"is_transit":false,"transit":false},{"line":11,"distance":1567,"station_name":"Gang Sentiong","time":8,"i_lat":-6.185975,"i_long":106.850107,"transit":false,"is_transit":false,"station_id":"GST"},{"i_long":106.855437,"line":11,"transit":false,"station_id":"KMT","time":1,"station_name":"Kramat","is_transit":false,"distance":973,"i_lat":-6.193792},{"line":11,"transit":false,"station_name":"Pondok Jati","time":2,"i_lat":-6.209188,"is_transit":false,"i_long":106.861737,"station_id":"POK","distance":1829},{"station_id":"JNG","i_long":106.86807400000001,"line":1,"i_lat":-6.215091,"time":9,"transit":true,"station_name":"Jatinegara","is_transit":true,"distance":1236},{"time":2,"transit":false,"station_name":"Matraman","is_transit":false,"distance":1377,"line":1,"i_lat":-6.212485,"station_id":"MTR","i_long":106.858896},{"i_long":106.84912,"distance":1275,"line":2,"time":2,"station_id":"MRI","station_name":"Manggarai","transit":true,"i_lat":-6.209883,"is_transit":true},{"i_long":106.857948,"line":2,"transit":false,"is_transit":false,"distance":2610,"i_lat":-6.226659,"station_name":"Tebet","time":4,"station_id":"TEB"},{"distance":1230,"transit":false,"station_id":"CW","is_transit":false,"time":2,"station_name":"Cawang","i_long":106.856607,"line":2,"i_lat":-6.242512},{"line":2,"time":3,"i_lat":-6.255332,"transit":false,"i_long":106.85449,"station_id":"DRN","station_name":"Duren Kalibata","is_transit":false,"distance":1546}],[{"station_name":"Kemayoran","time":0,"is_transit":false,"i_lat":-6.161728,"line":11,"station_id":"KMO","transit":false,"distance":0,"i_long":106.839204},{"i_long":106.836569,"line":11,"transit":false,"station_name":"Rajawali","is_transit":false,"station_id":"RJW","time":5,"distance":1901,"i_lat":-6.14505},{"is_transit":true,"station_id":"KPB","i_lat":-6.132549,"transit":true,"station_name":"Kampung Bandan","line":4,"i_long":106.826365,"time":3,"distance":1444},{"is_transit":false,"distance":4102,"station_id":"AK","i_lat":-6.144674,"line":1,"time":9,"i_long":106.79867,"station_name":"Angke","transit":false},{"station_id":"DU","station_name":"Duri","i_long":106.800832,"transit":false,"i_lat":-6.155215,"is_transit":false,"line":1,"time":4,"distance":1230},{"time":8,"is_transit":false,"transit":false,"station_id":"THB","station_name":"Tanah Abang","distance":3632,"i_long":106.811091,"line":1,"i_lat":-6.185545},{"i_lat":-6.20132,"i_long":106.816351,"line":1,"distance":2029,"is_transit":false,"station_name":"Karet","station_id":"KAT","transit":false,"time":5},{"station_id":"SUDB","i_long":106.819881,"line":1,"distance":471,"transit":false,"time":1,"is_transit":false,"station_name":"Sudirman Baru","i_lat":-6.201433},{"station_name":"Sudirman","is_transit":false,"i_lat":-6.202263,"distance":280,"i_long":106.822649,"transit":false,"time":1,"line":1,"station_id":"SUD"},{"i_long":106.84912,"distance":3186,"station_id":"MRI","i_lat":-6.209883,"is_transit":true,"line":2,"time":4,"transit":true,"station_name":"Manggarai"},{"distance":2610,"line":2,"station_name":"Tebet","transit":false,"i_long":106.857948,"time":4,"station_id":"TEB","i_lat":-6.226659,"is_transit":false},{"station_id":"CW","distance":1230,"i_lat":-6.242512,"i_long":106.856607,"station_name":"Cawang","is_transit":false,"line":2,"transit":false,"time":2},{"time":3,"line":2,"distance":1546,"i_long":106.85449,"station_id":"DRN","station_name":"Duren Kalibata","i_lat":-6.255332,"transit":false,"is_transit":false}],[{"transit":false,"station_name":"Kemayoran","distance":0,"station_id":"KMO","i_lat":-6.161728,"is_transit":false,"time":0,"i_long":106.839204,"line":11},{"line":11,"time":5,"i_lat":-6.14505,"i_long":106.836569,"station_name":"Rajawali","is_transit":false,"transit":false,"station_id":"RJW","distance":1901},{"is_transit":true,"i_long":106.826365,"line":4,"distance":1444,"station_id":"KPB","station_name":"Kampung Bandan","i_lat":-6.132549,"transit":true,"time":3},{"line":2,"station_name":"Jakarta Kota","distance":1364,"i_lat":-6.137569,"i_long":106.812439,"is_transit":true,"station_id":"JAKK","transit":true,"time":3},{"i_long":106.820901,"station_id":"JAY","station_name":"Jayakarta","line":2,"time":4,"is_transit":false,"distance":1264,"i_lat":-6.141205,"transit":false},{"is_transit":false,"distance":1080,"time":2,"transit":false,"station_id":"MGB","i_long":106.82482,"line":2,"i_lat":-6.149769,"station_name":"Manggabesar"},{"i_long":106.827103,"distance":906,"i_lat":-6.160725,"is_transit":false,"time":2,"line":2,"station_name":"Sawah Besar","transit":false,"station_id":"SW"},{"distance":1149,"station_name":"Juanda","line":2,"transit":false,"is_transit":false,"station_id":"JUA","i_lat":-6.166716,"time":2,"i_long":106.828284},{"transit":false,"station_id":"GDD","line":2,"station_name":"Gondangdia","i_lat":-6.186295,"is_transit":false,"i_long":106.832183,"distance":2015,"time":4},{"transit":false,"time":3,"station_id":"CKI","distance":1750,"i_long":106.840169,"line":2,"i_lat":-6.198556,"is_transit":false,"station_name":"Cikini"},{"transit":false,"time":4,"distance":1590,"station_id":"MRI","i_lat":-6.209883,"i_long":106.84912,"station_name":"Manggarai","is_transit":false,"line":2},{"station_name":"Tebet","station_id":"TEB","is_transit":false,"distance":2610,"i_long":106.857948,"line":2,"time":4,"i_lat":-6.226659,"transit":false},{"i_lat":-6.242512,"station_name":"Cawang","transit":false,"is_transit":false,"distance":1230,"time":2,"i_long":106.856607,"station_id":"CW","line":2},{"i_lat":-6.255332,"time":3,"is_transit":false,"station_id":"DRN","distance":1546,"station_name":"Duren Kalibata","line":2,"transit":false,"i_long":106.85449}]]}