{"data":[[{"station_id":"KMO","station_name":"Kemayoran","is_transit":false,"time":0,"i_lat":-6.161728,"line":11,"distance":0,"i_long":106.839204,"transit":false},{"distance":1901,"station_name":"Rajawali","i_long":106.836569,"is_transit":false,"i_lat":-6.14505,"line":11,"station_id":"RJW","time":5,"transit":false},{"i_long":106.826365,"time":3,"station_id":"KPB","station_name":"Kampung Bandan","line":4,"transit":true,"is_transit":true,"distance":1444,"i_lat":-6.132549},{"i_lat":-6.144674,"transit":false,"line":1,"station_name":"Angke","i_long":106.79867,"station_id":"AK","distance":4102,"time":9,"is_transit":false},{"i_long":106.800832,"station_name":"Duri","time":4,"transit":false,"distance":1230,"i_lat":-6.155215,"is_transit":false,"line":1,"station_id":"DU"},{"station_name":"Tanah Abang","station_id":"THB","is_transit":true,"line":1,"i_lat":-6.185545,"i_long":106.811091,"transit":true,"time":8,"distance":3632},{"distance":3191,"i_long":106.79689,"station_id":"PLM","transit":false,"is_transit":false,"time":6,"i_lat":-6.207404,"line":6,"station_name":"Palmerah"},{"station_id":"KBY","is_transit":false,"distance":3737,"line":6,"station_name":"Kebayoran","time":7,"i_lat":-6.237242,"i_long":106.780334,"transit":false},{"i_lat":-6.276362,"distance":6218,"transit":false,"station_name":"Pondokranji","time":8,"station_id":"PDJ","is_transit":false,"i_long":106.74273,"line":6},{"i_lat":-6.288927,"i_long":106.728916,"station_name":"Jurangmangu","time":3,"station_id":"JMU","line":6,"transit":false,"is_transit":false,"distance":2179},{"distance":1994,"transit":false,"station_name":"Sudimara","is_transit":false,"time":4,"i_lat":-6.296963,"station_id":"SDM","i_long":106.712277,"line":6},{"time":6,"station_name":"Rawa Buntu","distance":4566,"i_long":106.675475,"line":6,"transit":false,"i_lat":-6.314823,"station_id":"RU","is_transit":false},{"is_transit":false,"i_lat":-6.319871,"i_long":106.66566,"transit":false,"station_id":"SRP","line":6,"time":4,"distance":2413,"station_name":"Serpong"},{"line":3,"transit":false,"station_id":"CSK","time":4,"i_lat":-6.32484,"is_transit":false,"i_long":106.640411,"station_name":"Cisauk","distance":1784},{"transit":false,"i_lat":-6.329547,"distance":2519,"station_id":"CC","line":3,"i_long":106.617853,"is_transit":false,"station_name":"Cicayur","time":4},{"i_lat":-6.3441410000000005,"line":6,"is_transit":false,"transit":false,"station_id":"PRP","station_name":"Parung Panjang","time":8,"distance":5968,"i_long":106.568863},{"station_id":"CJT","i_lat":-6.354349,"i_long":106.508482,"time":9,"transit":false,"distance":7025,"line":3,"is_transit":false,"station_name":"Cilejit"},{"station_id":"DAR","line":0,"transit":false,"i_lat":-6.338021,"is_transit":false,"time":6,"station_name":"Daru","i_long":106.491338,"distance":2675}],[{"distance":0,"is_transit":false,"station_id":"KMO","station_name":"Kemayoran","line":11,"i_long":106.839204,"transit":false,"i_lat":-6.161728,"time":0},{"time":4,"i_lat":-6.174784,"distance":1436,"transit":false,"station_id":"PSE","station_name":"Pasar Senen","is_transit":false,"i_long":106.84368,"line":11},{"is_transit":false,"time":8,"station_name":"Gang Sentiong","i_lat":-6.185975,"distance":1567,"station_id":"GST","transit":false,"i_long":106.850107,"line":11},{"line":11,"transit":false,"i_lat":-6.193792,"distance":973,"station_id":"KMT","is_transit":false,"i_long":106.855437,"station_name":"Kramat","time":1},{"transit":false,"is_transit":false,"distance":1829,"i_lat":-6.209188,"line":11,"time":2,"i_long":106.861737,"station_id":"POK","station_name":"Pondok Jati"},{"station_id":"JNG","station_name":"Jatinegara","i_long":106.86807400000001,"is_transit":true,"time":9,"distance":1236,"line":1,"transit":true,"i_lat":-6.215091},{"transit":false,"i_long":106.858896,"line":1,"time":2,"is_transit":false,"station_id":"MTR","distance":1377,"station_name":"Matraman","i_lat":-6.212485},{"time":2,"i_long":106.84912,"transit":false,"is_transit":false,"i_lat":-6.209883,"station_id":"MRI","station_name":"Manggarai","distance":1275,"line":2},{"is_transit":false,"i_long":106.822649,"transit":false,"distance":3186,"line":1,"station_id":"SUD","station_name":"Sudirman","time":4,"i_lat":-6.202263},{"line":1,"distance":280,"time":1,"transit":false,"i_long":106.819881,"station_id":"SUDB","i_lat":-6.201433,"station_name":"Sudirman Baru","is_transit":false},{"station_id":"KAT","line":1,"i_long":106.816351,"transit":false,"distance":471,"is_transit":false,"i_lat":-6.20132,"station_name":"Karet","time":1},{"distance":2029,"is_transit":true,"station_id":"THB","transit":true,"i_lat":-6.185545,"i_long":106.811091,"station_name":"Tanah Abang","line":1,"time":5},{"station_id":"PLM","time":6,"line":6,"transit":false,"i_lat":-6.207404,"distance":3191,"i_long":106.79689,"is_transit":false,"station_name":"Palmerah"},{"time":7,"station_id":"KBY","i_lat":-6.237242,"line":6,"is_transit":false,"station_name":"Kebayoran","distance":3737,"i_long":106.780334,"transit":false},{"transit":false,"station_id":"PDJ","station_name":"Pondokranji","line":6,"i_lat":-6.276362,"time":8,"is_transit":false,"i_long":106.74273,"distance":6218},{"station_id":"JMU","is_transit":false,"time":3,"distance":2179,"i_lat":-6.288927,"i_long":106.728916,"transit":false,"line":6,"station_name":"Jurangmangu"},{"i_lat":-6.296963,"i_long":106.712277,"is_transit":false,"transit":false,"line":6,"station_name":"Sudimara","station_id":"SDM","time":4,"distance":1994},{"station_id":"RU","i_lat":-6.314823,"is_transit":false,"transit":false,"distance":4566,"line":6,"time":6,"i_long":106.675475,"station_name":"Rawa Buntu"},{"transit":false,"station_id":"SRP","i_lat":-6.319871,"i_long":106.66566,"station_name":"Serpong","distance":2413,"is_transit":false,"time":4,"line":6},{"time":4,"transit":false,"distance":1784,"is_transit":false,"station_id":"CSK","i_lat":-6.32484,"i_long":106.640411,"station_name":"Cisauk","line":3},{"is_transit":false,"station_id":"CC","time":4,"distance":2519,"i_lat":-6.329547,"transit":false,"i_long":106.617853,"line":3,"station_name":"Cicayur"},{"line":6,"time":8,"i_lat":-6.3441410000000005,"station_name":"Parung Panjang","distance":5968,"i_long":106.568863,"station_id":"PRP","transit":false,"is_transit":false},{"time":9,"distance":7025,"station_id":"CJT","i_long":106.508482,"station_name":"Cilejit","transit":false,"is_transit":false,"line":3,"i_lat":-6.354349},{"i_lat":-6.338021,"line":0,"is_transit":false,"transit":false,"i_long":106.491338,"station_name":"Daru","station_id":"DAR","time":6,"distance":2675}],[{"line":11,"transit":false,"is_transit":false,"station_name":"Kemayoran","distance":0,"i_lat":-6.161728,"station_id":"KMO","i_long":106.839204,"time":0},{"time":5,"station_name":"Rajawali","station_id":"RJW","is_transit":false,"i_lat":-6.14505,"line":11,"transit":false,"distance":1901,"i_long":106.836569},{"station_name":"Kampung Bandan","distance":1444,"i_lat":-6.132549,"station_id":"KPB","is_transit":true,"transit":true,"time":3,"i_long":106.826365,"line":4},{"transit":true,"time":3,"station_name":"Jakarta Kota","station_id":"JAKK","line":2,"distance":1364,"is_transit":true,"i_long":106.812439,"i_lat":-6.137569},{"i_lat":-6.141205,"line":2,"distance":1264,"i_long":106.820901,"transit":false,"station_id":"JAY","time":4,"station_name":"Jayakarta","is_transit":false},{"i_long":106.82482,"station_id":"MGB","distance":1080,"transit":false,"is_transit":false,"time":2,"i_lat":-6.149769,"line":2,"station_name":"Manggabesar"},{"line":2,"i_long":106.827103,"i_lat":-6.160725,"time":2,"station_id":"SW","distance":906,"station_name":"Sawah Besar","is_transit":false,"transit":false},{"is_transit":false,"line":2,"station_name":"Juanda","i_long":106.828284,"time":2,"transit":false,"i_lat":-6.166716,"distance":1149,"station_id":"JUA"},{"i_lat":-6.186295,"is_transit":false,"station_id":"GDD","i_long":106.832183,"transit":false,"station_name":"Gondangdia","time":4,"line":2,"distance":2015},{"is_transit":false,"station_id":"CKI","distance":1750,"time":3,"line":2,"i_long":106.840169,"i_lat":-6.198556,"station_name":"Cikini","transit":false},{"is_transit":true,"transit":true,"station_id":"MRI","time":4,"station_name":"Manggarai","i_lat":-6.209883,"i_long":106.84912,"distance":1590,"line":2},{"station_name":"Sudirman","transit":false,"is_transit":false,"i_lat":-6.202263,"line":1,"time":4,"station_id":"SUD","i_long":106.822649,"distance":3186},{"line":1,"station_name":"Sudirman Baru","station_id":"SUDB","is_transit":false,"transit":false,"distance":280,"i_lat":-6.201433,"i_long":106.819881,"time":1},{"station_name":"Karet","transit":false,"station_id":"KAT","distance":471,"i_lat":-6.20132,"is_transit":false,"time":1,"line":1,"i_long":106.816351},{"station_name":"Tanah Abang","time":5,"i_lat":-6.185545,"line":1,"transit":true,"station_id":"THB","is_transit":true,"distance":2029,"i_long":106.811091},{"station_name":"Palmerah","i_long":106.79689,"transit":false,"station_id":"PLM","line":6,"i_lat":-6.207404,"distance":3191,"is_transit":false,"time":6},{"time":7,"is_transit":false,"i_lat":-6.237242,"i_long":106.780334,"station_name":"Kebayoran","line":6,"transit":false,"station_id":"KBY","distance":3737},{"distance":6218,"station_name":"Pondokranji","is_transit":false,"station_id":"PDJ","time":8,"i_lat":-6.276362,"i_long":106.74273,"line":6,"transit":false},{"station_name":"Jurangmangu","i_long":106.728916,"transit":false,"station_id":"JMU","is_transit":false,"distance":2179,"time":3,"line":6,"i_lat":-6.288927},{"is_transit":false,"time":4,"distance":1994,"i_long":106.712277,"station_id":"SDM","line":6,"i_lat":-6.296963,"transit":false,"station_name":"Sudimara"},{"transit":false,"station_id":"RU","i_lat":-6.314823,"time":6,"station_name":"Rawa Buntu","is_transit":false,"i_long":106.675475,"distance":4566,"line":6},{"line":6,"transit":false,"i_lat":-6.319871,"distance":2413,"station_id":"SRP","time":4,"i_long":106.66566,"station_name":"Serpong","is_transit":false},{"transit":false,"distance":1784,"station_name":"Cisauk","i_long":106.640411,"i_lat":-6.32484,"time":4,"station_id":"CSK","is_transit":false,"line":3},{"station_name":"Cicayur","is_transit":false,"i_lat":-6.329547,"station_id":"CC","time":4,"distance":2519,"i_long":106.617853,"transit":false,"line":3},{"is_transit":false,"time":8,"line":6,"station_id":"PRP","distance":5968,"station_name":"Parung Panjang","transit":false,"i_lat":-6.3441410000000005,"i_long":106.568863},{"line":3,"station_name":"Cilejit","station_id":"CJT","time":9,"distance":7025,"i_lat":-6.354349,"i_long":106.508482,"transit":false,"is_transit":false},{"station_name":"Daru","i_lat":-6.338021,"time":6,"distance":2675,"is_transit":false,"i_long":106.491338,"transit":false,"station_id":"DAR","line":0}],[{"time":0,"is_transit":false,"i_lat":-6.161728,"i_long":106.839204,"station_name":"Kemayoran","station_id":"KMO","transit":false,"distance":0,"line":11},{"i_long":106.84368,"station_name":"Pasar Senen","station_id":"PSE","distance":1436,"time":4,"is_transit":false,"i_lat":-6.174784,"transit":false,"line":11},{"station_id":"GST","i_long":106.850107,"is_transit":false,"i_lat":-6.185975,"station_name":"Gang Sentiong","line":11,"time":8,"distance":1567,"transit":false},{"transit":false,"i_long":106.855437,"station_name":"Kramat","line":11,"station_id":"KMT","distance":973,"time":1,"is_transit":false,"i_lat":-6.193792},{"i_long":106.861737,"station_name":"Pondok Jati","is_transit":false,"station_id":"POK","distance":1829,"line":11,"transit":false,"i_lat":-6.209188,"time":2},{"time":9,"i_lat":-6.215091,"is_transit":true,"i_long":106.86807400000001,"line":1,"distance":1236,"station_name":"Jatinegara","transit":true,"station_id":"JNG"},{"time":2,"i_long":106.858896,"line":1,"transit":false,"is_transit":false,"station_id":"MTR","distance":1377,"i_lat":-6.212485,"station_name":"Matraman"},{"i_lat":-6.209883,"line":2,"distance":1275,"transit":true,"station_id":"MRI","i_long":106.84912,"station_name":"Manggarai","is_transit":true,"time":2},{"distance":1590,"i_long":106.840169,"line":2,"is_transit":false,"station_name":"Cikini","transit":false,"station_id":"CKI","time":4,"i_lat":-6.198556},{"station_name":"Gondangdia","distance":1750,"transit":false,"station_id":"GDD","i_lat":-6.186295,"line":2,"is_transit":false,"i_long":106.832183,"time":3},{"i_lat":-6.166716,"transit":false,"line":2,"time":4,"is_transit":false,"i_long":106.828284,"station_id":"JUA","station_name":"Juanda","distance":2015},{"i_long":106.827103,"line":2,"transit":false,"distance":1149,"station_name":"Sawah Besar","station_id":"SW","is_transit":false,"time":2,"i_lat":-6.160725},{"i_lat":-6.149769,"station_name":"Manggabesar","line":2,"station_id":"MGB","distance":906,"is_transit":false,"i_long":106.82482,"time":2,"transit":false},{"distance":1080,"time":2,"i_long":106.820901,"station_name":"Jayakarta","line":2,"i_lat":-6.141205,"transit":false,"station_id":"JAY","is_transit":false},{"station_name":"Jakarta Kota","transit":true,"i_long":106.812439,"line":2,"is_transit":true,"time":4,"distance":1264,"station_id":"JAKK","i_lat":-6.137569},{"i_lat":-6.132549,"is_transit":true,"line":4,"station_id":"KPB","i_long":106.826365,"station_name":"Kampung Bandan","transit":true,"time":3,"distance":1364},{"i_lat":-6.144674,"i_long":106.79867,"station_id":"AK","time":9,"line":1,"transit":false,"is_transit":false,"station_name":"Angke","distance":4102},{"time":4,"is_transit":false,"station_id":"DU","station_name":"Duri","distance":1230,"i_lat":-6.155215,"line":1,"transit":false,"i_long":106.800832},{"station_name":"Tanah Abang","station_id":"THB","transit":true,"distance":3632,"is_transit":true,"time":8,"i_long":106.811091,"line":1,"i_lat":-6.185545},{"i_lat":-6.207404,"is_transit":false,"i_long":106.79689,"distance":3191,"line":6,"station_name":"Palmerah","time":6,"station_id":"PLM","transit":false},{"station_id":"KBY","station_name":"Kebayoran","distance":3737,"time":7,"transit":false,"is_transit":false,"i_lat":-6.237242,"line":6,"i_long":106.780334},{"i_lat":-6.276362,"line":6,"is_transit":false,"distance":6218,"time":8,"i_long":106.74273,"station_id":"PDJ","station_name":"Pondokranji","transit":false},{"time":3,"distance":2179,"transit":false,"i_long":106.728916,"station_id":"JMU","station_name":"Jurangmangu","line":6,"is_transit":false,"i_lat":-6.288927},{"i_long":106.712277,"station_id":"SDM","is_transit":false,"distance":1994,"station_name":"Sudimara","i_lat":-6.296963,"time":4,"line":6,"transit":false},{"station_id":"RU","is_transit":false,"time":6,"i_long":106.675475,"station_name":"Rawa Buntu","distance":4566,"i_lat":-6.314823,"line":6,"transit":false},{"line":6,"is_transit":false,"transit":false,"i_lat":-6.319871,"distance":2413,"i_long":106.66566,"time":4,"station_id":"SRP","station_name":"Serpong"},{"is_transit":false,"distance":1784,"transit":false,"i_long":106.640411,"line":3,"station_id":"CSK","time":4,"station_name":"Cisauk","i_lat":-6.32484},{"transit":false,"is_transit":false,"station_name":"Cicayur","station_id":"CC","time":4,"i_long":106.617853,"distance":2519,"line":3,"i_lat":-6.329547},{"transit":false,"line":6,"i_lat":-6.3441410000000005,"distance":5968,"is_transit":false,"station_name":"Parung Panjang","time":8,"i_long":106.568863,"station_id":"PRP"},{"transit":false,"distance":7025,"is_transit":false,"i_long":106.508482,"line":3,"station_id":"CJT","i_lat":-6.354349,"station_name":"Cilejit","time":9},{"distance":2675,"is_transit":false,"line":0,"station_id":"DAR","i_long":106.491338,"i_lat":-6.338021,"time":6,"transit":false,"station_name":"Daru"}]]}