{"data":[[{"line":11,"time":0,"distance":0,"transit":false,"is_transit":false,"i_lat":-6.161728,"i_long":106.839204,"station_id":"KMO","station_name":"Kemayoran"},{"line":11,"time":5,"station_id":"RJW","i_long":106.836569,"station_name":"Rajawali","distance":1901,"transit":false,"is_transit":false,"i_lat":-6.14505},{"is_transit":true,"line":0,"distance":1444,"station_id":"KPB","i_lat":-6.132549,"i_long":106.826365,"time":3,"transit":true,"station_name":"Kampung Bandan"},{"line":0,"station_name":"Jakarta Kota","i_long":106.812439,"transit":true,"station_id":"JAKK","is_transit":true,"time":3,"i_lat":-6.137569,"distance":1364},{"station_name":"Jayakarta","time":4,"line":7,"distance":1264,"station_id":"JAY","i_long":106.820901,"is_transit":false,"i_lat":-6.141205,"transit":false}],[{"i_lat":-6.161728,"time":0,"i_long":106.839204,"line":11,"station_name":"Kemayoran","station_id":"KMO","is_transit":false,"distance":0,"transit":false},{"i_long":106.84368,"station_id":"PSE","station_name":"Pasar Senen","i_lat":-6.174784,"line":11,"distance":1436,"is_transit":false,"transit":false,"time":4},{"i_long":106.850107,"distance":1567,"transit":false,"i_lat":-6.185975,"station_name":"Gang Sentiong","line":11,"time":8,"is_transit":false,"station_id":"GST"},{"transit":false,"i_lat":-6.193792,"distance":973,"is_transit":false,"station_id":"KMT","i_long":106.855437,"time":1,"line":11,"station_name":"Kramat"},{"transit":false,"i_long":106.861737,"station_id":"POK","station_name":"Pondok Jati","is_transit":false,"time":2,"distance":1829,"i_lat":-6.209188,"line":11},{"i_lat":-6.215091,"station_id":"JNG","line":0,"transit":true,"station_name":"Jatinegara","is_transit":true,"distance":1236,"i_long":106.86807400000001,"time":9},{"is_transit":false,"distance":1377,"i_long":106.858896,"station_id":"MTR","i_lat":-6.212485,"transit":false,"time":2,"station_name":"Matraman","line":1},{"station_id":"MRI","i_lat":-6.209883,"time":2,"transit":true,"station_name":"Manggarai","distance":1275,"is_transit":true,"line":0,"i_long":106.84912},{"is_transit":false,"station_name":"Cikini","i_lat":-6.198556,"station_id":"CKI","line":0,"transit":false,"time":4,"distance":1590,"i_long":106.840169},{"is_transit":false,"i_lat":-6.186295,"station_id":"GDD","time":3,"distance":1750,"transit":false,"station_name":"Gondangdia","i_long":106.832183,"line":2},{"line":2,"station_name":"Juanda","time":4,"distance":2015,"i_long":106.828284,"i_lat":-6.166716,"transit":false,"station_id":"JUA","is_transit":false},{"station_id":"SW","is_transit":false,"time":2,"i_long":106.827103,"transit":false,"station_name":"Sawah Besar","i_lat":-6.160725,"line":2,"distance":1149},{"station_name":"Manggabesar","line":2,"i_lat":-6.149769,"is_transit":false,"distance":906,"station_id":"MGB","time":2,"transit":false,"i_long":106.82482},{"distance":1080,"i_long":106.820901,"station_id":"JAY","station_name":"Jayakarta","line":7,"time":2,"i_lat":-6.141205,"is_transit":false,"transit":false}],[{"distance":0,"station_name":"Kemayoran","time":0,"transit":false,"is_transit":false,"i_long":106.839204,"i_lat":-6.161728,"station_id":"KMO","line":11},{"i_long":106.836569,"station_id":"RJW","is_transit":false,"transit":false,"time":5,"station_name":"Rajawali","i_lat":-6.14505,"line":11,"distance":1901},{"transit":true,"time":3,"i_long":106.826365,"i_lat":-6.132549,"line":0,"station_id":"KPB","station_name":"Kampung Bandan","is_transit":true,"distance":1444},{"i_lat":-6.144674,"line":0,"station_name":"Angke","distance":4102,"is_transit":false,"station_id":"AK","transit":false,"time":9,"i_long":106.79867},{"line":1,"i_long":106.800832,"is_transit":true,"station_id":"DU","time":4,"i_lat":-6.155215,"station_name":"Duri","transit":true,"distance":1230},{"i_long":106.811091,"station_name":"Tanah Abang","distance":3632,"station_id":"THB","time":8,"transit":false,"i_lat":-6.185545,"line":1,"is_transit":true},{"i_long":106.816351,"transit":false,"station_name":"Karet","station_id":"KAT","is_transit":false,"time":5,"distance":2029,"i_lat":-6.20132,"line":1},{"time":1,"distance":471,"i_long":106.819881,"station_name":"Sudirman Baru","line":1,"i_lat":-6.201433,"is_transit":false,"transit":false,"station_id":"SUDB"},{"distance":280,"is_transit":false,"time":1,"transit":false,"i_lat":-6.202263,"i_long":106.822649,"line":1,"station_id":"SUD","station_name":"Sudirman"},{"station_name":"Manggarai","line":0,"distance":3186,"time":4,"i_long":106.84912,"station_id":"MRI","is_transit":true,"transit":true,"i_lat":-6.209883},{"is_transit":false,"time":4,"i_lat":-6.198556,"i_long":106.840169,"line":0,"transit":false,"station_name":"Cikini","distance":1590,"station_id":"CKI"},{"distance":1750,"line":2,"i_long":106.832183,"time":3,"station_id":"GDD","is_transit":false,"i_lat":-6.186295,"station_name":"Gondangdia","transit":false},{"station_id":"JUA","distance":2015,"station_name":"Juanda","i_long":106.828284,"i_lat":-6.166716,"is_transit":false,"transit":false,"time":4,"line":2},{"station_id":"SW","line":2,"i_lat":-6.160725,"station_name":"Sawah Besar","i_long":106.827103,"is_transit":false,"time":2,"distance":1149,"transit":false},{"time":2,"i_long":106.82482,"i_lat":-6.149769,"line":2,"station_id":"MGB","distance":906,"station_name":"Manggabesar","transit":false,"is_transit":false},{"line":7,"transit":false,"distance":1080,"i_lat":-6.141205,"i_long":106.820901,"station_name":"Jayakarta","time":2,"is_transit":false,"station_id":"JAY"}],[{"time":0,"i_lat":-6.161728,"distance":0,"station_id":"KMO","is_transit":false,"station_name":"Kemayoran","transit":false,"i_long":106.839204,"line":11},{"is_transit":false,"station_id":"PSE","time":4,"distance":1436,"transit":false,"station_name":"Pasar Senen","i_lat":-6.174784,"line":11,"i_long":106.84368},{"line":11,"station_id":"GST","station_name":"Gang Sentiong","time":8,"i_lat":-6.185975,"i_long":106.850107,"is_transit":false,"transit":false,"distance":1567},{"i_long":106.855437,"line":11,"station_id":"KMT","station_name":"Kramat","distance":973,"time":1,"i_lat":-6.193792,"transit":false,"is_transit":false},{"distance":1829,"station_id":"POK","transit":false,"time":2,"i_long":106.861737,"is_transit":false,"station_name":"Pondok Jati","i_lat":-6.209188,"line":11},{"distance":1236,"i_lat":-6.215091,"is_transit":true,"station_name":"Jatinegara","i_long":106.86807400000001,"time":9,"line":0,"station_id":"JNG","transit":true},{"time":2,"distance":1377,"line":1,"i_long":106.858896,"station_id":"MTR","transit":false,"is_transit":false,"i_lat":-6.212485,"station_name":"Matraman"},{"is_transit":true,"time":2,"i_long":106.84912,"transit":false,"i_lat":-6.209883,"station_id":"MRI","station_name":"Manggarai","distance":1275,"line":0},{"station_name":"Sudirman","station_id":"SUD","distance":3186,"transit":false,"line":1,"i_lat":-6.202263,"i_long":106.822649,"is_transit":false,"time":4},{"line":1,"time":1,"is_transit":false,"i_lat":-6.201433,"station_name":"Sudirman Baru","transit":false,"i_long":106.819881,"station_id":"SUDB","distance":280},{"i_lat":-6.20132,"station_name":"Karet","time":1,"is_transit":false,"i_long":106.816351,"distance":471,"transit":false,"station_id":"KAT","line":1},{"station_name":"Tanah Abang","distance":2029,"transit":false,"time":5,"i_long":106.811091,"station_id":"THB","is_transit":true,"line":1,"i_lat":-6.185545},{"station_id":"DU","transit":true,"time":8,"i_lat":-6.155215,"i_long":106.800832,"distance":3632,"station_name":"Duri","is_transit":true,"line":1},{"is_transit":false,"i_lat":-6.144674,"station_id":"AK","i_long":106.79867,"time":4,"station_name":"Angke","line":0,"distance":1230,"transit":false},{"i_lat":-6.132549,"i_long":106.826365,"is_transit":true,"time":9,"transit":false,"station_id":"KPB","station_name":"Kampung Bandan","distance":4102,"line":0},{"is_transit":true,"i_lat":-6.137569,"distance":1364,"station_id":"JAKK","station_name":"Jakarta Kota","time":3,"transit":true,"line":0,"i_long":106.812439},{"i_long":106.820901,"line":7,"i_lat":-6.141205,"is_transit":false,"station_id":"JAY","time":4,"station_name":"Jayakarta","distance":1264,"transit":false}]]}