{"data":[[{"line":11,"i_lat":-6.161728,"time":0,"is_transit":false,"transit":false,"i_long":106.839204,"station_id":"KMO","distance":0,"station_name":"Kemayoran"},{"time":4,"distance":1436,"station_id":"PSE","i_lat":-6.174784,"is_transit":false,"station_name":"Pasar Senen","i_long":106.84368,"transit":false,"line":11},{"time":8,"i_long":106.850107,"station_id":"GST","station_name":"Gang Sentiong","is_transit":false,"line":11,"transit":false,"distance":1567,"i_lat":-6.185975},{"station_id":"KMT","time":1,"i_lat":-6.193792,"line":11,"is_transit":false,"transit":false,"i_long":106.855437,"station_name":"Kramat","distance":973},{"time":2,"transit":false,"distance":1829,"station_name":"Pondok Jati","i_long":106.861737,"line":11,"i_lat":-6.209188,"station_id":"POK","is_transit":false},{"is_transit":true,"distance":1236,"i_long":106.86807400000001,"line":0,"station_name":"Jatinegara","time":9,"transit":true,"i_lat":-6.215091,"station_id":"JNG"},{"i_lat":-6.212485,"line":1,"transit":false,"i_long":106.858896,"station_name":"Matraman","distance":1377,"station_id":"MTR","time":2,"is_transit":false},{"i_lat":-6.209883,"i_long":106.84912,"distance":1275,"station_name":"Manggarai","line":0,"transit":true,"station_id":"MRI","time":2,"is_transit":true},{"transit":false,"i_lat":-6.226659,"distance":2610,"i_long":106.857948,"is_transit":false,"time":4,"station_id":"TEB","station_name":"Tebet","line":2},{"station_id":"CW","transit":false,"i_lat":-6.242512,"station_name":"Cawang","is_transit":false,"line":0,"time":2,"distance":1230,"i_long":106.856607},{"station_name":"Duren Kalibata","station_id":"DRN","distance":1546,"transit":false,"time":3,"i_lat":-6.255332,"i_long":106.85449,"is_transit":false,"line":0},{"distance":824,"i_long":106.851577,"station_id":"PSMB","line":2,"time":2,"station_name":"Pasar Minggu Baru","is_transit":false,"i_lat":-6.263214,"transit":false},{"time":2,"distance":2380,"station_id":"PSM","i_long":106.843999,"transit":false,"i_lat":-6.2842400000000005,"line":2,"station_name":"Pasar Minggu","is_transit":false},{"distance":2820,"time":4,"station_id":"TNT","transit":false,"station_name":"Tanjung Barat","i_long":106.838896,"i_lat":-6.3080680000000005,"line":2,"is_transit":false},{"distance":2671,"station_name":"Lenteng Agung","i_lat":-6.330363,"i_long":106.832616,"station_id":"LNA","line":2,"is_transit":false,"transit":false,"time":3},{"line":2,"transit":false,"i_lat":-6.339291,"time":2,"distance":1029,"i_long":106.834175,"is_transit":false,"station_id":"UP","station_name":"Univ. Pancasila"},{"station_id":"UI","i_lat":-6.360749,"i_long":106.831474,"station_name":"Univ. Indonesia","time":3,"distance":2264,"transit":false,"line":2,"is_transit":false},{"transit":false,"i_lat":-6.369073,"station_name":"Pondok Cina","station_id":"POC","time":2,"distance":1109,"i_long":106.831114,"line":2,"is_transit":false},{"station_name":"Depokbaru","time":4,"transit":false,"distance":2727,"i_lat":-6.391065,"is_transit":false,"i_long":106.819451,"station_id":"DPB","line":0},{"is_transit":false,"i_lat":-6.405256,"station_id":"DP","time":3,"line":0,"transit":false,"station_name":"Depok","distance":1584,"i_long":106.816926}],[{"station_id":"KMO","station_name":"Kemayoran","time":0,"line":11,"distance":0,"is_transit":false,"transit":false,"i_lat":-6.161728,"i_long":106.839204},{"time":5,"is_transit":false,"distance":1901,"station_id":"RJW","station_name":"Rajawali","line":11,"transit":false,"i_lat":-6.14505,"i_long":106.836569},{"i_long":106.826365,"line":0,"station_id":"KPB","station_name":"Kampung Bandan","distance":1444,"i_lat":-6.132549,"is_transit":true,"time":3,"transit":true},{"is_transit":false,"distance":4102,"transit":false,"time":9,"i_long":106.79867,"i_lat":-6.144674,"station_id":"AK","station_name":"Angke","line":0},{"i_long":106.800832,"station_name":"Duri","distance":1230,"transit":true,"station_id":"DU","line":1,"i_lat":-6.155215,"is_transit":true,"time":4},{"time":8,"transit":false,"i_lat":-6.185545,"i_long":106.811091,"station_id":"THB","line":1,"is_transit":true,"distance":3632,"station_name":"Tanah Abang"},{"station_name":"Karet","time":5,"distance":2029,"is_transit":false,"station_id":"KAT","line":1,"transit":false,"i_lat":-6.20132,"i_long":106.816351},{"time":1,"i_lat":-6.201433,"station_name":"Sudirman Baru","i_long":106.819881,"transit":false,"is_transit":false,"line":1,"distance":471,"station_id":"SUDB"},{"station_id":"SUD","i_long":106.822649,"time":1,"station_name":"Sudirman","i_lat":-6.202263,"distance":280,"line":1,"is_transit":false,"transit":false},{"line":0,"station_name":"Manggarai","station_id":"MRI","distance":3186,"time":4,"transit":true,"i_lat":-6.209883,"i_long":106.84912,"is_transit":true},{"i_lat":-6.226659,"i_long":106.857948,"distance":2610,"time":4,"station_id":"TEB","line":2,"is_transit":false,"station_name":"Tebet","transit":false},{"i_lat":-6.242512,"i_long":106.856607,"transit":false,"distance":1230,"station_id":"CW","line":0,"station_name":"Cawang","is_transit":false,"time":2},{"i_long":106.85449,"i_lat":-6.255332,"station_id":"DRN","time":3,"distance":1546,"transit":false,"station_name":"Duren Kalibata","is_transit":false,"line":0},{"i_lat":-6.263214,"i_long":106.851577,"station_name":"Pasar Minggu Baru","is_transit":false,"station_id":"PSMB","line":2,"distance":824,"time":2,"transit":false},{"i_lat":-6.2842400000000005,"distance":2380,"station_id":"PSM","station_name":"Pasar Minggu","is_transit":false,"i_long":106.843999,"time":2,"line":2,"transit":false},{"i_lat":-6.3080680000000005,"line":2,"is_transit":false,"transit":false,"station_name":"Tanjung Barat","distance":2820,"time":4,"i_long":106.838896,"station_id":"TNT"},{"time":3,"i_lat":-6.330363,"station_name":"Lenteng Agung","transit":false,"i_long":106.832616,"line":2,"is_transit":false,"station_id":"LNA","distance":2671},{"distance":1029,"station_id":"UP","time":2,"transit":false,"i_lat":-6.339291,"i_long":106.834175,"line":2,"station_name":"Univ. Pancasila","is_transit":false},{"time":3,"distance":2264,"is_transit":false,"transit":false,"line":2,"i_lat":-6.360749,"station_id":"UI","station_name":"Univ. Indonesia","i_long":106.831474},{"is_transit":false,"line":2,"distance":1109,"time":2,"i_lat":-6.369073,"station_id":"POC","i_long":106.831114,"station_name":"Pondok Cina","transit":false},{"transit":false,"is_transit":false,"station_name":"Depokbaru","i_lat":-6.391065,"i_long":106.819451,"distance":2727,"station_id":"DPB","time":4,"line":0},{"transit":false,"station_name":"Depok","is_transit":false,"line":0,"i_long":106.816926,"distance":1584,"time":3,"i_lat":-6.405256,"station_id":"DP"}],[{"station_id":"KMO","time":0,"i_lat":-6.161728,"is_transit":false,"transit":false,"i_long":106.839204,"distance":0,"station_name":"Kemayoran","line":11},{"time":5,"distance":1901,"i_long":106.836569,"line":11,"is_transit":false,"station_id":"RJW","transit":false,"station_name":"Rajawali","i_lat":-6.14505},{"distance":1444,"transit":true,"station_id":"KPB","i_lat":-6.132549,"time":3,"line":0,"i_long":106.826365,"station_name":"Kampung Bandan","is_transit":true},{"transit":true,"i_long":106.812439,"line":0,"distance":1364,"is_transit":true,"time":3,"station_name":"Jakarta Kota","station_id":"JAKK","i_lat":-6.137569},{"i_long":106.820901,"i_lat":-6.141205,"distance":1264,"line":7,"transit":false,"time":4,"station_name":"Jayakarta","station_id":"JAY","is_transit":false},{"is_transit":false,"station_name":"Manggabesar","time":2,"transit":false,"i_lat":-6.149769,"distance":1080,"line":2,"station_id":"MGB","i_long":106.82482},{"distance":906,"is_transit":false,"line":2,"station_id":"SW","station_name":"Sawah Besar","time":2,"transit":false,"i_long":106.827103,"i_lat":-6.160725},{"is_transit":false,"station_id":"JUA","i_long":106.828284,"transit":false,"line":2,"station_name":"Juanda","time":2,"distance":1149,"i_lat":-6.166716},{"station_name":"Gondangdia","is_transit":false,"distance":2015,"i_long":106.832183,"time":4,"i_lat":-6.186295,"transit":false,"station_id":"GDD","line":2},{"line":0,"station_id":"CKI","station_name":"Cikini","i_lat":-6.198556,"is_transit":false,"transit":false,"time":3,"distance":1750,"i_long":106.840169},{"time":4,"distance":1590,"is_transit":true,"transit":true,"station_id":"MRI","station_name":"Manggarai","i_long":106.84912,"i_lat":-6.209883,"line":0},{"station_id":"TEB","line":2,"i_lat":-6.226659,"station_name":"Tebet","is_transit":false,"distance":2610,"transit":false,"time":4,"i_long":106.857948},{"transit":false,"i_long":106.856607,"station_id":"CW","line":0,"is_transit":false,"distance":1230,"i_lat":-6.242512,"time":2,"station_name":"Cawang"},{"i_long":106.85449,"line":0,"distance":1546,"transit":false,"station_id":"DRN","station_name":"Duren Kalibata","is_transit":false,"i_lat":-6.255332,"time":3},{"station_id":"PSMB","transit":false,"is_transit":false,"time":2,"i_lat":-6.263214,"i_long":106.851577,"station_name":"Pasar Minggu Baru","line":2,"distance":824},{"distance":2380,"is_transit":false,"transit":false,"station_name":"Pasar Minggu","time":2,"i_lat":-6.2842400000000005,"i_long":106.843999,"station_id":"PSM","line":2},{"transit":false,"i_long":106.838896,"line":2,"station_id":"TNT","is_transit":false,"distance":2820,"time":4,"station_name":"Tanjung Barat","i_lat":-6.3080680000000005},{"station_name":"Lenteng Agung","transit":false,"station_id":"LNA","distance":2671,"time":3,"is_transit":false,"i_lat":-6.330363,"line":2,"i_long":106.832616},{"transit":false,"station_id":"UP","station_name":"Univ. Pancasila","is_transit":false,"i_long":106.834175,"i_lat":-6.339291,"line":2,"distance":1029,"time":2},{"line":2,"station_name":"Univ. Indonesia","i_lat":-6.360749,"transit":false,"i_long":106.831474,"time":3,"is_transit":false,"station_id":"UI","distance":2264},{"time":2,"distance":1109,"station_id":"POC","i_long":106.831114,"transit":false,"station_name":"Pondok Cina","is_transit":false,"line":2,"i_lat":-6.369073},{"station_name":"Depokbaru","time":4,"transit":false,"i_long":106.819451,"station_id":"DPB","distance":2727,"i_lat":-6.391065,"line":0,"is_transit":false},{"is_transit":false,"distance":1584,"i_long":106.816926,"line":0,"station_id":"DP","station_name":"Depok","transit":false,"time":3,"i_lat":-6.405256}]]}