{"data":[[{"station_name":"Kemayoran","i_lat":-6.161728,"distance":0,"i_long":106.839204,"station_id":"KMO","is_transit":false,"line":11,"time":0,"transit":false},{"time":5,"i_long":106.836569,"i_lat":-6.14505,"is_transit":false,"transit":false,"line":11,"station_name":"Rajawali","distance":1901,"station_id":"RJW"},{"station_name":"Kampung Bandan","distance":1444,"time":3,"i_lat":-6.132549,"transit":true,"line":4,"i_long":106.826365,"station_id":"KPB","is_transit":true},{"distance":4102,"is_transit":false,"time":9,"i_lat":-6.144674,"i_long":106.79867,"transit":false,"station_name":"Angke","station_id":"AK","line":1},{"time":4,"transit":false,"station_id":"DU","i_long":106.800832,"is_transit":false,"line":1,"i_lat":-6.155215,"distance":1230,"station_name":"Duri"},{"time":8,"i_long":106.811091,"station_id":"THB","line":1,"distance":3632,"transit":false,"is_transit":false,"i_lat":-6.185545,"station_name":"Tanah Abang"},{"distance":2029,"transit":false,"is_transit":false,"i_long":106.816351,"line":1,"station_id":"KAT","i_lat":-6.20132,"station_name":"Karet","time":5},{"time":1,"station_name":"Sudirman Baru","is_transit":false,"distance":471,"transit":false,"i_lat":-6.201433,"station_id":"SUDB","line":1,"i_long":106.819881}],[{"is_transit":false,"time":0,"transit":false,"station_id":"KMO","station_name":"Kemayoran","distance":0,"i_long":106.839204,"i_lat":-6.161728,"line":11},{"distance":1436,"time":4,"i_lat":-6.174784,"station_name":"Pasar Senen","station_id":"PSE","transit":false,"i_long":106.84368,"is_transit":false,"line":11},{"transit":false,"i_long":106.850107,"station_name":"Gang Sentiong","station_id":"GST","line":11,"is_transit":false,"distance":1567,"i_lat":-6.185975,"time":8},{"i_long":106.855437,"line":11,"distance":973,"station_name":"Kramat","transit":false,"station_id":"KMT","is_transit":false,"time":1,"i_lat":-6.193792},{"station_name":"Pondok Jati","i_lat":-6.209188,"station_id":"POK","i_long":106.861737,"is_transit":false,"time":2,"line":11,"transit":false,"distance":1829},{"station_id":"JNG","time":9,"i_lat":-6.215091,"distance":1236,"is_transit":true,"i_long":106.86807400000001,"transit":true,"line":1,"station_name":"Jatinegara"},{"i_long":106.858896,"transit":false,"distance":1377,"line":1,"time":2,"is_transit":false,"station_id":"MTR","i_lat":-6.212485,"station_name":"Matraman"},{"distance":1275,"i_long":106.84912,"station_name":"Manggarai","station_id":"MRI","i_lat":-6.209883,"line":2,"is_transit":false,"transit":false,"time":2},{"station_id":"SUD","distance":3186,"transit":false,"is_transit":false,"time":4,"i_long":106.822649,"line":1,"station_name":"Sudirman","i_lat":-6.202263},{"i_lat":-6.201433,"line":1,"transit":false,"station_id":"SUDB","i_long":106.819881,"is_transit":false,"station_name":"Sudirman Baru","time":1,"distance":280}],[{"time":0,"distance":0,"station_name":"Kemayoran","is_transit":false,"i_lat":-6.161728,"line":11,"i_long":106.839204,"station_id":"KMO","transit":false},{"transit":false,"line":11,"i_lat":-6.14505,"station_id":"RJW","i_long":106.836569,"time":5,"distance":1901,"station_name":"Rajawali","is_transit":false},{"station_name":"Kampung Bandan","i_long":106.826365,"is_transit":true,"time":3,"station_id":"KPB","i_lat":-6.132549,"distance":1444,"transit":true,"line":4},{"i_lat":-6.137569,"line":2,"transit":true,"station_name":"Jakarta Kota","station_id":"JAKK","time":3,"i_long":106.812439,"distance":1364,"is_transit":true},{"i_lat":-6.141205,"is_transit":false,"station_name":"Jayakarta","time":4,"transit":false,"i_long":106.820901,"station_id":"JAY","distance":1264,"line":2},{"station_id":"MGB","i_long":106.82482,"line":2,"i_lat":-6.149769,"station_name":"Manggabesar","distance":1080,"is_transit":false,"time":2,"transit":false},{"distance":906,"transit":false,"is_transit":false,"station_name":"Sawah Besar","line":2,"i_long":106.827103,"i_lat":-6.160725,"station_id":"SW","time":2},{"i_lat":-6.166716,"line":2,"station_id":"JUA","transit":false,"distance":1149,"i_long":106.828284,"station_name":"Juanda","is_transit":false,"time":2},{"time":4,"station_name":"Gondangdia","transit":false,"distance":2015,"is_transit":false,"i_lat":-6.186295,"i_long":106.832183,"line":2,"station_id":"GDD"},{"station_id":"CKI","i_lat":-6.198556,"is_transit":false,"i_long":106.840169,"time":3,"distance":1750,"line":2,"station_name":"Cikini","transit":false},{"time":4,"i_long":106.84912,"is_transit":true,"i_lat":-6.209883,"station_id":"MRI","station_name":"Manggarai","line":2,"distance":1590,"transit":true},{"distance":3186,"transit":false,"time":4,"line":1,"station_name":"Sudirman","is_transit":false,"i_long":106.822649,"i_lat":-6.202263,"station_id":"SUD"},{"transit":false,"is_transit":false,"i_long":106.819881,"line":1,"station_id":"SUDB","time":1,"i_lat":-6.201433,"distance":280,"station_name":"Sudirman Baru"}],[{"i_long":106.839204,"is_transit":false,"station_id":"KMO","transit":false,"station_name":"Kemayoran","distance":0,"time":0,"i_lat":-6.161728,"line":11},{"i_long":106.84368,"time":4,"i_lat":-6.174784,"distance":1436,"station_name":"Pasar Senen","transit":false,"is_transit":false,"line":11,"station_id":"PSE"},{"distance":1567,"time":8,"i_lat":-6.185975,"station_id":"GST","station_name":"Gang Sentiong","i_long":106.850107,"line":11,"transit":false,"is_transit":false},{"distance":973,"station_name":"Kramat","transit":false,"time":1,"station_id":"KMT","i_long":106.855437,"line":11,"i_lat":-6.193792,"is_transit":false},{"transit":false,"station_name":"Pondok Jati","i_lat":-6.209188,"distance":1829,"time":2,"i_long":106.861737,"is_transit":false,"station_id":"POK","line":11},{"distance":1236,"line":1,"time":9,"i_lat":-6.215091,"station_name":"Jatinegara","transit":true,"is_transit":true,"i_long":106.86807400000001,"station_id":"JNG"},{"station_id":"MTR","i_long":106.858896,"line":1,"distance":1377,"station_name":"Matraman","is_transit":false,"i_lat":-6.212485,"transit":false,"time":2},{"station_id":"MRI","transit":true,"distance":1275,"i_long":106.84912,"is_transit":true,"time":2,"line":2,"i_lat":-6.209883,"station_name":"Manggarai"},{"station_id":"CKI","station_name":"Cikini","time":4,"distance":1590,"i_lat":-6.198556,"i_long":106.840169,"is_transit":false,"transit":false,"line":2},{"is_transit":false,"line":2,"transit":false,"station_name":"Gondangdia","station_id":"GDD","time":3,"i_lat":-6.186295,"i_long":106.832183,"distance":1750},{"transit":false,"station_name":"Juanda","time":4,"i_lat":-6.166716,"is_transit":false,"station_id":"JUA","line":2,"distance":2015,"i_long":106.828284},{"time":2,"station_id":"SW","i_lat":-6.160725,"station_name":"Sawah Besar","line":2,"distance":1149,"transit":false,"is_transit":false,"i_long":106.827103},{"is_transit":false,"i_lat":-6.149769,"time":2,"i_long":106.82482,"distance":906,"line":2,"transit":false,"station_name":"Manggabesar","station_id":"MGB"},{"station_id":"JAY","station_name":"Jayakarta","time":2,"i_long":106.820901,"line":2,"i_lat":-6.141205,"distance":1080,"transit":false,"is_transit":false},{"transit":true,"is_transit":true,"station_name":"Jakarta Kota","time":4,"line":2,"i_long":106.812439,"distance":1264,"i_lat":-6.137569,"station_id":"JAKK"},{"i_lat":-6.132549,"time":3,"transit":true,"station_name":"Kampung Bandan","station_id":"KPB","distance":1364,"is_transit":true,"i_long":106.826365,"line":4},{"distance":4102,"line":1,"time":9,"i_lat":-6.144674,"is_transit":false,"i_long":106.79867,"station_name":"Angke","transit":false,"station_id":"AK"},{"i_long":106.800832,"station_name":"Duri","i_lat":-6.155215,"distance":1230,"transit":false,"time":4,"is_transit":false,"line":1,"station_id":"DU"},{"transit":false,"station_id":"THB","station_name":"Tanah Abang","distance":3632,"i_long":106.811091,"is_transit":false,"time":8,"line":1,"i_lat":-6.185545},{"line":1,"i_long":106.816351,"is_transit":false,"transit":false,"station_id":"KAT","i_lat":-6.20132,"time":5,"distance":2029,"station_name":"Karet"},{"station_name":"Sudirman Baru","line":1,"time":1,"station_id":"SUDB","distance":471,"transit":false,"is_transit":false,"i_lat":-6.201433,"i_long":106.819881}]]}