{"data":[[{"transit":false,"distance":0,"i_lat":-6.161728,"i_long":106.839204,"is_transit":false,"station_id":"KMO","line":11,"time":0,"station_name":"Kemayoran"},{"station_name":"Rajawali","distance":1901,"i_long":106.836569,"line":11,"transit":false,"i_lat":-6.14505,"time":5,"is_transit":false,"station_id":"RJW"}],[{"distance":0,"time":0,"station_id":"KMO","line":11,"i_long":106.839204,"station_name":"Kemayoran","is_transit":false,"transit":false,"i_lat":-6.161728},{"i_long":106.84368,"time":4,"line":11,"station_name":"Pasar Senen","i_lat":-6.174784,"station_id":"PSE","is_transit":false,"distance":1436,"transit":false},{"station_id":"GST","time":8,"transit":false,"i_lat":-6.185975,"i_long":106.850107,"line":11,"is_transit":false,"station_name":"Gang Sentiong","distance":1567},{"transit":false,"i_lat":-6.193792,"i_long":106.855437,"line":11,"station_name":"Kramat","distance":973,"time":1,"station_id":"KMT","is_transit":false},{"line":11,"time":2,"station_name":"Pondok Jati","distance":1829,"i_lat":-6.209188,"i_long":106.861737,"is_transit":false,"station_id":"POK","transit":false},{"time":9,"station_name":"Jatinegara","line":1,"transit":true,"i_long":106.86807400000001,"i_lat":-6.215091,"is_transit":true,"distance":1236,"station_id":"JNG"},{"distance":1377,"transit":false,"time":2,"is_transit":false,"station_id":"MTR","line":1,"station_name":"Matraman","i_lat":-6.212485,"i_long":106.858896},{"i_lat":-6.209883,"transit":false,"time":2,"station_id":"MRI","line":2,"is_transit":false,"station_name":"Manggarai","i_long":106.84912,"distance":1275},{"station_id":"SUD","i_lat":-6.202263,"transit":false,"time":4,"is_transit":false,"station_name":"Sudirman","distance":3186,"i_long":106.822649,"line":1},{"time":1,"transit":false,"distance":280,"i_lat":-6.201433,"station_name":"Sudirman Baru","i_long":106.819881,"station_id":"SUDB","is_transit":false,"line":1},{"distance":471,"station_id":"KAT","i_long":106.816351,"station_name":"Karet","time":1,"transit":false,"is_transit":false,"i_lat":-6.20132,"line":1},{"time":5,"i_lat":-6.185545,"distance":2029,"line":1,"station_name":"Tanah Abang","is_transit":false,"station_id":"THB","i_long":106.811091,"transit":false},{"transit":false,"line":1,"distance":3632,"i_long":106.800832,"i_lat":-6.155215,"station_id":"DU","is_transit":false,"station_name":"Duri","time":8},{"i_long":106.79867,"transit":false,"i_lat":-6.144674,"time":4,"station_name":"Angke","is_transit":false,"line":1,"distance":1230,"station_id":"AK"},{"line":4,"time":9,"transit":true,"i_lat":-6.132549,"is_transit":true,"station_name":"Kampung Bandan","i_long":106.826365,"distance":4102,"station_id":"KPB"},{"distance":1444,"transit":false,"line":11,"time":3,"i_lat":-6.14505,"is_transit":false,"i_long":106.836569,"station_name":"Rajawali","station_id":"RJW"}],[{"transit":false,"is_transit":false,"station_name":"Kemayoran","i_long":106.839204,"distance":0,"time":0,"station_id":"KMO","i_lat":-6.161728,"line":11},{"distance":1436,"station_name":"Pasar Senen","time":4,"transit":false,"is_transit":false,"line":11,"station_id":"PSE","i_lat":-6.174784,"i_long":106.84368},{"time":8,"transit":false,"station_name":"Gang Sentiong","station_id":"GST","i_long":106.850107,"is_transit":false,"i_lat":-6.185975,"line":11,"distance":1567},{"transit":false,"is_transit":false,"line":11,"i_long":106.855437,"station_id":"KMT","station_name":"Kramat","time":1,"distance":973,"i_lat":-6.193792},{"transit":false,"station_name":"Pondok Jati","is_transit":false,"i_lat":-6.209188,"i_long":106.861737,"line":11,"distance":1829,"station_id":"POK","time":2},{"time":9,"distance":1236,"transit":true,"is_transit":true,"i_lat":-6.215091,"line":1,"station_name":"Jatinegara","station_id":"JNG","i_long":106.86807400000001},{"station_id":"MTR","i_lat":-6.212485,"i_long":106.858896,"station_name":"Matraman","is_transit":false,"transit":false,"distance":1377,"line":1,"time":2},{"i_lat":-6.209883,"line":2,"transit":true,"i_long":106.84912,"is_transit":true,"station_id":"MRI","time":2,"distance":1275,"station_name":"Manggarai"},{"line":2,"station_id":"CKI","i_lat":-6.198556,"time":4,"station_name":"Cikini","is_transit":false,"distance":1590,"transit":false,"i_long":106.840169},{"line":2,"station_name":"Gondangdia","i_lat":-6.186295,"is_transit":false,"time":3,"distance":1750,"i_long":106.832183,"transit":false,"station_id":"GDD"},{"distance":2015,"transit":false,"i_long":106.828284,"line":2,"time":4,"is_transit":false,"station_name":"Juanda","station_id":"JUA","i_lat":-6.166716},{"i_long":106.827103,"is_transit":false,"time":2,"station_id":"SW","line":2,"distance":1149,"transit":false,"station_name":"Sawah Besar","i_lat":-6.160725},{"line":2,"i_long":106.82482,"is_transit":false,"i_lat":-6.149769,"station_name":"Manggabesar","time":2,"transit":false,"distance":906,"station_id":"MGB"},{"station_name":"Jayakarta","is_transit":false,"station_id":"JAY","time":2,"transit":false,"i_long":106.820901,"distance":1080,"line":2,"i_lat":-6.141205},{"transit":true,"distance":1264,"time":4,"i_long":106.812439,"i_lat":-6.137569,"station_name":"Jakarta Kota","station_id":"JAKK","is_transit":true,"line":2},{"distance":1364,"transit":true,"i_long":106.826365,"is_transit":true,"time":3,"station_name":"Kampung Bandan","station_id":"KPB","i_lat":-6.132549,"line":4},{"time":3,"transit":false,"is_transit":false,"i_lat":-6.14505,"distance":1444,"i_long":106.836569,"station_name":"Rajawali","station_id":"RJW","line":11}]]}