{"data":[[{"station_id":"KMT","is_transit":false,"i_long":106.855437,"i_lat":-6.193792,"distance":0,"time":0,"line":11,"transit":false,"station_name":"Kramat"},{"i_lat":-6.209188,"distance":1829,"i_long":106.861737,"time":2,"line":11,"transit":false,"station_id":"POK","is_transit":false,"station_name":"Pondok Jati"},{"line":0,"distance":1236,"time":9,"station_name":"Jatinegara","transit":true,"i_long":106.86807400000001,"i_lat":-6.215091,"station_id":"JNG","is_transit":true},{"transit":false,"time":2,"distance":1377,"is_transit":false,"i_lat":-6.212485,"station_id":"MTR","station_name":"Matraman","line":1,"i_long":106.858896},{"line":0,"station_name":"Manggarai","is_transit":true,"i_lat":-6.209883,"station_id":"MRI","distance":1275,"time":2,"transit":true,"i_long":106.84912},{"station_id":"TEB","is_transit":false,"transit":false,"line":2,"distance":2610,"station_name":"Tebet","i_long":106.857948,"time":4,"i_lat":-6.226659},{"i_lat":-6.242512,"station_id":"CW","is_transit":false,"line":0,"i_long":106.856607,"station_name":"Cawang","distance":1230,"time":2,"transit":false},{"distance":1546,"station_id":"DRN","transit":false,"i_long":106.85449,"is_transit":false,"line":0,"time":3,"station_name":"Duren Kalibata","i_lat":-6.255332},{"station_name":"Pasar Minggu Baru","station_id":"PSMB","line":2,"transit":false,"i_lat":-6.263214,"is_transit":false,"time":2,"i_long":106.851577,"distance":824},{"line":2,"time":2,"distance":2380,"transit":false,"station_name":"Pasar Minggu","i_long":106.843999,"i_lat":-6.2842400000000005,"station_id":"PSM","is_transit":false},{"i_long":106.838896,"line":2,"time":4,"is_transit":false,"distance":2820,"station_name":"Tanjung Barat","station_id":"TNT","i_lat":-6.3080680000000005,"transit":false}],[{"station_name":"Kramat","time":0,"distance":0,"line":11,"station_id":"KMT","i_long":106.855437,"transit":false,"is_transit":false,"i_lat":-6.193792},{"i_lat":-6.185975,"station_name":"Gang Sentiong","time":1,"line":11,"i_long":106.850107,"is_transit":false,"distance":973,"station_id":"GST","transit":false},{"i_lat":-6.174784,"is_transit":false,"i_long":106.84368,"line":11,"distance":1567,"station_name":"Pasar Senen","transit":false,"time":8,"station_id":"PSE"},{"station_name":"Kemayoran","time":4,"distance":1436,"i_long":106.839204,"line":11,"is_transit":false,"i_lat":-6.161728,"transit":false,"station_id":"KMO"},{"distance":1901,"station_name":"Rajawali","i_long":106.836569,"i_lat":-6.14505,"time":5,"line":11,"transit":false,"station_id":"RJW","is_transit":false},{"station_name":"Kampung Bandan","i_long":106.826365,"station_id":"KPB","line":0,"is_transit":true,"distance":1444,"i_lat":-6.132549,"time":3,"transit":true},{"i_long":106.79867,"transit":false,"is_transit":false,"i_lat":-6.144674,"line":0,"station_name":"Angke","time":9,"distance":4102,"station_id":"AK"},{"time":4,"i_long":106.800832,"station_name":"Duri","i_lat":-6.155215,"station_id":"DU","is_transit":true,"line":1,"transit":true,"distance":1230},{"station_name":"Tanah Abang","line":1,"transit":false,"i_lat":-6.185545,"i_long":106.811091,"time":8,"station_id":"THB","is_transit":true,"distance":3632},{"station_id":"KAT","line":1,"distance":2029,"i_lat":-6.20132,"time":5,"transit":false,"station_name":"Karet","is_transit":false,"i_long":106.816351},{"transit":false,"station_name":"Sudirman Baru","i_long":106.819881,"line":1,"distance":471,"i_lat":-6.201433,"time":1,"station_id":"SUDB","is_transit":false},{"station_id":"SUD","transit":false,"station_name":"Sudirman","time":1,"i_lat":-6.202263,"is_transit":false,"i_long":106.822649,"line":1,"distance":280},{"is_transit":true,"time":4,"station_name":"Manggarai","station_id":"MRI","distance":3186,"i_lat":-6.209883,"i_long":106.84912,"line":0,"transit":true},{"station_id":"TEB","i_long":106.857948,"station_name":"Tebet","time":4,"is_transit":false,"transit":false,"line":2,"distance":2610,"i_lat":-6.226659},{"i_long":106.856607,"station_name":"Cawang","distance":1230,"line":0,"is_transit":false,"time":2,"transit":false,"station_id":"CW","i_lat":-6.242512},{"line":0,"transit":false,"i_long":106.85449,"distance":1546,"station_name":"Duren Kalibata","is_transit":false,"station_id":"DRN","i_lat":-6.255332,"time":3},{"time":2,"transit":false,"i_lat":-6.263214,"station_name":"Pasar Minggu Baru","is_transit":false,"distance":824,"line":2,"station_id":"PSMB","i_long":106.851577},{"distance":2380,"i_long":106.843999,"time":2,"station_id":"PSM","line":2,"is_transit":false,"i_lat":-6.2842400000000005,"transit":false,"station_name":"Pasar Minggu"},{"transit":false,"line":2,"station_id":"TNT","is_transit":false,"i_long":106.838896,"time":4,"station_name":"Tanjung Barat","distance":2820,"i_lat":-6.3080680000000005}],[{"time":0,"i_long":106.855437,"station_id":"KMT","line":11,"station_name":"Kramat","is_transit":false,"i_lat":-6.193792,"distance":0,"transit":false},{"is_transit":false,"station_id":"GST","transit":false,"distance":973,"station_name":"Gang Sentiong","line":11,"i_long":106.850107,"time":1,"i_lat":-6.185975},{"distance":1567,"time":8,"transit":false,"i_lat":-6.174784,"i_long":106.84368,"line":11,"station_id":"PSE","station_name":"Pasar Senen","is_transit":false},{"station_id":"KMO","transit":false,"i_lat":-6.161728,"station_name":"Kemayoran","time":4,"line":11,"i_long":106.839204,"distance":1436,"is_transit":false},{"i_long":106.836569,"line":11,"distance":1901,"station_id":"RJW","transit":false,"i_lat":-6.14505,"time":5,"is_transit":false,"station_name":"Rajawali"},{"time":3,"station_id":"KPB","is_transit":true,"i_lat":-6.132549,"line":0,"transit":true,"station_name":"Kampung Bandan","distance":1444,"i_long":106.826365},{"is_transit":true,"station_name":"Jakarta Kota","transit":true,"i_lat":-6.137569,"line":0,"station_id":"JAKK","time":3,"distance":1364,"i_long":106.812439},{"station_name":"Jayakarta","i_lat":-6.141205,"transit":false,"line":7,"is_transit":false,"distance":1264,"i_long":106.820901,"time":4,"station_id":"JAY"},{"time":2,"station_name":"Manggabesar","station_id":"MGB","distance":1080,"is_transit":false,"transit":false,"i_lat":-6.149769,"i_long":106.82482,"line":2},{"station_id":"SW","line":2,"transit":false,"is_transit":false,"distance":906,"i_long":106.827103,"time":2,"station_name":"Sawah Besar","i_lat":-6.160725},{"distance":1149,"transit":false,"i_long":106.828284,"is_transit":false,"station_name":"Juanda","i_lat":-6.166716,"station_id":"JUA","time":2,"line":2},{"station_name":"Gondangdia","time":4,"is_transit":false,"transit":false,"distance":2015,"i_long":106.832183,"line":2,"station_id":"GDD","i_lat":-6.186295},{"time":3,"i_lat":-6.198556,"transit":false,"station_name":"Cikini","is_transit":false,"station_id":"CKI","i_long":106.840169,"distance":1750,"line":0},{"time":4,"is_transit":true,"transit":true,"i_long":106.84912,"station_name":"Manggarai","station_id":"MRI","i_lat":-6.209883,"distance":1590,"line":0},{"is_transit":false,"station_name":"Tebet","transit":false,"i_lat":-6.226659,"i_long":106.857948,"line":2,"station_id":"TEB","distance":2610,"time":4},{"line":0,"transit":false,"i_long":106.856607,"distance":1230,"is_transit":false,"time":2,"station_id":"CW","i_lat":-6.242512,"station_name":"Cawang"},{"station_name":"Duren Kalibata","transit":false,"i_lat":-6.255332,"i_long":106.85449,"line":0,"station_id":"DRN","time":3,"is_transit":false,"distance":1546},{"transit":false,"distance":824,"line":2,"station_id":"PSMB","i_lat":-6.263214,"time":2,"station_name":"Pasar Minggu Baru","is_transit":false,"i_long":106.851577},{"distance":2380,"transit":false,"station_name":"Pasar Minggu","i_long":106.843999,"i_lat":-6.2842400000000005,"station_id":"PSM","time":2,"is_transit":false,"line":2},{"i_lat":-6.3080680000000005,"station_id":"TNT","transit":false,"i_long":106.838896,"time":4,"distance":2820,"is_transit":false,"station_name":"Tanjung Barat","line":2}]]}