{"data":[[{"is_transit":false,"distance":0,"station_name":"Kramat","i_long":106.855437,"transit":false,"time":0,"i_lat":-6.193792,"line":11,"station_id":"KMT"},{"distance":1829,"line":11,"is_transit":false,"time":2,"i_lat":-6.209188,"transit":false,"station_id":"POK","i_long":106.861737,"station_name":"Pondok Jati"},{"transit":true,"distance":1236,"i_lat":-6.215091,"line":0,"is_transit":true,"station_id":"JNG","time":9,"i_long":106.86807400000001,"station_name":"Jatinegara"},{"station_id":"MTR","transit":false,"station_name":"Matraman","distance":1377,"is_transit":false,"i_long":106.858896,"line":1,"time":2,"i_lat":-6.212485},{"distance":1275,"line":0,"is_transit":true,"i_lat":-6.209883,"i_long":106.84912,"time":2,"station_id":"MRI","transit":false,"station_name":"Manggarai"},{"line":1,"i_long":106.822649,"is_transit":false,"station_id":"SUD","distance":3186,"time":4,"station_name":"Sudirman","transit":false,"i_lat":-6.202263},{"line":1,"is_transit":false,"i_lat":-6.201433,"station_id":"SUDB","transit":false,"time":1,"station_name":"Sudirman Baru","distance":280,"i_long":106.819881},{"i_lat":-6.20132,"time":1,"line":1,"station_name":"Karet","distance":471,"is_transit":false,"i_long":106.816351,"transit":false,"station_id":"KAT"},{"line":1,"time":5,"distance":2029,"i_lat":-6.185545,"transit":true,"station_name":"Tanah Abang","is_transit":true,"station_id":"THB","i_long":106.811091},{"distance":3191,"i_lat":-6.207404,"station_name":"Palmerah","i_long":106.79689,"time":6,"station_id":"PLM","transit":false,"is_transit":false,"line":6},{"line":6,"time":7,"i_long":106.780334,"transit":false,"station_id":"KBY","station_name":"Kebayoran","distance":3737,"is_transit":false,"i_lat":-6.237242},{"station_id":"PDJ","station_name":"Pondokranji","is_transit":false,"i_lat":-6.276362,"time":8,"distance":6218,"i_long":106.74273,"line":6,"transit":false},{"time":3,"i_long":106.728916,"is_transit":false,"i_lat":-6.288927,"station_name":"Jurangmangu","line":6,"station_id":"JMU","distance":2179,"transit":false},{"distance":1994,"station_name":"Sudimara","is_transit":false,"time":4,"i_lat":-6.296963,"station_id":"SDM","line":6,"transit":false,"i_long":106.712277},{"station_name":"Rawa Buntu","station_id":"RU","i_lat":-6.314823,"line":6,"distance":4566,"is_transit":false,"i_long":106.675475,"time":6,"transit":false},{"line":6,"is_transit":false,"station_id":"SRP","station_name":"Serpong","time":4,"distance":2413,"i_lat":-6.319871,"transit":false,"i_long":106.66566}],[{"station_id":"KMT","distance":0,"transit":false,"line":11,"i_long":106.855437,"i_lat":-6.193792,"station_name":"Kramat","is_transit":false,"time":0},{"is_transit":false,"station_name":"Gang Sentiong","i_long":106.850107,"time":1,"station_id":"GST","distance":973,"transit":false,"i_lat":-6.185975,"line":11},{"transit":false,"distance":1567,"i_long":106.84368,"line":11,"is_transit":false,"i_lat":-6.174784,"station_id":"PSE","time":8,"station_name":"Pasar Senen"},{"is_transit":false,"line":11,"i_lat":-6.161728,"distance":1436,"time":4,"station_name":"Kemayoran","station_id":"KMO","transit":false,"i_long":106.839204},{"distance":1901,"station_name":"Rajawali","i_long":106.836569,"line":11,"is_transit":false,"station_id":"RJW","time":5,"transit":false,"i_lat":-6.14505},{"distance":1444,"is_transit":true,"line":0,"time":3,"station_name":"Kampung Bandan","i_lat":-6.132549,"i_long":106.826365,"transit":true,"station_id":"KPB"},{"i_long":106.79867,"station_id":"AK","is_transit":false,"distance":4102,"time":9,"transit":false,"line":0,"station_name":"Angke","i_lat":-6.144674},{"station_name":"Duri","transit":true,"is_transit":true,"station_id":"DU","time":4,"line":1,"i_lat":-6.155215,"i_long":106.800832,"distance":1230},{"station_id":"THB","i_long":106.811091,"line":1,"transit":true,"time":8,"i_lat":-6.185545,"station_name":"Tanah Abang","distance":3632,"is_transit":true},{"station_name":"Palmerah","i_long":106.79689,"is_transit":false,"station_id":"PLM","distance":3191,"time":6,"i_lat":-6.207404,"line":6,"transit":false},{"station_id":"KBY","line":6,"i_long":106.780334,"transit":false,"distance":3737,"station_name":"Kebayoran","i_lat":-6.237242,"time":7,"is_transit":false},{"station_id":"PDJ","time":8,"line":6,"is_transit":false,"distance":6218,"transit":false,"i_lat":-6.276362,"i_long":106.74273,"station_name":"Pondokranji"},{"distance":2179,"i_lat":-6.288927,"i_long":106.728916,"is_transit":false,"station_id":"JMU","transit":false,"time":3,"station_name":"Jurangmangu","line":6},{"station_id":"SDM","i_long":106.712277,"distance":1994,"time":4,"station_name":"Sudimara","i_lat":-6.296963,"transit":false,"is_transit":false,"line":6},{"line":6,"i_lat":-6.314823,"time":6,"station_id":"RU","station_name":"Rawa Buntu","distance":4566,"transit":false,"i_long":106.675475,"is_transit":false},{"i_long":106.66566,"line":6,"i_lat":-6.319871,"time":4,"station_id":"SRP","transit":false,"distance":2413,"is_transit":false,"station_name":"Serpong"}],[{"line":11,"station_id":"KMT","distance":0,"is_transit":false,"station_name":"Kramat","time":0,"i_long":106.855437,"i_lat":-6.193792,"transit":false},{"is_transit":false,"distance":1829,"i_lat":-6.209188,"i_long":106.861737,"time":2,"station_id":"POK","line":11,"station_name":"Pondok Jati","transit":false},{"distance":1236,"station_id":"JNG","time":9,"station_name":"Jatinegara","i_long":106.86807400000001,"line":0,"is_transit":true,"transit":true,"i_lat":-6.215091},{"distance":1377,"transit":false,"line":1,"station_name":"Matraman","i_long":106.858896,"i_lat":-6.212485,"is_transit":false,"time":2,"station_id":"MTR"},{"station_id":"MRI","distance":1275,"i_lat":-6.209883,"time":2,"is_transit":true,"station_name":"Manggarai","line":0,"transit":true,"i_long":106.84912},{"station_id":"CKI","i_long":106.840169,"i_lat":-6.198556,"line":0,"distance":1590,"is_transit":false,"time":4,"station_name":"Cikini","transit":false},{"i_lat":-6.186295,"is_transit":false,"station_id":"GDD","time":3,"transit":false,"i_long":106.832183,"distance":1750,"line":2,"station_name":"Gondangdia"},{"distance":2015,"station_id":"JUA","line":2,"transit":false,"is_transit":false,"i_lat":-6.166716,"i_long":106.828284,"time":4,"station_name":"Juanda"},{"i_long":106.827103,"station_name":"Sawah Besar","distance":1149,"line":2,"is_transit":false,"transit":false,"station_id":"SW","time":2,"i_lat":-6.160725},{"transit":false,"line":2,"i_long":106.82482,"i_lat":-6.149769,"station_name":"Manggabesar","is_transit":false,"station_id":"MGB","time":2,"distance":906},{"i_lat":-6.141205,"line":7,"is_transit":false,"transit":false,"time":2,"i_long":106.820901,"distance":1080,"station_id":"JAY","station_name":"Jayakarta"},{"station_name":"Jakarta Kota","distance":1264,"transit":true,"i_lat":-6.137569,"station_id":"JAKK","time":4,"is_transit":true,"i_long":106.812439,"line":0},{"transit":false,"i_lat":-6.132549,"i_long":106.826365,"station_id":"KPB","station_name":"Kampung Bandan","is_transit":true,"line":0,"time":3,"distance":1364},{"transit":false,"station_name":"Angke","time":9,"i_lat":-6.144674,"line":0,"station_id":"AK","distance":4102,"i_long":106.79867,"is_transit":false},{"transit":true,"station_name":"Duri","distance":1230,"i_long":106.800832,"is_transit":true,"i_lat":-6.155215,"line":1,"time":4,"station_id":"DU"},{"i_lat":-6.185545,"transit":true,"distance":3632,"station_id":"THB","time":8,"station_name":"Tanah Abang","i_long":106.811091,"is_transit":true,"line":1},{"station_id":"PLM","line":6,"i_lat":-6.207404,"i_long":106.79689,"is_transit":false,"transit":false,"time":6,"station_name":"Palmerah","distance":3191},{"line":6,"station_name":"Kebayoran","station_id":"KBY","time":7,"i_lat":-6.237242,"i_long":106.780334,"is_transit":false,"transit":false,"distance":3737},{"station_name":"Pondokranji","i_long":106.74273,"transit":false,"line":6,"is_transit":false,"time":8,"i_lat":-6.276362,"station_id":"PDJ","distance":6218},{"i_lat":-6.288927,"station_id":"JMU","is_transit":false,"line":6,"distance":2179,"time":3,"station_name":"Jurangmangu","i_long":106.728916,"transit":false},{"i_long":106.712277,"time":4,"station_name":"Sudimara","is_transit":false,"transit":false,"station_id":"SDM","distance":1994,"line":6,"i_lat":-6.296963},{"station_name":"Rawa Buntu","distance":4566,"i_lat":-6.314823,"i_long":106.675475,"time":6,"station_id":"RU","is_transit":false,"transit":false,"line":6},{"station_id":"SRP","line":6,"transit":false,"i_lat":-6.319871,"is_transit":false,"i_long":106.66566,"time":4,"distance":2413,"station_name":"Serpong"}],[{"i_lat":-6.193792,"station_name":"Kramat","i_long":106.855437,"line":11,"transit":false,"is_transit":false,"time":0,"station_id":"KMT","distance":0},{"line":11,"transit":false,"station_name":"Gang Sentiong","i_lat":-6.185975,"distance":973,"time":1,"i_long":106.850107,"is_transit":false,"station_id":"GST"},{"station_name":"Pasar Senen","station_id":"PSE","distance":1567,"transit":false,"time":8,"is_transit":false,"line":11,"i_lat":-6.174784,"i_long":106.84368},{"transit":false,"i_long":106.839204,"station_name":"Kemayoran","line":11,"distance":1436,"station_id":"KMO","time":4,"i_lat":-6.161728,"is_transit":false},{"station_id":"RJW","is_transit":false,"station_name":"Rajawali","transit":false,"time":5,"i_lat":-6.14505,"i_long":106.836569,"distance":1901,"line":11},{"i_long":106.826365,"transit":true,"station_name":"Kampung Bandan","time":3,"station_id":"KPB","is_transit":true,"line":0,"i_lat":-6.132549,"distance":1444},{"i_lat":-6.137569,"line":0,"station_id":"JAKK","i_long":106.812439,"distance":1364,"time":3,"is_transit":true,"station_name":"Jakarta Kota","transit":true},{"station_id":"JAY","is_transit":false,"i_long":106.820901,"time":4,"distance":1264,"station_name":"Jayakarta","i_lat":-6.141205,"line":7,"transit":false},{"line":2,"i_lat":-6.149769,"is_transit":false,"time":2,"station_name":"Manggabesar","station_id":"MGB","i_long":106.82482,"distance":1080,"transit":false},{"station_id":"SW","i_long":106.827103,"line":2,"distance":906,"transit":false,"station_name":"Sawah Besar","i_lat":-6.160725,"is_transit":false,"time":2},{"distance":1149,"line":2,"i_long":106.828284,"station_name":"Juanda","time":2,"station_id":"JUA","transit":false,"i_lat":-6.166716,"is_transit":false},{"i_long":106.832183,"time":4,"transit":false,"distance":2015,"is_transit":false,"line":2,"station_id":"GDD","station_name":"Gondangdia","i_lat":-6.186295},{"transit":false,"distance":1750,"time":3,"station_name":"Cikini","i_lat":-6.198556,"line":0,"i_long":106.840169,"is_transit":false,"station_id":"CKI"},{"is_transit":true,"station_name":"Manggarai","i_long":106.84912,"distance":1590,"i_lat":-6.209883,"station_id":"MRI","line":0,"transit":true,"time":4},{"line":1,"distance":3186,"transit":false,"is_transit":false,"station_name":"Sudirman","i_lat":-6.202263,"i_long":106.822649,"station_id":"SUD","time":4},{"station_id":"SUDB","transit":false,"distance":280,"station_name":"Sudirman Baru","i_lat":-6.201433,"line":1,"i_long":106.819881,"is_transit":false,"time":1},{"distance":471,"is_transit":false,"station_name":"Karet","transit":false,"time":1,"i_lat":-6.20132,"line":1,"station_id":"KAT","i_long":106.816351},{"is_transit":true,"station_id":"THB","i_lat":-6.185545,"transit":true,"i_long":106.811091,"time":5,"station_name":"Tanah Abang","line":1,"distance":2029},{"transit":false,"distance":3191,"station_id":"PLM","line":6,"i_lat":-6.207404,"i_long":106.79689,"is_transit":false,"station_name":"Palmerah","time":6},{"line":6,"distance":3737,"is_transit":false,"i_long":106.780334,"transit":false,"time":7,"station_id":"KBY","station_name":"Kebayoran","i_lat":-6.237242},{"time":8,"i_lat":-6.276362,"distance":6218,"i_long":106.74273,"line":6,"is_transit":false,"station_name":"Pondokranji","station_id":"PDJ","transit":false},{"i_long":106.728916,"transit":false,"i_lat":-6.288927,"is_transit":false,"time":3,"station_id":"JMU","station_name":"Jurangmangu","distance":2179,"line":6},{"i_long":106.712277,"distance":1994,"time":4,"station_id":"SDM","station_name":"Sudimara","transit":false,"line":6,"is_transit":false,"i_lat":-6.296963},{"distance":4566,"is_transit":false,"line":6,"i_long":106.675475,"station_name":"Rawa Buntu","station_id":"RU","i_lat":-6.314823,"time":6,"transit":false},{"transit":false,"is_transit":false,"distance":2413,"station_name":"Serpong","line":6,"station_id":"SRP","i_lat":-6.319871,"time":4,"i_long":106.66566}]]}