{"data":[[{"time":0,"station_id":"KMT","i_lat":-6.193792,"line":11,"is_transit":false,"distance":0,"transit":false,"i_long":106.855437,"station_name":"Kramat"},{"i_lat":-6.185975,"line":11,"time":1,"i_long":106.850107,"transit":false,"is_transit":false,"station_name":"Gang Sentiong","station_id":"GST","distance":973},{"station_name":"Pasar Senen","transit":false,"i_long":106.84368,"time":8,"is_transit":false,"distance":1567,"station_id":"PSE","i_lat":-6.174784,"line":11},{"station_name":"Kemayoran","i_long":106.839204,"line":11,"is_transit":false,"i_lat":-6.161728,"distance":1436,"transit":false,"station_id":"KMO","time":4},{"transit":false,"i_long":106.836569,"distance":1901,"time":5,"is_transit":false,"line":11,"station_id":"RJW","i_lat":-6.14505,"station_name":"Rajawali"},{"i_long":106.826365,"distance":1444,"i_lat":-6.132549,"line":0,"transit":true,"station_name":"Kampung Bandan","is_transit":true,"time":3,"station_id":"KPB"},{"i_long":106.79867,"time":9,"i_lat":-6.144674,"station_name":"Angke","station_id":"AK","is_transit":false,"transit":false,"distance":4102,"line":0},{"station_name":"Duri","is_transit":true,"station_id":"DU","distance":1230,"transit":true,"time":4,"i_lat":-6.155215,"i_long":106.800832,"line":1},{"time":3,"station_id":"GGL","i_long":106.788277,"transit":false,"i_lat":-6.162021,"line":5,"distance":1700,"station_name":"Grogol","is_transit":false},{"i_lat":-6.161433,"line":5,"i_long":106.771379,"time":2,"is_transit":false,"transit":false,"station_id":"PSG","distance":2036,"station_name":"Pesing"},{"station_name":"Taman Kota","time":2,"line":5,"distance":1614,"station_id":"TKO","is_transit":false,"transit":false,"i_long":106.756522,"i_lat":-6.1587309999999995},{"time":2,"is_transit":false,"line":0,"station_name":"Bojongindah","i_lat":-6.159876,"distance":2334,"station_id":"BOI","transit":false,"i_long":106.737035},{"i_lat":-6.162758,"station_name":"Rawa Buaya","time":4,"distance":1152,"line":5,"i_long":106.723064,"transit":false,"station_id":"RW","is_transit":false},{"station_id":"KDS","distance":2504,"time":3,"line":5,"i_lat":-6.166068,"i_long":106.701612,"is_transit":false,"transit":false,"station_name":"Kalideres"},{"line":5,"distance":2548,"station_name":"Poris","transit":false,"is_transit":false,"time":3,"i_lat":-6.169933,"i_long":106.679458,"station_id":"PI"}],[{"time":0,"distance":0,"station_id":"KMT","station_name":"Kramat","i_lat":-6.193792,"transit":false,"i_long":106.855437,"line":11,"is_transit":false},{"i_lat":-6.209188,"i_long":106.861737,"distance":1829,"station_name":"Pondok Jati","transit":false,"is_transit":false,"time":2,"station_id":"POK","line":11},{"i_long":106.86807400000001,"i_lat":-6.215091,"is_transit":true,"time":9,"station_name":"Jatinegara","transit":true,"distance":1236,"line":0,"station_id":"JNG"},{"i_long":106.858896,"is_transit":false,"line":1,"distance":1377,"time":2,"station_name":"Matraman","station_id":"MTR","transit":false,"i_lat":-6.212485},{"i_long":106.84912,"is_transit":true,"i_lat":-6.209883,"distance":1275,"station_id":"MRI","station_name":"Manggarai","time":2,"transit":false,"line":0},{"time":4,"i_long":106.822649,"station_name":"Sudirman","station_id":"SUD","i_lat":-6.202263,"line":1,"distance":3186,"transit":false,"is_transit":false},{"station_id":"SUDB","line":1,"station_name":"Sudirman Baru","is_transit":false,"i_lat":-6.201433,"distance":280,"time":1,"i_long":106.819881,"transit":false},{"distance":471,"time":1,"station_name":"Karet","transit":false,"is_transit":false,"station_id":"KAT","line":1,"i_long":106.816351,"i_lat":-6.20132},{"is_transit":true,"transit":false,"distance":2029,"time":5,"i_long":106.811091,"i_lat":-6.185545,"station_name":"Tanah Abang","line":1,"station_id":"THB"},{"transit":true,"distance":3632,"i_long":106.800832,"line":1,"time":8,"station_id":"DU","is_transit":true,"station_name":"Duri","i_lat":-6.155215},{"i_long":106.788277,"line":5,"time":3,"distance":1700,"station_name":"Grogol","transit":false,"is_transit":false,"station_id":"GGL","i_lat":-6.162021},{"transit":false,"distance":2036,"station_id":"PSG","station_name":"Pesing","i_lat":-6.161433,"is_transit":false,"time":2,"i_long":106.771379,"line":5},{"distance":1614,"station_id":"TKO","i_lat":-6.1587309999999995,"station_name":"Taman Kota","time":2,"i_long":106.756522,"is_transit":false,"line":5,"transit":false},{"is_transit":false,"line":0,"station_name":"Bojongindah","distance":2334,"station_id":"BOI","time":2,"i_long":106.737035,"i_lat":-6.159876,"transit":false},{"i_lat":-6.162758,"time":4,"station_id":"RW","i_long":106.723064,"distance":1152,"station_name":"Rawa Buaya","line":5,"is_transit":false,"transit":false},{"time":3,"i_lat":-6.166068,"i_long":106.701612,"station_name":"Kalideres","line":5,"transit":false,"is_transit":false,"station_id":"KDS","distance":2504},{"i_lat":-6.169933,"transit":false,"time":3,"station_name":"Poris","station_id":"PI","i_long":106.679458,"line":5,"distance":2548,"is_transit":false}],[{"line":11,"is_transit":false,"i_long":106.855437,"transit":false,"time":0,"distance":0,"station_id":"KMT","station_name":"Kramat","i_lat":-6.193792},{"i_lat":-6.209188,"transit":false,"line":11,"is_transit":false,"time":2,"station_name":"Pondok Jati","i_long":106.861737,"distance":1829,"station_id":"POK"},{"transit":true,"station_name":"Jatinegara","is_transit":true,"time":9,"i_lat":-6.215091,"i_long":106.86807400000001,"line":0,"station_id":"JNG","distance":1236},{"i_lat":-6.212485,"time":2,"distance":1377,"i_long":106.858896,"is_transit":false,"station_name":"Matraman","transit":false,"line":1,"station_id":"MTR"},{"is_transit":true,"station_id":"MRI","i_long":106.84912,"time":2,"transit":true,"i_lat":-6.209883,"distance":1275,"line":0,"station_name":"Manggarai"},{"is_transit":false,"i_long":106.840169,"station_id":"CKI","transit":false,"line":0,"station_name":"Cikini","distance":1590,"time":4,"i_lat":-6.198556},{"time":3,"station_name":"Gondangdia","is_transit":false,"transit":false,"station_id":"GDD","line":2,"distance":1750,"i_lat":-6.186295,"i_long":106.832183},{"transit":false,"station_id":"JUA","i_lat":-6.166716,"distance":2015,"station_name":"Juanda","time":4,"i_long":106.828284,"line":2,"is_transit":false},{"station_id":"SW","line":2,"i_lat":-6.160725,"transit":false,"distance":1149,"i_long":106.827103,"is_transit":false,"time":2,"station_name":"Sawah Besar"},{"station_name":"Manggabesar","i_long":106.82482,"time":2,"line":2,"distance":906,"is_transit":false,"station_id":"MGB","i_lat":-6.149769,"transit":false},{"line":7,"station_id":"JAY","i_lat":-6.141205,"i_long":106.820901,"transit":false,"distance":1080,"station_name":"Jayakarta","time":2,"is_transit":false},{"time":4,"transit":true,"i_long":106.812439,"station_id":"JAKK","i_lat":-6.137569,"distance":1264,"line":0,"station_name":"Jakarta Kota","is_transit":true},{"is_transit":true,"i_long":106.826365,"line":0,"time":3,"distance":1364,"station_id":"KPB","transit":false,"i_lat":-6.132549,"station_name":"Kampung Bandan"},{"distance":4102,"station_name":"Angke","i_lat":-6.144674,"is_transit":false,"transit":false,"i_long":106.79867,"station_id":"AK","time":9,"line":0},{"i_lat":-6.155215,"is_transit":true,"time":4,"i_long":106.800832,"station_name":"Duri","line":1,"distance":1230,"transit":true,"station_id":"DU"},{"transit":false,"time":3,"line":5,"distance":1700,"station_name":"Grogol","i_lat":-6.162021,"is_transit":false,"i_long":106.788277,"station_id":"GGL"},{"i_lat":-6.161433,"distance":2036,"i_long":106.771379,"time":2,"line":5,"transit":false,"station_id":"PSG","is_transit":false,"station_name":"Pesing"},{"transit":false,"distance":1614,"is_transit":false,"time":2,"line":5,"station_id":"TKO","station_name":"Taman Kota","i_long":106.756522,"i_lat":-6.1587309999999995},{"line":0,"transit":false,"i_long":106.737035,"is_transit":false,"i_lat":-6.159876,"distance":2334,"time":2,"station_id":"BOI","station_name":"Bojongindah"},{"is_transit":false,"i_lat":-6.162758,"station_id":"RW","station_name":"Rawa Buaya","distance":1152,"time":4,"line":5,"transit":false,"i_long":106.723064},{"station_name":"Kalideres","distance":2504,"is_transit":false,"i_lat":-6.166068,"transit":false,"i_long":106.701612,"time":3,"line":5,"station_id":"KDS"},{"time":3,"i_lat":-6.169933,"is_transit":false,"station_name":"Poris","i_long":106.679458,"station_id":"PI","distance":2548,"transit":false,"line":5}],[{"transit":false,"line":11,"station_name":"Kramat","time":0,"i_long":106.855437,"distance":0,"is_transit":false,"station_id":"KMT","i_lat":-6.193792},{"i_long":106.850107,"is_transit":false,"station_name":"Gang Sentiong","distance":973,"line":11,"time":1,"transit":false,"station_id":"GST","i_lat":-6.185975},{"time":8,"station_id":"PSE","line":11,"transit":false,"station_name":"Pasar Senen","distance":1567,"i_lat":-6.174784,"i_long":106.84368,"is_transit":false},{"i_lat":-6.161728,"time":4,"i_long":106.839204,"line":11,"station_name":"Kemayoran","is_transit":false,"transit":false,"distance":1436,"station_id":"KMO"},{"distance":1901,"station_id":"RJW","i_lat":-6.14505,"line":11,"station_name":"Rajawali","time":5,"transit":false,"is_transit":false,"i_long":106.836569},{"i_lat":-6.132549,"distance":1444,"is_transit":true,"time":3,"station_name":"Kampung Bandan","station_id":"KPB","line":0,"transit":true,"i_long":106.826365},{"time":3,"station_name":"Jakarta Kota","distance":1364,"transit":true,"is_transit":true,"i_lat":-6.137569,"i_long":106.812439,"station_id":"JAKK","line":0},{"line":7,"station_id":"JAY","time":4,"distance":1264,"transit":false,"is_transit":false,"station_name":"Jayakarta","i_lat":-6.141205,"i_long":106.820901},{"time":2,"distance":1080,"i_lat":-6.149769,"station_id":"MGB","transit":false,"i_long":106.82482,"line":2,"station_name":"Manggabesar","is_transit":false},{"is_transit":false,"station_name":"Sawah Besar","transit":false,"distance":906,"time":2,"station_id":"SW","i_lat":-6.160725,"i_long":106.827103,"line":2},{"distance":1149,"i_lat":-6.166716,"time":2,"line":2,"i_long":106.828284,"station_id":"JUA","is_transit":false,"station_name":"Juanda","transit":false},{"i_long":106.832183,"transit":false,"is_transit":false,"i_lat":-6.186295,"station_name":"Gondangdia","time":4,"distance":2015,"station_id":"GDD","line":2},{"transit":false,"i_long":106.840169,"time":3,"station_name":"Cikini","i_lat":-6.198556,"line":0,"is_transit":false,"station_id":"CKI","distance":1750},{"distance":1590,"i_long":106.84912,"transit":true,"line":0,"time":4,"station_id":"MRI","is_transit":true,"station_name":"Manggarai","i_lat":-6.209883},{"i_lat":-6.202263,"line":1,"distance":3186,"is_transit":false,"transit":false,"station_id":"SUD","i_long":106.822649,"station_name":"Sudirman","time":4},{"station_id":"SUDB","time":1,"distance":280,"i_lat":-6.201433,"i_long":106.819881,"line":1,"transit":false,"station_name":"Sudirman Baru","is_transit":false},{"i_lat":-6.20132,"station_id":"KAT","line":1,"station_name":"Karet","time":1,"transit":false,"distance":471,"i_long":106.816351,"is_transit":false},{"is_transit":true,"station_id":"THB","transit":false,"i_long":106.811091,"line":1,"i_lat":-6.185545,"time":5,"distance":2029,"station_name":"Tanah Abang"},{"is_transit":true,"time":8,"transit":true,"station_id":"DU","distance":3632,"i_lat":-6.155215,"i_long":106.800832,"line":1,"station_name":"Duri"},{"line":5,"transit":false,"station_name":"Grogol","distance":1700,"i_long":106.788277,"time":3,"is_transit":false,"station_id":"GGL","i_lat":-6.162021},{"station_id":"PSG","i_long":106.771379,"station_name":"Pesing","i_lat":-6.161433,"transit":false,"distance":2036,"is_transit":false,"time":2,"line":5},{"time":2,"station_id":"TKO","line":5,"distance":1614,"station_name":"Taman Kota","transit":false,"is_transit":false,"i_lat":-6.1587309999999995,"i_long":106.756522},{"station_name":"Bojongindah","transit":false,"distance":2334,"time":2,"i_lat":-6.159876,"i_long":106.737035,"line":0,"is_transit":false,"station_id":"BOI"},{"i_lat":-6.162758,"is_transit":false,"i_long":106.723064,"time":4,"station_id":"RW","line":5,"transit":false,"distance":1152,"station_name":"Rawa Buaya"},{"transit":false,"station_id":"KDS","distance":2504,"station_name":"Kalideres","i_lat":-6.166068,"i_long":106.701612,"is_transit":false,"time":3,"line":5},{"time":3,"station_name":"Poris","is_transit":false,"transit":false,"distance":2548,"i_long":106.679458,"station_id":"PI","i_lat":-6.169933,"line":5}]]}