{"data":[[{"station_id":"KMT","distance":0,"i_long":106.855437,"transit":false,"time":0,"is_transit":false,"i_lat":-6.193792,"line":11,"station_name":"Kramat"},{"line":11,"station_id":"POK","transit":false,"time":2,"i_long":106.861737,"distance":1829,"is_transit":false,"i_lat":-6.209188,"station_name":"Pondok Jati"},{"time":9,"i_long":106.86807400000001,"distance":1236,"i_lat":-6.215091,"is_transit":true,"transit":true,"station_name":"Jatinegara","station_id":"JNG","line":0},{"station_name":"Matraman","time":2,"i_lat":-6.212485,"is_transit":false,"transit":false,"i_long":106.858896,"line":1,"station_id":"MTR","distance":1377},{"station_id":"MRI","transit":false,"i_lat":-6.209883,"distance":1275,"line":0,"i_long":106.84912,"is_transit":true,"time":2,"station_name":"Manggarai"},{"i_long":106.822649,"line":1,"station_name":"Sudirman","distance":3186,"station_id":"SUD","is_transit":false,"i_lat":-6.202263,"transit":false,"time":4},{"transit":false,"station_name":"Sudirman Baru","i_lat":-6.201433,"station_id":"SUDB","time":1,"is_transit":false,"line":1,"distance":280,"i_long":106.819881},{"station_id":"KAT","is_transit":false,"i_long":106.816351,"distance":471,"line":1,"transit":false,"i_lat":-6.20132,"station_name":"Karet","time":1},{"distance":2029,"time":5,"station_name":"Tanah Abang","i_long":106.811091,"transit":true,"station_id":"THB","i_lat":-6.185545,"line":1,"is_transit":true},{"i_long":106.79689,"i_lat":-6.207404,"line":6,"station_id":"PLM","station_name":"Palmerah","distance":3191,"time":6,"transit":false,"is_transit":false},{"distance":3737,"station_name":"Kebayoran","time":7,"i_lat":-6.237242,"transit":false,"i_long":106.780334,"line":6,"station_id":"KBY","is_transit":false},{"i_lat":-6.276362,"distance":6218,"station_name":"Pondokranji","i_long":106.74273,"station_id":"PDJ","is_transit":false,"transit":false,"time":8,"line":6},{"station_name":"Jurangmangu","line":6,"i_lat":-6.288927,"i_long":106.728916,"time":3,"distance":2179,"station_id":"JMU","is_transit":false,"transit":false},{"time":4,"i_lat":-6.296963,"transit":false,"line":6,"station_id":"SDM","i_long":106.712277,"station_name":"Sudimara","is_transit":false,"distance":1994},{"station_name":"Rawa Buntu","line":6,"distance":4566,"station_id":"RU","is_transit":false,"transit":false,"time":6,"i_lat":-6.314823,"i_long":106.675475}],[{"distance":0,"is_transit":false,"transit":false,"i_lat":-6.193792,"station_name":"Kramat","i_long":106.855437,"station_id":"KMT","time":0,"line":11},{"line":11,"is_transit":false,"station_id":"GST","station_name":"Gang Sentiong","distance":973,"time":1,"i_lat":-6.185975,"transit":false,"i_long":106.850107},{"transit":false,"station_name":"Pasar Senen","station_id":"PSE","line":11,"distance":1567,"time":8,"i_lat":-6.174784,"i_long":106.84368,"is_transit":false},{"line":11,"transit":false,"station_id":"KMO","distance":1436,"station_name":"Kemayoran","is_transit":false,"i_long":106.839204,"time":4,"i_lat":-6.161728},{"time":5,"is_transit":false,"i_lat":-6.14505,"i_long":106.836569,"distance":1901,"transit":false,"station_id":"RJW","station_name":"Rajawali","line":11},{"distance":1444,"i_long":106.826365,"line":0,"is_transit":true,"station_name":"Kampung Bandan","station_id":"KPB","time":3,"transit":true,"i_lat":-6.132549},{"distance":4102,"time":9,"station_id":"AK","transit":false,"i_long":106.79867,"is_transit":false,"station_name":"Angke","i_lat":-6.144674,"line":0},{"distance":1230,"station_id":"DU","station_name":"Duri","transit":true,"time":4,"i_lat":-6.155215,"line":1,"i_long":106.800832,"is_transit":true},{"distance":3632,"is_transit":true,"i_long":106.811091,"station_id":"THB","station_name":"Tanah Abang","transit":true,"time":8,"line":1,"i_lat":-6.185545},{"time":6,"line":6,"distance":3191,"i_lat":-6.207404,"transit":false,"i_long":106.79689,"station_id":"PLM","is_transit":false,"station_name":"Palmerah"},{"line":6,"time":7,"distance":3737,"is_transit":false,"i_lat":-6.237242,"station_id":"KBY","i_long":106.780334,"transit":false,"station_name":"Kebayoran"},{"distance":6218,"i_lat":-6.276362,"station_id":"PDJ","is_transit":false,"transit":false,"station_name":"Pondokranji","time":8,"i_long":106.74273,"line":6},{"i_lat":-6.288927,"distance":2179,"transit":false,"i_long":106.728916,"line":6,"time":3,"is_transit":false,"station_id":"JMU","station_name":"Jurangmangu"},{"i_lat":-6.296963,"transit":false,"station_name":"Sudimara","is_transit":false,"distance":1994,"line":6,"i_long":106.712277,"station_id":"SDM","time":4},{"line":6,"time":6,"i_long":106.675475,"is_transit":false,"i_lat":-6.314823,"distance":4566,"station_name":"Rawa Buntu","station_id":"RU","transit":false}],[{"is_transit":false,"station_name":"Kramat","i_lat":-6.193792,"time":0,"i_long":106.855437,"distance":0,"station_id":"KMT","transit":false,"line":11},{"time":2,"station_name":"Pondok Jati","transit":false,"i_long":106.861737,"station_id":"POK","line":11,"distance":1829,"is_transit":false,"i_lat":-6.209188},{"is_transit":true,"line":0,"distance":1236,"time":9,"station_name":"Jatinegara","i_lat":-6.215091,"transit":true,"i_long":106.86807400000001,"station_id":"JNG"},{"distance":1377,"i_long":106.858896,"line":1,"is_transit":false,"station_name":"Matraman","transit":false,"i_lat":-6.212485,"station_id":"MTR","time":2},{"time":2,"i_long":106.84912,"line":0,"i_lat":-6.209883,"transit":true,"station_name":"Manggarai","distance":1275,"station_id":"MRI","is_transit":true},{"station_name":"Cikini","transit":false,"is_transit":false,"time":4,"line":0,"i_lat":-6.198556,"station_id":"CKI","i_long":106.840169,"distance":1590},{"time":3,"station_id":"GDD","i_long":106.832183,"line":2,"station_name":"Gondangdia","is_transit":false,"i_lat":-6.186295,"distance":1750,"transit":false},{"is_transit":false,"transit":false,"i_lat":-6.166716,"time":4,"station_id":"JUA","i_long":106.828284,"line":2,"station_name":"Juanda","distance":2015},{"station_name":"Sawah Besar","station_id":"SW","time":2,"i_lat":-6.160725,"is_transit":false,"transit":false,"i_long":106.827103,"line":2,"distance":1149},{"transit":false,"station_id":"MGB","i_lat":-6.149769,"distance":906,"time":2,"i_long":106.82482,"is_transit":false,"station_name":"Manggabesar","line":2},{"station_name":"Jayakarta","transit":false,"line":7,"time":2,"is_transit":false,"distance":1080,"station_id":"JAY","i_lat":-6.141205,"i_long":106.820901},{"i_lat":-6.137569,"i_long":106.812439,"line":0,"is_transit":true,"distance":1264,"station_name":"Jakarta Kota","station_id":"JAKK","transit":true,"time":4},{"time":3,"station_name":"Kampung Bandan","transit":false,"station_id":"KPB","i_lat":-6.132549,"line":0,"i_long":106.826365,"distance":1364,"is_transit":true},{"line":0,"time":9,"is_transit":false,"station_id":"AK","station_name":"Angke","i_lat":-6.144674,"i_long":106.79867,"distance":4102,"transit":false},{"i_long":106.800832,"station_name":"Duri","transit":true,"time":4,"station_id":"DU","line":1,"distance":1230,"i_lat":-6.155215,"is_transit":true},{"transit":true,"is_transit":true,"i_lat":-6.185545,"i_long":106.811091,"station_id":"THB","distance":3632,"time":8,"line":1,"station_name":"Tanah Abang"},{"time":6,"station_name":"Palmerah","i_long":106.79689,"line":6,"station_id":"PLM","is_transit":false,"distance":3191,"i_lat":-6.207404,"transit":false},{"is_transit":false,"station_id":"KBY","transit":false,"i_lat":-6.237242,"line":6,"station_name":"Kebayoran","i_long":106.780334,"time":7,"distance":3737},{"time":8,"line":6,"station_id":"PDJ","distance":6218,"is_transit":false,"transit":false,"i_lat":-6.276362,"station_name":"Pondokranji","i_long":106.74273},{"transit":false,"distance":2179,"station_id":"JMU","i_lat":-6.288927,"i_long":106.728916,"is_transit":false,"time":3,"line":6,"station_name":"Jurangmangu"},{"station_id":"SDM","time":4,"distance":1994,"transit":false,"i_lat":-6.296963,"is_transit":false,"i_long":106.712277,"line":6,"station_name":"Sudimara"},{"station_id":"RU","time":6,"line":6,"distance":4566,"is_transit":false,"station_name":"Rawa Buntu","i_long":106.675475,"i_lat":-6.314823,"transit":false}],[{"i_lat":-6.193792,"time":0,"distance":0,"is_transit":false,"line":11,"station_name":"Kramat","station_id":"KMT","i_long":106.855437,"transit":false},{"distance":973,"is_transit":false,"transit":false,"time":1,"station_name":"Gang Sentiong","line":11,"station_id":"GST","i_lat":-6.185975,"i_long":106.850107},{"i_long":106.84368,"is_transit":false,"distance":1567,"station_name":"Pasar Senen","station_id":"PSE","transit":false,"i_lat":-6.174784,"time":8,"line":11},{"transit":false,"distance":1436,"line":11,"i_long":106.839204,"station_name":"Kemayoran","time":4,"station_id":"KMO","i_lat":-6.161728,"is_transit":false},{"transit":false,"distance":1901,"i_lat":-6.14505,"station_name":"Rajawali","i_long":106.836569,"station_id":"RJW","line":11,"is_transit":false,"time":5},{"i_lat":-6.132549,"line":0,"i_long":106.826365,"time":3,"is_transit":true,"transit":true,"distance":1444,"station_id":"KPB","station_name":"Kampung Bandan"},{"is_transit":true,"transit":true,"station_id":"JAKK","station_name":"Jakarta Kota","line":0,"time":3,"distance":1364,"i_long":106.812439,"i_lat":-6.137569},{"i_lat":-6.141205,"distance":1264,"transit":false,"is_transit":false,"i_long":106.820901,"time":4,"station_name":"Jayakarta","line":7,"station_id":"JAY"},{"transit":false,"is_transit":false,"distance":1080,"station_name":"Manggabesar","time":2,"station_id":"MGB","line":2,"i_lat":-6.149769,"i_long":106.82482},{"i_long":106.827103,"time":2,"line":2,"is_transit":false,"transit":false,"distance":906,"i_lat":-6.160725,"station_name":"Sawah Besar","station_id":"SW"},{"station_id":"JUA","transit":false,"i_lat":-6.166716,"station_name":"Juanda","distance":1149,"line":2,"i_long":106.828284,"is_transit":false,"time":2},{"distance":2015,"is_transit":false,"transit":false,"time":4,"i_lat":-6.186295,"line":2,"station_name":"Gondangdia","i_long":106.832183,"station_id":"GDD"},{"time":3,"line":0,"distance":1750,"is_transit":false,"transit":false,"i_lat":-6.198556,"station_id":"CKI","i_long":106.840169,"station_name":"Cikini"},{"i_lat":-6.209883,"station_id":"MRI","station_name":"Manggarai","transit":true,"is_transit":true,"i_long":106.84912,"line":0,"time":4,"distance":1590},{"station_name":"Sudirman","i_long":106.822649,"line":1,"station_id":"SUD","transit":false,"time":4,"i_lat":-6.202263,"distance":3186,"is_transit":false},{"station_name":"Sudirman Baru","station_id":"SUDB","i_lat":-6.201433,"time":1,"is_transit":false,"distance":280,"transit":false,"i_long":106.819881,"line":1},{"i_long":106.816351,"line":1,"distance":471,"time":1,"i_lat":-6.20132,"is_transit":false,"station_name":"Karet","station_id":"KAT","transit":false},{"time":5,"is_transit":true,"i_long":106.811091,"transit":true,"station_id":"THB","line":1,"i_lat":-6.185545,"distance":2029,"station_name":"Tanah Abang"},{"distance":3191,"i_long":106.79689,"line":6,"station_id":"PLM","is_transit":false,"station_name":"Palmerah","time":6,"transit":false,"i_lat":-6.207404},{"i_lat":-6.237242,"is_transit":false,"i_long":106.780334,"transit":false,"distance":3737,"time":7,"station_id":"KBY","station_name":"Kebayoran","line":6},{"is_transit":false,"transit":false,"station_id":"PDJ","station_name":"Pondokranji","time":8,"i_lat":-6.276362,"line":6,"i_long":106.74273,"distance":6218},{"station_id":"JMU","station_name":"Jurangmangu","time":3,"i_long":106.728916,"i_lat":-6.288927,"transit":false,"distance":2179,"line":6,"is_transit":false},{"i_long":106.712277,"transit":false,"line":6,"is_transit":false,"station_id":"SDM","distance":1994,"time":4,"station_name":"Sudimara","i_lat":-6.296963},{"station_id":"RU","time":6,"i_lat":-6.314823,"transit":false,"station_name":"Rawa Buntu","is_transit":false,"distance":4566,"i_long":106.675475,"line":6}]]}