{"data":[[{"transit":false,"i_long":106.855437,"is_transit":false,"time":0,"station_id":"KMT","distance":0,"station_name":"Kramat","line":11,"i_lat":-6.193792},{"is_transit":false,"time":2,"station_name":"Pondok Jati","distance":1829,"i_long":106.861737,"line":11,"transit":false,"station_id":"POK","i_lat":-6.209188},{"is_transit":true,"station_id":"JNG","transit":true,"station_name":"Jatinegara","distance":1236,"time":9,"line":1,"i_lat":-6.215091,"i_long":106.86807400000001},{"station_id":"MTR","station_name":"Matraman","is_transit":false,"transit":false,"i_long":106.858896,"time":2,"line":1,"i_lat":-6.212485,"distance":1377},{"time":2,"station_id":"MRI","transit":false,"is_transit":false,"i_lat":-6.209883,"i_long":106.84912,"station_name":"Manggarai","distance":1275,"line":2},{"station_name":"Sudirman","i_lat":-6.202263,"is_transit":false,"transit":false,"line":1,"time":4,"i_long":106.822649,"station_id":"SUD","distance":3186},{"transit":false,"distance":280,"i_lat":-6.201433,"line":1,"station_name":"Sudirman Baru","time":1,"station_id":"SUDB","i_long":106.819881,"is_transit":false},{"time":1,"transit":false,"station_name":"Karet","is_transit":false,"station_id":"KAT","i_lat":-6.20132,"i_long":106.816351,"line":1,"distance":471},{"time":5,"line":1,"i_long":106.811091,"station_id":"THB","station_name":"Tanah Abang","transit":true,"distance":2029,"is_transit":true,"i_lat":-6.185545},{"i_lat":-6.207404,"distance":3191,"station_id":"PLM","station_name":"Palmerah","is_transit":false,"transit":false,"time":6,"line":6,"i_long":106.79689},{"is_transit":false,"i_long":106.780334,"time":7,"distance":3737,"station_name":"Kebayoran","transit":false,"i_lat":-6.237242,"line":6,"station_id":"KBY"},{"i_lat":-6.276362,"station_name":"Pondokranji","transit":false,"line":6,"station_id":"PDJ","is_transit":false,"time":8,"distance":6218,"i_long":106.74273},{"station_id":"JMU","time":3,"i_lat":-6.288927,"transit":false,"station_name":"Jurangmangu","distance":2179,"is_transit":false,"i_long":106.728916,"line":6},{"i_long":106.712277,"distance":1994,"station_id":"SDM","line":6,"station_name":"Sudimara","time":4,"i_lat":-6.296963,"transit":false,"is_transit":false},{"station_id":"RU","time":6,"station_name":"Rawa Buntu","is_transit":false,"transit":false,"distance":4566,"i_lat":-6.314823,"i_long":106.675475,"line":6},{"is_transit":false,"transit":false,"i_lat":-6.319871,"distance":2413,"station_name":"Serpong","time":4,"line":6,"station_id":"SRP","i_long":106.66566},{"transit":false,"station_id":"CSK","time":4,"i_long":106.640411,"is_transit":false,"line":3,"station_name":"Cisauk","distance":1784,"i_lat":-6.32484},{"is_transit":false,"line":3,"time":4,"station_name":"Cicayur","transit":false,"distance":2519,"i_lat":-6.329547,"i_long":106.617853,"station_id":"CC"}],[{"line":11,"time":0,"distance":0,"transit":false,"station_name":"Kramat","i_long":106.855437,"is_transit":false,"station_id":"KMT","i_lat":-6.193792},{"distance":973,"station_name":"Gang Sentiong","transit":false,"i_long":106.850107,"time":1,"is_transit":false,"line":11,"station_id":"GST","i_lat":-6.185975},{"is_transit":false,"i_lat":-6.174784,"distance":1567,"i_long":106.84368,"line":11,"time":8,"station_name":"Pasar Senen","station_id":"PSE","transit":false},{"i_long":106.839204,"line":11,"is_transit":false,"time":4,"distance":1436,"transit":false,"station_name":"Kemayoran","station_id":"KMO","i_lat":-6.161728},{"i_long":106.836569,"line":11,"station_name":"Rajawali","station_id":"RJW","i_lat":-6.14505,"time":5,"transit":false,"distance":1901,"is_transit":false},{"i_long":106.826365,"transit":true,"time":3,"station_id":"KPB","is_transit":true,"station_name":"Kampung Bandan","distance":1444,"i_lat":-6.132549,"line":4},{"i_lat":-6.144674,"i_long":106.79867,"transit":false,"is_transit":false,"station_name":"Angke","distance":4102,"line":1,"time":9,"station_id":"AK"},{"is_transit":false,"transit":false,"i_lat":-6.155215,"distance":1230,"station_id":"DU","i_long":106.800832,"station_name":"Duri","time":4,"line":1},{"time":8,"station_name":"Tanah Abang","distance":3632,"transit":true,"is_transit":true,"station_id":"THB","i_lat":-6.185545,"i_long":106.811091,"line":1},{"line":6,"station_name":"Palmerah","time":6,"distance":3191,"transit":false,"station_id":"PLM","i_lat":-6.207404,"i_long":106.79689,"is_transit":false},{"transit":false,"i_long":106.780334,"time":7,"line":6,"i_lat":-6.237242,"station_name":"Kebayoran","distance":3737,"is_transit":false,"station_id":"KBY"},{"station_id":"PDJ","time":8,"is_transit":false,"transit":false,"i_lat":-6.276362,"i_long":106.74273,"line":6,"station_name":"Pondokranji","distance":6218},{"station_name":"Jurangmangu","station_id":"JMU","is_transit":false,"time":3,"i_long":106.728916,"i_lat":-6.288927,"distance":2179,"line":6,"transit":false},{"i_long":106.712277,"i_lat":-6.296963,"station_name":"Sudimara","distance":1994,"line":6,"is_transit":false,"time":4,"transit":false,"station_id":"SDM"},{"distance":4566,"is_transit":false,"transit":false,"station_id":"RU","station_name":"Rawa Buntu","i_lat":-6.314823,"i_long":106.675475,"line":6,"time":6},{"line":6,"i_long":106.66566,"is_transit":false,"i_lat":-6.319871,"distance":2413,"time":4,"transit":false,"station_id":"SRP","station_name":"Serpong"},{"distance":1784,"transit":false,"station_name":"Cisauk","is_transit":false,"station_id":"CSK","i_lat":-6.32484,"time":4,"i_long":106.640411,"line":3},{"station_name":"Cicayur","line":3,"i_long":106.617853,"distance":2519,"transit":false,"is_transit":false,"station_id":"CC","time":4,"i_lat":-6.329547}],[{"station_name":"Kramat","time":0,"is_transit":false,"line":11,"i_long":106.855437,"distance":0,"transit":false,"station_id":"KMT","i_lat":-6.193792},{"i_long":106.861737,"distance":1829,"station_name":"Pondok Jati","time":2,"is_transit":false,"i_lat":-6.209188,"transit":false,"station_id":"POK","line":11},{"time":9,"i_long":106.86807400000001,"transit":true,"is_transit":true,"station_id":"JNG","station_name":"Jatinegara","i_lat":-6.215091,"line":1,"distance":1236},{"is_transit":false,"distance":1377,"i_lat":-6.212485,"i_long":106.858896,"line":1,"time":2,"station_name":"Matraman","transit":false,"station_id":"MTR"},{"is_transit":true,"i_lat":-6.209883,"distance":1275,"time":2,"station_name":"Manggarai","i_long":106.84912,"line":2,"station_id":"MRI","transit":true},{"i_lat":-6.198556,"i_long":106.840169,"line":2,"is_transit":false,"transit":false,"station_id":"CKI","station_name":"Cikini","distance":1590,"time":4},{"line":2,"transit":false,"i_long":106.832183,"distance":1750,"is_transit":false,"time":3,"station_name":"Gondangdia","station_id":"GDD","i_lat":-6.186295},{"i_long":106.828284,"station_name":"Juanda","time":4,"i_lat":-6.166716,"distance":2015,"station_id":"JUA","transit":false,"is_transit":false,"line":2},{"i_long":106.827103,"transit":false,"i_lat":-6.160725,"is_transit":false,"line":2,"time":2,"station_name":"Sawah Besar","station_id":"SW","distance":1149},{"station_name":"Manggabesar","time":2,"i_long":106.82482,"station_id":"MGB","distance":906,"i_lat":-6.149769,"line":2,"transit":false,"is_transit":false},{"station_name":"Jayakarta","line":2,"time":2,"is_transit":false,"i_lat":-6.141205,"distance":1080,"i_long":106.820901,"transit":false,"station_id":"JAY"},{"i_long":106.812439,"line":2,"distance":1264,"station_id":"JAKK","transit":true,"i_lat":-6.137569,"station_name":"Jakarta Kota","time":4,"is_transit":true},{"i_lat":-6.132549,"is_transit":true,"line":4,"station_name":"Kampung Bandan","time":3,"distance":1364,"i_long":106.826365,"transit":true,"station_id":"KPB"},{"station_id":"AK","transit":false,"line":1,"i_long":106.79867,"is_transit":false,"distance":4102,"station_name":"Angke","time":9,"i_lat":-6.144674},{"transit":false,"i_lat":-6.155215,"distance":1230,"station_id":"DU","time":4,"station_name":"Duri","is_transit":false,"i_long":106.800832,"line":1},{"i_lat":-6.185545,"i_long":106.811091,"is_transit":true,"station_name":"Tanah Abang","distance":3632,"station_id":"THB","transit":true,"time":8,"line":1},{"i_long":106.79689,"station_id":"PLM","station_name":"Palmerah","time":6,"distance":3191,"is_transit":false,"i_lat":-6.207404,"line":6,"transit":false},{"time":7,"station_id":"KBY","station_name":"Kebayoran","transit":false,"is_transit":false,"i_lat":-6.237242,"distance":3737,"i_long":106.780334,"line":6},{"i_long":106.74273,"line":6,"time":8,"transit":false,"distance":6218,"station_id":"PDJ","station_name":"Pondokranji","i_lat":-6.276362,"is_transit":false},{"time":3,"i_lat":-6.288927,"i_long":106.728916,"is_transit":false,"transit":false,"distance":2179,"station_id":"JMU","station_name":"Jurangmangu","line":6},{"i_long":106.712277,"i_lat":-6.296963,"station_name":"Sudimara","station_id":"SDM","distance":1994,"time":4,"transit":false,"is_transit":false,"line":6},{"is_transit":false,"station_name":"Rawa Buntu","i_lat":-6.314823,"distance":4566,"time":6,"line":6,"transit":false,"station_id":"RU","i_long":106.675475},{"station_name":"Serpong","is_transit":false,"i_long":106.66566,"time":4,"distance":2413,"transit":false,"line":6,"station_id":"SRP","i_lat":-6.319871},{"station_name":"Cisauk","transit":false,"line":3,"distance":1784,"station_id":"CSK","i_lat":-6.32484,"time":4,"i_long":106.640411,"is_transit":false},{"transit":false,"i_long":106.617853,"time":4,"i_lat":-6.329547,"station_name":"Cicayur","distance":2519,"line":3,"is_transit":false,"station_id":"CC"}],[{"time":0,"i_long":106.855437,"distance":0,"i_lat":-6.193792,"station_id":"KMT","line":11,"transit":false,"is_transit":false,"station_name":"Kramat"},{"time":1,"i_long":106.850107,"i_lat":-6.185975,"distance":973,"line":11,"station_id":"GST","transit":false,"is_transit":false,"station_name":"Gang Sentiong"},{"i_lat":-6.174784,"i_long":106.84368,"line":11,"is_transit":false,"transit":false,"station_name":"Pasar Senen","distance":1567,"station_id":"PSE","time":8},{"transit":false,"distance":1436,"station_id":"KMO","time":4,"station_name":"Kemayoran","is_transit":false,"i_lat":-6.161728,"line":11,"i_long":106.839204},{"line":11,"time":5,"station_name":"Rajawali","is_transit":false,"i_long":106.836569,"i_lat":-6.14505,"distance":1901,"station_id":"RJW","transit":false},{"i_long":106.826365,"time":3,"i_lat":-6.132549,"station_name":"Kampung Bandan","transit":true,"line":4,"station_id":"KPB","distance":1444,"is_transit":true},{"is_transit":true,"time":3,"station_id":"JAKK","i_long":106.812439,"distance":1364,"i_lat":-6.137569,"transit":true,"station_name":"Jakarta Kota","line":2},{"time":4,"station_id":"JAY","station_name":"Jayakarta","is_transit":false,"i_long":106.820901,"distance":1264,"line":2,"i_lat":-6.141205,"transit":false},{"station_name":"Manggabesar","time":2,"station_id":"MGB","distance":1080,"transit":false,"i_lat":-6.149769,"i_long":106.82482,"line":2,"is_transit":false},{"i_long":106.827103,"distance":906,"i_lat":-6.160725,"line":2,"station_id":"SW","transit":false,"is_transit":false,"station_name":"Sawah Besar","time":2},{"distance":1149,"i_lat":-6.166716,"station_name":"Juanda","is_transit":false,"transit":false,"i_long":106.828284,"station_id":"JUA","line":2,"time":2},{"i_long":106.832183,"line":2,"time":4,"is_transit":false,"station_name":"Gondangdia","distance":2015,"station_id":"GDD","transit":false,"i_lat":-6.186295},{"time":3,"transit":false,"i_lat":-6.198556,"i_long":106.840169,"station_id":"CKI","is_transit":false,"line":2,"distance":1750,"station_name":"Cikini"},{"i_long":106.84912,"station_id":"MRI","line":2,"distance":1590,"transit":true,"is_transit":true,"station_name":"Manggarai","time":4,"i_lat":-6.209883},{"station_name":"Sudirman","i_lat":-6.202263,"is_transit":false,"time":4,"i_long":106.822649,"distance":3186,"line":1,"transit":false,"station_id":"SUD"},{"line":1,"transit":false,"station_id":"SUDB","i_lat":-6.201433,"time":1,"is_transit":false,"station_name":"Sudirman Baru","i_long":106.819881,"distance":280},{"station_name":"Karet","station_id":"KAT","i_long":106.816351,"distance":471,"i_lat":-6.20132,"time":1,"is_transit":false,"transit":false,"line":1},{"i_lat":-6.185545,"line":1,"is_transit":true,"distance":2029,"station_id":"THB","i_long":106.811091,"station_name":"Tanah Abang","transit":true,"time":5},{"line":6,"station_name":"Palmerah","is_transit":false,"i_lat":-6.207404,"transit":false,"distance":3191,"i_long":106.79689,"time":6,"station_id":"PLM"},{"station_name":"Kebayoran","line":6,"station_id":"KBY","transit":false,"i_long":106.780334,"time":7,"is_transit":false,"i_lat":-6.237242,"distance":3737},{"i_long":106.74273,"distance":6218,"is_transit":false,"line":6,"i_lat":-6.276362,"time":8,"station_id":"PDJ","station_name":"Pondokranji","transit":false},{"i_lat":-6.288927,"distance":2179,"transit":false,"is_transit":false,"i_long":106.728916,"time":3,"station_id":"JMU","station_name":"Jurangmangu","line":6},{"is_transit":false,"line":6,"station_name":"Sudimara","i_long":106.712277,"station_id":"SDM","i_lat":-6.296963,"transit":false,"time":4,"distance":1994},{"time":6,"is_transit":false,"i_long":106.675475,"station_id":"RU","transit":false,"distance":4566,"line":6,"i_lat":-6.314823,"station_name":"Rawa Buntu"},{"is_transit":false,"time":4,"transit":false,"line":6,"i_long":106.66566,"station_name":"Serpong","station_id":"SRP","i_lat":-6.319871,"distance":2413},{"line":3,"transit":false,"is_transit":false,"i_long":106.640411,"station_id":"CSK","station_name":"Cisauk","time":4,"i_lat":-6.32484,"distance":1784},{"transit":false,"is_transit":false,"i_lat":-6.329547,"line":3,"distance":2519,"station_name":"Cicayur","station_id":"CC","time":4,"i_long":106.617853}]]}