{"data":[[{"i_long":106.855437,"line":11,"station_id":"KMT","transit":false,"time":0,"i_lat":-6.193792,"is_transit":false,"station_name":"Kramat","distance":0},{"station_name":"Pondok Jati","i_lat":-6.209188,"time":2,"is_transit":false,"station_id":"POK","distance":1829,"transit":false,"line":11,"i_long":106.861737},{"station_name":"Jatinegara","station_id":"JNG","i_long":106.86807400000001,"line":1,"time":9,"is_transit":true,"transit":true,"distance":1236,"i_lat":-6.215091},{"transit":false,"line":1,"distance":1377,"station_id":"MTR","station_name":"Matraman","i_long":106.858896,"is_transit":false,"i_lat":-6.212485,"time":2},{"station_id":"MRI","transit":false,"time":2,"i_lat":-6.209883,"i_long":106.84912,"distance":1275,"line":2,"is_transit":false,"station_name":"Manggarai"},{"i_long":106.822649,"transit":false,"is_transit":false,"i_lat":-6.202263,"station_id":"SUD","line":1,"station_name":"Sudirman","time":4,"distance":3186},{"i_lat":-6.201433,"i_long":106.819881,"is_transit":false,"time":1,"transit":false,"station_name":"Sudirman Baru","line":1,"station_id":"SUDB","distance":280},{"is_transit":false,"distance":471,"time":1,"i_long":106.816351,"station_name":"Karet","line":1,"transit":false,"i_lat":-6.20132,"station_id":"KAT"},{"station_id":"THB","i_lat":-6.185545,"station_name":"Tanah Abang","line":1,"time":5,"i_long":106.811091,"is_transit":true,"distance":2029,"transit":true},{"i_long":106.79689,"station_id":"PLM","time":6,"is_transit":false,"distance":3191,"line":6,"transit":false,"station_name":"Palmerah","i_lat":-6.207404}],[{"transit":false,"station_id":"KMT","distance":0,"station_name":"Kramat","i_long":106.855437,"line":11,"is_transit":false,"i_lat":-6.193792,"time":0},{"station_name":"Gang Sentiong","line":11,"is_transit":false,"i_long":106.850107,"transit":false,"station_id":"GST","i_lat":-6.185975,"time":1,"distance":973},{"transit":false,"time":8,"station_id":"PSE","station_name":"Pasar Senen","distance":1567,"line":11,"i_lat":-6.174784,"is_transit":false,"i_long":106.84368},{"is_transit":false,"line":11,"time":4,"i_lat":-6.161728,"station_id":"KMO","station_name":"Kemayoran","distance":1436,"i_long":106.839204,"transit":false},{"transit":false,"i_long":106.836569,"time":5,"station_name":"Rajawali","i_lat":-6.14505,"is_transit":false,"station_id":"RJW","line":11,"distance":1901},{"i_lat":-6.132549,"time":3,"station_name":"Kampung Bandan","line":4,"station_id":"KPB","i_long":106.826365,"transit":true,"distance":1444,"is_transit":true},{"station_name":"Angke","distance":4102,"station_id":"AK","transit":false,"is_transit":false,"i_lat":-6.144674,"time":9,"line":1,"i_long":106.79867},{"time":4,"distance":1230,"station_name":"Duri","i_long":106.800832,"station_id":"DU","transit":false,"i_lat":-6.155215,"line":1,"is_transit":false},{"station_id":"THB","is_transit":true,"station_name":"Tanah Abang","i_long":106.811091,"i_lat":-6.185545,"transit":true,"time":8,"line":1,"distance":3632},{"i_long":106.79689,"distance":3191,"transit":false,"time":6,"station_name":"Palmerah","i_lat":-6.207404,"is_transit":false,"station_id":"PLM","line":6}],[{"distance":0,"station_name":"Kramat","line":11,"station_id":"KMT","i_lat":-6.193792,"i_long":106.855437,"transit":false,"is_transit":false,"time":0},{"i_long":106.861737,"distance":1829,"i_lat":-6.209188,"transit":false,"station_name":"Pondok Jati","time":2,"line":11,"is_transit":false,"station_id":"POK"},{"station_id":"JNG","is_transit":true,"transit":true,"time":9,"station_name":"Jatinegara","distance":1236,"i_lat":-6.215091,"i_long":106.86807400000001,"line":1},{"transit":false,"i_lat":-6.212485,"i_long":106.858896,"line":1,"is_transit":false,"station_name":"Matraman","station_id":"MTR","distance":1377,"time":2},{"i_long":106.84912,"distance":1275,"transit":true,"line":2,"i_lat":-6.209883,"is_transit":true,"station_name":"Manggarai","time":2,"station_id":"MRI"},{"station_id":"CKI","line":2,"i_lat":-6.198556,"transit":false,"i_long":106.840169,"distance":1590,"station_name":"Cikini","is_transit":false,"time":4},{"is_transit":false,"distance":1750,"line":2,"i_lat":-6.186295,"i_long":106.832183,"time":3,"transit":false,"station_id":"GDD","station_name":"Gondangdia"},{"distance":2015,"i_lat":-6.166716,"station_name":"Juanda","line":2,"transit":false,"is_transit":false,"station_id":"JUA","time":4,"i_long":106.828284},{"time":2,"is_transit":false,"i_lat":-6.160725,"station_id":"SW","i_long":106.827103,"line":2,"transit":false,"station_name":"Sawah Besar","distance":1149},{"transit":false,"station_name":"Manggabesar","is_transit":false,"distance":906,"i_lat":-6.149769,"line":2,"station_id":"MGB","time":2,"i_long":106.82482},{"line":2,"is_transit":false,"time":2,"i_lat":-6.141205,"distance":1080,"transit":false,"station_id":"JAY","station_name":"Jayakarta","i_long":106.820901},{"time":4,"transit":true,"station_id":"JAKK","i_lat":-6.137569,"line":2,"i_long":106.812439,"is_transit":true,"station_name":"Jakarta Kota","distance":1264},{"i_lat":-6.132549,"line":4,"time":3,"transit":true,"distance":1364,"i_long":106.826365,"station_id":"KPB","station_name":"Kampung Bandan","is_transit":true},{"distance":4102,"i_long":106.79867,"time":9,"station_name":"Angke","transit":false,"is_transit":false,"i_lat":-6.144674,"line":1,"station_id":"AK"},{"i_long":106.800832,"is_transit":false,"station_id":"DU","transit":false,"time":4,"distance":1230,"i_lat":-6.155215,"line":1,"station_name":"Duri"},{"distance":3632,"transit":true,"station_name":"Tanah Abang","time":8,"i_lat":-6.185545,"station_id":"THB","i_long":106.811091,"line":1,"is_transit":true},{"time":6,"i_long":106.79689,"distance":3191,"line":6,"transit":false,"is_transit":false,"station_name":"Palmerah","i_lat":-6.207404,"station_id":"PLM"}],[{"transit":false,"i_lat":-6.193792,"i_long":106.855437,"line":11,"time":0,"is_transit":false,"station_name":"Kramat","distance":0,"station_id":"KMT"},{"i_lat":-6.185975,"distance":973,"line":11,"is_transit":false,"time":1,"station_name":"Gang Sentiong","i_long":106.850107,"transit":false,"station_id":"GST"},{"i_lat":-6.174784,"line":11,"time":8,"distance":1567,"i_long":106.84368,"transit":false,"station_name":"Pasar Senen","is_transit":false,"station_id":"PSE"},{"station_id":"KMO","station_name":"Kemayoran","i_lat":-6.161728,"transit":false,"i_long":106.839204,"line":11,"time":4,"distance":1436,"is_transit":false},{"distance":1901,"line":11,"station_id":"RJW","transit":false,"i_long":106.836569,"time":5,"is_transit":false,"i_lat":-6.14505,"station_name":"Rajawali"},{"i_lat":-6.132549,"station_id":"KPB","i_long":106.826365,"transit":true,"time":3,"distance":1444,"station_name":"Kampung Bandan","is_transit":true,"line":4},{"i_long":106.812439,"time":3,"i_lat":-6.137569,"transit":true,"is_transit":true,"station_name":"Jakarta Kota","distance":1364,"station_id":"JAKK","line":2},{"is_transit":false,"i_lat":-6.141205,"transit":false,"time":4,"station_id":"JAY","i_long":106.820901,"station_name":"Jayakarta","distance":1264,"line":2},{"i_long":106.82482,"line":2,"i_lat":-6.149769,"is_transit":false,"time":2,"station_id":"MGB","transit":false,"distance":1080,"station_name":"Manggabesar"},{"i_lat":-6.160725,"i_long":106.827103,"station_name":"Sawah Besar","distance":906,"line":2,"transit":false,"is_transit":false,"time":2,"station_id":"SW"},{"transit":false,"station_name":"Juanda","line":2,"station_id":"JUA","is_transit":false,"distance":1149,"i_long":106.828284,"time":2,"i_lat":-6.166716},{"line":2,"distance":2015,"time":4,"station_id":"GDD","i_lat":-6.186295,"i_long":106.832183,"is_transit":false,"transit":false,"station_name":"Gondangdia"},{"distance":1750,"i_long":106.840169,"is_transit":false,"transit":false,"station_name":"Cikini","i_lat":-6.198556,"station_id":"CKI","time":3,"line":2},{"station_id":"MRI","station_name":"Manggarai","time":4,"distance":1590,"is_transit":true,"i_lat":-6.209883,"i_long":106.84912,"transit":true,"line":2},{"i_lat":-6.202263,"station_id":"SUD","distance":3186,"line":1,"time":4,"transit":false,"is_transit":false,"station_name":"Sudirman","i_long":106.822649},{"i_long":106.819881,"line":1,"distance":280,"station_name":"Sudirman Baru","is_transit":false,"transit":false,"station_id":"SUDB","i_lat":-6.201433,"time":1},{"is_transit":false,"transit":false,"time":1,"station_name":"Karet","i_lat":-6.20132,"i_long":106.816351,"line":1,"station_id":"KAT","distance":471},{"transit":true,"line":1,"distance":2029,"time":5,"station_name":"Tanah Abang","is_transit":true,"station_id":"THB","i_long":106.811091,"i_lat":-6.185545},{"is_transit":false,"station_name":"Palmerah","time":6,"station_id":"PLM","i_long":106.79689,"distance":3191,"line":6,"i_lat":-6.207404,"transit":false}]]}