{"data":[[{"time":0,"i_long":106.855437,"line":11,"transit":false,"distance":0,"station_name":"Kramat","i_lat":-6.193792,"is_transit":false,"station_id":"KMT"},{"i_lat":-6.185975,"is_transit":false,"station_id":"GST","distance":973,"time":1,"transit":false,"station_name":"Gang Sentiong","i_long":106.850107,"line":11},{"distance":1567,"station_name":"Pasar Senen","i_lat":-6.174784,"time":8,"i_long":106.84368,"station_id":"PSE","line":11,"transit":false,"is_transit":false},{"station_name":"Kemayoran","station_id":"KMO","i_lat":-6.161728,"transit":false,"is_transit":false,"i_long":106.839204,"distance":1436,"line":11,"time":4},{"is_transit":false,"time":5,"i_lat":-6.14505,"station_name":"Rajawali","transit":false,"station_id":"RJW","line":11,"i_long":106.836569,"distance":1901},{"is_transit":true,"transit":true,"station_name":"Kampung Bandan","distance":1444,"i_long":106.826365,"line":4,"time":3,"station_id":"KPB","i_lat":-6.132549},{"transit":false,"is_transit":false,"i_lat":-6.144674,"station_id":"AK","time":9,"distance":4102,"station_name":"Angke","i_long":106.79867,"line":1},{"distance":1230,"is_transit":true,"transit":true,"i_long":106.800832,"line":1,"station_id":"DU","time":4,"i_lat":-6.155215,"station_name":"Duri"},{"station_id":"GGL","line":5,"is_transit":false,"station_name":"Grogol","time":3,"transit":false,"distance":1700,"i_lat":-6.162021,"i_long":106.788277},{"i_lat":-6.161433,"i_long":106.771379,"transit":false,"station_id":"PSG","station_name":"Pesing","line":5,"is_transit":false,"time":2,"distance":2036},{"station_name":"Taman Kota","time":2,"i_long":106.756522,"station_id":"TKO","is_transit":false,"distance":1614,"line":5,"i_lat":-6.1587309999999995,"transit":false},{"time":2,"is_transit":false,"station_name":"Bojongindah","line":5,"i_lat":-6.159876,"i_long":106.737035,"transit":false,"station_id":"BOI","distance":2334},{"i_lat":-6.162758,"is_transit":false,"station_id":"RW","transit":false,"station_name":"Rawa Buaya","line":5,"i_long":106.723064,"time":4,"distance":1152},{"transit":false,"station_id":"KDS","time":3,"station_name":"Kalideres","distance":2504,"line":5,"is_transit":false,"i_long":106.701612,"i_lat":-6.166068}],[{"station_name":"Kramat","distance":0,"station_id":"KMT","i_long":106.855437,"transit":false,"i_lat":-6.193792,"line":11,"time":0,"is_transit":false},{"distance":1829,"station_id":"POK","transit":false,"i_lat":-6.209188,"i_long":106.861737,"is_transit":false,"line":11,"station_name":"Pondok Jati","time":2},{"station_id":"JNG","time":9,"line":1,"i_long":106.86807400000001,"transit":true,"i_lat":-6.215091,"is_transit":true,"distance":1236,"station_name":"Jatinegara"},{"station_name":"Matraman","distance":1377,"station_id":"MTR","i_lat":-6.212485,"transit":false,"i_long":106.858896,"is_transit":false,"time":2,"line":1},{"station_name":"Manggarai","is_transit":false,"station_id":"MRI","i_lat":-6.209883,"distance":1275,"i_long":106.84912,"time":2,"transit":false,"line":2},{"transit":false,"station_id":"SUD","line":1,"distance":3186,"i_long":106.822649,"station_name":"Sudirman","is_transit":false,"time":4,"i_lat":-6.202263},{"i_lat":-6.201433,"station_id":"SUDB","i_long":106.819881,"transit":false,"is_transit":false,"distance":280,"station_name":"Sudirman Baru","line":1,"time":1},{"station_name":"Karet","distance":471,"line":1,"i_lat":-6.20132,"i_long":106.816351,"transit":false,"time":1,"is_transit":false,"station_id":"KAT"},{"station_name":"Tanah Abang","i_lat":-6.185545,"line":1,"is_transit":false,"distance":2029,"station_id":"THB","i_long":106.811091,"time":5,"transit":false},{"distance":3632,"line":1,"i_long":106.800832,"is_transit":true,"station_id":"DU","station_name":"Duri","transit":true,"i_lat":-6.155215,"time":8},{"distance":1700,"line":5,"time":3,"is_transit":false,"station_name":"Grogol","transit":false,"station_id":"GGL","i_lat":-6.162021,"i_long":106.788277},{"distance":2036,"station_id":"PSG","station_name":"Pesing","line":5,"time":2,"i_lat":-6.161433,"i_long":106.771379,"is_transit":false,"transit":false},{"station_name":"Taman Kota","i_lat":-6.1587309999999995,"station_id":"TKO","line":5,"i_long":106.756522,"distance":1614,"is_transit":false,"transit":false,"time":2},{"line":5,"is_transit":false,"i_lat":-6.159876,"i_long":106.737035,"distance":2334,"station_id":"BOI","time":2,"station_name":"Bojongindah","transit":false},{"line":5,"station_name":"Rawa Buaya","is_transit":false,"time":4,"distance":1152,"transit":false,"station_id":"RW","i_lat":-6.162758,"i_long":106.723064},{"is_transit":false,"transit":false,"time":3,"distance":2504,"i_long":106.701612,"i_lat":-6.166068,"line":5,"station_id":"KDS","station_name":"Kalideres"}],[{"i_long":106.855437,"station_name":"Kramat","transit":false,"station_id":"KMT","distance":0,"i_lat":-6.193792,"line":11,"is_transit":false,"time":0},{"i_lat":-6.209188,"is_transit":false,"i_long":106.861737,"distance":1829,"line":11,"station_id":"POK","station_name":"Pondok Jati","time":2,"transit":false},{"time":9,"distance":1236,"station_name":"Jatinegara","transit":true,"line":1,"i_long":106.86807400000001,"station_id":"JNG","i_lat":-6.215091,"is_transit":true},{"line":1,"station_name":"Matraman","transit":false,"distance":1377,"time":2,"is_transit":false,"station_id":"MTR","i_lat":-6.212485,"i_long":106.858896},{"station_name":"Manggarai","i_long":106.84912,"distance":1275,"transit":true,"is_transit":true,"i_lat":-6.209883,"line":2,"time":2,"station_id":"MRI"},{"i_long":106.840169,"is_transit":false,"time":4,"i_lat":-6.198556,"line":2,"station_name":"Cikini","station_id":"CKI","transit":false,"distance":1590},{"is_transit":false,"station_name":"Gondangdia","time":3,"distance":1750,"station_id":"GDD","i_lat":-6.186295,"i_long":106.832183,"transit":false,"line":2},{"station_id":"JUA","i_long":106.828284,"line":2,"station_name":"Juanda","time":4,"distance":2015,"i_lat":-6.166716,"is_transit":false,"transit":false},{"station_name":"Sawah Besar","is_transit":false,"distance":1149,"transit":false,"time":2,"i_lat":-6.160725,"line":2,"i_long":106.827103,"station_id":"SW"},{"i_lat":-6.149769,"station_name":"Manggabesar","i_long":106.82482,"is_transit":false,"line":2,"transit":false,"time":2,"distance":906,"station_id":"MGB"},{"line":2,"is_transit":false,"time":2,"i_long":106.820901,"transit":false,"station_id":"JAY","i_lat":-6.141205,"station_name":"Jayakarta","distance":1080},{"station_id":"JAKK","i_long":106.812439,"station_name":"Jakarta Kota","is_transit":true,"time":4,"transit":true,"distance":1264,"i_lat":-6.137569,"line":2},{"i_lat":-6.132549,"time":3,"line":4,"transit":true,"station_id":"KPB","is_transit":true,"i_long":106.826365,"station_name":"Kampung Bandan","distance":1364},{"i_lat":-6.144674,"time":9,"station_id":"AK","transit":false,"distance":4102,"i_long":106.79867,"station_name":"Angke","is_transit":false,"line":1},{"is_transit":true,"station_name":"Duri","time":4,"distance":1230,"line":1,"transit":true,"i_lat":-6.155215,"station_id":"DU","i_long":106.800832},{"i_lat":-6.162021,"i_long":106.788277,"is_transit":false,"line":5,"transit":false,"station_name":"Grogol","time":3,"distance":1700,"station_id":"GGL"},{"is_transit":false,"i_long":106.771379,"station_name":"Pesing","time":2,"transit":false,"station_id":"PSG","line":5,"i_lat":-6.161433,"distance":2036},{"station_name":"Taman Kota","time":2,"distance":1614,"i_long":106.756522,"i_lat":-6.1587309999999995,"is_transit":false,"line":5,"station_id":"TKO","transit":false},{"transit":false,"is_transit":false,"distance":2334,"line":5,"time":2,"station_name":"Bojongindah","i_long":106.737035,"i_lat":-6.159876,"station_id":"BOI"},{"is_transit":false,"distance":1152,"time":4,"station_id":"RW","station_name":"Rawa Buaya","i_long":106.723064,"transit":false,"i_lat":-6.162758,"line":5},{"distance":2504,"is_transit":false,"station_id":"KDS","i_long":106.701612,"i_lat":-6.166068,"line":5,"transit":false,"time":3,"station_name":"Kalideres"}],[{"distance":0,"i_long":106.855437,"station_name":"Kramat","station_id":"KMT","time":0,"is_transit":false,"transit":false,"i_lat":-6.193792,"line":11},{"i_long":106.850107,"i_lat":-6.185975,"line":11,"is_transit":false,"transit":false,"station_id":"GST","station_name":"Gang Sentiong","distance":973,"time":1},{"i_long":106.84368,"is_transit":false,"station_name":"Pasar Senen","transit":false,"i_lat":-6.174784,"station_id":"PSE","distance":1567,"time":8,"line":11},{"transit":false,"is_transit":false,"station_id":"KMO","i_lat":-6.161728,"line":11,"i_long":106.839204,"station_name":"Kemayoran","time":4,"distance":1436},{"time":5,"i_lat":-6.14505,"is_transit":false,"distance":1901,"i_long":106.836569,"station_name":"Rajawali","transit":false,"station_id":"RJW","line":11},{"i_long":106.826365,"transit":true,"station_id":"KPB","i_lat":-6.132549,"station_name":"Kampung Bandan","distance":1444,"line":4,"time":3,"is_transit":true},{"i_long":106.812439,"transit":true,"line":2,"station_name":"Jakarta Kota","is_transit":true,"i_lat":-6.137569,"distance":1364,"time":3,"station_id":"JAKK"},{"station_name":"Jayakarta","distance":1264,"station_id":"JAY","i_lat":-6.141205,"time":4,"is_transit":false,"transit":false,"i_long":106.820901,"line":2},{"station_id":"MGB","distance":1080,"line":2,"station_name":"Manggabesar","is_transit":false,"i_long":106.82482,"transit":false,"time":2,"i_lat":-6.149769},{"distance":906,"transit":false,"time":2,"i_long":106.827103,"line":2,"station_name":"Sawah Besar","is_transit":false,"station_id":"SW","i_lat":-6.160725},{"transit":false,"time":2,"station_name":"Juanda","distance":1149,"line":2,"is_transit":false,"i_long":106.828284,"i_lat":-6.166716,"station_id":"JUA"},{"station_id":"GDD","transit":false,"station_name":"Gondangdia","distance":2015,"i_long":106.832183,"is_transit":false,"i_lat":-6.186295,"time":4,"line":2},{"time":3,"line":2,"is_transit":false,"station_name":"Cikini","transit":false,"station_id":"CKI","distance":1750,"i_long":106.840169,"i_lat":-6.198556},{"distance":1590,"station_id":"MRI","transit":true,"i_lat":-6.209883,"is_transit":true,"line":2,"station_name":"Manggarai","time":4,"i_long":106.84912},{"is_transit":false,"time":4,"transit":false,"station_name":"Sudirman","i_long":106.822649,"station_id":"SUD","line":1,"distance":3186,"i_lat":-6.202263},{"time":1,"is_transit":false,"transit":false,"distance":280,"i_long":106.819881,"station_name":"Sudirman Baru","i_lat":-6.201433,"line":1,"station_id":"SUDB"},{"station_name":"Karet","time":1,"line":1,"distance":471,"station_id":"KAT","is_transit":false,"i_long":106.816351,"i_lat":-6.20132,"transit":false},{"station_id":"THB","time":5,"distance":2029,"i_long":106.811091,"i_lat":-6.185545,"station_name":"Tanah Abang","is_transit":false,"line":1,"transit":false},{"time":8,"is_transit":true,"transit":true,"station_name":"Duri","station_id":"DU","i_long":106.800832,"distance":3632,"i_lat":-6.155215,"line":1},{"i_lat":-6.162021,"distance":1700,"i_long":106.788277,"is_transit":false,"station_id":"GGL","transit":false,"time":3,"station_name":"Grogol","line":5},{"line":5,"station_name":"Pesing","transit":false,"i_lat":-6.161433,"distance":2036,"is_transit":false,"station_id":"PSG","i_long":106.771379,"time":2},{"station_name":"Taman Kota","line":5,"distance":1614,"i_lat":-6.1587309999999995,"station_id":"TKO","time":2,"i_long":106.756522,"is_transit":false,"transit":false},{"line":5,"station_id":"BOI","time":2,"transit":false,"distance":2334,"i_lat":-6.159876,"is_transit":false,"station_name":"Bojongindah","i_long":106.737035},{"line":5,"distance":1152,"time":4,"station_name":"Rawa Buaya","is_transit":false,"transit":false,"station_id":"RW","i_lat":-6.162758,"i_long":106.723064},{"time":3,"transit":false,"station_id":"KDS","station_name":"Kalideres","is_transit":false,"distance":2504,"i_long":106.701612,"line":5,"i_lat":-6.166068}]]}