{"data":[[{"station_name":"Kramat","distance":0,"time":0,"is_transit":false,"transit":false,"i_long":106.855437,"line":11,"i_lat":-6.193792,"station_id":"KMT"},{"i_long":106.861737,"is_transit":false,"transit":false,"time":2,"station_name":"Pondok Jati","i_lat":-6.209188,"line":11,"station_id":"POK","distance":1829},{"is_transit":true,"i_long":106.86807400000001,"distance":1236,"time":9,"i_lat":-6.215091,"line":1,"station_id":"JNG","station_name":"Jatinegara","transit":true},{"station_id":"MTR","station_name":"Matraman","i_lat":-6.212485,"distance":1377,"i_long":106.858896,"line":1,"is_transit":false,"transit":false,"time":2},{"line":2,"i_long":106.84912,"distance":1275,"time":2,"station_id":"MRI","station_name":"Manggarai","transit":true,"is_transit":true,"i_lat":-6.209883},{"distance":2610,"time":4,"transit":false,"i_lat":-6.226659,"is_transit":false,"line":2,"station_id":"TEB","i_long":106.857948,"station_name":"Tebet"},{"line":2,"i_long":106.856607,"time":2,"transit":false,"i_lat":-6.242512,"station_name":"Cawang","distance":1230,"is_transit":false,"station_id":"CW"},{"i_lat":-6.255332,"station_id":"DRN","line":2,"station_name":"Duren Kalibata","transit":false,"i_long":106.85449,"time":3,"is_transit":false,"distance":1546},{"station_id":"PSMB","i_long":106.851577,"transit":false,"line":2,"time":2,"distance":824,"station_name":"Pasar Minggu Baru","i_lat":-6.263214,"is_transit":false},{"i_long":106.843999,"i_lat":-6.2842400000000005,"is_transit":false,"station_name":"Pasar Minggu","distance":2380,"transit":false,"time":2,"line":2,"station_id":"PSM"},{"transit":false,"distance":2820,"line":2,"time":4,"station_id":"TNT","station_name":"Tanjung Barat","i_lat":-6.3080680000000005,"is_transit":false,"i_long":106.838896},{"station_id":"LNA","time":3,"station_name":"Lenteng Agung","distance":2671,"is_transit":false,"i_lat":-6.330363,"i_long":106.832616,"line":2,"transit":false},{"i_lat":-6.339291,"line":2,"station_id":"UP","i_long":106.834175,"is_transit":false,"distance":1029,"time":2,"transit":false,"station_name":"Univ. Pancasila"},{"is_transit":false,"distance":2264,"line":2,"i_lat":-6.360749,"station_id":"UI","i_long":106.831474,"time":3,"transit":false,"station_name":"Univ. Indonesia"}],[{"time":0,"i_long":106.855437,"line":11,"i_lat":-6.193792,"distance":0,"is_transit":false,"station_name":"Kramat","transit":false,"station_id":"KMT"},{"transit":false,"line":11,"i_lat":-6.185975,"time":1,"is_transit":false,"i_long":106.850107,"distance":973,"station_name":"Gang Sentiong","station_id":"GST"},{"line":11,"is_transit":false,"time":8,"distance":1567,"station_id":"PSE","i_lat":-6.174784,"i_long":106.84368,"station_name":"Pasar Senen","transit":false},{"distance":1436,"i_long":106.839204,"i_lat":-6.161728,"station_id":"KMO","transit":false,"time":4,"station_name":"Kemayoran","line":11,"is_transit":false},{"i_lat":-6.14505,"line":11,"transit":false,"station_id":"RJW","station_name":"Rajawali","i_long":106.836569,"is_transit":false,"distance":1901,"time":5},{"time":3,"transit":true,"line":4,"station_name":"Kampung Bandan","distance":1444,"i_long":106.826365,"is_transit":true,"i_lat":-6.132549,"station_id":"KPB"},{"station_name":"Angke","is_transit":false,"i_long":106.79867,"station_id":"AK","i_lat":-6.144674,"line":1,"distance":4102,"time":9,"transit":false},{"transit":false,"i_long":106.800832,"line":1,"is_transit":false,"distance":1230,"i_lat":-6.155215,"time":4,"station_id":"DU","station_name":"Duri"},{"distance":3632,"transit":false,"i_lat":-6.185545,"i_long":106.811091,"line":1,"time":8,"station_name":"Tanah Abang","station_id":"THB","is_transit":false},{"line":1,"station_name":"Karet","transit":false,"is_transit":false,"i_lat":-6.20132,"i_long":106.816351,"distance":2029,"station_id":"KAT","time":5},{"i_lat":-6.201433,"station_name":"Sudirman Baru","i_long":106.819881,"is_transit":false,"time":1,"station_id":"SUDB","transit":false,"distance":471,"line":1},{"time":1,"line":1,"station_name":"Sudirman","i_long":106.822649,"is_transit":false,"i_lat":-6.202263,"distance":280,"station_id":"SUD","transit":false},{"is_transit":true,"transit":true,"time":4,"i_long":106.84912,"line":2,"station_id":"MRI","distance":3186,"station_name":"Manggarai","i_lat":-6.209883},{"time":4,"station_name":"Tebet","line":2,"station_id":"TEB","is_transit":false,"transit":false,"i_long":106.857948,"i_lat":-6.226659,"distance":2610},{"distance":1230,"time":2,"station_id":"CW","i_long":106.856607,"station_name":"Cawang","line":2,"i_lat":-6.242512,"is_transit":false,"transit":false},{"i_long":106.85449,"transit":false,"station_name":"Duren Kalibata","time":3,"line":2,"distance":1546,"station_id":"DRN","is_transit":false,"i_lat":-6.255332},{"i_long":106.851577,"line":2,"distance":824,"station_id":"PSMB","is_transit":false,"transit":false,"time":2,"station_name":"Pasar Minggu Baru","i_lat":-6.263214},{"station_id":"PSM","i_lat":-6.2842400000000005,"line":2,"station_name":"Pasar Minggu","transit":false,"distance":2380,"i_long":106.843999,"time":2,"is_transit":false},{"is_transit":false,"i_lat":-6.3080680000000005,"distance":2820,"time":4,"station_name":"Tanjung Barat","line":2,"station_id":"TNT","i_long":106.838896,"transit":false},{"transit":false,"time":3,"line":2,"station_name":"Lenteng Agung","i_long":106.832616,"distance":2671,"is_transit":false,"station_id":"LNA","i_lat":-6.330363},{"i_long":106.834175,"transit":false,"time":2,"is_transit":false,"station_name":"Univ. Pancasila","i_lat":-6.339291,"station_id":"UP","distance":1029,"line":2},{"is_transit":false,"station_id":"UI","distance":2264,"time":3,"station_name":"Univ. Indonesia","line":2,"i_lat":-6.360749,"transit":false,"i_long":106.831474}],[{"transit":false,"i_lat":-6.193792,"station_id":"KMT","station_name":"Kramat","time":0,"i_long":106.855437,"is_transit":false,"line":11,"distance":0},{"station_id":"GST","i_long":106.850107,"station_name":"Gang Sentiong","i_lat":-6.185975,"line":11,"time":1,"distance":973,"is_transit":false,"transit":false},{"transit":false,"station_name":"Pasar Senen","station_id":"PSE","i_lat":-6.174784,"distance":1567,"time":8,"line":11,"i_long":106.84368,"is_transit":false},{"line":11,"station_name":"Kemayoran","transit":false,"distance":1436,"is_transit":false,"i_long":106.839204,"station_id":"KMO","time":4,"i_lat":-6.161728},{"is_transit":false,"i_lat":-6.14505,"distance":1901,"station_name":"Rajawali","i_long":106.836569,"time":5,"transit":false,"line":11,"station_id":"RJW"},{"line":4,"distance":1444,"time":3,"station_name":"Kampung Bandan","station_id":"KPB","i_long":106.826365,"transit":true,"is_transit":true,"i_lat":-6.132549},{"time":3,"station_id":"JAKK","is_transit":true,"line":2,"distance":1364,"i_lat":-6.137569,"i_long":106.812439,"station_name":"Jakarta Kota","transit":true},{"line":2,"distance":1264,"i_long":106.820901,"time":4,"transit":false,"i_lat":-6.141205,"station_name":"Jayakarta","station_id":"JAY","is_transit":false},{"i_long":106.82482,"station_id":"MGB","time":2,"is_transit":false,"transit":false,"station_name":"Manggabesar","i_lat":-6.149769,"line":2,"distance":1080},{"station_name":"Sawah Besar","i_lat":-6.160725,"is_transit":false,"time":2,"line":2,"i_long":106.827103,"distance":906,"transit":false,"station_id":"SW"},{"transit":false,"line":2,"i_lat":-6.166716,"time":2,"is_transit":false,"station_name":"Juanda","distance":1149,"i_long":106.828284,"station_id":"JUA"},{"i_lat":-6.186295,"station_id":"GDD","station_name":"Gondangdia","i_long":106.832183,"line":2,"is_transit":false,"time":4,"distance":2015,"transit":false},{"station_name":"Cikini","station_id":"CKI","i_long":106.840169,"line":2,"time":3,"transit":false,"is_transit":false,"distance":1750,"i_lat":-6.198556},{"i_lat":-6.209883,"is_transit":false,"line":2,"distance":1590,"time":4,"transit":false,"station_id":"MRI","i_long":106.84912,"station_name":"Manggarai"},{"station_name":"Tebet","time":4,"is_transit":false,"station_id":"TEB","i_lat":-6.226659,"transit":false,"distance":2610,"line":2,"i_long":106.857948},{"i_long":106.856607,"line":2,"station_name":"Cawang","time":2,"i_lat":-6.242512,"station_id":"CW","is_transit":false,"distance":1230,"transit":false},{"is_transit":false,"transit":false,"time":3,"i_long":106.85449,"i_lat":-6.255332,"distance":1546,"station_name":"Duren Kalibata","station_id":"DRN","line":2},{"station_name":"Pasar Minggu Baru","transit":false,"i_lat":-6.263214,"i_long":106.851577,"line":2,"distance":824,"station_id":"PSMB","time":2,"is_transit":false},{"station_id":"PSM","station_name":"Pasar Minggu","time":2,"i_lat":-6.2842400000000005,"i_long":106.843999,"transit":false,"distance":2380,"line":2,"is_transit":false},{"i_lat":-6.3080680000000005,"transit":false,"distance":2820,"line":2,"station_name":"Tanjung Barat","time":4,"i_long":106.838896,"is_transit":false,"station_id":"TNT"},{"is_transit":false,"i_long":106.832616,"line":2,"station_name":"Lenteng Agung","i_lat":-6.330363,"transit":false,"distance":2671,"station_id":"LNA","time":3},{"distance":1029,"transit":false,"i_lat":-6.339291,"i_long":106.834175,"line":2,"station_id":"UP","station_name":"Univ. Pancasila","is_transit":false,"time":2},{"line":2,"station_id":"UI","is_transit":false,"time":3,"distance":2264,"i_lat":-6.360749,"transit":false,"station_name":"Univ. Indonesia","i_long":106.831474}]]}