{"data":[[{"i_long":106.855437,"station_name":"Kramat","distance":0,"time":0,"transit":false,"station_id":"KMT","is_transit":false,"i_lat":-6.193792,"line":11},{"distance":1829,"transit":false,"station_id":"POK","i_long":106.861737,"station_name":"Pondok Jati","line":11,"time":2,"i_lat":-6.209188,"is_transit":false},{"station_id":"JNG","time":9,"station_name":"Jatinegara","i_lat":-6.215091,"distance":1236,"transit":true,"line":1,"i_long":106.86807400000001,"is_transit":true},{"line":1,"station_name":"Klender","i_long":106.899548,"is_transit":false,"station_id":"KLD","time":3,"transit":false,"distance":3395,"i_lat":-6.2135},{"is_transit":false,"line":1,"station_name":"Buaran","distance":3100,"time":2,"transit":false,"i_long":106.922662,"station_id":"BUA","i_lat":-6.215568},{"i_long":106.939679,"distance":1305,"time":1,"transit":false,"station_id":"KLDB","i_lat":-6.217455,"line":1,"is_transit":false,"station_name":"Klenderbaru"}],[{"time":0,"station_name":"Kramat","transit":false,"is_transit":false,"distance":0,"line":11,"i_long":106.855437,"station_id":"KMT","i_lat":-6.193792},{"i_long":106.850107,"distance":973,"line":11,"time":1,"station_id":"GST","is_transit":false,"station_name":"Gang Sentiong","transit":false,"i_lat":-6.185975},{"distance":1567,"line":11,"is_transit":false,"station_name":"Pasar Senen","transit":false,"i_lat":-6.174784,"i_long":106.84368,"station_id":"PSE","time":8},{"i_lat":-6.161728,"is_transit":false,"station_id":"KMO","time":4,"line":11,"distance":1436,"station_name":"Kemayoran","transit":false,"i_long":106.839204},{"line":11,"time":5,"transit":false,"station_id":"RJW","is_transit":false,"i_lat":-6.14505,"station_name":"Rajawali","distance":1901,"i_long":106.836569},{"distance":1444,"time":3,"i_lat":-6.132549,"station_name":"Kampung Bandan","station_id":"KPB","is_transit":true,"i_long":106.826365,"line":4,"transit":true},{"i_long":106.79867,"distance":4102,"is_transit":false,"station_name":"Angke","transit":false,"i_lat":-6.144674,"line":1,"time":9,"station_id":"AK"},{"time":4,"is_transit":false,"i_lat":-6.155215,"line":1,"transit":false,"i_long":106.800832,"distance":1230,"station_name":"Duri","station_id":"DU"},{"line":1,"station_id":"THB","is_transit":false,"station_name":"Tanah Abang","distance":3632,"i_long":106.811091,"transit":false,"time":8,"i_lat":-6.185545},{"distance":2029,"station_name":"Karet","station_id":"KAT","line":1,"is_transit":false,"transit":false,"time":5,"i_lat":-6.20132,"i_long":106.816351},{"is_transit":false,"i_long":106.819881,"distance":471,"station_id":"SUDB","transit":false,"station_name":"Sudirman Baru","line":1,"i_lat":-6.201433,"time":1},{"transit":false,"time":1,"station_id":"SUD","i_long":106.822649,"distance":280,"line":1,"i_lat":-6.202263,"is_transit":false,"station_name":"Sudirman"},{"line":2,"time":4,"transit":false,"station_name":"Manggarai","station_id":"MRI","i_long":106.84912,"distance":3186,"is_transit":false,"i_lat":-6.209883},{"transit":false,"distance":1275,"i_lat":-6.212485,"time":2,"station_name":"Matraman","i_long":106.858896,"line":1,"is_transit":false,"station_id":"MTR"},{"i_lat":-6.215091,"transit":false,"station_name":"Jatinegara","is_transit":false,"time":8,"i_long":106.86807400000001,"line":1,"distance":1377,"station_id":"JNG"},{"station_name":"Klender","is_transit":false,"line":1,"distance":3395,"transit":false,"i_lat":-6.2135,"i_long":106.899548,"time":3,"station_id":"KLD"},{"time":2,"transit":false,"i_long":106.922662,"station_name":"Buaran","i_lat":-6.215568,"is_transit":false,"distance":3100,"station_id":"BUA","line":1},{"station_id":"KLDB","transit":false,"i_long":106.939679,"station_name":"Klenderbaru","is_transit":false,"distance":1305,"time":1,"line":1,"i_lat":-6.217455}],[{"station_id":"KMT","distance":0,"time":0,"is_transit":false,"i_lat":-6.193792,"i_long":106.855437,"station_name":"Kramat","transit":false,"line":11},{"i_lat":-6.185975,"station_name":"Gang Sentiong","distance":973,"is_transit":false,"time":1,"transit":false,"station_id":"GST","i_long":106.850107,"line":11},{"distance":1567,"station_name":"Pasar Senen","time":8,"station_id":"PSE","is_transit":false,"line":11,"i_lat":-6.174784,"i_long":106.84368,"transit":false},{"transit":false,"i_lat":-6.161728,"station_id":"KMO","distance":1436,"i_long":106.839204,"is_transit":false,"time":4,"station_name":"Kemayoran","line":11},{"i_lat":-6.14505,"line":11,"station_name":"Rajawali","transit":false,"time":5,"distance":1901,"is_transit":false,"i_long":106.836569,"station_id":"RJW"},{"time":3,"i_long":106.826365,"distance":1444,"station_id":"KPB","transit":true,"station_name":"Kampung Bandan","line":4,"is_transit":true,"i_lat":-6.132549},{"transit":true,"i_long":106.812439,"distance":1364,"station_name":"Jakarta Kota","time":3,"station_id":"JAKK","is_transit":true,"i_lat":-6.137569,"line":2},{"station_name":"Jayakarta","time":4,"i_long":106.820901,"station_id":"JAY","is_transit":false,"i_lat":-6.141205,"line":2,"distance":1264,"transit":false},{"i_lat":-6.149769,"line":2,"is_transit":false,"time":2,"station_name":"Manggabesar","transit":false,"i_long":106.82482,"distance":1080,"station_id":"MGB"},{"time":2,"i_lat":-6.160725,"line":2,"distance":906,"transit":false,"station_id":"SW","i_long":106.827103,"station_name":"Sawah Besar","is_transit":false},{"line":2,"distance":1149,"station_name":"Juanda","station_id":"JUA","transit":false,"is_transit":false,"i_long":106.828284,"time":2,"i_lat":-6.166716},{"is_transit":false,"distance":2015,"transit":false,"i_lat":-6.186295,"station_name":"Gondangdia","time":4,"station_id":"GDD","i_long":106.832183,"line":2},{"station_id":"CKI","line":2,"distance":1750,"time":3,"transit":false,"i_lat":-6.198556,"i_long":106.840169,"is_transit":false,"station_name":"Cikini"},{"time":4,"is_transit":true,"transit":true,"i_long":106.84912,"i_lat":-6.209883,"line":2,"distance":1590,"station_name":"Manggarai","station_id":"MRI"},{"is_transit":false,"station_name":"Matraman","station_id":"MTR","i_lat":-6.212485,"i_long":106.858896,"line":1,"time":2,"transit":false,"distance":1275},{"time":8,"distance":1377,"line":1,"station_id":"JNG","transit":false,"station_name":"Jatinegara","i_lat":-6.215091,"i_long":106.86807400000001,"is_transit":false},{"station_id":"KLD","i_long":106.899548,"time":3,"is_transit":false,"distance":3395,"transit":false,"i_lat":-6.2135,"station_name":"Klender","line":1},{"distance":3100,"i_lat":-6.215568,"station_id":"BUA","transit":false,"line":1,"station_name":"Buaran","is_transit":false,"time":2,"i_long":106.922662},{"line":1,"station_name":"Klenderbaru","time":1,"station_id":"KLDB","i_lat":-6.217455,"i_long":106.939679,"distance":1305,"transit":false,"is_transit":false}]]}