{"data":[[{"distance":0,"station_id":"KMT","i_long":106.855437,"i_lat":-6.193792,"is_transit":false,"line":11,"time":0,"station_name":"Kramat","transit":false},{"station_name":"Pondok Jati","line":11,"station_id":"POK","is_transit":false,"time":2,"i_long":106.861737,"i_lat":-6.209188,"transit":false,"distance":1829},{"station_id":"JNG","station_name":"Jatinegara","time":9,"line":1,"distance":1236,"transit":true,"is_transit":true,"i_lat":-6.215091,"i_long":106.86807400000001},{"line":1,"time":3,"station_id":"KLD","station_name":"Klender","i_long":106.899548,"distance":3395,"i_lat":-6.2135,"transit":false,"is_transit":false},{"station_id":"BUA","time":2,"station_name":"Buaran","distance":3100,"i_long":106.922662,"is_transit":false,"i_lat":-6.215568,"line":1,"transit":false},{"station_name":"Klenderbaru","time":1,"i_long":106.939679,"station_id":"KLDB","is_transit":false,"i_lat":-6.217455,"line":1,"distance":1305,"transit":false}],[{"distance":0,"station_name":"Kramat","is_transit":false,"i_long":106.855437,"transit":false,"time":0,"i_lat":-6.193792,"line":11,"station_id":"KMT"},{"is_transit":false,"station_name":"Gang Sentiong","time":1,"station_id":"GST","i_lat":-6.185975,"distance":973,"transit":false,"i_long":106.850107,"line":11},{"i_long":106.84368,"station_id":"PSE","station_name":"Pasar Senen","transit":false,"line":11,"time":8,"is_transit":false,"distance":1567,"i_lat":-6.174784},{"transit":false,"is_transit":false,"i_long":106.839204,"time":4,"station_id":"KMO","i_lat":-6.161728,"distance":1436,"station_name":"Kemayoran","line":11},{"i_long":106.836569,"transit":false,"distance":1901,"station_name":"Rajawali","station_id":"RJW","time":5,"is_transit":false,"line":11,"i_lat":-6.14505},{"station_id":"KPB","is_transit":true,"time":3,"distance":1444,"i_lat":-6.132549,"i_long":106.826365,"line":4,"transit":true,"station_name":"Kampung Bandan"},{"station_id":"AK","line":1,"transit":false,"station_name":"Angke","distance":4102,"i_lat":-6.144674,"is_transit":false,"time":9,"i_long":106.79867},{"station_name":"Duri","transit":false,"i_long":106.800832,"is_transit":false,"line":1,"distance":1230,"time":4,"i_lat":-6.155215,"station_id":"DU"},{"station_name":"Tanah Abang","i_lat":-6.185545,"time":8,"i_long":106.811091,"station_id":"THB","transit":false,"distance":3632,"is_transit":false,"line":1},{"is_transit":false,"line":1,"time":5,"distance":2029,"transit":false,"station_id":"KAT","i_lat":-6.20132,"i_long":106.816351,"station_name":"Karet"},{"i_long":106.819881,"station_name":"Sudirman Baru","distance":471,"line":1,"is_transit":false,"time":1,"transit":false,"station_id":"SUDB","i_lat":-6.201433},{"station_name":"Sudirman","station_id":"SUD","is_transit":false,"time":1,"distance":280,"i_lat":-6.202263,"line":1,"transit":false,"i_long":106.822649},{"time":4,"is_transit":false,"i_lat":-6.209883,"line":2,"transit":false,"i_long":106.84912,"station_name":"Manggarai","distance":3186,"station_id":"MRI"},{"is_transit":false,"station_name":"Matraman","station_id":"MTR","transit":false,"i_long":106.858896,"distance":1275,"i_lat":-6.212485,"time":2,"line":1},{"is_transit":false,"station_name":"Jatinegara","time":8,"i_long":106.86807400000001,"station_id":"JNG","i_lat":-6.215091,"transit":false,"line":1,"distance":1377},{"station_id":"KLD","transit":false,"station_name":"Klender","time":3,"i_lat":-6.2135,"line":1,"is_transit":false,"distance":3395,"i_long":106.899548},{"transit":false,"station_id":"BUA","is_transit":false,"time":2,"distance":3100,"i_lat":-6.215568,"i_long":106.922662,"station_name":"Buaran","line":1},{"distance":1305,"i_lat":-6.217455,"station_name":"Klenderbaru","i_long":106.939679,"transit":false,"station_id":"KLDB","time":1,"line":1,"is_transit":false}],[{"station_name":"Kramat","transit":false,"time":0,"i_lat":-6.193792,"line":11,"i_long":106.855437,"distance":0,"station_id":"KMT","is_transit":false},{"distance":973,"station_name":"Gang Sentiong","i_lat":-6.185975,"station_id":"GST","line":11,"i_long":106.850107,"transit":false,"is_transit":false,"time":1},{"time":8,"distance":1567,"i_lat":-6.174784,"station_id":"PSE","i_long":106.84368,"line":11,"transit":false,"is_transit":false,"station_name":"Pasar Senen"},{"line":11,"is_transit":false,"station_id":"KMO","i_lat":-6.161728,"i_long":106.839204,"time":4,"distance":1436,"transit":false,"station_name":"Kemayoran"},{"distance":1901,"transit":false,"station_id":"RJW","i_lat":-6.14505,"line":11,"time":5,"i_long":106.836569,"is_transit":false,"station_name":"Rajawali"},{"distance":1444,"i_lat":-6.132549,"transit":true,"station_name":"Kampung Bandan","is_transit":true,"time":3,"station_id":"KPB","i_long":106.826365,"line":4},{"transit":true,"station_name":"Jakarta Kota","station_id":"JAKK","i_long":106.812439,"distance":1364,"is_transit":true,"i_lat":-6.137569,"line":2,"time":3},{"time":4,"station_name":"Jayakarta","is_transit":false,"i_lat":-6.141205,"i_long":106.820901,"line":2,"station_id":"JAY","distance":1264,"transit":false},{"time":2,"transit":false,"is_transit":false,"i_long":106.82482,"line":2,"station_name":"Manggabesar","station_id":"MGB","distance":1080,"i_lat":-6.149769},{"i_long":106.827103,"is_transit":false,"station_name":"Sawah Besar","station_id":"SW","distance":906,"i_lat":-6.160725,"transit":false,"time":2,"line":2},{"distance":1149,"i_lat":-6.166716,"i_long":106.828284,"station_id":"JUA","transit":false,"line":2,"station_name":"Juanda","time":2,"is_transit":false},{"station_id":"GDD","time":4,"station_name":"Gondangdia","transit":false,"is_transit":false,"distance":2015,"i_lat":-6.186295,"i_long":106.832183,"line":2},{"station_name":"Cikini","i_long":106.840169,"time":3,"is_transit":false,"line":2,"distance":1750,"transit":false,"i_lat":-6.198556,"station_id":"CKI"},{"i_lat":-6.209883,"i_long":106.84912,"station_name":"Manggarai","line":2,"time":4,"transit":true,"is_transit":true,"distance":1590,"station_id":"MRI"},{"distance":1275,"station_name":"Matraman","i_long":106.858896,"transit":false,"time":2,"i_lat":-6.212485,"line":1,"station_id":"MTR","is_transit":false},{"station_name":"Jatinegara","station_id":"JNG","is_transit":false,"transit":false,"time":8,"distance":1377,"i_lat":-6.215091,"i_long":106.86807400000001,"line":1},{"distance":3395,"station_id":"KLD","transit":false,"time":3,"is_transit":false,"line":1,"i_lat":-6.2135,"i_long":106.899548,"station_name":"Klender"},{"station_name":"Buaran","i_long":106.922662,"line":1,"is_transit":false,"transit":false,"time":2,"station_id":"BUA","distance":3100,"i_lat":-6.215568},{"i_long":106.939679,"transit":false,"is_transit":false,"i_lat":-6.217455,"time":1,"station_id":"KLDB","distance":1305,"line":1,"station_name":"Klenderbaru"}]]}