{"data":[[{"transit":false,"i_long":106.855437,"distance":0,"i_lat":-6.193792,"time":0,"is_transit":false,"line":11,"station_name":"Kramat","station_id":"KMT"},{"is_transit":false,"station_name":"Gang Sentiong","station_id":"GST","i_lat":-6.185975,"transit":false,"line":11,"i_long":106.850107,"distance":973,"time":1}],[{"transit":false,"i_lat":-6.193792,"i_long":106.855437,"is_transit":false,"station_id":"KMT","line":11,"station_name":"Kramat","time":0,"distance":0},{"line":11,"station_id":"POK","is_transit":false,"station_name":"Pondok Jati","i_lat":-6.209188,"transit":false,"distance":1829,"time":2,"i_long":106.861737},{"distance":1236,"i_lat":-6.215091,"i_long":106.86807400000001,"station_id":"JNG","is_transit":true,"transit":true,"line":1,"time":9,"station_name":"Jatinegara"},{"transit":false,"line":1,"distance":1377,"station_name":"Matraman","i_long":106.858896,"i_lat":-6.212485,"is_transit":false,"station_id":"MTR","time":2},{"time":2,"line":2,"station_name":"Manggarai","distance":1275,"is_transit":false,"i_lat":-6.209883,"i_long":106.84912,"transit":false,"station_id":"MRI"},{"i_long":106.822649,"time":4,"station_id":"SUD","transit":false,"distance":3186,"station_name":"Sudirman","line":1,"is_transit":false,"i_lat":-6.202263},{"line":1,"time":1,"station_name":"Sudirman Baru","distance":280,"station_id":"SUDB","transit":false,"i_long":106.819881,"is_transit":false,"i_lat":-6.201433},{"station_id":"KAT","i_long":106.816351,"transit":false,"i_lat":-6.20132,"line":1,"is_transit":false,"distance":471,"time":1,"station_name":"Karet"},{"station_id":"THB","transit":false,"i_long":106.811091,"distance":2029,"line":1,"is_transit":false,"station_name":"Tanah Abang","i_lat":-6.185545,"time":5},{"distance":3632,"is_transit":false,"station_id":"DU","transit":false,"time":8,"station_name":"Duri","i_long":106.800832,"i_lat":-6.155215,"line":1},{"is_transit":false,"station_id":"AK","i_long":106.79867,"distance":1230,"line":1,"station_name":"Angke","i_lat":-6.144674,"transit":false,"time":4},{"i_lat":-6.132549,"line":4,"distance":4102,"is_transit":true,"station_id":"KPB","transit":true,"i_long":106.826365,"station_name":"Kampung Bandan","time":9},{"i_long":106.836569,"distance":1444,"time":3,"is_transit":false,"i_lat":-6.14505,"station_id":"RJW","line":11,"station_name":"Rajawali","transit":false},{"i_lat":-6.161728,"transit":false,"distance":1901,"is_transit":false,"station_id":"KMO","line":11,"i_long":106.839204,"station_name":"Kemayoran","time":5},{"i_lat":-6.174784,"station_name":"Pasar Senen","transit":false,"station_id":"PSE","line":11,"time":4,"is_transit":false,"distance":1436,"i_long":106.84368},{"distance":1567,"i_long":106.850107,"time":8,"is_transit":false,"station_name":"Gang Sentiong","station_id":"GST","line":11,"i_lat":-6.185975,"transit":false}],[{"is_transit":false,"time":0,"transit":false,"i_lat":-6.193792,"i_long":106.855437,"station_id":"KMT","line":11,"station_name":"Kramat","distance":0},{"station_name":"Pondok Jati","station_id":"POK","distance":1829,"is_transit":false,"line":11,"transit":false,"i_lat":-6.209188,"time":2,"i_long":106.861737},{"time":9,"i_long":106.86807400000001,"line":1,"station_id":"JNG","station_name":"Jatinegara","distance":1236,"is_transit":true,"transit":true,"i_lat":-6.215091},{"is_transit":false,"time":2,"station_id":"MTR","i_lat":-6.212485,"distance":1377,"transit":false,"i_long":106.858896,"station_name":"Matraman","line":1},{"time":2,"i_lat":-6.209883,"station_id":"MRI","station_name":"Manggarai","distance":1275,"i_long":106.84912,"line":2,"is_transit":true,"transit":true},{"transit":false,"distance":1590,"i_lat":-6.198556,"station_name":"Cikini","i_long":106.840169,"is_transit":false,"time":4,"station_id":"CKI","line":2},{"i_lat":-6.186295,"time":3,"i_long":106.832183,"station_name":"Gondangdia","distance":1750,"station_id":"GDD","transit":false,"line":2,"is_transit":false},{"station_id":"JUA","line":2,"distance":2015,"i_long":106.828284,"station_name":"Juanda","time":4,"transit":false,"is_transit":false,"i_lat":-6.166716},{"transit":false,"i_lat":-6.160725,"station_id":"SW","time":2,"station_name":"Sawah Besar","line":2,"is_transit":false,"distance":1149,"i_long":106.827103},{"station_name":"Manggabesar","distance":906,"i_long":106.82482,"time":2,"i_lat":-6.149769,"transit":false,"station_id":"MGB","is_transit":false,"line":2},{"transit":false,"i_long":106.820901,"station_id":"JAY","station_name":"Jayakarta","distance":1080,"i_lat":-6.141205,"line":2,"is_transit":false,"time":2},{"distance":1264,"transit":true,"station_id":"JAKK","is_transit":true,"i_lat":-6.137569,"i_long":106.812439,"line":2,"time":4,"station_name":"Jakarta Kota"},{"time":3,"line":4,"i_long":106.826365,"is_transit":true,"i_lat":-6.132549,"station_name":"Kampung Bandan","transit":true,"station_id":"KPB","distance":1364},{"line":11,"time":3,"is_transit":false,"station_id":"RJW","station_name":"Rajawali","transit":false,"i_lat":-6.14505,"distance":1444,"i_long":106.836569},{"i_long":106.839204,"is_transit":false,"time":5,"i_lat":-6.161728,"line":11,"distance":1901,"transit":false,"station_name":"Kemayoran","station_id":"KMO"},{"line":11,"is_transit":false,"i_lat":-6.174784,"station_name":"Pasar Senen","i_long":106.84368,"transit":false,"time":4,"distance":1436,"station_id":"PSE"},{"line":11,"station_id":"GST","is_transit":false,"time":8,"distance":1567,"i_lat":-6.185975,"i_long":106.850107,"station_name":"Gang Sentiong","transit":false}]]}