{"data":[[{"i_lat":-6.193792,"distance":0,"station_name":"Kramat","time":0,"station_id":"KMT","i_long":106.855437,"line":11,"transit":false,"is_transit":false},{"is_transit":false,"i_long":106.861737,"distance":1829,"i_lat":-6.209188,"time":2,"station_id":"POK","station_name":"Pondok Jati","transit":false,"line":11},{"time":9,"is_transit":true,"station_name":"Jatinegara","i_lat":-6.215091,"transit":true,"line":1,"distance":1236,"i_long":106.86807400000001,"station_id":"JNG"},{"is_transit":false,"time":2,"transit":false,"i_long":106.858896,"distance":1377,"line":1,"station_name":"Matraman","i_lat":-6.212485,"station_id":"MTR"},{"is_transit":false,"station_name":"Manggarai","i_long":106.84912,"time":2,"station_id":"MRI","i_lat":-6.209883,"distance":1275,"transit":false,"line":2},{"station_name":"Sudirman","i_lat":-6.202263,"time":4,"is_transit":false,"transit":false,"distance":3186,"i_long":106.822649,"line":1,"station_id":"SUD"},{"i_lat":-6.201433,"line":1,"transit":false,"station_id":"SUDB","station_name":"Sudirman Baru","time":1,"i_long":106.819881,"is_transit":false,"distance":280},{"distance":471,"i_long":106.816351,"transit":false,"i_lat":-6.20132,"station_id":"KAT","time":1,"line":1,"station_name":"Karet","is_transit":false},{"station_name":"Tanah Abang","transit":true,"i_lat":-6.185545,"i_long":106.811091,"is_transit":true,"line":1,"time":5,"station_id":"THB","distance":2029},{"line":6,"station_name":"Palmerah","i_lat":-6.207404,"distance":3191,"time":6,"station_id":"PLM","is_transit":false,"transit":false,"i_long":106.79689},{"i_long":106.780334,"distance":3737,"station_name":"Kebayoran","station_id":"KBY","time":7,"is_transit":false,"transit":false,"i_lat":-6.237242,"line":6},{"transit":false,"i_long":106.74273,"i_lat":-6.276362,"line":6,"station_name":"Pondokranji","time":8,"station_id":"PDJ","is_transit":false,"distance":6218}],[{"i_lat":-6.193792,"transit":false,"line":11,"i_long":106.855437,"station_id":"KMT","time":0,"distance":0,"station_name":"Kramat","is_transit":false},{"station_name":"Gang Sentiong","is_transit":false,"transit":false,"time":1,"line":11,"i_lat":-6.185975,"station_id":"GST","distance":973,"i_long":106.850107},{"line":11,"i_long":106.84368,"station_name":"Pasar Senen","time":8,"i_lat":-6.174784,"distance":1567,"is_transit":false,"station_id":"PSE","transit":false},{"i_lat":-6.161728,"transit":false,"distance":1436,"station_id":"KMO","station_name":"Kemayoran","is_transit":false,"i_long":106.839204,"line":11,"time":4},{"station_name":"Rajawali","is_transit":false,"line":11,"distance":1901,"i_long":106.836569,"transit":false,"time":5,"i_lat":-6.14505,"station_id":"RJW"},{"is_transit":true,"i_lat":-6.132549,"time":3,"i_long":106.826365,"station_name":"Kampung Bandan","distance":1444,"line":4,"station_id":"KPB","transit":true},{"i_lat":-6.144674,"time":9,"station_id":"AK","i_long":106.79867,"station_name":"Angke","is_transit":false,"line":1,"distance":4102,"transit":false},{"station_name":"Duri","station_id":"DU","i_lat":-6.155215,"line":1,"is_transit":false,"time":4,"distance":1230,"transit":false,"i_long":106.800832},{"distance":3632,"transit":true,"time":8,"i_lat":-6.185545,"station_name":"Tanah Abang","i_long":106.811091,"is_transit":true,"station_id":"THB","line":1},{"transit":false,"station_id":"PLM","i_lat":-6.207404,"station_name":"Palmerah","line":6,"distance":3191,"time":6,"is_transit":false,"i_long":106.79689},{"is_transit":false,"transit":false,"i_lat":-6.237242,"i_long":106.780334,"line":6,"time":7,"station_id":"KBY","distance":3737,"station_name":"Kebayoran"},{"i_long":106.74273,"i_lat":-6.276362,"station_id":"PDJ","station_name":"Pondokranji","distance":6218,"transit":false,"time":8,"is_transit":false,"line":6}],[{"station_name":"Kramat","transit":false,"station_id":"KMT","i_lat":-6.193792,"i_long":106.855437,"line":11,"time":0,"distance":0,"is_transit":false},{"i_lat":-6.209188,"is_transit":false,"line":11,"transit":false,"i_long":106.861737,"station_id":"POK","station_name":"Pondok Jati","distance":1829,"time":2},{"distance":1236,"line":1,"time":9,"station_id":"JNG","i_lat":-6.215091,"transit":true,"is_transit":true,"i_long":106.86807400000001,"station_name":"Jatinegara"},{"i_lat":-6.212485,"station_id":"MTR","distance":1377,"transit":false,"line":1,"station_name":"Matraman","is_transit":false,"i_long":106.858896,"time":2},{"line":2,"distance":1275,"station_name":"Manggarai","is_transit":true,"transit":true,"i_lat":-6.209883,"i_long":106.84912,"time":2,"station_id":"MRI"},{"station_name":"Cikini","distance":1590,"i_lat":-6.198556,"time":4,"line":2,"station_id":"CKI","is_transit":false,"transit":false,"i_long":106.840169},{"i_long":106.832183,"line":2,"time":3,"station_id":"GDD","i_lat":-6.186295,"is_transit":false,"transit":false,"station_name":"Gondangdia","distance":1750},{"time":4,"line":2,"is_transit":false,"i_lat":-6.166716,"i_long":106.828284,"transit":false,"station_id":"JUA","station_name":"Juanda","distance":2015},{"i_lat":-6.160725,"station_name":"Sawah Besar","is_transit":false,"time":2,"station_id":"SW","distance":1149,"transit":false,"i_long":106.827103,"line":2},{"i_long":106.82482,"station_id":"MGB","is_transit":false,"i_lat":-6.149769,"transit":false,"distance":906,"station_name":"Manggabesar","time":2,"line":2},{"distance":1080,"station_name":"Jayakarta","transit":false,"i_long":106.820901,"time":2,"is_transit":false,"i_lat":-6.141205,"station_id":"JAY","line":2},{"station_name":"Jakarta Kota","time":4,"transit":true,"line":2,"is_transit":true,"i_lat":-6.137569,"distance":1264,"i_long":106.812439,"station_id":"JAKK"},{"i_long":106.826365,"transit":true,"distance":1364,"time":3,"station_name":"Kampung Bandan","i_lat":-6.132549,"line":4,"station_id":"KPB","is_transit":true},{"distance":4102,"i_long":106.79867,"transit":false,"i_lat":-6.144674,"line":1,"is_transit":false,"time":9,"station_name":"Angke","station_id":"AK"},{"station_name":"Duri","time":4,"transit":false,"distance":1230,"i_long":106.800832,"i_lat":-6.155215,"line":1,"station_id":"DU","is_transit":false},{"time":8,"line":1,"transit":true,"station_name":"Tanah Abang","i_long":106.811091,"distance":3632,"station_id":"THB","i_lat":-6.185545,"is_transit":true},{"time":6,"i_long":106.79689,"i_lat":-6.207404,"station_id":"PLM","line":6,"is_transit":false,"transit":false,"distance":3191,"station_name":"Palmerah"},{"station_name":"Kebayoran","i_long":106.780334,"line":6,"transit":false,"i_lat":-6.237242,"time":7,"distance":3737,"is_transit":false,"station_id":"KBY"},{"station_id":"PDJ","is_transit":false,"distance":6218,"line":6,"transit":false,"i_lat":-6.276362,"i_long":106.74273,"station_name":"Pondokranji","time":8}],[{"line":11,"station_name":"Kramat","station_id":"KMT","transit":false,"time":0,"i_long":106.855437,"distance":0,"i_lat":-6.193792,"is_transit":false},{"distance":973,"time":1,"transit":false,"is_transit":false,"station_name":"Gang Sentiong","i_long":106.850107,"line":11,"station_id":"GST","i_lat":-6.185975},{"station_id":"PSE","distance":1567,"time":8,"is_transit":false,"transit":false,"station_name":"Pasar Senen","i_long":106.84368,"line":11,"i_lat":-6.174784},{"station_id":"KMO","i_long":106.839204,"i_lat":-6.161728,"time":4,"distance":1436,"station_name":"Kemayoran","line":11,"is_transit":false,"transit":false},{"station_id":"RJW","time":5,"transit":false,"station_name":"Rajawali","i_long":106.836569,"i_lat":-6.14505,"is_transit":false,"distance":1901,"line":11},{"distance":1444,"is_transit":true,"transit":true,"line":4,"station_id":"KPB","i_long":106.826365,"i_lat":-6.132549,"station_name":"Kampung Bandan","time":3},{"is_transit":true,"i_long":106.812439,"transit":true,"distance":1364,"line":2,"station_name":"Jakarta Kota","station_id":"JAKK","i_lat":-6.137569,"time":3},{"distance":1264,"line":2,"i_lat":-6.141205,"i_long":106.820901,"transit":false,"is_transit":false,"time":4,"station_id":"JAY","station_name":"Jayakarta"},{"station_name":"Manggabesar","i_long":106.82482,"time":2,"line":2,"distance":1080,"transit":false,"station_id":"MGB","i_lat":-6.149769,"is_transit":false},{"i_lat":-6.160725,"station_id":"SW","is_transit":false,"station_name":"Sawah Besar","line":2,"distance":906,"i_long":106.827103,"time":2,"transit":false},{"i_long":106.828284,"i_lat":-6.166716,"is_transit":false,"line":2,"distance":1149,"time":2,"station_name":"Juanda","station_id":"JUA","transit":false},{"distance":2015,"transit":false,"i_lat":-6.186295,"is_transit":false,"i_long":106.832183,"line":2,"time":4,"station_name":"Gondangdia","station_id":"GDD"},{"station_id":"CKI","i_long":106.840169,"time":3,"station_name":"Cikini","is_transit":false,"distance":1750,"i_lat":-6.198556,"transit":false,"line":2},{"transit":true,"station_id":"MRI","line":2,"station_name":"Manggarai","i_lat":-6.209883,"time":4,"i_long":106.84912,"is_transit":true,"distance":1590},{"i_lat":-6.202263,"time":4,"distance":3186,"transit":false,"station_name":"Sudirman","i_long":106.822649,"line":1,"station_id":"SUD","is_transit":false},{"time":1,"transit":false,"i_lat":-6.201433,"distance":280,"line":1,"i_long":106.819881,"is_transit":false,"station_name":"Sudirman Baru","station_id":"SUDB"},{"is_transit":false,"transit":false,"station_name":"Karet","i_long":106.816351,"station_id":"KAT","time":1,"i_lat":-6.20132,"line":1,"distance":471},{"station_id":"THB","time":5,"station_name":"Tanah Abang","distance":2029,"line":1,"is_transit":true,"transit":true,"i_long":106.811091,"i_lat":-6.185545},{"i_long":106.79689,"time":6,"i_lat":-6.207404,"is_transit":false,"distance":3191,"line":6,"station_id":"PLM","transit":false,"station_name":"Palmerah"},{"station_id":"KBY","time":7,"distance":3737,"station_name":"Kebayoran","transit":false,"i_lat":-6.237242,"is_transit":false,"i_long":106.780334,"line":6},{"line":6,"distance":6218,"is_transit":false,"i_lat":-6.276362,"station_name":"Pondokranji","time":8,"i_long":106.74273,"station_id":"PDJ","transit":false}]]}