{"data":[[{"transit":false,"i_long":106.855437,"station_name":"Kramat","i_lat":-6.193792,"distance":0,"station_id":"KMT","line":11,"is_transit":false,"time":0},{"i_lat":-6.209188,"time":2,"distance":1829,"station_name":"Pondok Jati","station_id":"POK","transit":false,"i_long":106.861737,"is_transit":false,"line":11},{"is_transit":true,"i_lat":-6.215091,"station_id":"JNG","i_long":106.86807400000001,"time":9,"distance":1236,"transit":true,"line":1,"station_name":"Jatinegara"},{"time":2,"is_transit":false,"station_id":"MTR","distance":1377,"i_lat":-6.212485,"line":1,"station_name":"Matraman","transit":false,"i_long":106.858896},{"station_name":"Manggarai","time":2,"distance":1275,"i_lat":-6.209883,"is_transit":false,"transit":false,"station_id":"MRI","line":2,"i_long":106.84912},{"is_transit":false,"i_long":106.822649,"transit":false,"distance":3186,"station_name":"Sudirman","line":1,"time":4,"i_lat":-6.202263,"station_id":"SUD"},{"time":1,"transit":false,"station_name":"Sudirman Baru","distance":280,"i_long":106.819881,"is_transit":false,"station_id":"SUDB","i_lat":-6.201433,"line":1},{"station_id":"KAT","i_long":106.816351,"transit":false,"is_transit":false,"line":1,"time":1,"station_name":"Karet","distance":471,"i_lat":-6.20132},{"station_id":"THB","is_transit":true,"station_name":"Tanah Abang","i_long":106.811091,"i_lat":-6.185545,"distance":2029,"time":5,"line":1,"transit":true},{"is_transit":false,"distance":3191,"line":6,"i_lat":-6.207404,"station_id":"PLM","transit":false,"time":6,"i_long":106.79689,"station_name":"Palmerah"},{"i_lat":-6.237242,"transit":false,"station_name":"Kebayoran","i_long":106.780334,"line":6,"is_transit":false,"time":7,"distance":3737,"station_id":"KBY"},{"i_long":106.74273,"line":6,"i_lat":-6.276362,"distance":6218,"station_name":"Pondokranji","is_transit":false,"station_id":"PDJ","transit":false,"time":8},{"is_transit":false,"time":3,"transit":false,"line":6,"i_lat":-6.288927,"station_id":"JMU","i_long":106.728916,"distance":2179,"station_name":"Jurangmangu"},{"distance":1994,"station_id":"SDM","is_transit":false,"time":4,"i_long":106.712277,"i_lat":-6.296963,"line":6,"station_name":"Sudimara","transit":false},{"is_transit":false,"i_lat":-6.314823,"transit":false,"station_name":"Rawa Buntu","i_long":106.675475,"line":6,"station_id":"RU","time":6,"distance":4566},{"i_long":106.66566,"i_lat":-6.319871,"line":6,"transit":false,"time":4,"distance":2413,"station_name":"Serpong","station_id":"SRP","is_transit":false}],[{"transit":false,"line":11,"station_name":"Kramat","i_lat":-6.193792,"is_transit":false,"distance":0,"i_long":106.855437,"station_id":"KMT","time":0},{"is_transit":false,"transit":false,"i_lat":-6.185975,"distance":973,"station_name":"Gang Sentiong","i_long":106.850107,"station_id":"GST","line":11,"time":1},{"time":8,"i_lat":-6.174784,"distance":1567,"transit":false,"i_long":106.84368,"line":11,"station_id":"PSE","station_name":"Pasar Senen","is_transit":false},{"is_transit":false,"station_name":"Kemayoran","time":4,"distance":1436,"station_id":"KMO","transit":false,"line":11,"i_long":106.839204,"i_lat":-6.161728},{"i_lat":-6.14505,"station_name":"Rajawali","line":11,"i_long":106.836569,"station_id":"RJW","time":5,"is_transit":false,"distance":1901,"transit":false},{"is_transit":true,"time":3,"line":4,"transit":true,"distance":1444,"station_name":"Kampung Bandan","i_lat":-6.132549,"i_long":106.826365,"station_id":"KPB"},{"transit":false,"station_id":"AK","station_name":"Angke","time":9,"distance":4102,"i_long":106.79867,"line":1,"is_transit":false,"i_lat":-6.144674},{"station_id":"DU","is_transit":false,"line":1,"time":4,"distance":1230,"station_name":"Duri","transit":false,"i_lat":-6.155215,"i_long":106.800832},{"station_id":"THB","time":8,"station_name":"Tanah Abang","transit":true,"distance":3632,"i_lat":-6.185545,"is_transit":true,"i_long":106.811091,"line":1},{"station_id":"PLM","station_name":"Palmerah","is_transit":false,"transit":false,"distance":3191,"i_lat":-6.207404,"i_long":106.79689,"time":6,"line":6},{"station_id":"KBY","i_long":106.780334,"i_lat":-6.237242,"station_name":"Kebayoran","is_transit":false,"transit":false,"distance":3737,"time":7,"line":6},{"station_name":"Pondokranji","station_id":"PDJ","transit":false,"time":8,"distance":6218,"i_lat":-6.276362,"i_long":106.74273,"is_transit":false,"line":6},{"i_long":106.728916,"line":6,"station_id":"JMU","is_transit":false,"station_name":"Jurangmangu","transit":false,"time":3,"distance":2179,"i_lat":-6.288927},{"i_long":106.712277,"station_name":"Sudimara","is_transit":false,"i_lat":-6.296963,"station_id":"SDM","time":4,"distance":1994,"transit":false,"line":6},{"i_long":106.675475,"station_id":"RU","is_transit":false,"transit":false,"i_lat":-6.314823,"line":6,"time":6,"distance":4566,"station_name":"Rawa Buntu"},{"distance":2413,"station_name":"Serpong","is_transit":false,"station_id":"SRP","i_long":106.66566,"i_lat":-6.319871,"time":4,"transit":false,"line":6}],[{"distance":0,"i_lat":-6.193792,"is_transit":false,"line":11,"i_long":106.855437,"station_id":"KMT","station_name":"Kramat","time":0,"transit":false},{"transit":false,"line":11,"station_name":"Pondok Jati","i_lat":-6.209188,"i_long":106.861737,"is_transit":false,"time":2,"station_id":"POK","distance":1829},{"time":9,"station_id":"JNG","line":1,"i_lat":-6.215091,"station_name":"Jatinegara","i_long":106.86807400000001,"distance":1236,"is_transit":true,"transit":true},{"transit":false,"i_lat":-6.212485,"distance":1377,"station_name":"Matraman","is_transit":false,"i_long":106.858896,"station_id":"MTR","line":1,"time":2},{"time":2,"transit":true,"distance":1275,"line":2,"i_long":106.84912,"i_lat":-6.209883,"station_id":"MRI","station_name":"Manggarai","is_transit":true},{"station_name":"Cikini","station_id":"CKI","is_transit":false,"time":4,"i_long":106.840169,"distance":1590,"transit":false,"i_lat":-6.198556,"line":2},{"station_name":"Gondangdia","distance":1750,"i_lat":-6.186295,"i_long":106.832183,"time":3,"station_id":"GDD","line":2,"is_transit":false,"transit":false},{"station_id":"JUA","i_lat":-6.166716,"i_long":106.828284,"transit":false,"is_transit":false,"time":4,"line":2,"station_name":"Juanda","distance":2015},{"i_long":106.827103,"line":2,"is_transit":false,"time":2,"station_id":"SW","i_lat":-6.160725,"distance":1149,"transit":false,"station_name":"Sawah Besar"},{"distance":906,"station_id":"MGB","i_lat":-6.149769,"i_long":106.82482,"station_name":"Manggabesar","transit":false,"line":2,"is_transit":false,"time":2},{"is_transit":false,"time":2,"station_id":"JAY","transit":false,"i_lat":-6.141205,"line":2,"i_long":106.820901,"station_name":"Jayakarta","distance":1080},{"station_id":"JAKK","line":2,"station_name":"Jakarta Kota","transit":true,"is_transit":true,"time":4,"distance":1264,"i_lat":-6.137569,"i_long":106.812439},{"is_transit":true,"transit":true,"i_lat":-6.132549,"i_long":106.826365,"station_name":"Kampung Bandan","distance":1364,"line":4,"time":3,"station_id":"KPB"},{"station_id":"AK","transit":false,"i_long":106.79867,"distance":4102,"is_transit":false,"line":1,"i_lat":-6.144674,"station_name":"Angke","time":9},{"i_long":106.800832,"time":4,"station_name":"Duri","is_transit":false,"i_lat":-6.155215,"line":1,"transit":false,"distance":1230,"station_id":"DU"},{"line":1,"station_id":"THB","i_lat":-6.185545,"time":8,"transit":true,"is_transit":true,"distance":3632,"station_name":"Tanah Abang","i_long":106.811091},{"is_transit":false,"line":6,"distance":3191,"time":6,"transit":false,"i_long":106.79689,"i_lat":-6.207404,"station_name":"Palmerah","station_id":"PLM"},{"i_lat":-6.237242,"transit":false,"line":6,"time":7,"station_id":"KBY","station_name":"Kebayoran","i_long":106.780334,"is_transit":false,"distance":3737},{"is_transit":false,"station_id":"PDJ","i_lat":-6.276362,"distance":6218,"station_name":"Pondokranji","i_long":106.74273,"time":8,"line":6,"transit":false},{"station_name":"Jurangmangu","transit":false,"distance":2179,"time":3,"line":6,"is_transit":false,"station_id":"JMU","i_lat":-6.288927,"i_long":106.728916},{"i_long":106.712277,"i_lat":-6.296963,"transit":false,"station_name":"Sudimara","station_id":"SDM","is_transit":false,"distance":1994,"time":4,"line":6},{"line":6,"i_long":106.675475,"station_id":"RU","is_transit":false,"transit":false,"station_name":"Rawa Buntu","time":6,"i_lat":-6.314823,"distance":4566},{"distance":2413,"transit":false,"i_lat":-6.319871,"station_id":"SRP","line":6,"station_name":"Serpong","time":4,"is_transit":false,"i_long":106.66566}],[{"i_long":106.855437,"time":0,"i_lat":-6.193792,"is_transit":false,"line":11,"station_id":"KMT","distance":0,"transit":false,"station_name":"Kramat"},{"i_long":106.850107,"time":1,"station_name":"Gang Sentiong","transit":false,"distance":973,"i_lat":-6.185975,"station_id":"GST","line":11,"is_transit":false},{"is_transit":false,"distance":1567,"i_lat":-6.174784,"line":11,"i_long":106.84368,"station_name":"Pasar Senen","time":8,"transit":false,"station_id":"PSE"},{"i_lat":-6.161728,"i_long":106.839204,"distance":1436,"station_id":"KMO","time":4,"is_transit":false,"transit":false,"station_name":"Kemayoran","line":11},{"time":5,"station_name":"Rajawali","is_transit":false,"i_long":106.836569,"station_id":"RJW","line":11,"i_lat":-6.14505,"transit":false,"distance":1901},{"station_name":"Kampung Bandan","time":3,"line":4,"i_lat":-6.132549,"transit":true,"station_id":"KPB","is_transit":true,"distance":1444,"i_long":106.826365},{"line":2,"station_id":"JAKK","i_lat":-6.137569,"i_long":106.812439,"station_name":"Jakarta Kota","time":3,"transit":true,"is_transit":true,"distance":1364},{"line":2,"transit":false,"time":4,"distance":1264,"is_transit":false,"i_lat":-6.141205,"station_id":"JAY","station_name":"Jayakarta","i_long":106.820901},{"i_lat":-6.149769,"distance":1080,"station_id":"MGB","is_transit":false,"line":2,"station_name":"Manggabesar","time":2,"i_long":106.82482,"transit":false},{"transit":false,"distance":906,"i_long":106.827103,"station_id":"SW","station_name":"Sawah Besar","is_transit":false,"time":2,"i_lat":-6.160725,"line":2},{"is_transit":false,"i_lat":-6.166716,"i_long":106.828284,"station_name":"Juanda","transit":false,"line":2,"distance":1149,"station_id":"JUA","time":2},{"time":4,"i_lat":-6.186295,"line":2,"station_name":"Gondangdia","is_transit":false,"distance":2015,"station_id":"GDD","transit":false,"i_long":106.832183},{"transit":false,"line":2,"time":3,"distance":1750,"i_lat":-6.198556,"is_transit":false,"station_id":"CKI","i_long":106.840169,"station_name":"Cikini"},{"transit":true,"distance":1590,"line":2,"i_long":106.84912,"time":4,"i_lat":-6.209883,"is_transit":true,"station_name":"Manggarai","station_id":"MRI"},{"distance":3186,"is_transit":false,"i_lat":-6.202263,"line":1,"station_name":"Sudirman","time":4,"transit":false,"station_id":"SUD","i_long":106.822649},{"station_name":"Sudirman Baru","time":1,"transit":false,"is_transit":false,"distance":280,"line":1,"i_lat":-6.201433,"station_id":"SUDB","i_long":106.819881},{"station_id":"KAT","i_lat":-6.20132,"distance":471,"is_transit":false,"time":1,"station_name":"Karet","i_long":106.816351,"transit":false,"line":1},{"distance":2029,"line":1,"i_lat":-6.185545,"is_transit":true,"station_name":"Tanah Abang","i_long":106.811091,"station_id":"THB","time":5,"transit":true},{"station_id":"PLM","station_name":"Palmerah","is_transit":false,"line":6,"distance":3191,"i_long":106.79689,"time":6,"transit":false,"i_lat":-6.207404},{"i_long":106.780334,"i_lat":-6.237242,"time":7,"station_id":"KBY","is_transit":false,"distance":3737,"line":6,"station_name":"Kebayoran","transit":false},{"line":6,"is_transit":false,"station_name":"Pondokranji","time":8,"i_lat":-6.276362,"station_id":"PDJ","i_long":106.74273,"distance":6218,"transit":false},{"line":6,"transit":false,"time":3,"i_lat":-6.288927,"distance":2179,"i_long":106.728916,"station_name":"Jurangmangu","station_id":"JMU","is_transit":false},{"line":6,"time":4,"station_name":"Sudimara","transit":false,"i_lat":-6.296963,"distance":1994,"i_long":106.712277,"station_id":"SDM","is_transit":false},{"distance":4566,"station_name":"Rawa Buntu","is_transit":false,"transit":false,"i_long":106.675475,"station_id":"RU","line":6,"i_lat":-6.314823,"time":6},{"is_transit":false,"station_name":"Serpong","station_id":"SRP","time":4,"i_lat":-6.319871,"distance":2413,"i_long":106.66566,"line":6,"transit":false}]]}