{"data":[[{"transit":false,"line":11,"station_name":"Kramat","is_transit":false,"i_lat":-6.193792,"station_id":"KMT","i_long":106.855437,"distance":0,"time":0},{"transit":false,"is_transit":false,"station_id":"POK","i_long":106.861737,"time":2,"distance":1829,"i_lat":-6.209188,"line":11,"station_name":"Pondok Jati"},{"i_long":106.86807400000001,"distance":1236,"is_transit":true,"time":9,"station_id":"JNG","station_name":"Jatinegara","i_lat":-6.215091,"line":1,"transit":true},{"i_long":106.858896,"station_id":"MTR","time":2,"transit":false,"station_name":"Matraman","distance":1377,"is_transit":false,"i_lat":-6.212485,"line":1},{"station_name":"Manggarai","i_lat":-6.209883,"is_transit":true,"time":2,"distance":1275,"i_long":106.84912,"station_id":"MRI","transit":true,"line":2},{"station_id":"TEB","i_long":106.857948,"station_name":"Tebet","transit":false,"i_lat":-6.226659,"line":2,"distance":2610,"time":4,"is_transit":false},{"i_lat":-6.242512,"time":2,"distance":1230,"transit":false,"station_id":"CW","line":2,"is_transit":false,"station_name":"Cawang","i_long":106.856607},{"transit":false,"station_name":"Duren Kalibata","station_id":"DRN","line":2,"i_lat":-6.255332,"is_transit":false,"time":3,"i_long":106.85449,"distance":1546},{"distance":824,"i_lat":-6.263214,"i_long":106.851577,"is_transit":false,"transit":false,"line":2,"station_name":"Pasar Minggu Baru","station_id":"PSMB","time":2},{"line":2,"station_name":"Pasar Minggu","i_long":106.843999,"i_lat":-6.2842400000000005,"transit":false,"distance":2380,"station_id":"PSM","is_transit":false,"time":2},{"line":2,"station_name":"Tanjung Barat","distance":2820,"transit":false,"time":4,"i_long":106.838896,"i_lat":-6.3080680000000005,"is_transit":false,"station_id":"TNT"},{"i_long":106.832616,"line":2,"distance":2671,"transit":false,"time":3,"is_transit":false,"i_lat":-6.330363,"station_id":"LNA","station_name":"Lenteng Agung"},{"i_long":106.834175,"station_name":"Univ. Pancasila","time":2,"line":2,"transit":false,"i_lat":-6.339291,"station_id":"UP","is_transit":false,"distance":1029},{"station_name":"Univ. Indonesia","i_lat":-6.360749,"line":2,"station_id":"UI","time":3,"is_transit":false,"distance":2264,"transit":false,"i_long":106.831474}],[{"i_lat":-6.193792,"station_id":"KMT","is_transit":false,"distance":0,"line":11,"station_name":"Kramat","i_long":106.855437,"time":0,"transit":false},{"transit":false,"is_transit":false,"i_long":106.850107,"i_lat":-6.185975,"line":11,"station_id":"GST","station_name":"Gang Sentiong","time":1,"distance":973},{"transit":false,"station_id":"PSE","i_lat":-6.174784,"line":11,"time":8,"station_name":"Pasar Senen","is_transit":false,"i_long":106.84368,"distance":1567},{"distance":1436,"i_long":106.839204,"transit":false,"time":4,"station_name":"Kemayoran","station_id":"KMO","i_lat":-6.161728,"line":11,"is_transit":false},{"i_lat":-6.14505,"line":11,"station_id":"RJW","i_long":106.836569,"transit":false,"time":5,"station_name":"Rajawali","is_transit":false,"distance":1901},{"line":4,"distance":1444,"is_transit":true,"station_name":"Kampung Bandan","i_lat":-6.132549,"transit":true,"i_long":106.826365,"station_id":"KPB","time":3},{"station_name":"Angke","time":9,"i_lat":-6.144674,"line":1,"is_transit":false,"distance":4102,"i_long":106.79867,"transit":false,"station_id":"AK"},{"is_transit":false,"transit":false,"station_name":"Duri","time":4,"i_lat":-6.155215,"distance":1230,"i_long":106.800832,"line":1,"station_id":"DU"},{"time":8,"transit":false,"i_long":106.811091,"station_id":"THB","is_transit":false,"station_name":"Tanah Abang","distance":3632,"i_lat":-6.185545,"line":1},{"i_long":106.816351,"line":1,"is_transit":false,"station_name":"Karet","i_lat":-6.20132,"station_id":"KAT","time":5,"distance":2029,"transit":false},{"distance":471,"station_id":"SUDB","i_lat":-6.201433,"line":1,"station_name":"Sudirman Baru","time":1,"i_long":106.819881,"transit":false,"is_transit":false},{"station_id":"SUD","time":1,"distance":280,"is_transit":false,"transit":false,"i_lat":-6.202263,"station_name":"Sudirman","line":1,"i_long":106.822649},{"is_transit":true,"station_id":"MRI","line":2,"i_long":106.84912,"transit":true,"station_name":"Manggarai","time":4,"i_lat":-6.209883,"distance":3186},{"time":4,"station_name":"Tebet","transit":false,"distance":2610,"station_id":"TEB","line":2,"is_transit":false,"i_lat":-6.226659,"i_long":106.857948},{"station_name":"Cawang","station_id":"CW","distance":1230,"i_lat":-6.242512,"is_transit":false,"time":2,"i_long":106.856607,"transit":false,"line":2},{"time":3,"is_transit":false,"i_lat":-6.255332,"i_long":106.85449,"station_id":"DRN","distance":1546,"transit":false,"station_name":"Duren Kalibata","line":2},{"is_transit":false,"transit":false,"distance":824,"time":2,"station_id":"PSMB","line":2,"station_name":"Pasar Minggu Baru","i_lat":-6.263214,"i_long":106.851577},{"i_lat":-6.2842400000000005,"station_id":"PSM","transit":false,"time":2,"is_transit":false,"i_long":106.843999,"line":2,"station_name":"Pasar Minggu","distance":2380},{"time":4,"i_lat":-6.3080680000000005,"i_long":106.838896,"distance":2820,"station_name":"Tanjung Barat","line":2,"transit":false,"station_id":"TNT","is_transit":false},{"station_name":"Lenteng Agung","is_transit":false,"station_id":"LNA","distance":2671,"i_lat":-6.330363,"line":2,"i_long":106.832616,"transit":false,"time":3},{"time":2,"distance":1029,"is_transit":false,"transit":false,"station_name":"Univ. Pancasila","station_id":"UP","i_lat":-6.339291,"i_long":106.834175,"line":2},{"time":3,"line":2,"station_name":"Univ. Indonesia","distance":2264,"transit":false,"i_long":106.831474,"station_id":"UI","is_transit":false,"i_lat":-6.360749}],[{"distance":0,"transit":false,"station_name":"Kramat","i_lat":-6.193792,"time":0,"is_transit":false,"i_long":106.855437,"line":11,"station_id":"KMT"},{"transit":false,"station_name":"Gang Sentiong","station_id":"GST","i_long":106.850107,"is_transit":false,"line":11,"time":1,"i_lat":-6.185975,"distance":973},{"distance":1567,"time":8,"station_name":"Pasar Senen","line":11,"i_lat":-6.174784,"is_transit":false,"i_long":106.84368,"station_id":"PSE","transit":false},{"i_long":106.839204,"transit":false,"station_name":"Kemayoran","station_id":"KMO","line":11,"distance":1436,"i_lat":-6.161728,"is_transit":false,"time":4},{"distance":1901,"is_transit":false,"transit":false,"time":5,"i_long":106.836569,"station_name":"Rajawali","i_lat":-6.14505,"line":11,"station_id":"RJW"},{"is_transit":true,"distance":1444,"station_id":"KPB","i_long":106.826365,"i_lat":-6.132549,"time":3,"line":4,"transit":true,"station_name":"Kampung Bandan"},{"line":2,"is_transit":true,"distance":1364,"i_lat":-6.137569,"station_name":"Jakarta Kota","transit":true,"station_id":"JAKK","time":3,"i_long":106.812439},{"time":4,"transit":false,"line":2,"i_lat":-6.141205,"station_name":"Jayakarta","is_transit":false,"i_long":106.820901,"station_id":"JAY","distance":1264},{"time":2,"station_name":"Manggabesar","transit":false,"is_transit":false,"i_lat":-6.149769,"station_id":"MGB","distance":1080,"i_long":106.82482,"line":2},{"distance":906,"i_lat":-6.160725,"i_long":106.827103,"station_id":"SW","station_name":"Sawah Besar","time":2,"transit":false,"is_transit":false,"line":2},{"i_lat":-6.166716,"station_id":"JUA","station_name":"Juanda","transit":false,"is_transit":false,"distance":1149,"line":2,"time":2,"i_long":106.828284},{"i_lat":-6.186295,"is_transit":false,"station_name":"Gondangdia","time":4,"transit":false,"distance":2015,"station_id":"GDD","i_long":106.832183,"line":2},{"transit":false,"i_long":106.840169,"station_name":"Cikini","i_lat":-6.198556,"distance":1750,"station_id":"CKI","is_transit":false,"line":2,"time":3},{"i_long":106.84912,"station_id":"MRI","line":2,"is_transit":false,"station_name":"Manggarai","transit":false,"i_lat":-6.209883,"distance":1590,"time":4},{"distance":2610,"line":2,"transit":false,"i_lat":-6.226659,"station_id":"TEB","is_transit":false,"i_long":106.857948,"station_name":"Tebet","time":4},{"i_lat":-6.242512,"line":2,"station_name":"Cawang","distance":1230,"transit":false,"i_long":106.856607,"station_id":"CW","time":2,"is_transit":false},{"station_name":"Duren Kalibata","i_lat":-6.255332,"time":3,"station_id":"DRN","i_long":106.85449,"is_transit":false,"distance":1546,"transit":false,"line":2},{"is_transit":false,"i_lat":-6.263214,"station_id":"PSMB","i_long":106.851577,"distance":824,"transit":false,"station_name":"Pasar Minggu Baru","time":2,"line":2},{"distance":2380,"transit":false,"i_long":106.843999,"station_id":"PSM","time":2,"is_transit":false,"line":2,"i_lat":-6.2842400000000005,"station_name":"Pasar Minggu"},{"transit":false,"time":4,"station_name":"Tanjung Barat","i_lat":-6.3080680000000005,"line":2,"station_id":"TNT","distance":2820,"i_long":106.838896,"is_transit":false},{"i_long":106.832616,"distance":2671,"station_id":"LNA","transit":false,"station_name":"Lenteng Agung","is_transit":false,"line":2,"time":3,"i_lat":-6.330363},{"i_long":106.834175,"transit":false,"station_id":"UP","station_name":"Univ. Pancasila","time":2,"i_lat":-6.339291,"distance":1029,"line":2,"is_transit":false},{"station_id":"UI","line":2,"transit":false,"is_transit":false,"distance":2264,"i_lat":-6.360749,"station_name":"Univ. Indonesia","time":3,"i_long":106.831474}]]}