{"data":[[{"distance":0,"station_id":"KMT","line":11,"time":0,"i_lat":-6.193792,"station_name":"Kramat","transit":false,"is_transit":false,"i_long":106.855437},{"distance":1829,"line":11,"is_transit":false,"station_name":"Pondok Jati","transit":false,"time":2,"station_id":"POK","i_long":106.861737,"i_lat":-6.209188},{"station_id":"JNG","time":9,"line":0,"station_name":"Jatinegara","is_transit":true,"distance":1236,"i_lat":-6.215091,"i_long":106.86807400000001,"transit":true},{"station_name":"Matraman","line":1,"transit":false,"distance":1377,"i_lat":-6.212485,"station_id":"MTR","is_transit":false,"i_long":106.858896,"time":2},{"i_lat":-6.209883,"i_long":106.84912,"station_id":"MRI","is_transit":true,"line":0,"transit":false,"distance":1275,"time":2,"station_name":"Manggarai"},{"station_name":"Sudirman","line":1,"time":4,"distance":3186,"is_transit":false,"transit":false,"i_lat":-6.202263,"i_long":106.822649,"station_id":"SUD"},{"i_lat":-6.201433,"time":1,"station_id":"SUDB","line":1,"distance":280,"i_long":106.819881,"station_name":"Sudirman Baru","is_transit":false,"transit":false},{"is_transit":false,"i_lat":-6.20132,"i_long":106.816351,"line":1,"time":1,"distance":471,"station_id":"KAT","transit":false,"station_name":"Karet"},{"line":1,"transit":true,"distance":2029,"i_lat":-6.185545,"time":5,"is_transit":true,"station_name":"Tanah Abang","station_id":"THB","i_long":106.811091},{"distance":3191,"is_transit":false,"line":6,"station_id":"PLM","time":6,"i_long":106.79689,"station_name":"Palmerah","transit":false,"i_lat":-6.207404},{"line":6,"transit":false,"distance":3737,"station_id":"KBY","time":7,"is_transit":false,"i_lat":-6.237242,"i_long":106.780334,"station_name":"Kebayoran"},{"is_transit":false,"station_id":"PDJ","distance":6218,"time":8,"i_lat":-6.276362,"transit":false,"line":6,"i_long":106.74273,"station_name":"Pondokranji"}],[{"station_name":"Kramat","distance":0,"station_id":"KMT","transit":false,"time":0,"is_transit":false,"i_lat":-6.193792,"i_long":106.855437,"line":11},{"transit":false,"is_transit":false,"station_name":"Gang Sentiong","station_id":"GST","i_long":106.850107,"line":11,"distance":973,"time":1,"i_lat":-6.185975},{"station_name":"Pasar Senen","time":8,"distance":1567,"is_transit":false,"line":11,"i_long":106.84368,"transit":false,"station_id":"PSE","i_lat":-6.174784},{"is_transit":false,"line":11,"station_name":"Kemayoran","transit":false,"i_lat":-6.161728,"station_id":"KMO","distance":1436,"i_long":106.839204,"time":4},{"i_lat":-6.14505,"time":5,"line":11,"station_name":"Rajawali","station_id":"RJW","is_transit":false,"i_long":106.836569,"distance":1901,"transit":false},{"line":0,"time":3,"i_long":106.826365,"station_name":"Kampung Bandan","distance":1444,"transit":true,"is_transit":true,"i_lat":-6.132549,"station_id":"KPB"},{"distance":4102,"station_id":"AK","is_transit":false,"i_long":106.79867,"line":0,"time":9,"i_lat":-6.144674,"transit":false,"station_name":"Angke"},{"is_transit":true,"i_long":106.800832,"station_id":"DU","line":1,"transit":true,"i_lat":-6.155215,"distance":1230,"station_name":"Duri","time":4},{"line":1,"station_name":"Tanah Abang","station_id":"THB","is_transit":true,"transit":true,"i_lat":-6.185545,"time":8,"distance":3632,"i_long":106.811091},{"i_lat":-6.207404,"is_transit":false,"distance":3191,"station_name":"Palmerah","time":6,"station_id":"PLM","i_long":106.79689,"line":6,"transit":false},{"transit":false,"time":7,"is_transit":false,"line":6,"i_long":106.780334,"i_lat":-6.237242,"station_name":"Kebayoran","distance":3737,"station_id":"KBY"},{"is_transit":false,"time":8,"station_id":"PDJ","i_lat":-6.276362,"i_long":106.74273,"line":6,"distance":6218,"station_name":"Pondokranji","transit":false}],[{"time":0,"i_lat":-6.193792,"distance":0,"station_name":"Kramat","transit":false,"is_transit":false,"i_long":106.855437,"line":11,"station_id":"KMT"},{"transit":false,"time":2,"line":11,"i_lat":-6.209188,"station_name":"Pondok Jati","i_long":106.861737,"station_id":"POK","is_transit":false,"distance":1829},{"distance":1236,"is_transit":true,"station_name":"Jatinegara","i_lat":-6.215091,"line":0,"station_id":"JNG","i_long":106.86807400000001,"time":9,"transit":true},{"transit":false,"is_transit":false,"distance":1377,"i_long":106.858896,"station_name":"Matraman","station_id":"MTR","time":2,"i_lat":-6.212485,"line":1},{"i_lat":-6.209883,"transit":true,"i_long":106.84912,"line":0,"station_name":"Manggarai","distance":1275,"is_transit":true,"station_id":"MRI","time":2},{"transit":false,"is_transit":false,"distance":1590,"station_id":"CKI","i_lat":-6.198556,"i_long":106.840169,"line":0,"station_name":"Cikini","time":4},{"i_lat":-6.186295,"time":3,"station_id":"GDD","line":2,"station_name":"Gondangdia","transit":false,"i_long":106.832183,"distance":1750,"is_transit":false},{"i_lat":-6.166716,"distance":2015,"station_name":"Juanda","time":4,"station_id":"JUA","transit":false,"is_transit":false,"i_long":106.828284,"line":2},{"i_long":106.827103,"station_name":"Sawah Besar","is_transit":false,"line":2,"transit":false,"time":2,"station_id":"SW","distance":1149,"i_lat":-6.160725},{"transit":false,"i_lat":-6.149769,"station_id":"MGB","line":2,"is_transit":false,"time":2,"i_long":106.82482,"distance":906,"station_name":"Manggabesar"},{"transit":false,"i_lat":-6.141205,"distance":1080,"station_name":"Jayakarta","time":2,"is_transit":false,"line":7,"i_long":106.820901,"station_id":"JAY"},{"transit":true,"distance":1264,"station_name":"Jakarta Kota","i_long":106.812439,"is_transit":true,"time":4,"i_lat":-6.137569,"line":0,"station_id":"JAKK"},{"i_long":106.826365,"station_name":"Kampung Bandan","time":3,"transit":false,"is_transit":true,"distance":1364,"line":0,"station_id":"KPB","i_lat":-6.132549},{"time":9,"i_lat":-6.144674,"station_name":"Angke","transit":false,"distance":4102,"station_id":"AK","i_long":106.79867,"line":0,"is_transit":false},{"is_transit":true,"line":1,"transit":true,"time":4,"station_name":"Duri","i_long":106.800832,"distance":1230,"station_id":"DU","i_lat":-6.155215},{"time":8,"station_name":"Tanah Abang","i_lat":-6.185545,"line":1,"distance":3632,"transit":true,"i_long":106.811091,"is_transit":true,"station_id":"THB"},{"transit":false,"time":6,"i_lat":-6.207404,"station_name":"Palmerah","i_long":106.79689,"station_id":"PLM","is_transit":false,"line":6,"distance":3191},{"is_transit":false,"distance":3737,"station_id":"KBY","time":7,"line":6,"station_name":"Kebayoran","transit":false,"i_lat":-6.237242,"i_long":106.780334},{"distance":6218,"is_transit":false,"station_id":"PDJ","time":8,"transit":false,"i_long":106.74273,"line":6,"i_lat":-6.276362,"station_name":"Pondokranji"}],[{"transit":false,"i_lat":-6.193792,"distance":0,"station_name":"Kramat","time":0,"line":11,"i_long":106.855437,"station_id":"KMT","is_transit":false},{"transit":false,"line":11,"is_transit":false,"i_lat":-6.185975,"distance":973,"station_id":"GST","station_name":"Gang Sentiong","i_long":106.850107,"time":1},{"i_lat":-6.174784,"distance":1567,"time":8,"line":11,"is_transit":false,"i_long":106.84368,"station_id":"PSE","transit":false,"station_name":"Pasar Senen"},{"is_transit":false,"station_name":"Kemayoran","i_lat":-6.161728,"time":4,"station_id":"KMO","transit":false,"distance":1436,"line":11,"i_long":106.839204},{"i_long":106.836569,"transit":false,"is_transit":false,"line":11,"distance":1901,"time":5,"station_id":"RJW","station_name":"Rajawali","i_lat":-6.14505},{"distance":1444,"i_long":106.826365,"is_transit":true,"line":0,"transit":true,"station_id":"KPB","time":3,"i_lat":-6.132549,"station_name":"Kampung Bandan"},{"distance":1364,"time":3,"is_transit":true,"line":0,"station_id":"JAKK","i_long":106.812439,"station_name":"Jakarta Kota","transit":true,"i_lat":-6.137569},{"line":7,"i_long":106.820901,"is_transit":false,"time":4,"station_name":"Jayakarta","station_id":"JAY","transit":false,"distance":1264,"i_lat":-6.141205},{"i_lat":-6.149769,"station_name":"Manggabesar","station_id":"MGB","is_transit":false,"distance":1080,"line":2,"time":2,"i_long":106.82482,"transit":false},{"time":2,"station_id":"SW","transit":false,"i_long":106.827103,"i_lat":-6.160725,"distance":906,"line":2,"is_transit":false,"station_name":"Sawah Besar"},{"line":2,"station_id":"JUA","distance":1149,"transit":false,"i_lat":-6.166716,"i_long":106.828284,"is_transit":false,"station_name":"Juanda","time":2},{"station_id":"GDD","i_lat":-6.186295,"line":2,"distance":2015,"time":4,"station_name":"Gondangdia","is_transit":false,"transit":false,"i_long":106.832183},{"station_name":"Cikini","line":0,"i_lat":-6.198556,"time":3,"station_id":"CKI","i_long":106.840169,"distance":1750,"transit":false,"is_transit":false},{"transit":true,"station_id":"MRI","i_lat":-6.209883,"i_long":106.84912,"station_name":"Manggarai","line":0,"distance":1590,"is_transit":true,"time":4},{"transit":false,"time":4,"i_lat":-6.202263,"i_long":106.822649,"is_transit":false,"line":1,"station_id":"SUD","station_name":"Sudirman","distance":3186},{"station_name":"Sudirman Baru","time":1,"distance":280,"i_lat":-6.201433,"transit":false,"line":1,"station_id":"SUDB","i_long":106.819881,"is_transit":false},{"time":1,"distance":471,"station_id":"KAT","is_transit":false,"line":1,"i_lat":-6.20132,"transit":false,"station_name":"Karet","i_long":106.816351},{"i_long":106.811091,"line":1,"transit":true,"station_id":"THB","station_name":"Tanah Abang","is_transit":true,"distance":2029,"time":5,"i_lat":-6.185545},{"station_id":"PLM","transit":false,"time":6,"distance":3191,"station_name":"Palmerah","i_lat":-6.207404,"i_long":106.79689,"is_transit":false,"line":6},{"distance":3737,"time":7,"station_id":"KBY","i_lat":-6.237242,"station_name":"Kebayoran","is_transit":false,"line":6,"transit":false,"i_long":106.780334},{"transit":false,"station_name":"Pondokranji","line":6,"i_long":106.74273,"station_id":"PDJ","is_transit":false,"i_lat":-6.276362,"distance":6218,"time":8}]]}