{"data":[[{"station_id":"KMT","transit":false,"is_transit":false,"distance":0,"i_lat":-6.193792,"line":11,"i_long":106.855437,"time":0,"station_name":"Kramat"},{"is_transit":false,"station_name":"Gang Sentiong","distance":973,"i_lat":-6.185975,"i_long":106.850107,"line":11,"station_id":"GST","time":1,"transit":false},{"i_long":106.84368,"station_id":"PSE","transit":false,"i_lat":-6.174784,"time":8,"is_transit":false,"line":11,"station_name":"Pasar Senen","distance":1567}],[{"i_lat":-6.193792,"i_long":106.855437,"transit":false,"station_id":"KMT","distance":0,"line":11,"time":0,"is_transit":false,"station_name":"Kramat"},{"i_long":106.861737,"is_transit":false,"transit":false,"distance":1829,"station_name":"Pondok Jati","line":11,"time":2,"i_lat":-6.209188,"station_id":"POK"},{"time":9,"line":1,"i_lat":-6.215091,"station_id":"JNG","station_name":"Jatinegara","i_long":106.86807400000001,"transit":true,"is_transit":true,"distance":1236},{"transit":false,"i_lat":-6.212485,"station_id":"MTR","distance":1377,"line":1,"station_name":"Matraman","i_long":106.858896,"is_transit":false,"time":2},{"station_name":"Manggarai","i_long":106.84912,"line":2,"station_id":"MRI","distance":1275,"i_lat":-6.209883,"is_transit":false,"time":2,"transit":false},{"station_id":"SUD","distance":3186,"i_lat":-6.202263,"is_transit":false,"i_long":106.822649,"transit":false,"time":4,"station_name":"Sudirman","line":1},{"station_name":"Sudirman Baru","line":1,"i_lat":-6.201433,"is_transit":false,"i_long":106.819881,"station_id":"SUDB","distance":280,"time":1,"transit":false},{"i_long":106.816351,"distance":471,"transit":false,"station_id":"KAT","time":1,"is_transit":false,"i_lat":-6.20132,"station_name":"Karet","line":1},{"station_name":"Tanah Abang","station_id":"THB","distance":2029,"transit":false,"is_transit":false,"i_long":106.811091,"line":1,"i_lat":-6.185545,"time":5},{"time":8,"is_transit":false,"i_long":106.800832,"transit":false,"station_name":"Duri","distance":3632,"i_lat":-6.155215,"station_id":"DU","line":1},{"transit":false,"station_id":"AK","distance":1230,"is_transit":false,"i_lat":-6.144674,"station_name":"Angke","i_long":106.79867,"line":1,"time":4},{"i_long":106.826365,"time":9,"distance":4102,"line":4,"i_lat":-6.132549,"transit":true,"station_id":"KPB","is_transit":true,"station_name":"Kampung Bandan"},{"i_lat":-6.14505,"transit":false,"is_transit":false,"station_name":"Rajawali","i_long":106.836569,"line":11,"station_id":"RJW","distance":1444,"time":3},{"station_name":"Kemayoran","transit":false,"i_long":106.839204,"line":11,"i_lat":-6.161728,"time":5,"station_id":"KMO","distance":1901,"is_transit":false},{"station_name":"Pasar Senen","i_long":106.84368,"transit":false,"is_transit":false,"station_id":"PSE","line":11,"i_lat":-6.174784,"distance":1436,"time":4}],[{"line":11,"distance":0,"i_lat":-6.193792,"station_id":"KMT","transit":false,"time":0,"station_name":"Kramat","is_transit":false,"i_long":106.855437},{"transit":false,"station_name":"Pondok Jati","i_lat":-6.209188,"time":2,"i_long":106.861737,"line":11,"is_transit":false,"station_id":"POK","distance":1829},{"transit":true,"station_id":"JNG","time":9,"is_transit":true,"i_lat":-6.215091,"station_name":"Jatinegara","i_long":106.86807400000001,"line":1,"distance":1236},{"line":1,"station_id":"MTR","i_lat":-6.212485,"time":2,"is_transit":false,"distance":1377,"transit":false,"i_long":106.858896,"station_name":"Matraman"},{"i_lat":-6.209883,"distance":1275,"station_name":"Manggarai","time":2,"is_transit":true,"i_long":106.84912,"line":2,"transit":true,"station_id":"MRI"},{"i_long":106.840169,"line":2,"station_id":"CKI","transit":false,"i_lat":-6.198556,"time":4,"station_name":"Cikini","distance":1590,"is_transit":false},{"is_transit":false,"line":2,"station_name":"Gondangdia","distance":1750,"i_lat":-6.186295,"transit":false,"station_id":"GDD","time":3,"i_long":106.832183},{"station_id":"JUA","station_name":"Juanda","time":4,"i_lat":-6.166716,"transit":false,"distance":2015,"line":2,"is_transit":false,"i_long":106.828284},{"station_name":"Sawah Besar","i_lat":-6.160725,"transit":false,"i_long":106.827103,"distance":1149,"is_transit":false,"line":2,"time":2,"station_id":"SW"},{"is_transit":false,"station_id":"MGB","line":2,"distance":906,"station_name":"Manggabesar","i_lat":-6.149769,"i_long":106.82482,"time":2,"transit":false},{"time":2,"i_long":106.820901,"line":2,"station_name":"Jayakarta","i_lat":-6.141205,"station_id":"JAY","distance":1080,"transit":false,"is_transit":false},{"i_long":106.812439,"station_id":"JAKK","time":4,"transit":true,"line":2,"distance":1264,"station_name":"Jakarta Kota","is_transit":true,"i_lat":-6.137569},{"i_lat":-6.132549,"time":3,"station_id":"KPB","is_transit":true,"i_long":106.826365,"line":4,"distance":1364,"transit":true,"station_name":"Kampung Bandan"},{"line":11,"is_transit":false,"time":3,"station_id":"RJW","i_lat":-6.14505,"station_name":"Rajawali","distance":1444,"transit":false,"i_long":106.836569},{"transit":false,"station_id":"KMO","distance":1901,"i_lat":-6.161728,"line":11,"is_transit":false,"station_name":"Kemayoran","i_long":106.839204,"time":5},{"i_long":106.84368,"line":11,"transit":false,"station_name":"Pasar Senen","station_id":"PSE","time":4,"is_transit":false,"i_lat":-6.174784,"distance":1436}]]}