{"data":[[{"i_lat":-6.193792,"i_long":106.855437,"line":11,"time":0,"station_id":"KMT","transit":false,"station_name":"Kramat","distance":0,"is_transit":false},{"time":2,"distance":1829,"station_name":"Pondok Jati","i_long":106.861737,"station_id":"POK","line":11,"i_lat":-6.209188,"is_transit":false,"transit":false},{"i_long":106.86807400000001,"line":1,"is_transit":true,"transit":true,"distance":1236,"i_lat":-6.215091,"time":9,"station_id":"JNG","station_name":"Jatinegara"},{"is_transit":false,"station_name":"Matraman","station_id":"MTR","transit":false,"line":1,"distance":1377,"i_lat":-6.212485,"i_long":106.858896,"time":2},{"is_transit":false,"line":2,"station_id":"MRI","i_lat":-6.209883,"time":2,"i_long":106.84912,"distance":1275,"transit":false,"station_name":"Manggarai"},{"i_long":106.822649,"is_transit":false,"distance":3186,"time":4,"station_id":"SUD","station_name":"Sudirman","transit":false,"i_lat":-6.202263,"line":1},{"i_lat":-6.201433,"is_transit":false,"station_id":"SUDB","distance":280,"i_long":106.819881,"time":1,"transit":false,"line":1,"station_name":"Sudirman Baru"},{"station_id":"KAT","time":1,"distance":471,"i_long":106.816351,"line":1,"i_lat":-6.20132,"is_transit":false,"transit":false,"station_name":"Karet"},{"distance":2029,"station_id":"THB","transit":true,"is_transit":true,"time":5,"i_lat":-6.185545,"station_name":"Tanah Abang","i_long":106.811091,"line":1},{"distance":3191,"transit":false,"time":6,"is_transit":false,"station_name":"Palmerah","i_lat":-6.207404,"station_id":"PLM","i_long":106.79689,"line":6},{"is_transit":false,"station_name":"Kebayoran","line":6,"transit":false,"i_lat":-6.237242,"time":7,"distance":3737,"i_long":106.780334,"station_id":"KBY"},{"station_id":"PDJ","transit":false,"is_transit":false,"station_name":"Pondokranji","line":6,"time":8,"distance":6218,"i_lat":-6.276362,"i_long":106.74273},{"time":3,"is_transit":false,"i_long":106.728916,"line":6,"transit":false,"i_lat":-6.288927,"station_name":"Jurangmangu","distance":2179,"station_id":"JMU"},{"line":6,"station_name":"Sudimara","i_lat":-6.296963,"distance":1994,"transit":false,"i_long":106.712277,"is_transit":false,"station_id":"SDM","time":4},{"distance":4566,"i_lat":-6.314823,"time":6,"transit":false,"station_id":"RU","station_name":"Rawa Buntu","is_transit":false,"line":6,"i_long":106.675475},{"station_name":"Serpong","distance":2413,"station_id":"SRP","is_transit":false,"line":6,"i_lat":-6.319871,"i_long":106.66566,"transit":false,"time":4}],[{"distance":0,"is_transit":false,"station_name":"Kramat","transit":false,"i_lat":-6.193792,"line":11,"time":0,"i_long":106.855437,"station_id":"KMT"},{"transit":false,"i_long":106.850107,"i_lat":-6.185975,"distance":973,"time":1,"line":11,"is_transit":false,"station_name":"Gang Sentiong","station_id":"GST"},{"time":8,"i_lat":-6.174784,"station_id":"PSE","distance":1567,"station_name":"Pasar Senen","transit":false,"i_long":106.84368,"is_transit":false,"line":11},{"station_id":"KMO","distance":1436,"transit":false,"i_long":106.839204,"station_name":"Kemayoran","time":4,"line":11,"is_transit":false,"i_lat":-6.161728},{"transit":false,"station_id":"RJW","line":11,"station_name":"Rajawali","distance":1901,"time":5,"i_lat":-6.14505,"i_long":106.836569,"is_transit":false},{"line":4,"distance":1444,"is_transit":true,"station_name":"Kampung Bandan","transit":true,"time":3,"station_id":"KPB","i_long":106.826365,"i_lat":-6.132549},{"is_transit":false,"distance":4102,"transit":false,"station_name":"Angke","time":9,"i_lat":-6.144674,"i_long":106.79867,"station_id":"AK","line":1},{"time":4,"station_id":"DU","is_transit":false,"transit":false,"station_name":"Duri","distance":1230,"i_lat":-6.155215,"i_long":106.800832,"line":1},{"i_long":106.811091,"station_name":"Tanah Abang","time":8,"line":1,"is_transit":true,"transit":true,"station_id":"THB","i_lat":-6.185545,"distance":3632},{"distance":3191,"time":6,"transit":false,"i_lat":-6.207404,"station_id":"PLM","is_transit":false,"station_name":"Palmerah","i_long":106.79689,"line":6},{"station_name":"Kebayoran","i_lat":-6.237242,"is_transit":false,"distance":3737,"transit":false,"i_long":106.780334,"line":6,"time":7,"station_id":"KBY"},{"i_lat":-6.276362,"i_long":106.74273,"line":6,"station_name":"Pondokranji","is_transit":false,"station_id":"PDJ","time":8,"transit":false,"distance":6218},{"i_long":106.728916,"line":6,"i_lat":-6.288927,"station_id":"JMU","station_name":"Jurangmangu","distance":2179,"time":3,"is_transit":false,"transit":false},{"is_transit":false,"i_long":106.712277,"line":6,"time":4,"transit":false,"station_name":"Sudimara","distance":1994,"i_lat":-6.296963,"station_id":"SDM"},{"time":6,"distance":4566,"station_id":"RU","station_name":"Rawa Buntu","transit":false,"i_long":106.675475,"line":6,"is_transit":false,"i_lat":-6.314823},{"station_name":"Serpong","distance":2413,"transit":false,"i_long":106.66566,"i_lat":-6.319871,"line":6,"is_transit":false,"station_id":"SRP","time":4}],[{"is_transit":false,"line":11,"distance":0,"station_id":"KMT","i_lat":-6.193792,"transit":false,"i_long":106.855437,"station_name":"Kramat","time":0},{"line":11,"time":2,"i_lat":-6.209188,"i_long":106.861737,"station_id":"POK","distance":1829,"station_name":"Pondok Jati","transit":false,"is_transit":false},{"is_transit":true,"transit":true,"station_id":"JNG","station_name":"Jatinegara","time":9,"i_lat":-6.215091,"i_long":106.86807400000001,"distance":1236,"line":1},{"station_id":"MTR","line":1,"is_transit":false,"time":2,"i_long":106.858896,"station_name":"Matraman","i_lat":-6.212485,"distance":1377,"transit":false},{"is_transit":true,"station_id":"MRI","transit":true,"i_long":106.84912,"station_name":"Manggarai","i_lat":-6.209883,"line":2,"time":2,"distance":1275},{"i_long":106.840169,"time":4,"line":2,"i_lat":-6.198556,"transit":false,"station_id":"CKI","is_transit":false,"station_name":"Cikini","distance":1590},{"time":3,"station_id":"GDD","station_name":"Gondangdia","i_lat":-6.186295,"transit":false,"i_long":106.832183,"is_transit":false,"distance":1750,"line":2},{"distance":2015,"i_long":106.828284,"transit":false,"station_id":"JUA","station_name":"Juanda","line":2,"i_lat":-6.166716,"is_transit":false,"time":4},{"station_id":"SW","station_name":"Sawah Besar","time":2,"line":2,"i_lat":-6.160725,"is_transit":false,"distance":1149,"transit":false,"i_long":106.827103},{"time":2,"i_long":106.82482,"transit":false,"distance":906,"station_id":"MGB","is_transit":false,"station_name":"Manggabesar","i_lat":-6.149769,"line":2},{"is_transit":false,"i_long":106.820901,"i_lat":-6.141205,"line":2,"distance":1080,"station_id":"JAY","transit":false,"time":2,"station_name":"Jayakarta"},{"line":2,"i_long":106.812439,"is_transit":true,"station_name":"Jakarta Kota","distance":1264,"station_id":"JAKK","transit":true,"i_lat":-6.137569,"time":4},{"station_id":"KPB","is_transit":true,"i_lat":-6.132549,"line":4,"time":3,"station_name":"Kampung Bandan","transit":true,"distance":1364,"i_long":106.826365},{"transit":false,"station_id":"AK","i_lat":-6.144674,"line":1,"time":9,"is_transit":false,"station_name":"Angke","i_long":106.79867,"distance":4102},{"station_id":"DU","i_long":106.800832,"station_name":"Duri","i_lat":-6.155215,"transit":false,"is_transit":false,"line":1,"distance":1230,"time":4},{"i_long":106.811091,"i_lat":-6.185545,"distance":3632,"transit":true,"line":1,"is_transit":true,"time":8,"station_name":"Tanah Abang","station_id":"THB"},{"station_name":"Palmerah","is_transit":false,"distance":3191,"transit":false,"time":6,"i_long":106.79689,"line":6,"i_lat":-6.207404,"station_id":"PLM"},{"i_lat":-6.237242,"transit":false,"station_id":"KBY","i_long":106.780334,"distance":3737,"time":7,"station_name":"Kebayoran","line":6,"is_transit":false},{"is_transit":false,"line":6,"station_name":"Pondokranji","i_long":106.74273,"time":8,"i_lat":-6.276362,"distance":6218,"station_id":"PDJ","transit":false},{"transit":false,"is_transit":false,"station_id":"JMU","distance":2179,"station_name":"Jurangmangu","i_long":106.728916,"line":6,"i_lat":-6.288927,"time":3},{"station_name":"Sudimara","station_id":"SDM","is_transit":false,"i_long":106.712277,"transit":false,"distance":1994,"time":4,"i_lat":-6.296963,"line":6},{"line":6,"is_transit":false,"transit":false,"i_lat":-6.314823,"station_id":"RU","i_long":106.675475,"station_name":"Rawa Buntu","time":6,"distance":4566},{"station_id":"SRP","station_name":"Serpong","i_long":106.66566,"line":6,"transit":false,"time":4,"i_lat":-6.319871,"distance":2413,"is_transit":false}],[{"time":0,"is_transit":false,"i_long":106.855437,"transit":false,"station_id":"KMT","station_name":"Kramat","i_lat":-6.193792,"distance":0,"line":11},{"station_id":"GST","i_lat":-6.185975,"line":11,"distance":973,"transit":false,"station_name":"Gang Sentiong","i_long":106.850107,"is_transit":false,"time":1},{"i_lat":-6.174784,"station_name":"Pasar Senen","time":8,"distance":1567,"line":11,"i_long":106.84368,"transit":false,"is_transit":false,"station_id":"PSE"},{"distance":1436,"transit":false,"i_long":106.839204,"time":4,"line":11,"station_id":"KMO","station_name":"Kemayoran","i_lat":-6.161728,"is_transit":false},{"is_transit":false,"distance":1901,"station_id":"RJW","line":11,"time":5,"station_name":"Rajawali","transit":false,"i_lat":-6.14505,"i_long":106.836569},{"time":3,"distance":1444,"station_name":"Kampung Bandan","line":4,"i_lat":-6.132549,"station_id":"KPB","transit":true,"i_long":106.826365,"is_transit":true},{"station_id":"JAKK","distance":1364,"line":2,"i_lat":-6.137569,"transit":true,"is_transit":true,"i_long":106.812439,"station_name":"Jakarta Kota","time":3},{"transit":false,"i_long":106.820901,"is_transit":false,"station_id":"JAY","station_name":"Jayakarta","i_lat":-6.141205,"distance":1264,"time":4,"line":2},{"is_transit":false,"station_id":"MGB","line":2,"distance":1080,"transit":false,"station_name":"Manggabesar","i_lat":-6.149769,"i_long":106.82482,"time":2},{"transit":false,"station_id":"SW","is_transit":false,"i_lat":-6.160725,"i_long":106.827103,"distance":906,"line":2,"time":2,"station_name":"Sawah Besar"},{"time":2,"line":2,"is_transit":false,"i_lat":-6.166716,"station_id":"JUA","distance":1149,"station_name":"Juanda","i_long":106.828284,"transit":false},{"i_long":106.832183,"i_lat":-6.186295,"is_transit":false,"transit":false,"time":4,"station_name":"Gondangdia","line":2,"station_id":"GDD","distance":2015},{"distance":1750,"transit":false,"station_id":"CKI","i_long":106.840169,"i_lat":-6.198556,"line":2,"station_name":"Cikini","is_transit":false,"time":3},{"i_lat":-6.209883,"transit":true,"station_name":"Manggarai","line":2,"station_id":"MRI","distance":1590,"i_long":106.84912,"is_transit":true,"time":4},{"is_transit":false,"i_long":106.822649,"station_name":"Sudirman","distance":3186,"time":4,"i_lat":-6.202263,"line":1,"transit":false,"station_id":"SUD"},{"line":1,"is_transit":false,"transit":false,"i_long":106.819881,"time":1,"i_lat":-6.201433,"station_name":"Sudirman Baru","distance":280,"station_id":"SUDB"},{"is_transit":false,"i_long":106.816351,"station_id":"KAT","distance":471,"time":1,"line":1,"transit":false,"i_lat":-6.20132,"station_name":"Karet"},{"distance":2029,"station_id":"THB","i_lat":-6.185545,"transit":true,"is_transit":true,"time":5,"station_name":"Tanah Abang","i_long":106.811091,"line":1},{"time":6,"line":6,"is_transit":false,"i_lat":-6.207404,"station_id":"PLM","i_long":106.79689,"station_name":"Palmerah","transit":false,"distance":3191},{"i_long":106.780334,"station_id":"KBY","is_transit":false,"time":7,"transit":false,"station_name":"Kebayoran","distance":3737,"line":6,"i_lat":-6.237242},{"is_transit":false,"distance":6218,"line":6,"transit":false,"time":8,"station_name":"Pondokranji","i_lat":-6.276362,"station_id":"PDJ","i_long":106.74273},{"distance":2179,"time":3,"station_id":"JMU","line":6,"transit":false,"is_transit":false,"station_name":"Jurangmangu","i_lat":-6.288927,"i_long":106.728916},{"is_transit":false,"time":4,"station_name":"Sudimara","distance":1994,"i_long":106.712277,"i_lat":-6.296963,"line":6,"transit":false,"station_id":"SDM"},{"i_lat":-6.314823,"line":6,"distance":4566,"station_name":"Rawa Buntu","station_id":"RU","i_long":106.675475,"time":6,"is_transit":false,"transit":false},{"i_long":106.66566,"station_id":"SRP","station_name":"Serpong","is_transit":false,"line":6,"distance":2413,"transit":false,"time":4,"i_lat":-6.319871}]]}