{"data":[[{"distance":0,"station_id":"KMT","transit":false,"time":0,"i_long":106.855437,"is_transit":false,"station_name":"Kramat","i_lat":-6.193792,"line":11},{"distance":973,"i_lat":-6.185975,"is_transit":false,"station_name":"Gang Sentiong","i_long":106.850107,"time":1,"line":11,"station_id":"GST","transit":false}],[{"time":0,"distance":0,"line":11,"i_long":106.855437,"station_id":"KMT","transit":false,"is_transit":false,"i_lat":-6.193792,"station_name":"Kramat"},{"is_transit":false,"time":2,"i_long":106.861737,"transit":false,"i_lat":-6.209188,"station_id":"POK","station_name":"Pondok Jati","distance":1829,"line":11},{"station_name":"Jatinegara","station_id":"JNG","distance":1236,"transit":true,"line":0,"i_lat":-6.215091,"i_long":106.86807400000001,"is_transit":true,"time":9},{"line":1,"time":2,"is_transit":false,"i_lat":-6.212485,"station_name":"Matraman","transit":false,"i_long":106.858896,"station_id":"MTR","distance":1377},{"i_lat":-6.209883,"station_name":"Manggarai","time":2,"is_transit":true,"i_long":106.84912,"distance":1275,"transit":false,"station_id":"MRI","line":0},{"station_name":"Sudirman","distance":3186,"transit":false,"time":4,"i_long":106.822649,"station_id":"SUD","is_transit":false,"line":1,"i_lat":-6.202263},{"station_id":"SUDB","transit":false,"time":1,"i_lat":-6.201433,"i_long":106.819881,"distance":280,"station_name":"Sudirman Baru","is_transit":false,"line":1},{"is_transit":false,"i_lat":-6.20132,"station_id":"KAT","i_long":106.816351,"time":1,"station_name":"Karet","line":1,"distance":471,"transit":false},{"i_lat":-6.185545,"i_long":106.811091,"is_transit":true,"time":5,"transit":false,"station_id":"THB","station_name":"Tanah Abang","distance":2029,"line":1},{"is_transit":true,"i_lat":-6.155215,"distance":3632,"station_id":"DU","station_name":"Duri","time":8,"transit":true,"line":1,"i_long":106.800832},{"i_long":106.79867,"line":0,"i_lat":-6.144674,"is_transit":false,"station_id":"AK","time":4,"station_name":"Angke","distance":1230,"transit":false},{"i_long":106.826365,"line":0,"station_name":"Kampung Bandan","station_id":"KPB","distance":4102,"time":9,"i_lat":-6.132549,"transit":true,"is_transit":true},{"line":11,"station_id":"RJW","time":3,"station_name":"Rajawali","i_long":106.836569,"distance":1444,"transit":false,"is_transit":false,"i_lat":-6.14505},{"station_id":"KMO","i_lat":-6.161728,"is_transit":false,"time":5,"transit":false,"i_long":106.839204,"line":11,"station_name":"Kemayoran","distance":1901},{"i_long":106.84368,"station_name":"Pasar Senen","time":4,"i_lat":-6.174784,"station_id":"PSE","transit":false,"line":11,"distance":1436,"is_transit":false},{"i_long":106.850107,"station_id":"GST","is_transit":false,"station_name":"Gang Sentiong","distance":1567,"i_lat":-6.185975,"time":8,"line":11,"transit":false}],[{"station_id":"KMT","distance":0,"transit":false,"i_lat":-6.193792,"station_name":"Kramat","time":0,"is_transit":false,"line":11,"i_long":106.855437},{"transit":false,"station_name":"Pondok Jati","time":2,"station_id":"POK","is_transit":false,"i_lat":-6.209188,"i_long":106.861737,"line":11,"distance":1829},{"i_lat":-6.215091,"time":9,"i_long":106.86807400000001,"station_name":"Jatinegara","transit":true,"line":0,"distance":1236,"station_id":"JNG","is_transit":true},{"station_name":"Matraman","time":2,"i_long":106.858896,"station_id":"MTR","transit":false,"distance":1377,"i_lat":-6.212485,"line":1,"is_transit":false},{"line":0,"transit":true,"is_transit":true,"i_long":106.84912,"station_id":"MRI","station_name":"Manggarai","distance":1275,"i_lat":-6.209883,"time":2},{"station_id":"CKI","transit":false,"is_transit":false,"station_name":"Cikini","time":4,"distance":1590,"line":0,"i_lat":-6.198556,"i_long":106.840169},{"station_id":"GDD","is_transit":false,"station_name":"Gondangdia","time":3,"i_lat":-6.186295,"transit":false,"distance":1750,"line":2,"i_long":106.832183},{"i_lat":-6.166716,"transit":false,"line":2,"is_transit":false,"station_id":"JUA","i_long":106.828284,"time":4,"station_name":"Juanda","distance":2015},{"station_id":"SW","i_long":106.827103,"station_name":"Sawah Besar","is_transit":false,"time":2,"transit":false,"i_lat":-6.160725,"line":2,"distance":1149},{"i_lat":-6.149769,"line":2,"distance":906,"i_long":106.82482,"time":2,"station_id":"MGB","transit":false,"is_transit":false,"station_name":"Manggabesar"},{"i_lat":-6.141205,"i_long":106.820901,"is_transit":false,"station_name":"Jayakarta","distance":1080,"line":7,"station_id":"JAY","time":2,"transit":false},{"distance":1264,"i_long":106.812439,"i_lat":-6.137569,"station_name":"Jakarta Kota","line":0,"time":4,"station_id":"JAKK","is_transit":true,"transit":true},{"station_name":"Kampung Bandan","is_transit":true,"transit":true,"i_lat":-6.132549,"distance":1364,"i_long":106.826365,"line":0,"station_id":"KPB","time":3},{"station_id":"RJW","i_long":106.836569,"time":3,"i_lat":-6.14505,"line":11,"is_transit":false,"distance":1444,"transit":false,"station_name":"Rajawali"},{"i_lat":-6.161728,"time":5,"station_id":"KMO","transit":false,"i_long":106.839204,"is_transit":false,"station_name":"Kemayoran","distance":1901,"line":11},{"transit":false,"i_lat":-6.174784,"i_long":106.84368,"line":11,"station_id":"PSE","time":4,"station_name":"Pasar Senen","is_transit":false,"distance":1436},{"line":11,"transit":false,"station_id":"GST","time":8,"distance":1567,"i_lat":-6.185975,"i_long":106.850107,"station_name":"Gang Sentiong","is_transit":false}]]}