{"data":[[{"distance":0,"line":11,"station_name":"Kramat","is_transit":false,"transit":false,"station_id":"KMT","time":0,"i_lat":-6.193792,"i_long":106.855437},{"i_lat":-6.209188,"i_long":106.861737,"line":11,"transit":false,"station_id":"POK","time":2,"station_name":"Pondok Jati","distance":1829,"is_transit":false},{"distance":1236,"i_long":106.86807400000001,"station_id":"JNG","is_transit":true,"transit":true,"line":1,"station_name":"Jatinegara","i_lat":-6.215091,"time":9},{"line":1,"time":2,"i_long":106.858896,"transit":false,"is_transit":false,"distance":1377,"station_id":"MTR","i_lat":-6.212485,"station_name":"Matraman"},{"transit":false,"i_lat":-6.209883,"station_name":"Manggarai","time":2,"i_long":106.84912,"line":2,"station_id":"MRI","is_transit":false,"distance":1275},{"line":1,"distance":3186,"station_id":"SUD","transit":false,"time":4,"i_lat":-6.202263,"i_long":106.822649,"station_name":"Sudirman","is_transit":false},{"i_lat":-6.201433,"station_name":"Sudirman Baru","station_id":"SUDB","time":1,"i_long":106.819881,"distance":280,"line":1,"is_transit":false,"transit":false},{"transit":false,"line":1,"is_transit":false,"i_lat":-6.20132,"distance":471,"i_long":106.816351,"station_name":"Karet","station_id":"KAT","time":1},{"distance":2029,"i_long":106.811091,"transit":true,"station_name":"Tanah Abang","station_id":"THB","is_transit":true,"time":5,"i_lat":-6.185545,"line":1},{"line":6,"station_id":"PLM","is_transit":false,"transit":false,"i_long":106.79689,"station_name":"Palmerah","time":6,"distance":3191,"i_lat":-6.207404},{"i_lat":-6.237242,"i_long":106.780334,"line":6,"transit":false,"time":7,"is_transit":false,"station_name":"Kebayoran","distance":3737,"station_id":"KBY"},{"distance":6218,"transit":false,"is_transit":false,"time":8,"line":6,"station_name":"Pondokranji","i_long":106.74273,"i_lat":-6.276362,"station_id":"PDJ"},{"i_lat":-6.288927,"line":6,"station_id":"JMU","distance":2179,"i_long":106.728916,"time":3,"transit":false,"is_transit":false,"station_name":"Jurangmangu"},{"station_name":"Sudimara","i_long":106.712277,"station_id":"SDM","time":4,"distance":1994,"is_transit":false,"i_lat":-6.296963,"line":6,"transit":false}],[{"time":0,"i_lat":-6.193792,"distance":0,"i_long":106.855437,"line":11,"station_id":"KMT","transit":false,"is_transit":false,"station_name":"Kramat"},{"is_transit":false,"station_id":"GST","i_long":106.850107,"time":1,"i_lat":-6.185975,"station_name":"Gang Sentiong","transit":false,"distance":973,"line":11},{"distance":1567,"station_id":"PSE","i_long":106.84368,"time":8,"i_lat":-6.174784,"is_transit":false,"transit":false,"station_name":"Pasar Senen","line":11},{"is_transit":false,"i_long":106.839204,"transit":false,"station_id":"KMO","time":4,"distance":1436,"i_lat":-6.161728,"station_name":"Kemayoran","line":11},{"line":11,"transit":false,"is_transit":false,"distance":1901,"i_lat":-6.14505,"time":5,"station_id":"RJW","i_long":106.836569,"station_name":"Rajawali"},{"distance":1444,"i_long":106.826365,"station_name":"Kampung Bandan","i_lat":-6.132549,"line":4,"transit":true,"is_transit":true,"station_id":"KPB","time":3},{"time":9,"i_lat":-6.144674,"distance":4102,"station_id":"AK","i_long":106.79867,"line":1,"transit":false,"is_transit":false,"station_name":"Angke"},{"station_id":"DU","transit":false,"distance":1230,"time":4,"i_long":106.800832,"is_transit":false,"i_lat":-6.155215,"station_name":"Duri","line":1},{"station_name":"Tanah Abang","station_id":"THB","is_transit":true,"time":8,"transit":true,"distance":3632,"i_long":106.811091,"i_lat":-6.185545,"line":1},{"station_name":"Palmerah","line":6,"time":6,"transit":false,"is_transit":false,"distance":3191,"i_lat":-6.207404,"i_long":106.79689,"station_id":"PLM"},{"line":6,"station_name":"Kebayoran","is_transit":false,"i_lat":-6.237242,"station_id":"KBY","time":7,"distance":3737,"i_long":106.780334,"transit":false},{"transit":false,"line":6,"station_name":"Pondokranji","distance":6218,"time":8,"i_long":106.74273,"i_lat":-6.276362,"station_id":"PDJ","is_transit":false},{"station_name":"Jurangmangu","time":3,"station_id":"JMU","is_transit":false,"i_long":106.728916,"transit":false,"line":6,"i_lat":-6.288927,"distance":2179},{"time":4,"i_lat":-6.296963,"transit":false,"i_long":106.712277,"station_name":"Sudimara","line":6,"station_id":"SDM","distance":1994,"is_transit":false}],[{"distance":0,"transit":false,"i_lat":-6.193792,"station_name":"Kramat","station_id":"KMT","time":0,"i_long":106.855437,"is_transit":false,"line":11},{"i_lat":-6.209188,"time":2,"i_long":106.861737,"is_transit":false,"distance":1829,"line":11,"transit":false,"station_name":"Pondok Jati","station_id":"POK"},{"i_lat":-6.215091,"i_long":106.86807400000001,"distance":1236,"station_name":"Jatinegara","station_id":"JNG","transit":true,"is_transit":true,"time":9,"line":1},{"line":1,"i_lat":-6.212485,"transit":false,"station_name":"Matraman","i_long":106.858896,"is_transit":false,"station_id":"MTR","time":2,"distance":1377},{"i_lat":-6.209883,"i_long":106.84912,"station_id":"MRI","line":2,"transit":true,"distance":1275,"time":2,"station_name":"Manggarai","is_transit":true},{"line":2,"station_name":"Cikini","time":4,"i_long":106.840169,"transit":false,"station_id":"CKI","is_transit":false,"distance":1590,"i_lat":-6.198556},{"is_transit":false,"line":2,"i_lat":-6.186295,"station_name":"Gondangdia","i_long":106.832183,"time":3,"station_id":"GDD","transit":false,"distance":1750},{"time":4,"transit":false,"i_lat":-6.166716,"station_id":"JUA","i_long":106.828284,"line":2,"distance":2015,"station_name":"Juanda","is_transit":false},{"station_id":"SW","is_transit":false,"time":2,"transit":false,"line":2,"i_lat":-6.160725,"i_long":106.827103,"station_name":"Sawah Besar","distance":1149},{"transit":false,"time":2,"distance":906,"station_id":"MGB","line":2,"is_transit":false,"i_long":106.82482,"station_name":"Manggabesar","i_lat":-6.149769},{"line":2,"i_lat":-6.141205,"transit":false,"i_long":106.820901,"time":2,"is_transit":false,"distance":1080,"station_id":"JAY","station_name":"Jayakarta"},{"is_transit":true,"station_name":"Jakarta Kota","station_id":"JAKK","transit":true,"distance":1264,"i_lat":-6.137569,"i_long":106.812439,"time":4,"line":2},{"station_name":"Kampung Bandan","transit":true,"distance":1364,"is_transit":true,"line":4,"time":3,"i_lat":-6.132549,"station_id":"KPB","i_long":106.826365},{"line":1,"time":9,"transit":false,"station_name":"Angke","is_transit":false,"distance":4102,"station_id":"AK","i_lat":-6.144674,"i_long":106.79867},{"distance":1230,"i_long":106.800832,"station_id":"DU","station_name":"Duri","transit":false,"i_lat":-6.155215,"line":1,"is_transit":false,"time":4},{"station_name":"Tanah Abang","is_transit":true,"i_lat":-6.185545,"i_long":106.811091,"distance":3632,"station_id":"THB","transit":true,"line":1,"time":8},{"station_name":"Palmerah","time":6,"is_transit":false,"station_id":"PLM","i_lat":-6.207404,"transit":false,"line":6,"distance":3191,"i_long":106.79689},{"station_name":"Kebayoran","station_id":"KBY","distance":3737,"time":7,"i_long":106.780334,"is_transit":false,"line":6,"i_lat":-6.237242,"transit":false},{"line":6,"distance":6218,"transit":false,"station_name":"Pondokranji","station_id":"PDJ","i_lat":-6.276362,"time":8,"i_long":106.74273,"is_transit":false},{"station_name":"Jurangmangu","station_id":"JMU","i_lat":-6.288927,"time":3,"distance":2179,"transit":false,"line":6,"is_transit":false,"i_long":106.728916},{"transit":false,"station_name":"Sudimara","station_id":"SDM","is_transit":false,"i_lat":-6.296963,"i_long":106.712277,"distance":1994,"line":6,"time":4}],[{"is_transit":false,"line":11,"station_id":"KMT","station_name":"Kramat","i_long":106.855437,"distance":0,"i_lat":-6.193792,"time":0,"transit":false},{"transit":false,"i_long":106.850107,"is_transit":false,"distance":973,"line":11,"station_name":"Gang Sentiong","station_id":"GST","time":1,"i_lat":-6.185975},{"i_lat":-6.174784,"time":8,"station_name":"Pasar Senen","line":11,"distance":1567,"station_id":"PSE","i_long":106.84368,"transit":false,"is_transit":false},{"transit":false,"station_id":"KMO","distance":1436,"i_lat":-6.161728,"station_name":"Kemayoran","is_transit":false,"time":4,"line":11,"i_long":106.839204},{"time":5,"distance":1901,"i_long":106.836569,"transit":false,"station_id":"RJW","i_lat":-6.14505,"station_name":"Rajawali","line":11,"is_transit":false},{"distance":1444,"station_name":"Kampung Bandan","i_long":106.826365,"time":3,"station_id":"KPB","line":4,"is_transit":true,"i_lat":-6.132549,"transit":true},{"time":3,"station_name":"Jakarta Kota","line":2,"transit":true,"i_lat":-6.137569,"i_long":106.812439,"distance":1364,"is_transit":true,"station_id":"JAKK"},{"time":4,"transit":false,"is_transit":false,"distance":1264,"line":2,"i_long":106.820901,"station_id":"JAY","station_name":"Jayakarta","i_lat":-6.141205},{"is_transit":false,"station_name":"Manggabesar","station_id":"MGB","time":2,"distance":1080,"transit":false,"i_lat":-6.149769,"line":2,"i_long":106.82482},{"station_name":"Sawah Besar","distance":906,"line":2,"i_long":106.827103,"station_id":"SW","i_lat":-6.160725,"transit":false,"is_transit":false,"time":2},{"station_name":"Juanda","time":2,"transit":false,"station_id":"JUA","i_long":106.828284,"i_lat":-6.166716,"distance":1149,"line":2,"is_transit":false},{"line":2,"transit":false,"i_long":106.832183,"i_lat":-6.186295,"time":4,"station_id":"GDD","is_transit":false,"distance":2015,"station_name":"Gondangdia"},{"station_id":"CKI","distance":1750,"time":3,"station_name":"Cikini","is_transit":false,"i_lat":-6.198556,"i_long":106.840169,"line":2,"transit":false},{"station_id":"MRI","line":2,"time":4,"station_name":"Manggarai","is_transit":true,"i_lat":-6.209883,"i_long":106.84912,"transit":true,"distance":1590},{"i_lat":-6.202263,"station_name":"Sudirman","distance":3186,"line":1,"transit":false,"station_id":"SUD","is_transit":false,"time":4,"i_long":106.822649},{"transit":false,"line":1,"is_transit":false,"station_name":"Sudirman Baru","station_id":"SUDB","distance":280,"time":1,"i_lat":-6.201433,"i_long":106.819881},{"transit":false,"station_id":"KAT","i_long":106.816351,"time":1,"distance":471,"i_lat":-6.20132,"line":1,"is_transit":false,"station_name":"Karet"},{"transit":true,"i_long":106.811091,"line":1,"station_id":"THB","station_name":"Tanah Abang","time":5,"i_lat":-6.185545,"is_transit":true,"distance":2029},{"station_name":"Palmerah","distance":3191,"i_long":106.79689,"is_transit":false,"station_id":"PLM","i_lat":-6.207404,"line":6,"transit":false,"time":6},{"i_long":106.780334,"transit":false,"time":7,"i_lat":-6.237242,"is_transit":false,"station_name":"Kebayoran","line":6,"station_id":"KBY","distance":3737},{"is_transit":false,"i_lat":-6.276362,"distance":6218,"i_long":106.74273,"time":8,"station_id":"PDJ","line":6,"transit":false,"station_name":"Pondokranji"},{"transit":false,"is_transit":false,"distance":2179,"station_id":"JMU","i_lat":-6.288927,"line":6,"station_name":"Jurangmangu","i_long":106.728916,"time":3},{"is_transit":false,"distance":1994,"time":4,"line":6,"i_long":106.712277,"transit":false,"i_lat":-6.296963,"station_name":"Sudimara","station_id":"SDM"}]]}