{"data":[[{"station_name":"Kramat","is_transit":false,"distance":0,"time":0,"i_long":106.855437,"i_lat":-6.193792,"line":11,"station_id":"KMT","transit":false},{"time":2,"transit":false,"distance":1829,"line":11,"station_id":"POK","is_transit":false,"i_long":106.861737,"station_name":"Pondok Jati","i_lat":-6.209188},{"i_long":106.86807400000001,"station_id":"JNG","is_transit":true,"time":9,"line":1,"transit":true,"i_lat":-6.215091,"distance":1236,"station_name":"Jatinegara"},{"is_transit":false,"i_lat":-6.212485,"distance":1377,"i_long":106.858896,"time":2,"station_id":"MTR","line":1,"station_name":"Matraman","transit":false},{"time":2,"line":2,"transit":true,"station_id":"MRI","i_lat":-6.209883,"station_name":"Manggarai","is_transit":true,"distance":1275,"i_long":106.84912},{"i_long":106.840169,"station_id":"CKI","transit":false,"is_transit":false,"station_name":"Cikini","i_lat":-6.198556,"line":2,"distance":1590,"time":4}],[{"is_transit":false,"i_lat":-6.193792,"i_long":106.855437,"distance":0,"time":0,"transit":false,"station_id":"KMT","station_name":"Kramat","line":11},{"distance":973,"station_name":"Gang Sentiong","i_long":106.850107,"is_transit":false,"station_id":"GST","time":1,"i_lat":-6.185975,"line":11,"transit":false},{"i_lat":-6.174784,"station_id":"PSE","is_transit":false,"time":8,"station_name":"Pasar Senen","distance":1567,"i_long":106.84368,"line":11,"transit":false},{"i_long":106.839204,"line":11,"station_id":"KMO","station_name":"Kemayoran","is_transit":false,"distance":1436,"transit":false,"time":4,"i_lat":-6.161728},{"time":5,"line":11,"station_id":"RJW","transit":false,"station_name":"Rajawali","is_transit":false,"i_lat":-6.14505,"i_long":106.836569,"distance":1901},{"time":3,"transit":true,"is_transit":true,"line":4,"i_long":106.826365,"station_name":"Kampung Bandan","station_id":"KPB","distance":1444,"i_lat":-6.132549},{"station_id":"JAKK","is_transit":true,"i_long":106.812439,"time":3,"transit":true,"distance":1364,"i_lat":-6.137569,"line":2,"station_name":"Jakarta Kota"},{"i_lat":-6.141205,"station_id":"JAY","time":4,"station_name":"Jayakarta","transit":false,"is_transit":false,"i_long":106.820901,"distance":1264,"line":2},{"i_lat":-6.149769,"i_long":106.82482,"line":2,"station_id":"MGB","time":2,"is_transit":false,"station_name":"Manggabesar","distance":1080,"transit":false},{"i_lat":-6.160725,"distance":906,"transit":false,"time":2,"is_transit":false,"station_name":"Sawah Besar","station_id":"SW","i_long":106.827103,"line":2},{"i_lat":-6.166716,"station_id":"JUA","time":2,"transit":false,"station_name":"Juanda","is_transit":false,"i_long":106.828284,"line":2,"distance":1149},{"station_id":"GDD","i_lat":-6.186295,"distance":2015,"is_transit":false,"transit":false,"station_name":"Gondangdia","i_long":106.832183,"time":4,"line":2},{"i_long":106.840169,"line":2,"transit":false,"i_lat":-6.198556,"station_name":"Cikini","time":3,"is_transit":false,"station_id":"CKI","distance":1750}],[{"is_transit":false,"station_id":"KMT","time":0,"distance":0,"station_name":"Kramat","transit":false,"i_long":106.855437,"line":11,"i_lat":-6.193792},{"time":1,"station_name":"Gang Sentiong","transit":false,"i_lat":-6.185975,"distance":973,"is_transit":false,"line":11,"i_long":106.850107,"station_id":"GST"},{"distance":1567,"station_name":"Pasar Senen","line":11,"i_long":106.84368,"is_transit":false,"station_id":"PSE","transit":false,"i_lat":-6.174784,"time":8},{"line":11,"time":4,"is_transit":false,"station_name":"Kemayoran","transit":false,"i_lat":-6.161728,"i_long":106.839204,"station_id":"KMO","distance":1436},{"transit":false,"distance":1901,"station_name":"Rajawali","i_lat":-6.14505,"line":11,"i_long":106.836569,"is_transit":false,"station_id":"RJW","time":5},{"station_id":"KPB","time":3,"is_transit":true,"line":4,"i_long":106.826365,"distance":1444,"i_lat":-6.132549,"station_name":"Kampung Bandan","transit":true},{"distance":4102,"i_long":106.79867,"transit":false,"time":9,"station_id":"AK","is_transit":false,"line":1,"station_name":"Angke","i_lat":-6.144674},{"i_lat":-6.155215,"transit":false,"time":4,"line":1,"is_transit":false,"i_long":106.800832,"station_name":"Duri","station_id":"DU","distance":1230},{"i_lat":-6.185545,"line":1,"distance":3632,"station_id":"THB","station_name":"Tanah Abang","i_long":106.811091,"transit":false,"is_transit":false,"time":8},{"distance":2029,"station_name":"Karet","transit":false,"is_transit":false,"station_id":"KAT","time":5,"line":1,"i_lat":-6.20132,"i_long":106.816351},{"station_name":"Sudirman Baru","distance":471,"line":1,"i_long":106.819881,"transit":false,"i_lat":-6.201433,"station_id":"SUDB","time":1,"is_transit":false},{"time":1,"station_id":"SUD","distance":280,"is_transit":false,"i_lat":-6.202263,"i_long":106.822649,"transit":false,"station_name":"Sudirman","line":1},{"station_name":"Manggarai","i_lat":-6.209883,"line":2,"distance":3186,"transit":true,"station_id":"MRI","time":4,"is_transit":true,"i_long":106.84912},{"transit":false,"time":4,"line":2,"i_lat":-6.198556,"distance":1590,"station_name":"Cikini","i_long":106.840169,"is_transit":false,"station_id":"CKI"}],[{"distance":0,"station_name":"Kramat","line":11,"station_id":"KMT","is_transit":false,"transit":false,"i_lat":-6.193792,"time":0,"i_long":106.855437},{"line":11,"is_transit":false,"i_long":106.861737,"i_lat":-6.209188,"time":2,"distance":1829,"station_id":"POK","transit":false,"station_name":"Pondok Jati"},{"i_long":106.86807400000001,"line":1,"time":9,"transit":true,"distance":1236,"station_id":"JNG","station_name":"Jatinegara","is_transit":true,"i_lat":-6.215091},{"station_name":"Matraman","i_lat":-6.212485,"station_id":"MTR","is_transit":false,"transit":false,"i_long":106.858896,"line":1,"time":2,"distance":1377},{"is_transit":false,"station_id":"MRI","i_lat":-6.209883,"i_long":106.84912,"time":2,"station_name":"Manggarai","distance":1275,"transit":false,"line":2},{"line":1,"transit":false,"time":4,"distance":3186,"i_long":106.822649,"i_lat":-6.202263,"is_transit":false,"station_id":"SUD","station_name":"Sudirman"},{"time":1,"i_long":106.819881,"distance":280,"transit":false,"i_lat":-6.201433,"line":1,"station_id":"SUDB","station_name":"Sudirman Baru","is_transit":false},{"time":1,"i_lat":-6.20132,"line":1,"is_transit":false,"distance":471,"transit":false,"station_name":"Karet","station_id":"KAT","i_long":106.816351},{"station_name":"Tanah Abang","distance":2029,"i_lat":-6.185545,"line":1,"is_transit":false,"i_long":106.811091,"station_id":"THB","transit":false,"time":5},{"station_id":"DU","station_name":"Duri","is_transit":false,"time":8,"distance":3632,"i_long":106.800832,"line":1,"i_lat":-6.155215,"transit":false},{"i_lat":-6.144674,"line":1,"time":4,"station_id":"AK","is_transit":false,"distance":1230,"station_name":"Angke","transit":false,"i_long":106.79867},{"distance":4102,"time":9,"is_transit":true,"i_long":106.826365,"line":4,"station_id":"KPB","transit":true,"station_name":"Kampung Bandan","i_lat":-6.132549},{"station_name":"Jakarta Kota","transit":true,"time":3,"i_long":106.812439,"distance":1364,"line":2,"i_lat":-6.137569,"station_id":"JAKK","is_transit":true},{"i_lat":-6.141205,"is_transit":false,"station_id":"JAY","line":2,"transit":false,"i_long":106.820901,"distance":1264,"time":4,"station_name":"Jayakarta"},{"transit":false,"is_transit":false,"distance":1080,"time":2,"station_name":"Manggabesar","i_long":106.82482,"i_lat":-6.149769,"line":2,"station_id":"MGB"},{"station_id":"SW","distance":906,"transit":false,"is_transit":false,"line":2,"time":2,"i_lat":-6.160725,"i_long":106.827103,"station_name":"Sawah Besar"},{"transit":false,"distance":1149,"line":2,"station_id":"JUA","i_lat":-6.166716,"is_transit":false,"i_long":106.828284,"station_name":"Juanda","time":2},{"is_transit":false,"station_id":"GDD","time":4,"line":2,"i_lat":-6.186295,"distance":2015,"station_name":"Gondangdia","i_long":106.832183,"transit":false},{"i_lat":-6.198556,"station_id":"CKI","line":2,"time":3,"is_transit":false,"i_long":106.840169,"distance":1750,"transit":false,"station_name":"Cikini"}]]}