{"data":[[{"station_name":"Kramat","distance":0,"transit":false,"i_lat":-6.193792,"time":0,"line":11,"is_transit":false,"i_long":106.855437,"station_id":"KMT"},{"distance":1829,"transit":false,"i_lat":-6.209188,"time":2,"i_long":106.861737,"station_id":"POK","line":11,"is_transit":false,"station_name":"Pondok Jati"},{"transit":true,"i_lat":-6.215091,"station_name":"Jatinegara","is_transit":true,"line":1,"station_id":"JNG","distance":1236,"time":9,"i_long":106.86807400000001},{"i_long":106.858896,"transit":false,"line":1,"station_id":"MTR","time":2,"is_transit":false,"i_lat":-6.212485,"station_name":"Matraman","distance":1377},{"i_long":106.84912,"distance":1275,"time":2,"transit":false,"station_id":"MRI","line":2,"station_name":"Manggarai","i_lat":-6.209883,"is_transit":false},{"i_long":106.822649,"transit":false,"distance":3186,"is_transit":false,"time":4,"i_lat":-6.202263,"line":1,"station_name":"Sudirman","station_id":"SUD"},{"distance":280,"time":1,"is_transit":false,"station_name":"Sudirman Baru","station_id":"SUDB","transit":false,"i_long":106.819881,"i_lat":-6.201433,"line":1},{"i_long":106.816351,"line":1,"station_name":"Karet","i_lat":-6.20132,"transit":false,"is_transit":false,"distance":471,"time":1,"station_id":"KAT"},{"line":1,"station_id":"THB","station_name":"Tanah Abang","time":5,"distance":2029,"is_transit":true,"transit":true,"i_lat":-6.185545,"i_long":106.811091},{"time":6,"distance":3191,"i_lat":-6.207404,"station_name":"Palmerah","station_id":"PLM","transit":false,"line":6,"is_transit":false,"i_long":106.79689},{"station_id":"KBY","transit":false,"station_name":"Kebayoran","time":7,"i_long":106.780334,"i_lat":-6.237242,"is_transit":false,"line":6,"distance":3737},{"station_name":"Pondokranji","transit":false,"is_transit":false,"distance":6218,"time":8,"station_id":"PDJ","line":6,"i_long":106.74273,"i_lat":-6.276362},{"i_long":106.728916,"station_name":"Jurangmangu","transit":false,"time":3,"line":6,"distance":2179,"station_id":"JMU","i_lat":-6.288927,"is_transit":false},{"is_transit":false,"i_lat":-6.296963,"time":4,"station_id":"SDM","distance":1994,"transit":false,"line":6,"i_long":106.712277,"station_name":"Sudimara"},{"station_name":"Rawa Buntu","transit":false,"line":6,"i_lat":-6.314823,"station_id":"RU","i_long":106.675475,"time":6,"distance":4566,"is_transit":false}],[{"i_long":106.855437,"station_id":"KMT","i_lat":-6.193792,"is_transit":false,"line":11,"time":0,"transit":false,"distance":0,"station_name":"Kramat"},{"i_lat":-6.185975,"time":1,"distance":973,"station_name":"Gang Sentiong","station_id":"GST","transit":false,"i_long":106.850107,"line":11,"is_transit":false},{"i_lat":-6.174784,"i_long":106.84368,"transit":false,"station_name":"Pasar Senen","time":8,"distance":1567,"is_transit":false,"station_id":"PSE","line":11},{"i_long":106.839204,"station_name":"Kemayoran","distance":1436,"time":4,"is_transit":false,"station_id":"KMO","i_lat":-6.161728,"transit":false,"line":11},{"station_id":"RJW","i_long":106.836569,"station_name":"Rajawali","time":5,"distance":1901,"transit":false,"i_lat":-6.14505,"line":11,"is_transit":false},{"i_long":106.826365,"station_id":"KPB","i_lat":-6.132549,"line":4,"transit":true,"time":3,"distance":1444,"is_transit":true,"station_name":"Kampung Bandan"},{"station_name":"Angke","line":1,"distance":4102,"is_transit":false,"i_long":106.79867,"transit":false,"station_id":"AK","time":9,"i_lat":-6.144674},{"station_id":"DU","is_transit":false,"i_long":106.800832,"transit":false,"i_lat":-6.155215,"time":4,"station_name":"Duri","distance":1230,"line":1},{"line":1,"station_id":"THB","i_long":106.811091,"distance":3632,"time":8,"station_name":"Tanah Abang","is_transit":true,"transit":true,"i_lat":-6.185545},{"transit":false,"distance":3191,"i_long":106.79689,"i_lat":-6.207404,"line":6,"time":6,"is_transit":false,"station_id":"PLM","station_name":"Palmerah"},{"is_transit":false,"station_id":"KBY","time":7,"transit":false,"i_lat":-6.237242,"i_long":106.780334,"line":6,"station_name":"Kebayoran","distance":3737},{"station_name":"Pondokranji","is_transit":false,"transit":false,"i_long":106.74273,"time":8,"station_id":"PDJ","i_lat":-6.276362,"line":6,"distance":6218},{"i_lat":-6.288927,"i_long":106.728916,"station_name":"Jurangmangu","distance":2179,"time":3,"station_id":"JMU","line":6,"is_transit":false,"transit":false},{"time":4,"transit":false,"line":6,"station_name":"Sudimara","is_transit":false,"station_id":"SDM","distance":1994,"i_long":106.712277,"i_lat":-6.296963},{"distance":4566,"i_long":106.675475,"station_name":"Rawa Buntu","transit":false,"time":6,"station_id":"RU","line":6,"i_lat":-6.314823,"is_transit":false}],[{"station_id":"KMT","station_name":"Kramat","time":0,"distance":0,"is_transit":false,"transit":false,"i_lat":-6.193792,"i_long":106.855437,"line":11},{"station_name":"Pondok Jati","transit":false,"i_lat":-6.209188,"time":2,"station_id":"POK","distance":1829,"is_transit":false,"i_long":106.861737,"line":11},{"i_lat":-6.215091,"line":1,"i_long":106.86807400000001,"station_id":"JNG","station_name":"Jatinegara","distance":1236,"transit":true,"time":9,"is_transit":true},{"i_lat":-6.212485,"transit":false,"station_name":"Matraman","station_id":"MTR","line":1,"i_long":106.858896,"time":2,"is_transit":false,"distance":1377},{"i_long":106.84912,"line":2,"time":2,"is_transit":true,"i_lat":-6.209883,"transit":true,"distance":1275,"station_id":"MRI","station_name":"Manggarai"},{"i_long":106.840169,"transit":false,"is_transit":false,"time":4,"distance":1590,"station_id":"CKI","station_name":"Cikini","i_lat":-6.198556,"line":2},{"is_transit":false,"i_long":106.832183,"station_name":"Gondangdia","transit":false,"i_lat":-6.186295,"station_id":"GDD","time":3,"line":2,"distance":1750},{"distance":2015,"station_name":"Juanda","i_long":106.828284,"time":4,"station_id":"JUA","i_lat":-6.166716,"line":2,"is_transit":false,"transit":false},{"station_name":"Sawah Besar","line":2,"is_transit":false,"time":2,"transit":false,"distance":1149,"i_long":106.827103,"station_id":"SW","i_lat":-6.160725},{"station_id":"MGB","is_transit":false,"time":2,"distance":906,"i_long":106.82482,"station_name":"Manggabesar","transit":false,"i_lat":-6.149769,"line":2},{"distance":1080,"transit":false,"line":2,"time":2,"station_id":"JAY","i_long":106.820901,"is_transit":false,"station_name":"Jayakarta","i_lat":-6.141205},{"line":2,"i_long":106.812439,"station_name":"Jakarta Kota","transit":true,"i_lat":-6.137569,"distance":1264,"time":4,"is_transit":true,"station_id":"JAKK"},{"line":4,"station_id":"KPB","is_transit":true,"time":3,"transit":true,"i_long":106.826365,"distance":1364,"station_name":"Kampung Bandan","i_lat":-6.132549},{"time":9,"i_lat":-6.144674,"transit":false,"station_name":"Angke","distance":4102,"is_transit":false,"station_id":"AK","i_long":106.79867,"line":1},{"time":4,"transit":false,"station_id":"DU","is_transit":false,"i_long":106.800832,"line":1,"i_lat":-6.155215,"station_name":"Duri","distance":1230},{"transit":true,"i_lat":-6.185545,"is_transit":true,"station_name":"Tanah Abang","line":1,"time":8,"i_long":106.811091,"station_id":"THB","distance":3632},{"distance":3191,"station_name":"Palmerah","is_transit":false,"time":6,"i_long":106.79689,"line":6,"transit":false,"i_lat":-6.207404,"station_id":"PLM"},{"distance":3737,"i_long":106.780334,"station_name":"Kebayoran","station_id":"KBY","time":7,"transit":false,"line":6,"i_lat":-6.237242,"is_transit":false},{"i_long":106.74273,"time":8,"transit":false,"station_name":"Pondokranji","is_transit":false,"distance":6218,"line":6,"i_lat":-6.276362,"station_id":"PDJ"},{"is_transit":false,"transit":false,"time":3,"line":6,"station_id":"JMU","station_name":"Jurangmangu","distance":2179,"i_lat":-6.288927,"i_long":106.728916},{"station_name":"Sudimara","i_lat":-6.296963,"line":6,"is_transit":false,"distance":1994,"transit":false,"station_id":"SDM","time":4,"i_long":106.712277},{"station_id":"RU","is_transit":false,"i_lat":-6.314823,"transit":false,"time":6,"station_name":"Rawa Buntu","distance":4566,"line":6,"i_long":106.675475}],[{"station_id":"KMT","i_long":106.855437,"time":0,"i_lat":-6.193792,"station_name":"Kramat","is_transit":false,"transit":false,"line":11,"distance":0},{"station_id":"GST","distance":973,"line":11,"transit":false,"i_lat":-6.185975,"is_transit":false,"station_name":"Gang Sentiong","i_long":106.850107,"time":1},{"transit":false,"i_long":106.84368,"distance":1567,"i_lat":-6.174784,"station_id":"PSE","is_transit":false,"station_name":"Pasar Senen","line":11,"time":8},{"station_name":"Kemayoran","time":4,"i_lat":-6.161728,"station_id":"KMO","distance":1436,"transit":false,"is_transit":false,"i_long":106.839204,"line":11},{"is_transit":false,"station_name":"Rajawali","time":5,"station_id":"RJW","line":11,"transit":false,"i_lat":-6.14505,"distance":1901,"i_long":106.836569},{"distance":1444,"is_transit":true,"line":4,"station_name":"Kampung Bandan","time":3,"i_long":106.826365,"station_id":"KPB","transit":true,"i_lat":-6.132549},{"i_long":106.812439,"transit":true,"is_transit":true,"time":3,"line":2,"station_id":"JAKK","distance":1364,"i_lat":-6.137569,"station_name":"Jakarta Kota"},{"transit":false,"is_transit":false,"i_lat":-6.141205,"time":4,"line":2,"station_name":"Jayakarta","station_id":"JAY","i_long":106.820901,"distance":1264},{"distance":1080,"i_long":106.82482,"station_id":"MGB","time":2,"station_name":"Manggabesar","transit":false,"line":2,"is_transit":false,"i_lat":-6.149769},{"station_name":"Sawah Besar","i_long":106.827103,"station_id":"SW","line":2,"i_lat":-6.160725,"is_transit":false,"time":2,"distance":906,"transit":false},{"transit":false,"station_name":"Juanda","station_id":"JUA","distance":1149,"is_transit":false,"line":2,"i_long":106.828284,"i_lat":-6.166716,"time":2},{"station_name":"Gondangdia","station_id":"GDD","time":4,"i_long":106.832183,"i_lat":-6.186295,"line":2,"distance":2015,"transit":false,"is_transit":false},{"distance":1750,"transit":false,"i_lat":-6.198556,"line":2,"is_transit":false,"station_name":"Cikini","time":3,"station_id":"CKI","i_long":106.840169},{"distance":1590,"is_transit":true,"station_name":"Manggarai","transit":true,"i_lat":-6.209883,"station_id":"MRI","line":2,"i_long":106.84912,"time":4},{"station_name":"Sudirman","time":4,"distance":3186,"line":1,"i_long":106.822649,"i_lat":-6.202263,"is_transit":false,"transit":false,"station_id":"SUD"},{"station_name":"Sudirman Baru","station_id":"SUDB","time":1,"i_lat":-6.201433,"i_long":106.819881,"line":1,"is_transit":false,"distance":280,"transit":false},{"i_long":106.816351,"is_transit":false,"line":1,"transit":false,"station_id":"KAT","distance":471,"i_lat":-6.20132,"time":1,"station_name":"Karet"},{"station_id":"THB","distance":2029,"station_name":"Tanah Abang","i_long":106.811091,"line":1,"time":5,"is_transit":true,"transit":true,"i_lat":-6.185545},{"transit":false,"distance":3191,"i_lat":-6.207404,"i_long":106.79689,"line":6,"station_name":"Palmerah","time":6,"is_transit":false,"station_id":"PLM"},{"transit":false,"station_id":"KBY","line":6,"i_long":106.780334,"is_transit":false,"distance":3737,"station_name":"Kebayoran","time":7,"i_lat":-6.237242},{"i_long":106.74273,"time":8,"transit":false,"is_transit":false,"station_id":"PDJ","distance":6218,"station_name":"Pondokranji","i_lat":-6.276362,"line":6},{"station_id":"JMU","i_long":106.728916,"i_lat":-6.288927,"station_name":"Jurangmangu","is_transit":false,"line":6,"time":3,"distance":2179,"transit":false},{"i_lat":-6.296963,"distance":1994,"station_name":"Sudimara","station_id":"SDM","is_transit":false,"transit":false,"time":4,"i_long":106.712277,"line":6},{"station_name":"Rawa Buntu","is_transit":false,"distance":4566,"time":6,"line":6,"i_lat":-6.314823,"transit":false,"station_id":"RU","i_long":106.675475}]]}