{"data":[[{"time":0,"station_id":"KMT","distance":0,"i_long":106.855437,"transit":false,"station_name":"Kramat","is_transit":false,"line":11,"i_lat":-6.193792},{"station_name":"Pondok Jati","time":2,"line":11,"station_id":"POK","distance":1829,"i_long":106.861737,"i_lat":-6.209188,"transit":false,"is_transit":false},{"i_lat":-6.215091,"transit":true,"line":1,"station_name":"Jatinegara","station_id":"JNG","is_transit":true,"distance":1236,"i_long":106.86807400000001,"time":9},{"transit":false,"line":1,"station_name":"Matraman","distance":1377,"station_id":"MTR","is_transit":false,"time":2,"i_lat":-6.212485,"i_long":106.858896},{"distance":1275,"time":2,"i_long":106.84912,"i_lat":-6.209883,"station_id":"MRI","station_name":"Manggarai","line":2,"is_transit":true,"transit":true},{"station_id":"TEB","distance":2610,"station_name":"Tebet","time":4,"is_transit":false,"i_long":106.857948,"transit":false,"i_lat":-6.226659,"line":2},{"transit":false,"time":2,"i_lat":-6.242512,"distance":1230,"is_transit":false,"i_long":106.856607,"station_name":"Cawang","line":2,"station_id":"CW"},{"i_long":106.85449,"transit":false,"is_transit":false,"station_name":"Duren Kalibata","distance":1546,"time":3,"line":2,"i_lat":-6.255332,"station_id":"DRN"},{"station_id":"PSMB","station_name":"Pasar Minggu Baru","line":2,"distance":824,"transit":false,"i_long":106.851577,"time":2,"is_transit":false,"i_lat":-6.263214},{"distance":2380,"time":2,"line":2,"station_id":"PSM","transit":false,"i_long":106.843999,"station_name":"Pasar Minggu","i_lat":-6.2842400000000005,"is_transit":false},{"line":2,"transit":false,"is_transit":false,"i_long":106.838896,"station_name":"Tanjung Barat","station_id":"TNT","distance":2820,"time":4,"i_lat":-6.3080680000000005}],[{"station_name":"Kramat","time":0,"distance":0,"transit":false,"line":11,"station_id":"KMT","i_lat":-6.193792,"is_transit":false,"i_long":106.855437},{"station_id":"GST","is_transit":false,"time":1,"i_long":106.850107,"distance":973,"line":11,"station_name":"Gang Sentiong","transit":false,"i_lat":-6.185975},{"is_transit":false,"transit":false,"distance":1567,"i_lat":-6.174784,"station_name":"Pasar Senen","station_id":"PSE","time":8,"i_long":106.84368,"line":11},{"time":4,"transit":false,"line":11,"station_name":"Kemayoran","is_transit":false,"i_lat":-6.161728,"i_long":106.839204,"distance":1436,"station_id":"KMO"},{"station_name":"Rajawali","station_id":"RJW","distance":1901,"i_lat":-6.14505,"is_transit":false,"i_long":106.836569,"line":11,"time":5,"transit":false},{"station_name":"Kampung Bandan","is_transit":true,"station_id":"KPB","time":3,"i_lat":-6.132549,"transit":true,"distance":1444,"i_long":106.826365,"line":4},{"transit":false,"distance":4102,"time":9,"i_lat":-6.144674,"i_long":106.79867,"line":1,"station_id":"AK","station_name":"Angke","is_transit":false},{"station_id":"DU","i_long":106.800832,"i_lat":-6.155215,"is_transit":false,"station_name":"Duri","transit":false,"distance":1230,"line":1,"time":4},{"transit":false,"station_id":"THB","is_transit":false,"time":8,"station_name":"Tanah Abang","i_lat":-6.185545,"line":1,"distance":3632,"i_long":106.811091},{"station_name":"Karet","time":5,"distance":2029,"is_transit":false,"i_long":106.816351,"line":1,"station_id":"KAT","i_lat":-6.20132,"transit":false},{"line":1,"station_id":"SUDB","station_name":"Sudirman Baru","time":1,"transit":false,"i_lat":-6.201433,"distance":471,"is_transit":false,"i_long":106.819881},{"i_long":106.822649,"line":1,"time":1,"i_lat":-6.202263,"station_id":"SUD","is_transit":false,"transit":false,"station_name":"Sudirman","distance":280},{"is_transit":true,"i_lat":-6.209883,"station_id":"MRI","i_long":106.84912,"distance":3186,"line":2,"station_name":"Manggarai","time":4,"transit":true},{"transit":false,"station_name":"Tebet","is_transit":false,"i_lat":-6.226659,"line":2,"i_long":106.857948,"distance":2610,"station_id":"TEB","time":4},{"i_long":106.856607,"station_id":"CW","is_transit":false,"transit":false,"station_name":"Cawang","distance":1230,"line":2,"i_lat":-6.242512,"time":2},{"time":3,"distance":1546,"station_id":"DRN","line":2,"is_transit":false,"i_lat":-6.255332,"i_long":106.85449,"transit":false,"station_name":"Duren Kalibata"},{"i_lat":-6.263214,"line":2,"station_id":"PSMB","time":2,"i_long":106.851577,"is_transit":false,"distance":824,"transit":false,"station_name":"Pasar Minggu Baru"},{"station_name":"Pasar Minggu","is_transit":false,"time":2,"line":2,"i_long":106.843999,"transit":false,"station_id":"PSM","i_lat":-6.2842400000000005,"distance":2380},{"distance":2820,"time":4,"transit":false,"is_transit":false,"line":2,"station_name":"Tanjung Barat","station_id":"TNT","i_lat":-6.3080680000000005,"i_long":106.838896}],[{"i_lat":-6.193792,"line":11,"station_name":"Kramat","transit":false,"i_long":106.855437,"is_transit":false,"time":0,"distance":0,"station_id":"KMT"},{"distance":973,"line":11,"i_long":106.850107,"time":1,"station_id":"GST","i_lat":-6.185975,"is_transit":false,"station_name":"Gang Sentiong","transit":false},{"transit":false,"is_transit":false,"station_id":"PSE","i_long":106.84368,"line":11,"distance":1567,"station_name":"Pasar Senen","i_lat":-6.174784,"time":8},{"i_lat":-6.161728,"distance":1436,"i_long":106.839204,"station_name":"Kemayoran","station_id":"KMO","line":11,"is_transit":false,"transit":false,"time":4},{"transit":false,"i_lat":-6.14505,"time":5,"is_transit":false,"station_id":"RJW","distance":1901,"line":11,"station_name":"Rajawali","i_long":106.836569},{"distance":1444,"station_id":"KPB","is_transit":true,"i_long":106.826365,"station_name":"Kampung Bandan","time":3,"transit":true,"i_lat":-6.132549,"line":4},{"transit":true,"station_name":"Jakarta Kota","time":3,"i_lat":-6.137569,"i_long":106.812439,"line":2,"station_id":"JAKK","is_transit":true,"distance":1364},{"i_long":106.820901,"distance":1264,"line":2,"transit":false,"station_name":"Jayakarta","is_transit":false,"time":4,"i_lat":-6.141205,"station_id":"JAY"},{"transit":false,"distance":1080,"i_lat":-6.149769,"is_transit":false,"station_id":"MGB","station_name":"Manggabesar","i_long":106.82482,"line":2,"time":2},{"distance":906,"i_lat":-6.160725,"station_name":"Sawah Besar","transit":false,"is_transit":false,"station_id":"SW","i_long":106.827103,"line":2,"time":2},{"station_id":"JUA","is_transit":false,"time":2,"distance":1149,"i_lat":-6.166716,"i_long":106.828284,"station_name":"Juanda","transit":false,"line":2},{"station_name":"Gondangdia","i_lat":-6.186295,"time":4,"distance":2015,"is_transit":false,"transit":false,"line":2,"i_long":106.832183,"station_id":"GDD"},{"i_lat":-6.198556,"i_long":106.840169,"station_name":"Cikini","line":2,"station_id":"CKI","time":3,"transit":false,"distance":1750,"is_transit":false},{"transit":false,"station_id":"MRI","line":2,"time":4,"station_name":"Manggarai","is_transit":false,"distance":1590,"i_lat":-6.209883,"i_long":106.84912},{"i_long":106.857948,"is_transit":false,"time":4,"transit":false,"station_id":"TEB","i_lat":-6.226659,"line":2,"distance":2610,"station_name":"Tebet"},{"transit":false,"station_id":"CW","i_lat":-6.242512,"station_name":"Cawang","distance":1230,"i_long":106.856607,"time":2,"is_transit":false,"line":2},{"distance":1546,"time":3,"station_name":"Duren Kalibata","i_long":106.85449,"station_id":"DRN","is_transit":false,"line":2,"transit":false,"i_lat":-6.255332},{"i_lat":-6.263214,"i_long":106.851577,"is_transit":false,"line":2,"time":2,"station_name":"Pasar Minggu Baru","transit":false,"station_id":"PSMB","distance":824},{"station_name":"Pasar Minggu","i_lat":-6.2842400000000005,"distance":2380,"line":2,"is_transit":false,"station_id":"PSM","time":2,"i_long":106.843999,"transit":false},{"transit":false,"i_lat":-6.3080680000000005,"station_id":"TNT","is_transit":false,"line":2,"distance":2820,"station_name":"Tanjung Barat","time":4,"i_long":106.838896}]]}