{"data":[[{"station_name":"Kramat","i_long":106.855437,"i_lat":-6.193792,"line":11,"transit":false,"is_transit":false,"distance":0,"time":0,"station_id":"KMT"},{"distance":973,"station_id":"GST","station_name":"Gang Sentiong","i_long":106.850107,"i_lat":-6.185975,"is_transit":false,"line":11,"time":1,"transit":false},{"i_long":106.84368,"transit":false,"i_lat":-6.174784,"is_transit":false,"time":8,"station_id":"PSE","distance":1567,"station_name":"Pasar Senen","line":11},{"station_name":"Kemayoran","i_lat":-6.161728,"i_long":106.839204,"line":11,"station_id":"KMO","distance":1436,"is_transit":false,"time":4,"transit":false},{"transit":false,"line":11,"station_name":"Rajawali","station_id":"RJW","i_lat":-6.14505,"time":5,"i_long":106.836569,"distance":1901,"is_transit":false},{"i_lat":-6.132549,"i_long":106.826365,"station_id":"KPB","time":3,"station_name":"Kampung Bandan","line":4,"transit":true,"distance":1444,"is_transit":true},{"transit":false,"distance":4102,"is_transit":false,"line":1,"station_id":"AK","i_long":106.79867,"time":9,"station_name":"Angke","i_lat":-6.144674},{"line":1,"time":4,"station_id":"DU","is_transit":true,"i_lat":-6.155215,"i_long":106.800832,"station_name":"Duri","distance":1230,"transit":true},{"is_transit":false,"station_id":"GGL","distance":1700,"i_lat":-6.162021,"i_long":106.788277,"transit":false,"time":3,"line":5,"station_name":"Grogol"},{"distance":2036,"station_name":"Pesing","time":2,"station_id":"PSG","i_lat":-6.161433,"line":5,"i_long":106.771379,"is_transit":false,"transit":false},{"station_id":"TKO","is_transit":false,"i_long":106.756522,"transit":false,"time":2,"i_lat":-6.1587309999999995,"line":5,"station_name":"Taman Kota","distance":1614},{"line":5,"station_id":"BOI","time":2,"distance":2334,"i_long":106.737035,"i_lat":-6.159876,"station_name":"Bojongindah","is_transit":false,"transit":false},{"line":5,"i_long":106.723064,"transit":false,"station_name":"Rawa Buaya","i_lat":-6.162758,"station_id":"RW","is_transit":false,"distance":1152,"time":4},{"i_lat":-6.166068,"i_long":106.701612,"distance":2504,"is_transit":false,"time":3,"station_id":"KDS","station_name":"Kalideres","transit":false,"line":5},{"station_name":"Poris","station_id":"PI","is_transit":false,"time":3,"i_lat":-6.169933,"i_long":106.679458,"transit":false,"line":5,"distance":2548}],[{"line":11,"i_long":106.855437,"time":0,"station_name":"Kramat","transit":false,"station_id":"KMT","distance":0,"is_transit":false,"i_lat":-6.193792},{"time":2,"transit":false,"i_long":106.861737,"is_transit":false,"station_name":"Pondok Jati","station_id":"POK","distance":1829,"i_lat":-6.209188,"line":11},{"is_transit":true,"station_id":"JNG","station_name":"Jatinegara","i_lat":-6.215091,"i_long":106.86807400000001,"line":1,"distance":1236,"time":9,"transit":true},{"is_transit":false,"i_lat":-6.212485,"i_long":106.858896,"line":1,"time":2,"station_name":"Matraman","transit":false,"station_id":"MTR","distance":1377},{"is_transit":false,"i_lat":-6.209883,"i_long":106.84912,"distance":1275,"time":2,"station_name":"Manggarai","transit":false,"station_id":"MRI","line":2},{"time":4,"transit":false,"station_name":"Sudirman","i_lat":-6.202263,"i_long":106.822649,"line":1,"distance":3186,"is_transit":false,"station_id":"SUD"},{"transit":false,"line":1,"i_lat":-6.201433,"station_name":"Sudirman Baru","station_id":"SUDB","is_transit":false,"time":1,"distance":280,"i_long":106.819881},{"station_id":"KAT","station_name":"Karet","is_transit":false,"i_lat":-6.20132,"distance":471,"time":1,"transit":false,"line":1,"i_long":106.816351},{"i_long":106.811091,"transit":false,"distance":2029,"time":5,"station_name":"Tanah Abang","is_transit":false,"i_lat":-6.185545,"line":1,"station_id":"THB"},{"i_lat":-6.155215,"station_name":"Duri","is_transit":true,"time":8,"line":1,"transit":true,"distance":3632,"i_long":106.800832,"station_id":"DU"},{"i_long":106.788277,"line":5,"distance":1700,"time":3,"station_id":"GGL","transit":false,"i_lat":-6.162021,"station_name":"Grogol","is_transit":false},{"transit":false,"i_long":106.771379,"distance":2036,"station_id":"PSG","line":5,"station_name":"Pesing","is_transit":false,"i_lat":-6.161433,"time":2},{"time":2,"i_lat":-6.1587309999999995,"line":5,"distance":1614,"station_id":"TKO","i_long":106.756522,"station_name":"Taman Kota","transit":false,"is_transit":false},{"i_long":106.737035,"transit":false,"is_transit":false,"station_id":"BOI","i_lat":-6.159876,"time":2,"station_name":"Bojongindah","distance":2334,"line":5},{"station_name":"Rawa Buaya","distance":1152,"i_long":106.723064,"is_transit":false,"i_lat":-6.162758,"time":4,"line":5,"station_id":"RW","transit":false},{"station_name":"Kalideres","transit":false,"line":5,"time":3,"is_transit":false,"i_lat":-6.166068,"distance":2504,"station_id":"KDS","i_long":106.701612},{"transit":false,"station_name":"Poris","i_long":106.679458,"distance":2548,"i_lat":-6.169933,"line":5,"station_id":"PI","is_transit":false,"time":3}],[{"is_transit":false,"distance":0,"transit":false,"i_lat":-6.193792,"line":11,"station_name":"Kramat","station_id":"KMT","i_long":106.855437,"time":0},{"station_id":"POK","i_long":106.861737,"is_transit":false,"station_name":"Pondok Jati","time":2,"line":11,"i_lat":-6.209188,"transit":false,"distance":1829},{"station_id":"JNG","i_long":106.86807400000001,"is_transit":true,"time":9,"distance":1236,"station_name":"Jatinegara","transit":true,"line":1,"i_lat":-6.215091},{"is_transit":false,"station_name":"Matraman","i_lat":-6.212485,"distance":1377,"station_id":"MTR","transit":false,"time":2,"line":1,"i_long":106.858896},{"station_id":"MRI","i_long":106.84912,"is_transit":true,"time":2,"i_lat":-6.209883,"line":2,"distance":1275,"station_name":"Manggarai","transit":true},{"transit":false,"station_name":"Cikini","i_lat":-6.198556,"distance":1590,"is_transit":false,"time":4,"station_id":"CKI","i_long":106.840169,"line":2},{"distance":1750,"line":2,"transit":false,"station_id":"GDD","time":3,"is_transit":false,"i_lat":-6.186295,"i_long":106.832183,"station_name":"Gondangdia"},{"is_transit":false,"distance":2015,"station_name":"Juanda","i_long":106.828284,"station_id":"JUA","transit":false,"i_lat":-6.166716,"line":2,"time":4},{"station_name":"Sawah Besar","distance":1149,"transit":false,"i_lat":-6.160725,"is_transit":false,"time":2,"station_id":"SW","i_long":106.827103,"line":2},{"distance":906,"is_transit":false,"time":2,"station_id":"MGB","transit":false,"i_long":106.82482,"line":2,"station_name":"Manggabesar","i_lat":-6.149769},{"time":2,"i_lat":-6.141205,"station_name":"Jayakarta","station_id":"JAY","transit":false,"line":2,"i_long":106.820901,"is_transit":false,"distance":1080},{"distance":1264,"transit":true,"station_name":"Jakarta Kota","line":2,"is_transit":true,"station_id":"JAKK","time":4,"i_long":106.812439,"i_lat":-6.137569},{"i_lat":-6.132549,"distance":1364,"time":3,"station_id":"KPB","i_long":106.826365,"is_transit":true,"line":4,"station_name":"Kampung Bandan","transit":true},{"station_name":"Angke","distance":4102,"is_transit":false,"transit":false,"station_id":"AK","i_lat":-6.144674,"line":1,"time":9,"i_long":106.79867},{"distance":1230,"time":4,"transit":true,"station_name":"Duri","i_lat":-6.155215,"station_id":"DU","is_transit":true,"i_long":106.800832,"line":1},{"distance":1700,"i_lat":-6.162021,"time":3,"i_long":106.788277,"is_transit":false,"transit":false,"station_name":"Grogol","station_id":"GGL","line":5},{"is_transit":false,"i_long":106.771379,"time":2,"distance":2036,"i_lat":-6.161433,"transit":false,"station_id":"PSG","station_name":"Pesing","line":5},{"time":2,"is_transit":false,"station_name":"Taman Kota","station_id":"TKO","i_lat":-6.1587309999999995,"i_long":106.756522,"line":5,"distance":1614,"transit":false},{"time":2,"is_transit":false,"station_name":"Bojongindah","station_id":"BOI","i_lat":-6.159876,"distance":2334,"i_long":106.737035,"line":5,"transit":false},{"transit":false,"station_id":"RW","distance":1152,"time":4,"station_name":"Rawa Buaya","i_lat":-6.162758,"i_long":106.723064,"line":5,"is_transit":false},{"i_long":106.701612,"is_transit":false,"station_id":"KDS","i_lat":-6.166068,"time":3,"transit":false,"distance":2504,"station_name":"Kalideres","line":5},{"distance":2548,"line":5,"time":3,"transit":false,"station_id":"PI","station_name":"Poris","i_long":106.679458,"is_transit":false,"i_lat":-6.169933}],[{"i_long":106.855437,"i_lat":-6.193792,"is_transit":false,"transit":false,"station_id":"KMT","line":11,"time":0,"station_name":"Kramat","distance":0},{"is_transit":false,"station_id":"GST","distance":973,"i_lat":-6.185975,"i_long":106.850107,"station_name":"Gang Sentiong","time":1,"transit":false,"line":11},{"distance":1567,"station_name":"Pasar Senen","station_id":"PSE","is_transit":false,"i_lat":-6.174784,"transit":false,"line":11,"i_long":106.84368,"time":8},{"time":4,"line":11,"i_long":106.839204,"station_id":"KMO","station_name":"Kemayoran","i_lat":-6.161728,"transit":false,"is_transit":false,"distance":1436},{"station_id":"RJW","transit":false,"i_lat":-6.14505,"line":11,"time":5,"i_long":106.836569,"distance":1901,"is_transit":false,"station_name":"Rajawali"},{"distance":1444,"station_name":"Kampung Bandan","is_transit":true,"station_id":"KPB","i_lat":-6.132549,"i_long":106.826365,"line":4,"transit":true,"time":3},{"time":3,"line":2,"station_id":"JAKK","station_name":"Jakarta Kota","is_transit":true,"i_lat":-6.137569,"i_long":106.812439,"transit":true,"distance":1364},{"station_name":"Jayakarta","i_lat":-6.141205,"distance":1264,"i_long":106.820901,"transit":false,"station_id":"JAY","line":2,"is_transit":false,"time":4},{"i_long":106.82482,"time":2,"station_id":"MGB","i_lat":-6.149769,"line":2,"is_transit":false,"distance":1080,"transit":false,"station_name":"Manggabesar"},{"transit":false,"station_name":"Sawah Besar","distance":906,"i_long":106.827103,"time":2,"i_lat":-6.160725,"line":2,"is_transit":false,"station_id":"SW"},{"line":2,"is_transit":false,"distance":1149,"transit":false,"station_id":"JUA","i_lat":-6.166716,"time":2,"i_long":106.828284,"station_name":"Juanda"},{"is_transit":false,"distance":2015,"time":4,"transit":false,"station_name":"Gondangdia","i_lat":-6.186295,"station_id":"GDD","i_long":106.832183,"line":2},{"distance":1750,"transit":false,"i_lat":-6.198556,"time":3,"is_transit":false,"station_name":"Cikini","station_id":"CKI","i_long":106.840169,"line":2},{"distance":1590,"station_id":"MRI","is_transit":true,"i_lat":-6.209883,"time":4,"line":2,"i_long":106.84912,"station_name":"Manggarai","transit":true},{"station_name":"Sudirman","is_transit":false,"distance":3186,"i_lat":-6.202263,"station_id":"SUD","transit":false,"line":1,"i_long":106.822649,"time":4},{"i_long":106.819881,"line":1,"station_name":"Sudirman Baru","transit":false,"i_lat":-6.201433,"time":1,"is_transit":false,"station_id":"SUDB","distance":280},{"i_lat":-6.20132,"line":1,"distance":471,"station_name":"Karet","station_id":"KAT","i_long":106.816351,"is_transit":false,"time":1,"transit":false},{"i_lat":-6.185545,"distance":2029,"i_long":106.811091,"time":5,"is_transit":false,"line":1,"transit":false,"station_id":"THB","station_name":"Tanah Abang"},{"is_transit":true,"station_id":"DU","time":8,"line":1,"i_lat":-6.155215,"i_long":106.800832,"station_name":"Duri","transit":true,"distance":3632},{"distance":1700,"station_id":"GGL","is_transit":false,"i_lat":-6.162021,"line":5,"station_name":"Grogol","transit":false,"i_long":106.788277,"time":3},{"time":2,"i_long":106.771379,"i_lat":-6.161433,"transit":false,"line":5,"station_name":"Pesing","station_id":"PSG","is_transit":false,"distance":2036},{"i_lat":-6.1587309999999995,"i_long":106.756522,"distance":1614,"line":5,"station_name":"Taman Kota","is_transit":false,"transit":false,"station_id":"TKO","time":2},{"line":5,"time":2,"transit":false,"i_lat":-6.159876,"station_id":"BOI","distance":2334,"station_name":"Bojongindah","i_long":106.737035,"is_transit":false},{"station_name":"Rawa Buaya","transit":false,"is_transit":false,"distance":1152,"i_long":106.723064,"time":4,"station_id":"RW","line":5,"i_lat":-6.162758},{"is_transit":false,"i_long":106.701612,"station_id":"KDS","distance":2504,"station_name":"Kalideres","time":3,"transit":false,"i_lat":-6.166068,"line":5},{"is_transit":false,"distance":2548,"station_name":"Poris","time":3,"i_long":106.679458,"station_id":"PI","line":5,"transit":false,"i_lat":-6.169933}]]}