{"data":[[{"i_long":106.855437,"line":11,"distance":0,"transit":false,"station_id":"KMT","time":0,"station_name":"Kramat","is_transit":false,"i_lat":-6.193792},{"i_lat":-6.185975,"is_transit":false,"station_id":"GST","i_long":106.850107,"line":11,"time":1,"station_name":"Gang Sentiong","transit":false,"distance":973},{"i_long":106.84368,"time":8,"transit":false,"i_lat":-6.174784,"station_id":"PSE","line":11,"station_name":"Pasar Senen","distance":1567,"is_transit":false},{"i_lat":-6.161728,"distance":1436,"i_long":106.839204,"transit":false,"station_id":"KMO","station_name":"Kemayoran","is_transit":false,"time":4,"line":11},{"i_long":106.836569,"line":11,"station_id":"RJW","station_name":"Rajawali","i_lat":-6.14505,"distance":1901,"transit":false,"is_transit":false,"time":5},{"station_name":"Kampung Bandan","time":3,"i_lat":-6.132549,"i_long":106.826365,"transit":true,"distance":1444,"station_id":"KPB","is_transit":true,"line":4},{"station_name":"Angke","i_long":106.79867,"distance":4102,"station_id":"AK","transit":false,"is_transit":false,"time":9,"i_lat":-6.144674,"line":1},{"is_transit":true,"i_long":106.800832,"distance":1230,"time":4,"i_lat":-6.155215,"station_id":"DU","transit":true,"station_name":"Duri","line":1},{"is_transit":false,"distance":1700,"transit":false,"i_long":106.788277,"station_id":"GGL","time":3,"station_name":"Grogol","i_lat":-6.162021,"line":5},{"station_id":"PSG","transit":false,"i_lat":-6.161433,"line":5,"time":2,"station_name":"Pesing","i_long":106.771379,"is_transit":false,"distance":2036},{"distance":1614,"is_transit":false,"transit":false,"station_name":"Taman Kota","time":2,"station_id":"TKO","i_long":106.756522,"line":5,"i_lat":-6.1587309999999995},{"station_id":"BOI","distance":2334,"i_long":106.737035,"line":5,"station_name":"Bojongindah","is_transit":false,"time":2,"i_lat":-6.159876,"transit":false},{"is_transit":false,"distance":1152,"station_name":"Rawa Buaya","line":5,"transit":false,"time":4,"i_lat":-6.162758,"i_long":106.723064,"station_id":"RW"},{"i_long":106.701612,"line":5,"station_name":"Kalideres","transit":false,"distance":2504,"is_transit":false,"station_id":"KDS","time":3,"i_lat":-6.166068}],[{"i_lat":-6.193792,"station_name":"Kramat","line":11,"transit":false,"time":0,"is_transit":false,"distance":0,"station_id":"KMT","i_long":106.855437},{"i_lat":-6.209188,"distance":1829,"i_long":106.861737,"line":11,"station_name":"Pondok Jati","is_transit":false,"transit":false,"station_id":"POK","time":2},{"i_lat":-6.215091,"is_transit":true,"station_name":"Jatinegara","line":1,"station_id":"JNG","distance":1236,"time":9,"i_long":106.86807400000001,"transit":true},{"station_name":"Matraman","i_lat":-6.212485,"distance":1377,"station_id":"MTR","line":1,"is_transit":false,"i_long":106.858896,"transit":false,"time":2},{"station_id":"MRI","i_long":106.84912,"time":2,"station_name":"Manggarai","distance":1275,"is_transit":false,"transit":false,"i_lat":-6.209883,"line":2},{"distance":3186,"station_id":"SUD","station_name":"Sudirman","line":1,"i_lat":-6.202263,"i_long":106.822649,"is_transit":false,"time":4,"transit":false},{"station_id":"SUDB","distance":280,"i_long":106.819881,"time":1,"i_lat":-6.201433,"transit":false,"is_transit":false,"station_name":"Sudirman Baru","line":1},{"line":1,"i_lat":-6.20132,"time":1,"station_id":"KAT","is_transit":false,"transit":false,"i_long":106.816351,"station_name":"Karet","distance":471},{"i_long":106.811091,"time":5,"transit":false,"line":1,"distance":2029,"i_lat":-6.185545,"station_name":"Tanah Abang","station_id":"THB","is_transit":false},{"transit":true,"i_lat":-6.155215,"line":1,"station_name":"Duri","time":8,"is_transit":true,"distance":3632,"station_id":"DU","i_long":106.800832},{"i_long":106.788277,"station_id":"GGL","distance":1700,"transit":false,"station_name":"Grogol","is_transit":false,"i_lat":-6.162021,"time":3,"line":5},{"i_long":106.771379,"time":2,"transit":false,"line":5,"distance":2036,"station_name":"Pesing","i_lat":-6.161433,"is_transit":false,"station_id":"PSG"},{"station_id":"TKO","distance":1614,"is_transit":false,"i_long":106.756522,"i_lat":-6.1587309999999995,"time":2,"line":5,"station_name":"Taman Kota","transit":false},{"transit":false,"line":5,"time":2,"is_transit":false,"i_long":106.737035,"distance":2334,"i_lat":-6.159876,"station_id":"BOI","station_name":"Bojongindah"},{"transit":false,"time":4,"station_id":"RW","distance":1152,"i_lat":-6.162758,"is_transit":false,"line":5,"station_name":"Rawa Buaya","i_long":106.723064},{"distance":2504,"transit":false,"line":5,"i_long":106.701612,"is_transit":false,"time":3,"i_lat":-6.166068,"station_id":"KDS","station_name":"Kalideres"}],[{"station_id":"KMT","is_transit":false,"i_lat":-6.193792,"distance":0,"line":11,"i_long":106.855437,"time":0,"transit":false,"station_name":"Kramat"},{"transit":false,"is_transit":false,"station_name":"Pondok Jati","time":2,"i_lat":-6.209188,"line":11,"i_long":106.861737,"station_id":"POK","distance":1829},{"is_transit":true,"transit":true,"i_lat":-6.215091,"i_long":106.86807400000001,"time":9,"line":1,"station_id":"JNG","distance":1236,"station_name":"Jatinegara"},{"i_lat":-6.212485,"i_long":106.858896,"transit":false,"station_name":"Matraman","station_id":"MTR","is_transit":false,"time":2,"distance":1377,"line":1},{"line":2,"i_lat":-6.209883,"transit":true,"is_transit":true,"station_name":"Manggarai","i_long":106.84912,"station_id":"MRI","distance":1275,"time":2},{"i_long":106.840169,"station_id":"CKI","i_lat":-6.198556,"transit":false,"station_name":"Cikini","time":4,"line":2,"is_transit":false,"distance":1590},{"transit":false,"station_id":"GDD","is_transit":false,"i_lat":-6.186295,"distance":1750,"station_name":"Gondangdia","time":3,"i_long":106.832183,"line":2},{"station_name":"Juanda","time":4,"station_id":"JUA","distance":2015,"transit":false,"i_lat":-6.166716,"i_long":106.828284,"is_transit":false,"line":2},{"station_name":"Sawah Besar","i_lat":-6.160725,"i_long":106.827103,"transit":false,"line":2,"distance":1149,"station_id":"SW","is_transit":false,"time":2},{"time":2,"transit":false,"i_lat":-6.149769,"i_long":106.82482,"station_id":"MGB","distance":906,"is_transit":false,"line":2,"station_name":"Manggabesar"},{"is_transit":false,"station_id":"JAY","i_long":106.820901,"time":2,"distance":1080,"transit":false,"station_name":"Jayakarta","i_lat":-6.141205,"line":2},{"i_lat":-6.137569,"transit":true,"is_transit":true,"line":2,"station_name":"Jakarta Kota","i_long":106.812439,"distance":1264,"time":4,"station_id":"JAKK"},{"i_long":106.826365,"line":4,"station_name":"Kampung Bandan","time":3,"transit":true,"i_lat":-6.132549,"is_transit":true,"station_id":"KPB","distance":1364},{"transit":false,"time":9,"distance":4102,"i_long":106.79867,"line":1,"station_id":"AK","station_name":"Angke","i_lat":-6.144674,"is_transit":false},{"i_lat":-6.155215,"i_long":106.800832,"station_id":"DU","is_transit":true,"transit":true,"distance":1230,"line":1,"station_name":"Duri","time":4},{"is_transit":false,"i_long":106.788277,"line":5,"transit":false,"time":3,"distance":1700,"i_lat":-6.162021,"station_id":"GGL","station_name":"Grogol"},{"i_long":106.771379,"is_transit":false,"transit":false,"station_id":"PSG","distance":2036,"time":2,"i_lat":-6.161433,"line":5,"station_name":"Pesing"},{"station_name":"Taman Kota","station_id":"TKO","is_transit":false,"transit":false,"time":2,"i_lat":-6.1587309999999995,"distance":1614,"i_long":106.756522,"line":5},{"station_name":"Bojongindah","i_long":106.737035,"line":5,"i_lat":-6.159876,"is_transit":false,"time":2,"transit":false,"distance":2334,"station_id":"BOI"},{"distance":1152,"line":5,"is_transit":false,"transit":false,"i_lat":-6.162758,"time":4,"i_long":106.723064,"station_id":"RW","station_name":"Rawa Buaya"},{"i_lat":-6.166068,"distance":2504,"i_long":106.701612,"station_id":"KDS","transit":false,"is_transit":false,"station_name":"Kalideres","time":3,"line":5}],[{"station_name":"Kramat","is_transit":false,"line":11,"i_long":106.855437,"station_id":"KMT","transit":false,"distance":0,"time":0,"i_lat":-6.193792},{"i_long":106.850107,"is_transit":false,"distance":973,"transit":false,"time":1,"station_name":"Gang Sentiong","station_id":"GST","line":11,"i_lat":-6.185975},{"station_id":"PSE","distance":1567,"time":8,"i_lat":-6.174784,"station_name":"Pasar Senen","is_transit":false,"transit":false,"i_long":106.84368,"line":11},{"time":4,"is_transit":false,"station_name":"Kemayoran","i_lat":-6.161728,"transit":false,"line":11,"i_long":106.839204,"distance":1436,"station_id":"KMO"},{"transit":false,"i_long":106.836569,"line":11,"time":5,"distance":1901,"station_id":"RJW","station_name":"Rajawali","is_transit":false,"i_lat":-6.14505},{"line":4,"i_lat":-6.132549,"distance":1444,"station_name":"Kampung Bandan","time":3,"transit":true,"is_transit":true,"station_id":"KPB","i_long":106.826365},{"transit":true,"is_transit":true,"line":2,"distance":1364,"station_name":"Jakarta Kota","i_lat":-6.137569,"time":3,"station_id":"JAKK","i_long":106.812439},{"distance":1264,"i_long":106.820901,"transit":false,"station_name":"Jayakarta","is_transit":false,"time":4,"line":2,"i_lat":-6.141205,"station_id":"JAY"},{"distance":1080,"i_long":106.82482,"line":2,"station_name":"Manggabesar","station_id":"MGB","is_transit":false,"transit":false,"time":2,"i_lat":-6.149769},{"i_lat":-6.160725,"i_long":106.827103,"time":2,"distance":906,"transit":false,"is_transit":false,"station_name":"Sawah Besar","line":2,"station_id":"SW"},{"station_id":"JUA","i_lat":-6.166716,"time":2,"i_long":106.828284,"distance":1149,"is_transit":false,"transit":false,"station_name":"Juanda","line":2},{"distance":2015,"transit":false,"time":4,"line":2,"station_id":"GDD","i_lat":-6.186295,"station_name":"Gondangdia","i_long":106.832183,"is_transit":false},{"time":3,"distance":1750,"station_id":"CKI","transit":false,"station_name":"Cikini","i_lat":-6.198556,"line":2,"i_long":106.840169,"is_transit":false},{"i_long":106.84912,"is_transit":true,"transit":true,"line":2,"distance":1590,"station_id":"MRI","station_name":"Manggarai","i_lat":-6.209883,"time":4},{"i_long":106.822649,"line":1,"distance":3186,"station_name":"Sudirman","is_transit":false,"station_id":"SUD","i_lat":-6.202263,"transit":false,"time":4},{"line":1,"distance":280,"transit":false,"station_name":"Sudirman Baru","i_long":106.819881,"i_lat":-6.201433,"is_transit":false,"time":1,"station_id":"SUDB"},{"station_id":"KAT","i_long":106.816351,"i_lat":-6.20132,"line":1,"transit":false,"station_name":"Karet","time":1,"is_transit":false,"distance":471},{"is_transit":false,"i_long":106.811091,"station_name":"Tanah Abang","station_id":"THB","i_lat":-6.185545,"time":5,"distance":2029,"transit":false,"line":1},{"transit":true,"is_transit":true,"time":8,"line":1,"station_id":"DU","i_lat":-6.155215,"station_name":"Duri","i_long":106.800832,"distance":3632},{"time":3,"i_lat":-6.162021,"station_name":"Grogol","distance":1700,"transit":false,"is_transit":false,"station_id":"GGL","i_long":106.788277,"line":5},{"transit":false,"i_lat":-6.161433,"is_transit":false,"i_long":106.771379,"distance":2036,"station_name":"Pesing","time":2,"station_id":"PSG","line":5},{"time":2,"station_id":"TKO","line":5,"i_lat":-6.1587309999999995,"transit":false,"is_transit":false,"station_name":"Taman Kota","distance":1614,"i_long":106.756522},{"station_name":"Bojongindah","i_lat":-6.159876,"distance":2334,"station_id":"BOI","transit":false,"is_transit":false,"line":5,"time":2,"i_long":106.737035},{"time":4,"station_name":"Rawa Buaya","transit":false,"i_lat":-6.162758,"is_transit":false,"distance":1152,"i_long":106.723064,"station_id":"RW","line":5},{"line":5,"time":3,"is_transit":false,"distance":2504,"station_id":"KDS","i_lat":-6.166068,"transit":false,"station_name":"Kalideres","i_long":106.701612}]]}