{"data":[[{"transit":false,"i_lat":-6.193792,"line":11,"is_transit":false,"station_name":"Kramat","i_long":106.855437,"time":0,"station_id":"KMT","distance":0},{"station_name":"Pondok Jati","i_long":106.861737,"transit":false,"line":11,"i_lat":-6.209188,"is_transit":false,"distance":1829,"time":2,"station_id":"POK"},{"i_long":106.86807400000001,"station_id":"JNG","transit":true,"is_transit":true,"distance":1236,"i_lat":-6.215091,"time":9,"station_name":"Jatinegara","line":1},{"time":2,"station_name":"Matraman","i_long":106.858896,"station_id":"MTR","line":1,"is_transit":false,"i_lat":-6.212485,"transit":false,"distance":1377},{"transit":false,"distance":1275,"time":2,"is_transit":false,"i_lat":-6.209883,"station_id":"MRI","i_long":106.84912,"station_name":"Manggarai","line":2},{"i_lat":-6.202263,"transit":false,"station_name":"Sudirman","time":4,"i_long":106.822649,"line":1,"distance":3186,"station_id":"SUD","is_transit":false},{"is_transit":false,"line":1,"station_name":"Sudirman Baru","time":1,"i_long":106.819881,"transit":false,"station_id":"SUDB","distance":280,"i_lat":-6.201433},{"line":1,"transit":false,"i_lat":-6.20132,"station_id":"KAT","i_long":106.816351,"is_transit":false,"distance":471,"station_name":"Karet","time":1},{"i_long":106.811091,"time":5,"station_name":"Tanah Abang","distance":2029,"i_lat":-6.185545,"line":1,"station_id":"THB","is_transit":true,"transit":true},{"distance":3191,"line":6,"is_transit":false,"transit":false,"station_id":"PLM","time":6,"station_name":"Palmerah","i_long":106.79689,"i_lat":-6.207404},{"line":6,"station_id":"KBY","transit":false,"station_name":"Kebayoran","i_lat":-6.237242,"is_transit":false,"i_long":106.780334,"time":7,"distance":3737},{"station_name":"Pondokranji","is_transit":false,"time":8,"distance":6218,"i_lat":-6.276362,"i_long":106.74273,"line":6,"transit":false,"station_id":"PDJ"},{"transit":false,"station_name":"Jurangmangu","station_id":"JMU","time":3,"i_lat":-6.288927,"i_long":106.728916,"distance":2179,"is_transit":false,"line":6},{"station_name":"Sudimara","time":4,"distance":1994,"i_lat":-6.296963,"station_id":"SDM","is_transit":false,"i_long":106.712277,"line":6,"transit":false},{"line":6,"station_name":"Rawa Buntu","is_transit":false,"transit":false,"i_lat":-6.314823,"distance":4566,"station_id":"RU","time":6,"i_long":106.675475}],[{"station_name":"Kramat","i_lat":-6.193792,"line":11,"time":0,"distance":0,"station_id":"KMT","i_long":106.855437,"is_transit":false,"transit":false},{"i_lat":-6.185975,"line":11,"station_id":"GST","transit":false,"distance":973,"i_long":106.850107,"is_transit":false,"station_name":"Gang Sentiong","time":1},{"station_name":"Pasar Senen","line":11,"transit":false,"time":8,"i_long":106.84368,"is_transit":false,"i_lat":-6.174784,"station_id":"PSE","distance":1567},{"time":4,"line":11,"i_long":106.839204,"station_id":"KMO","station_name":"Kemayoran","i_lat":-6.161728,"is_transit":false,"distance":1436,"transit":false},{"transit":false,"station_name":"Rajawali","station_id":"RJW","i_lat":-6.14505,"line":11,"time":5,"is_transit":false,"distance":1901,"i_long":106.836569},{"station_id":"KPB","is_transit":true,"station_name":"Kampung Bandan","transit":true,"i_long":106.826365,"time":3,"distance":1444,"i_lat":-6.132549,"line":4},{"line":1,"station_name":"Angke","i_lat":-6.144674,"time":9,"transit":false,"distance":4102,"station_id":"AK","is_transit":false,"i_long":106.79867},{"i_long":106.800832,"is_transit":false,"time":4,"distance":1230,"transit":false,"i_lat":-6.155215,"station_id":"DU","station_name":"Duri","line":1},{"i_lat":-6.185545,"transit":true,"line":1,"distance":3632,"station_name":"Tanah Abang","is_transit":true,"time":8,"station_id":"THB","i_long":106.811091},{"station_id":"PLM","time":6,"i_long":106.79689,"transit":false,"station_name":"Palmerah","distance":3191,"is_transit":false,"i_lat":-6.207404,"line":6},{"station_name":"Kebayoran","distance":3737,"is_transit":false,"i_lat":-6.237242,"time":7,"i_long":106.780334,"station_id":"KBY","line":6,"transit":false},{"time":8,"line":6,"i_long":106.74273,"is_transit":false,"distance":6218,"station_id":"PDJ","station_name":"Pondokranji","transit":false,"i_lat":-6.276362},{"transit":false,"is_transit":false,"station_name":"Jurangmangu","distance":2179,"time":3,"i_lat":-6.288927,"i_long":106.728916,"line":6,"station_id":"JMU"},{"is_transit":false,"i_long":106.712277,"station_id":"SDM","station_name":"Sudimara","distance":1994,"line":6,"i_lat":-6.296963,"time":4,"transit":false},{"i_lat":-6.314823,"station_id":"RU","time":6,"is_transit":false,"distance":4566,"transit":false,"i_long":106.675475,"line":6,"station_name":"Rawa Buntu"}],[{"i_lat":-6.193792,"station_name":"Kramat","station_id":"KMT","i_long":106.855437,"line":11,"is_transit":false,"time":0,"distance":0,"transit":false},{"distance":1829,"line":11,"i_long":106.861737,"station_id":"POK","is_transit":false,"i_lat":-6.209188,"time":2,"station_name":"Pondok Jati","transit":false},{"i_long":106.86807400000001,"distance":1236,"line":1,"time":9,"station_name":"Jatinegara","station_id":"JNG","transit":true,"is_transit":true,"i_lat":-6.215091},{"station_id":"MTR","distance":1377,"time":2,"i_lat":-6.212485,"is_transit":false,"station_name":"Matraman","i_long":106.858896,"line":1,"transit":false},{"is_transit":true,"i_lat":-6.209883,"line":2,"station_id":"MRI","i_long":106.84912,"transit":true,"distance":1275,"station_name":"Manggarai","time":2},{"i_lat":-6.198556,"is_transit":false,"station_id":"CKI","time":4,"station_name":"Cikini","i_long":106.840169,"line":2,"distance":1590,"transit":false},{"i_long":106.832183,"station_id":"GDD","time":3,"station_name":"Gondangdia","transit":false,"i_lat":-6.186295,"line":2,"is_transit":false,"distance":1750},{"i_lat":-6.166716,"distance":2015,"station_id":"JUA","is_transit":false,"time":4,"i_long":106.828284,"line":2,"station_name":"Juanda","transit":false},{"time":2,"distance":1149,"i_lat":-6.160725,"is_transit":false,"station_id":"SW","station_name":"Sawah Besar","i_long":106.827103,"line":2,"transit":false},{"station_id":"MGB","transit":false,"station_name":"Manggabesar","time":2,"distance":906,"line":2,"i_lat":-6.149769,"i_long":106.82482,"is_transit":false},{"i_lat":-6.141205,"transit":false,"station_id":"JAY","distance":1080,"time":2,"is_transit":false,"station_name":"Jayakarta","i_long":106.820901,"line":2},{"transit":true,"station_id":"JAKK","is_transit":true,"i_lat":-6.137569,"line":2,"distance":1264,"i_long":106.812439,"time":4,"station_name":"Jakarta Kota"},{"distance":1364,"i_lat":-6.132549,"i_long":106.826365,"time":3,"is_transit":true,"line":4,"transit":true,"station_name":"Kampung Bandan","station_id":"KPB"},{"station_name":"Angke","line":1,"station_id":"AK","time":9,"transit":false,"distance":4102,"is_transit":false,"i_long":106.79867,"i_lat":-6.144674},{"transit":false,"station_id":"DU","distance":1230,"station_name":"Duri","is_transit":false,"time":4,"i_lat":-6.155215,"i_long":106.800832,"line":1},{"is_transit":true,"station_name":"Tanah Abang","i_lat":-6.185545,"distance":3632,"time":8,"station_id":"THB","transit":true,"i_long":106.811091,"line":1},{"line":6,"station_id":"PLM","transit":false,"time":6,"i_lat":-6.207404,"distance":3191,"station_name":"Palmerah","is_transit":false,"i_long":106.79689},{"time":7,"is_transit":false,"i_lat":-6.237242,"i_long":106.780334,"station_id":"KBY","distance":3737,"transit":false,"station_name":"Kebayoran","line":6},{"is_transit":false,"transit":false,"distance":6218,"time":8,"station_id":"PDJ","line":6,"station_name":"Pondokranji","i_lat":-6.276362,"i_long":106.74273},{"i_long":106.728916,"station_id":"JMU","i_lat":-6.288927,"is_transit":false,"time":3,"distance":2179,"line":6,"station_name":"Jurangmangu","transit":false},{"distance":1994,"station_name":"Sudimara","transit":false,"station_id":"SDM","time":4,"is_transit":false,"i_lat":-6.296963,"line":6,"i_long":106.712277},{"line":6,"is_transit":false,"i_lat":-6.314823,"station_id":"RU","transit":false,"station_name":"Rawa Buntu","distance":4566,"time":6,"i_long":106.675475}],[{"transit":false,"i_lat":-6.193792,"i_long":106.855437,"station_id":"KMT","time":0,"distance":0,"line":11,"station_name":"Kramat","is_transit":false},{"line":11,"i_long":106.850107,"distance":973,"transit":false,"station_id":"GST","is_transit":false,"time":1,"i_lat":-6.185975,"station_name":"Gang Sentiong"},{"transit":false,"i_long":106.84368,"station_name":"Pasar Senen","line":11,"is_transit":false,"time":8,"i_lat":-6.174784,"station_id":"PSE","distance":1567},{"is_transit":false,"distance":1436,"station_name":"Kemayoran","transit":false,"i_lat":-6.161728,"i_long":106.839204,"line":11,"station_id":"KMO","time":4},{"transit":false,"station_id":"RJW","i_long":106.836569,"i_lat":-6.14505,"time":5,"is_transit":false,"station_name":"Rajawali","distance":1901,"line":11},{"station_id":"KPB","line":4,"station_name":"Kampung Bandan","i_long":106.826365,"distance":1444,"transit":true,"is_transit":true,"time":3,"i_lat":-6.132549},{"distance":1364,"transit":true,"station_id":"JAKK","time":3,"i_lat":-6.137569,"i_long":106.812439,"is_transit":true,"station_name":"Jakarta Kota","line":2},{"station_id":"JAY","line":2,"time":4,"station_name":"Jayakarta","i_long":106.820901,"i_lat":-6.141205,"distance":1264,"is_transit":false,"transit":false},{"station_id":"MGB","i_lat":-6.149769,"time":2,"i_long":106.82482,"line":2,"transit":false,"station_name":"Manggabesar","is_transit":false,"distance":1080},{"station_name":"Sawah Besar","time":2,"transit":false,"is_transit":false,"i_lat":-6.160725,"i_long":106.827103,"distance":906,"line":2,"station_id":"SW"},{"transit":false,"station_id":"JUA","i_lat":-6.166716,"time":2,"station_name":"Juanda","is_transit":false,"line":2,"distance":1149,"i_long":106.828284},{"station_name":"Gondangdia","distance":2015,"transit":false,"time":4,"is_transit":false,"station_id":"GDD","i_long":106.832183,"i_lat":-6.186295,"line":2},{"line":2,"is_transit":false,"transit":false,"i_lat":-6.198556,"i_long":106.840169,"station_name":"Cikini","station_id":"CKI","time":3,"distance":1750},{"i_long":106.84912,"i_lat":-6.209883,"time":4,"station_id":"MRI","line":2,"transit":true,"is_transit":true,"distance":1590,"station_name":"Manggarai"},{"i_lat":-6.202263,"i_long":106.822649,"transit":false,"is_transit":false,"distance":3186,"station_name":"Sudirman","line":1,"station_id":"SUD","time":4},{"station_name":"Sudirman Baru","distance":280,"is_transit":false,"time":1,"i_lat":-6.201433,"i_long":106.819881,"transit":false,"line":1,"station_id":"SUDB"},{"distance":471,"line":1,"is_transit":false,"i_lat":-6.20132,"transit":false,"station_name":"Karet","station_id":"KAT","i_long":106.816351,"time":1},{"i_lat":-6.185545,"line":1,"station_name":"Tanah Abang","distance":2029,"transit":true,"i_long":106.811091,"station_id":"THB","time":5,"is_transit":true},{"station_name":"Palmerah","i_lat":-6.207404,"time":6,"station_id":"PLM","i_long":106.79689,"is_transit":false,"distance":3191,"transit":false,"line":6},{"transit":false,"is_transit":false,"time":7,"station_name":"Kebayoran","station_id":"KBY","i_lat":-6.237242,"line":6,"i_long":106.780334,"distance":3737},{"line":6,"i_lat":-6.276362,"i_long":106.74273,"station_name":"Pondokranji","time":8,"transit":false,"is_transit":false,"station_id":"PDJ","distance":6218},{"station_id":"JMU","time":3,"i_long":106.728916,"transit":false,"is_transit":false,"distance":2179,"line":6,"station_name":"Jurangmangu","i_lat":-6.288927},{"line":6,"time":4,"transit":false,"distance":1994,"i_lat":-6.296963,"is_transit":false,"station_id":"SDM","station_name":"Sudimara","i_long":106.712277},{"station_id":"RU","distance":4566,"i_lat":-6.314823,"line":6,"i_long":106.675475,"transit":false,"station_name":"Rawa Buntu","is_transit":false,"time":6}]]}