{"data":[[{"time":0,"i_long":106.855437,"is_transit":false,"distance":0,"transit":false,"station_name":"Kramat","station_id":"KMT","line":11,"i_lat":-6.193792},{"station_id":"POK","distance":1829,"i_long":106.861737,"i_lat":-6.209188,"is_transit":false,"time":2,"station_name":"Pondok Jati","line":11,"transit":false},{"distance":1236,"line":1,"station_id":"JNG","i_lat":-6.215091,"station_name":"Jatinegara","transit":true,"is_transit":true,"i_long":106.86807400000001,"time":9},{"is_transit":false,"distance":1377,"i_lat":-6.212485,"time":2,"transit":false,"i_long":106.858896,"line":1,"station_name":"Matraman","station_id":"MTR"},{"station_id":"MRI","transit":false,"time":2,"station_name":"Manggarai","is_transit":false,"distance":1275,"i_lat":-6.209883,"i_long":106.84912,"line":2},{"line":1,"is_transit":false,"time":4,"distance":3186,"transit":false,"station_id":"SUD","i_long":106.822649,"i_lat":-6.202263,"station_name":"Sudirman"},{"transit":false,"station_id":"SUDB","station_name":"Sudirman Baru","time":1,"line":1,"distance":280,"is_transit":false,"i_lat":-6.201433,"i_long":106.819881},{"i_long":106.816351,"distance":471,"is_transit":false,"station_name":"Karet","station_id":"KAT","transit":false,"time":1,"i_lat":-6.20132,"line":1},{"line":1,"transit":true,"station_name":"Tanah Abang","is_transit":true,"i_lat":-6.185545,"time":5,"station_id":"THB","i_long":106.811091,"distance":2029},{"distance":3191,"is_transit":false,"station_name":"Palmerah","time":6,"i_lat":-6.207404,"i_long":106.79689,"transit":false,"line":6,"station_id":"PLM"},{"line":6,"is_transit":false,"distance":3737,"time":7,"station_name":"Kebayoran","i_lat":-6.237242,"station_id":"KBY","transit":false,"i_long":106.780334},{"i_long":106.74273,"time":8,"distance":6218,"line":6,"is_transit":false,"station_name":"Pondokranji","transit":false,"station_id":"PDJ","i_lat":-6.276362},{"i_lat":-6.288927,"transit":false,"i_long":106.728916,"time":3,"station_name":"Jurangmangu","station_id":"JMU","distance":2179,"is_transit":false,"line":6},{"distance":1994,"i_lat":-6.296963,"i_long":106.712277,"station_name":"Sudimara","transit":false,"line":6,"time":4,"is_transit":false,"station_id":"SDM"},{"transit":false,"time":6,"distance":4566,"station_id":"RU","i_lat":-6.314823,"station_name":"Rawa Buntu","i_long":106.675475,"is_transit":false,"line":6},{"i_long":106.66566,"transit":false,"station_id":"SRP","is_transit":false,"distance":2413,"time":4,"line":6,"i_lat":-6.319871,"station_name":"Serpong"},{"line":3,"station_name":"Cisauk","station_id":"CSK","is_transit":false,"transit":false,"time":4,"i_long":106.640411,"distance":1784,"i_lat":-6.32484},{"station_id":"CC","station_name":"Cicayur","i_long":106.617853,"line":3,"transit":false,"is_transit":false,"i_lat":-6.329547,"distance":2519,"time":4},{"time":8,"distance":5968,"is_transit":false,"station_id":"PRP","line":6,"transit":false,"station_name":"Parung Panjang","i_lat":-6.3441410000000005,"i_long":106.568863}],[{"station_id":"KMT","transit":false,"distance":0,"station_name":"Kramat","time":0,"i_lat":-6.193792,"i_long":106.855437,"line":11,"is_transit":false},{"transit":false,"station_name":"Gang Sentiong","i_lat":-6.185975,"distance":973,"station_id":"GST","is_transit":false,"i_long":106.850107,"line":11,"time":1},{"time":8,"transit":false,"is_transit":false,"i_lat":-6.174784,"station_id":"PSE","distance":1567,"i_long":106.84368,"station_name":"Pasar Senen","line":11},{"station_id":"KMO","i_lat":-6.161728,"is_transit":false,"i_long":106.839204,"line":11,"station_name":"Kemayoran","transit":false,"time":4,"distance":1436},{"is_transit":false,"time":5,"i_lat":-6.14505,"line":11,"i_long":106.836569,"station_id":"RJW","distance":1901,"station_name":"Rajawali","transit":false},{"distance":1444,"is_transit":true,"transit":true,"station_id":"KPB","station_name":"Kampung Bandan","i_lat":-6.132549,"time":3,"i_long":106.826365,"line":4},{"transit":false,"station_name":"Angke","distance":4102,"is_transit":false,"i_long":106.79867,"i_lat":-6.144674,"line":1,"time":9,"station_id":"AK"},{"i_lat":-6.155215,"station_name":"Duri","station_id":"DU","i_long":106.800832,"is_transit":false,"time":4,"transit":false,"distance":1230,"line":1},{"i_lat":-6.185545,"i_long":106.811091,"is_transit":true,"line":1,"station_name":"Tanah Abang","station_id":"THB","distance":3632,"time":8,"transit":true},{"is_transit":false,"station_id":"PLM","station_name":"Palmerah","time":6,"i_lat":-6.207404,"i_long":106.79689,"line":6,"transit":false,"distance":3191},{"station_name":"Kebayoran","line":6,"station_id":"KBY","i_lat":-6.237242,"transit":false,"i_long":106.780334,"distance":3737,"time":7,"is_transit":false},{"time":8,"distance":6218,"line":6,"station_name":"Pondokranji","i_lat":-6.276362,"station_id":"PDJ","is_transit":false,"i_long":106.74273,"transit":false},{"i_long":106.728916,"time":3,"is_transit":false,"line":6,"transit":false,"distance":2179,"station_id":"JMU","i_lat":-6.288927,"station_name":"Jurangmangu"},{"is_transit":false,"distance":1994,"transit":false,"station_id":"SDM","i_long":106.712277,"station_name":"Sudimara","line":6,"time":4,"i_lat":-6.296963},{"station_name":"Rawa Buntu","i_long":106.675475,"transit":false,"is_transit":false,"line":6,"station_id":"RU","time":6,"distance":4566,"i_lat":-6.314823},{"line":6,"station_name":"Serpong","is_transit":false,"station_id":"SRP","distance":2413,"time":4,"i_lat":-6.319871,"i_long":106.66566,"transit":false},{"station_id":"CSK","distance":1784,"station_name":"Cisauk","is_transit":false,"i_lat":-6.32484,"transit":false,"i_long":106.640411,"line":3,"time":4},{"time":4,"distance":2519,"i_lat":-6.329547,"line":3,"transit":false,"is_transit":false,"station_id":"CC","i_long":106.617853,"station_name":"Cicayur"},{"station_id":"PRP","transit":false,"distance":5968,"time":8,"is_transit":false,"i_lat":-6.3441410000000005,"line":6,"i_long":106.568863,"station_name":"Parung Panjang"}],[{"line":11,"time":0,"i_long":106.855437,"is_transit":false,"distance":0,"transit":false,"station_id":"KMT","station_name":"Kramat","i_lat":-6.193792},{"i_lat":-6.209188,"line":11,"distance":1829,"station_id":"POK","time":2,"is_transit":false,"i_long":106.861737,"station_name":"Pondok Jati","transit":false},{"line":1,"station_id":"JNG","is_transit":true,"distance":1236,"time":9,"transit":true,"i_lat":-6.215091,"station_name":"Jatinegara","i_long":106.86807400000001},{"time":2,"distance":1377,"i_lat":-6.212485,"line":1,"is_transit":false,"station_id":"MTR","station_name":"Matraman","i_long":106.858896,"transit":false},{"time":2,"station_id":"MRI","line":2,"is_transit":true,"i_lat":-6.209883,"i_long":106.84912,"distance":1275,"transit":true,"station_name":"Manggarai"},{"transit":false,"time":4,"station_name":"Cikini","is_transit":false,"i_long":106.840169,"i_lat":-6.198556,"station_id":"CKI","distance":1590,"line":2},{"station_id":"GDD","i_lat":-6.186295,"transit":false,"distance":1750,"i_long":106.832183,"station_name":"Gondangdia","line":2,"is_transit":false,"time":3},{"i_lat":-6.166716,"is_transit":false,"line":2,"station_id":"JUA","i_long":106.828284,"distance":2015,"station_name":"Juanda","transit":false,"time":4},{"i_lat":-6.160725,"transit":false,"station_name":"Sawah Besar","time":2,"is_transit":false,"i_long":106.827103,"line":2,"station_id":"SW","distance":1149},{"station_name":"Manggabesar","time":2,"i_long":106.82482,"station_id":"MGB","is_transit":false,"distance":906,"i_lat":-6.149769,"transit":false,"line":2},{"station_name":"Jayakarta","transit":false,"station_id":"JAY","is_transit":false,"distance":1080,"time":2,"i_lat":-6.141205,"i_long":106.820901,"line":2},{"line":2,"time":4,"i_long":106.812439,"is_transit":true,"station_id":"JAKK","transit":true,"i_lat":-6.137569,"distance":1264,"station_name":"Jakarta Kota"},{"station_name":"Kampung Bandan","i_lat":-6.132549,"line":4,"time":3,"distance":1364,"i_long":106.826365,"transit":true,"is_transit":true,"station_id":"KPB"},{"i_lat":-6.144674,"station_name":"Angke","distance":4102,"transit":false,"i_long":106.79867,"time":9,"line":1,"is_transit":false,"station_id":"AK"},{"station_id":"DU","i_lat":-6.155215,"line":1,"transit":false,"station_name":"Duri","i_long":106.800832,"is_transit":false,"distance":1230,"time":4},{"station_name":"Tanah Abang","is_transit":true,"i_lat":-6.185545,"transit":true,"time":8,"line":1,"i_long":106.811091,"station_id":"THB","distance":3632},{"station_name":"Palmerah","station_id":"PLM","i_long":106.79689,"time":6,"line":6,"transit":false,"distance":3191,"i_lat":-6.207404,"is_transit":false},{"i_lat":-6.237242,"station_id":"KBY","i_long":106.780334,"line":6,"time":7,"distance":3737,"station_name":"Kebayoran","is_transit":false,"transit":false},{"time":8,"station_name":"Pondokranji","transit":false,"i_long":106.74273,"i_lat":-6.276362,"station_id":"PDJ","distance":6218,"line":6,"is_transit":false},{"transit":false,"station_name":"Jurangmangu","line":6,"time":3,"is_transit":false,"i_lat":-6.288927,"distance":2179,"i_long":106.728916,"station_id":"JMU"},{"station_name":"Sudimara","station_id":"SDM","distance":1994,"i_lat":-6.296963,"line":6,"i_long":106.712277,"time":4,"transit":false,"is_transit":false},{"line":6,"i_lat":-6.314823,"is_transit":false,"station_id":"RU","time":6,"distance":4566,"transit":false,"i_long":106.675475,"station_name":"Rawa Buntu"},{"transit":false,"station_name":"Serpong","is_transit":false,"i_long":106.66566,"station_id":"SRP","i_lat":-6.319871,"line":6,"time":4,"distance":2413},{"i_long":106.640411,"line":3,"transit":false,"time":4,"distance":1784,"is_transit":false,"station_name":"Cisauk","i_lat":-6.32484,"station_id":"CSK"},{"station_name":"Cicayur","i_lat":-6.329547,"time":4,"distance":2519,"i_long":106.617853,"line":3,"station_id":"CC","transit":false,"is_transit":false},{"station_id":"PRP","distance":5968,"time":8,"station_name":"Parung Panjang","is_transit":false,"i_lat":-6.3441410000000005,"i_long":106.568863,"line":6,"transit":false}],[{"time":0,"distance":0,"i_lat":-6.193792,"station_name":"Kramat","line":11,"transit":false,"station_id":"KMT","i_long":106.855437,"is_transit":false},{"station_name":"Gang Sentiong","i_lat":-6.185975,"line":11,"time":1,"i_long":106.850107,"transit":false,"station_id":"GST","distance":973,"is_transit":false},{"transit":false,"i_long":106.84368,"i_lat":-6.174784,"line":11,"is_transit":false,"time":8,"station_id":"PSE","distance":1567,"station_name":"Pasar Senen"},{"time":4,"station_name":"Kemayoran","transit":false,"distance":1436,"i_lat":-6.161728,"line":11,"i_long":106.839204,"is_transit":false,"station_id":"KMO"},{"i_lat":-6.14505,"line":11,"distance":1901,"is_transit":false,"station_id":"RJW","station_name":"Rajawali","i_long":106.836569,"transit":false,"time":5},{"transit":true,"station_name":"Kampung Bandan","distance":1444,"station_id":"KPB","line":4,"time":3,"i_lat":-6.132549,"i_long":106.826365,"is_transit":true},{"station_name":"Jakarta Kota","line":2,"station_id":"JAKK","is_transit":true,"i_lat":-6.137569,"i_long":106.812439,"time":3,"distance":1364,"transit":true},{"i_long":106.820901,"station_id":"JAY","transit":false,"line":2,"time":4,"station_name":"Jayakarta","is_transit":false,"distance":1264,"i_lat":-6.141205},{"time":2,"station_id":"MGB","station_name":"Manggabesar","transit":false,"is_transit":false,"i_long":106.82482,"i_lat":-6.149769,"distance":1080,"line":2},{"station_name":"Sawah Besar","i_long":106.827103,"station_id":"SW","line":2,"i_lat":-6.160725,"transit":false,"distance":906,"time":2,"is_transit":false},{"transit":false,"distance":1149,"i_long":106.828284,"line":2,"time":2,"station_id":"JUA","station_name":"Juanda","i_lat":-6.166716,"is_transit":false},{"is_transit":false,"i_lat":-6.186295,"time":4,"line":2,"station_name":"Gondangdia","transit":false,"distance":2015,"station_id":"GDD","i_long":106.832183},{"station_name":"Cikini","transit":false,"station_id":"CKI","i_long":106.840169,"time":3,"line":2,"distance":1750,"i_lat":-6.198556,"is_transit":false},{"distance":1590,"transit":true,"is_transit":true,"time":4,"station_id":"MRI","i_lat":-6.209883,"line":2,"station_name":"Manggarai","i_long":106.84912},{"line":1,"time":4,"station_id":"SUD","i_long":106.822649,"station_name":"Sudirman","is_transit":false,"distance":3186,"i_lat":-6.202263,"transit":false},{"station_name":"Sudirman Baru","i_lat":-6.201433,"station_id":"SUDB","transit":false,"is_transit":false,"distance":280,"i_long":106.819881,"line":1,"time":1},{"time":1,"distance":471,"station_name":"Karet","i_long":106.816351,"is_transit":false,"line":1,"station_id":"KAT","transit":false,"i_lat":-6.20132},{"distance":2029,"transit":true,"time":5,"line":1,"i_lat":-6.185545,"is_transit":true,"station_name":"Tanah Abang","i_long":106.811091,"station_id":"THB"},{"time":6,"distance":3191,"i_long":106.79689,"is_transit":false,"transit":false,"station_id":"PLM","station_name":"Palmerah","i_lat":-6.207404,"line":6},{"i_long":106.780334,"time":7,"station_id":"KBY","distance":3737,"line":6,"is_transit":false,"station_name":"Kebayoran","transit":false,"i_lat":-6.237242},{"station_name":"Pondokranji","line":6,"station_id":"PDJ","distance":6218,"time":8,"i_lat":-6.276362,"transit":false,"i_long":106.74273,"is_transit":false},{"line":6,"i_lat":-6.288927,"i_long":106.728916,"station_id":"JMU","transit":false,"time":3,"station_name":"Jurangmangu","is_transit":false,"distance":2179},{"transit":false,"time":4,"is_transit":false,"distance":1994,"station_name":"Sudimara","i_long":106.712277,"line":6,"station_id":"SDM","i_lat":-6.296963},{"distance":4566,"time":6,"station_id":"RU","line":6,"station_name":"Rawa Buntu","transit":false,"is_transit":false,"i_lat":-6.314823,"i_long":106.675475},{"time":4,"is_transit":false,"station_id":"SRP","station_name":"Serpong","i_lat":-6.319871,"line":6,"transit":false,"distance":2413,"i_long":106.66566},{"station_name":"Cisauk","i_lat":-6.32484,"i_long":106.640411,"distance":1784,"line":3,"is_transit":false,"time":4,"station_id":"CSK","transit":false},{"station_id":"CC","time":4,"line":3,"i_long":106.617853,"is_transit":false,"transit":false,"i_lat":-6.329547,"distance":2519,"station_name":"Cicayur"},{"station_id":"PRP","distance":5968,"transit":false,"time":8,"is_transit":false,"station_name":"Parung Panjang","i_lat":-6.3441410000000005,"i_long":106.568863,"line":6}]]}