{"data":[[{"time":0,"i_lat":-6.193792,"line":11,"station_id":"KMT","distance":0,"is_transit":false,"transit":false,"station_name":"Kramat","i_long":106.855437},{"station_id":"POK","is_transit":false,"time":2,"i_lat":-6.209188,"station_name":"Pondok Jati","i_long":106.861737,"transit":false,"line":11,"distance":1829},{"line":1,"station_id":"JNG","is_transit":true,"station_name":"Jatinegara","transit":true,"i_lat":-6.215091,"i_long":106.86807400000001,"distance":1236,"time":9},{"i_long":106.858896,"is_transit":false,"station_id":"MTR","time":2,"station_name":"Matraman","distance":1377,"transit":false,"i_lat":-6.212485,"line":1},{"i_lat":-6.209883,"station_id":"MRI","line":2,"distance":1275,"transit":false,"is_transit":false,"i_long":106.84912,"station_name":"Manggarai","time":2},{"station_name":"Sudirman","i_lat":-6.202263,"transit":false,"time":4,"station_id":"SUD","i_long":106.822649,"line":1,"is_transit":false,"distance":3186},{"station_name":"Sudirman Baru","station_id":"SUDB","distance":280,"i_long":106.819881,"is_transit":false,"transit":false,"time":1,"i_lat":-6.201433,"line":1},{"time":1,"station_id":"KAT","transit":false,"distance":471,"line":1,"is_transit":false,"station_name":"Karet","i_lat":-6.20132,"i_long":106.816351},{"distance":2029,"station_id":"THB","line":1,"is_transit":true,"station_name":"Tanah Abang","transit":true,"time":5,"i_long":106.811091,"i_lat":-6.185545},{"station_name":"Palmerah","is_transit":false,"station_id":"PLM","distance":3191,"line":6,"transit":false,"i_long":106.79689,"time":6,"i_lat":-6.207404},{"time":7,"i_long":106.780334,"distance":3737,"station_name":"Kebayoran","transit":false,"station_id":"KBY","i_lat":-6.237242,"is_transit":false,"line":6},{"time":8,"i_long":106.74273,"station_id":"PDJ","is_transit":false,"i_lat":-6.276362,"distance":6218,"line":6,"station_name":"Pondokranji","transit":false},{"station_name":"Jurangmangu","time":3,"is_transit":false,"i_long":106.728916,"i_lat":-6.288927,"line":6,"station_id":"JMU","distance":2179,"transit":false},{"is_transit":false,"station_id":"SDM","transit":false,"i_lat":-6.296963,"station_name":"Sudimara","line":6,"distance":1994,"i_long":106.712277,"time":4},{"line":6,"distance":4566,"is_transit":false,"time":6,"i_lat":-6.314823,"station_name":"Rawa Buntu","transit":false,"station_id":"RU","i_long":106.675475}],[{"i_long":106.855437,"station_id":"KMT","i_lat":-6.193792,"line":11,"distance":0,"transit":false,"time":0,"station_name":"Kramat","is_transit":false},{"is_transit":false,"i_lat":-6.185975,"i_long":106.850107,"transit":false,"station_name":"Gang Sentiong","station_id":"GST","distance":973,"time":1,"line":11},{"transit":false,"time":8,"station_id":"PSE","i_long":106.84368,"station_name":"Pasar Senen","i_lat":-6.174784,"line":11,"distance":1567,"is_transit":false},{"is_transit":false,"station_name":"Kemayoran","time":4,"distance":1436,"station_id":"KMO","i_long":106.839204,"i_lat":-6.161728,"line":11,"transit":false},{"transit":false,"is_transit":false,"i_lat":-6.14505,"distance":1901,"time":5,"i_long":106.836569,"station_id":"RJW","line":11,"station_name":"Rajawali"},{"i_long":106.826365,"is_transit":true,"line":4,"station_name":"Kampung Bandan","time":3,"distance":1444,"transit":true,"station_id":"KPB","i_lat":-6.132549},{"i_long":106.79867,"transit":false,"line":1,"distance":4102,"is_transit":false,"i_lat":-6.144674,"station_id":"AK","station_name":"Angke","time":9},{"transit":false,"time":4,"is_transit":false,"line":1,"station_name":"Duri","i_long":106.800832,"distance":1230,"station_id":"DU","i_lat":-6.155215},{"i_long":106.811091,"distance":3632,"is_transit":true,"line":1,"time":8,"station_name":"Tanah Abang","transit":true,"i_lat":-6.185545,"station_id":"THB"},{"station_id":"PLM","distance":3191,"i_long":106.79689,"line":6,"transit":false,"station_name":"Palmerah","time":6,"i_lat":-6.207404,"is_transit":false},{"transit":false,"i_long":106.780334,"distance":3737,"time":7,"station_id":"KBY","station_name":"Kebayoran","i_lat":-6.237242,"is_transit":false,"line":6},{"distance":6218,"i_lat":-6.276362,"station_id":"PDJ","station_name":"Pondokranji","transit":false,"line":6,"time":8,"i_long":106.74273,"is_transit":false},{"line":6,"station_name":"Jurangmangu","station_id":"JMU","is_transit":false,"i_long":106.728916,"transit":false,"distance":2179,"i_lat":-6.288927,"time":3},{"distance":1994,"is_transit":false,"i_long":106.712277,"transit":false,"time":4,"station_id":"SDM","line":6,"station_name":"Sudimara","i_lat":-6.296963},{"i_long":106.675475,"transit":false,"is_transit":false,"line":6,"distance":4566,"station_name":"Rawa Buntu","station_id":"RU","i_lat":-6.314823,"time":6}],[{"station_name":"Kramat","i_long":106.855437,"transit":false,"i_lat":-6.193792,"station_id":"KMT","time":0,"is_transit":false,"line":11,"distance":0},{"i_lat":-6.209188,"distance":1829,"i_long":106.861737,"station_id":"POK","line":11,"station_name":"Pondok Jati","is_transit":false,"transit":false,"time":2},{"is_transit":true,"distance":1236,"station_name":"Jatinegara","i_lat":-6.215091,"line":1,"station_id":"JNG","time":9,"i_long":106.86807400000001,"transit":true},{"line":1,"transit":false,"i_long":106.858896,"station_id":"MTR","is_transit":false,"time":2,"distance":1377,"i_lat":-6.212485,"station_name":"Matraman"},{"time":2,"distance":1275,"station_name":"Manggarai","station_id":"MRI","transit":true,"i_lat":-6.209883,"i_long":106.84912,"line":2,"is_transit":true},{"distance":1590,"i_lat":-6.198556,"time":4,"is_transit":false,"i_long":106.840169,"transit":false,"station_id":"CKI","station_name":"Cikini","line":2},{"distance":1750,"i_long":106.832183,"station_id":"GDD","is_transit":false,"line":2,"time":3,"transit":false,"i_lat":-6.186295,"station_name":"Gondangdia"},{"i_long":106.828284,"distance":2015,"station_id":"JUA","station_name":"Juanda","transit":false,"time":4,"is_transit":false,"i_lat":-6.166716,"line":2},{"distance":1149,"is_transit":false,"transit":false,"i_lat":-6.160725,"station_name":"Sawah Besar","i_long":106.827103,"time":2,"line":2,"station_id":"SW"},{"distance":906,"time":2,"line":2,"is_transit":false,"i_long":106.82482,"i_lat":-6.149769,"station_name":"Manggabesar","transit":false,"station_id":"MGB"},{"time":2,"i_long":106.820901,"line":2,"transit":false,"i_lat":-6.141205,"is_transit":false,"distance":1080,"station_name":"Jayakarta","station_id":"JAY"},{"station_name":"Jakarta Kota","time":4,"distance":1264,"line":2,"i_lat":-6.137569,"transit":true,"is_transit":true,"station_id":"JAKK","i_long":106.812439},{"transit":true,"is_transit":true,"station_name":"Kampung Bandan","line":4,"time":3,"i_lat":-6.132549,"station_id":"KPB","i_long":106.826365,"distance":1364},{"station_id":"AK","i_long":106.79867,"i_lat":-6.144674,"is_transit":false,"transit":false,"line":1,"time":9,"distance":4102,"station_name":"Angke"},{"is_transit":false,"station_name":"Duri","distance":1230,"time":4,"i_long":106.800832,"line":1,"station_id":"DU","i_lat":-6.155215,"transit":false},{"is_transit":true,"station_name":"Tanah Abang","i_lat":-6.185545,"time":8,"station_id":"THB","line":1,"transit":true,"distance":3632,"i_long":106.811091},{"i_long":106.79689,"is_transit":false,"line":6,"i_lat":-6.207404,"distance":3191,"station_name":"Palmerah","transit":false,"station_id":"PLM","time":6},{"time":7,"distance":3737,"is_transit":false,"station_name":"Kebayoran","i_long":106.780334,"transit":false,"station_id":"KBY","i_lat":-6.237242,"line":6},{"station_id":"PDJ","i_long":106.74273,"station_name":"Pondokranji","i_lat":-6.276362,"line":6,"is_transit":false,"distance":6218,"transit":false,"time":8},{"line":6,"i_lat":-6.288927,"i_long":106.728916,"transit":false,"station_name":"Jurangmangu","distance":2179,"time":3,"is_transit":false,"station_id":"JMU"},{"transit":false,"i_long":106.712277,"line":6,"is_transit":false,"time":4,"distance":1994,"station_name":"Sudimara","i_lat":-6.296963,"station_id":"SDM"},{"transit":false,"line":6,"station_id":"RU","is_transit":false,"distance":4566,"station_name":"Rawa Buntu","i_lat":-6.314823,"time":6,"i_long":106.675475}],[{"i_long":106.855437,"i_lat":-6.193792,"transit":false,"station_id":"KMT","time":0,"line":11,"distance":0,"is_transit":false,"station_name":"Kramat"},{"i_long":106.850107,"station_id":"GST","distance":973,"line":11,"transit":false,"time":1,"is_transit":false,"i_lat":-6.185975,"station_name":"Gang Sentiong"},{"i_long":106.84368,"distance":1567,"i_lat":-6.174784,"is_transit":false,"station_name":"Pasar Senen","transit":false,"time":8,"station_id":"PSE","line":11},{"i_long":106.839204,"distance":1436,"i_lat":-6.161728,"station_id":"KMO","station_name":"Kemayoran","line":11,"transit":false,"is_transit":false,"time":4},{"i_lat":-6.14505,"is_transit":false,"station_name":"Rajawali","transit":false,"distance":1901,"time":5,"station_id":"RJW","i_long":106.836569,"line":11},{"station_name":"Kampung Bandan","distance":1444,"i_lat":-6.132549,"time":3,"transit":true,"i_long":106.826365,"line":4,"is_transit":true,"station_id":"KPB"},{"line":2,"is_transit":true,"transit":true,"distance":1364,"i_lat":-6.137569,"station_name":"Jakarta Kota","i_long":106.812439,"station_id":"JAKK","time":3},{"i_long":106.820901,"station_id":"JAY","distance":1264,"transit":false,"station_name":"Jayakarta","time":4,"is_transit":false,"i_lat":-6.141205,"line":2},{"is_transit":false,"transit":false,"station_id":"MGB","i_long":106.82482,"distance":1080,"i_lat":-6.149769,"line":2,"station_name":"Manggabesar","time":2},{"time":2,"is_transit":false,"transit":false,"station_id":"SW","station_name":"Sawah Besar","i_lat":-6.160725,"i_long":106.827103,"line":2,"distance":906},{"is_transit":false,"i_long":106.828284,"transit":false,"i_lat":-6.166716,"distance":1149,"station_name":"Juanda","line":2,"station_id":"JUA","time":2},{"i_long":106.832183,"line":2,"station_id":"GDD","is_transit":false,"distance":2015,"station_name":"Gondangdia","transit":false,"time":4,"i_lat":-6.186295},{"time":3,"station_name":"Cikini","i_long":106.840169,"transit":false,"distance":1750,"i_lat":-6.198556,"line":2,"is_transit":false,"station_id":"CKI"},{"is_transit":true,"line":2,"i_long":106.84912,"distance":1590,"transit":true,"time":4,"station_id":"MRI","station_name":"Manggarai","i_lat":-6.209883},{"transit":false,"i_long":106.822649,"line":1,"distance":3186,"station_id":"SUD","is_transit":false,"station_name":"Sudirman","i_lat":-6.202263,"time":4},{"time":1,"station_id":"SUDB","station_name":"Sudirman Baru","is_transit":false,"i_lat":-6.201433,"distance":280,"i_long":106.819881,"line":1,"transit":false},{"station_id":"KAT","i_lat":-6.20132,"time":1,"distance":471,"i_long":106.816351,"line":1,"transit":false,"is_transit":false,"station_name":"Karet"},{"distance":2029,"station_name":"Tanah Abang","i_lat":-6.185545,"line":1,"is_transit":true,"time":5,"transit":true,"station_id":"THB","i_long":106.811091},{"distance":3191,"time":6,"station_name":"Palmerah","transit":false,"i_long":106.79689,"line":6,"i_lat":-6.207404,"is_transit":false,"station_id":"PLM"},{"i_long":106.780334,"i_lat":-6.237242,"line":6,"transit":false,"distance":3737,"station_name":"Kebayoran","station_id":"KBY","is_transit":false,"time":7},{"time":8,"station_id":"PDJ","transit":false,"i_lat":-6.276362,"station_name":"Pondokranji","i_long":106.74273,"line":6,"distance":6218,"is_transit":false},{"is_transit":false,"time":3,"distance":2179,"station_name":"Jurangmangu","station_id":"JMU","i_long":106.728916,"transit":false,"i_lat":-6.288927,"line":6},{"i_lat":-6.296963,"i_long":106.712277,"is_transit":false,"line":6,"station_name":"Sudimara","transit":false,"distance":1994,"time":4,"station_id":"SDM"},{"is_transit":false,"station_name":"Rawa Buntu","station_id":"RU","i_lat":-6.314823,"time":6,"line":6,"transit":false,"distance":4566,"i_long":106.675475}]]}