{"data":[[{"i_lat":-6.193792,"is_transit":false,"time":0,"station_id":"KMT","distance":0,"line":11,"station_name":"Kramat","i_long":106.855437,"transit":false},{"transit":false,"i_long":106.861737,"line":11,"i_lat":-6.209188,"station_id":"POK","station_name":"Pondok Jati","distance":1829,"time":2,"is_transit":false},{"time":9,"i_long":106.86807400000001,"station_id":"JNG","station_name":"Jatinegara","transit":true,"i_lat":-6.215091,"line":1,"distance":1236,"is_transit":true},{"is_transit":false,"transit":false,"time":3,"station_name":"Klender","station_id":"KLD","i_lat":-6.2135,"line":1,"i_long":106.899548,"distance":3395},{"transit":false,"time":2,"distance":3100,"i_long":106.922662,"station_name":"Buaran","i_lat":-6.215568,"line":1,"is_transit":false,"station_id":"BUA"},{"station_id":"KLDB","time":1,"distance":1305,"is_transit":false,"line":1,"i_lat":-6.217455,"i_long":106.939679,"transit":false,"station_name":"Klenderbaru"},{"is_transit":false,"i_long":106.951283,"time":8,"station_name":"Cakung","distance":1385,"line":1,"station_id":"CUK","transit":false,"i_lat":-6.219053},{"transit":false,"station_id":"KRI","i_long":106.977657,"line":1,"time":3,"i_lat":-6.224515,"station_name":"Kranji","is_transit":false,"distance":3097},{"i_long":106.997013,"i_lat":-6.236616,"line":1,"is_transit":false,"station_name":"Bekasi","transit":false,"station_id":"BKS","distance":2520,"time":4},{"transit":false,"line":1,"i_long":107.016735,"i_lat":-6.248029,"distance":2368,"time":2,"station_id":"BKST","is_transit":false,"station_name":"Bekasi Timur"},{"distance":4460,"transit":false,"time":7,"line":1,"station_name":"Tambun","i_long":107.055722,"i_lat":-6.258864,"station_id":"TB","is_transit":false},{"distance":3420,"station_name":"Cibitung","time":3,"transit":false,"i_lat":-6.261877,"i_long":107.083084,"line":1,"station_id":"CIT","is_transit":false},{"i_long":107.093313,"is_transit":false,"time":2,"line":1,"distance":2800,"transit":false,"station_id":"TLM","i_lat":-6.262938,"station_name":"Metland Telaga Murni"}],[{"time":0,"transit":false,"station_id":"KMT","is_transit":false,"station_name":"Kramat","distance":0,"i_long":106.855437,"line":11,"i_lat":-6.193792},{"i_long":106.850107,"station_name":"Gang Sentiong","i_lat":-6.185975,"transit":false,"time":1,"station_id":"GST","line":11,"distance":973,"is_transit":false},{"line":11,"time":8,"i_lat":-6.174784,"station_id":"PSE","station_name":"Pasar Senen","transit":false,"is_transit":false,"distance":1567,"i_long":106.84368},{"i_long":106.839204,"time":4,"line":11,"station_name":"Kemayoran","station_id":"KMO","is_transit":false,"distance":1436,"transit":false,"i_lat":-6.161728},{"i_long":106.836569,"station_id":"RJW","i_lat":-6.14505,"time":5,"is_transit":false,"distance":1901,"line":11,"station_name":"Rajawali","transit":false},{"time":3,"i_long":106.826365,"i_lat":-6.132549,"line":4,"station_name":"Kampung Bandan","distance":1444,"station_id":"KPB","transit":true,"is_transit":true},{"station_name":"Angke","transit":false,"station_id":"AK","i_long":106.79867,"is_transit":false,"time":9,"i_lat":-6.144674,"line":1,"distance":4102},{"i_long":106.800832,"station_id":"DU","i_lat":-6.155215,"line":1,"station_name":"Duri","is_transit":false,"transit":false,"time":4,"distance":1230},{"i_long":106.811091,"transit":false,"distance":3632,"station_id":"THB","is_transit":false,"station_name":"Tanah Abang","time":8,"i_lat":-6.185545,"line":1},{"i_lat":-6.20132,"line":1,"distance":2029,"station_name":"Karet","is_transit":false,"station_id":"KAT","time":5,"transit":false,"i_long":106.816351},{"distance":471,"line":1,"station_name":"Sudirman Baru","transit":false,"is_transit":false,"i_long":106.819881,"station_id":"SUDB","time":1,"i_lat":-6.201433},{"distance":280,"i_lat":-6.202263,"station_name":"Sudirman","station_id":"SUD","i_long":106.822649,"transit":false,"time":1,"line":1,"is_transit":false},{"station_id":"MRI","transit":false,"distance":3186,"i_long":106.84912,"station_name":"Manggarai","is_transit":false,"line":2,"i_lat":-6.209883,"time":4},{"i_long":106.858896,"is_transit":false,"time":2,"line":1,"transit":false,"distance":1275,"station_name":"Matraman","i_lat":-6.212485,"station_id":"MTR"},{"transit":false,"is_transit":false,"station_name":"Jatinegara","i_lat":-6.215091,"i_long":106.86807400000001,"time":8,"station_id":"JNG","distance":1377,"line":1},{"i_lat":-6.2135,"is_transit":false,"time":3,"i_long":106.899548,"station_name":"Klender","line":1,"distance":3395,"station_id":"KLD","transit":false},{"time":2,"line":1,"station_name":"Buaran","i_lat":-6.215568,"distance":3100,"i_long":106.922662,"transit":false,"station_id":"BUA","is_transit":false},{"transit":false,"is_transit":false,"distance":1305,"i_long":106.939679,"i_lat":-6.217455,"station_name":"Klenderbaru","station_id":"KLDB","line":1,"time":1},{"distance":1385,"i_lat":-6.219053,"is_transit":false,"line":1,"station_name":"Cakung","i_long":106.951283,"station_id":"CUK","time":8,"transit":false},{"i_lat":-6.224515,"transit":false,"station_id":"KRI","station_name":"Kranji","is_transit":false,"time":3,"distance":3097,"i_long":106.977657,"line":1},{"station_id":"BKS","line":1,"i_lat":-6.236616,"distance":2520,"transit":false,"is_transit":false,"station_name":"Bekasi","time":4,"i_long":106.997013},{"time":2,"distance":2368,"transit":false,"station_id":"BKST","i_lat":-6.248029,"station_name":"Bekasi Timur","i_long":107.016735,"line":1,"is_transit":false},{"is_transit":false,"distance":4460,"i_lat":-6.258864,"i_long":107.055722,"line":1,"time":7,"station_id":"TB","station_name":"Tambun","transit":false},{"station_id":"CIT","is_transit":false,"line":1,"station_name":"Cibitung","time":3,"i_long":107.083084,"i_lat":-6.261877,"transit":false,"distance":3420},{"transit":false,"station_id":"TLM","line":1,"is_transit":false,"distance":2800,"station_name":"Metland Telaga Murni","time":2,"i_lat":-6.262938,"i_long":107.093313}],[{"i_lat":-6.193792,"is_transit":false,"distance":0,"i_long":106.855437,"station_id":"KMT","line":11,"transit":false,"station_name":"Kramat","time":0},{"station_id":"GST","i_long":106.850107,"line":11,"station_name":"Gang Sentiong","time":1,"is_transit":false,"transit":false,"distance":973,"i_lat":-6.185975},{"distance":1567,"i_lat":-6.174784,"station_name":"Pasar Senen","is_transit":false,"time":8,"transit":false,"station_id":"PSE","i_long":106.84368,"line":11},{"time":4,"i_long":106.839204,"station_id":"KMO","i_lat":-6.161728,"station_name":"Kemayoran","transit":false,"is_transit":false,"line":11,"distance":1436},{"time":5,"station_id":"RJW","i_long":106.836569,"transit":false,"line":11,"is_transit":false,"distance":1901,"station_name":"Rajawali","i_lat":-6.14505},{"station_name":"Kampung Bandan","i_lat":-6.132549,"station_id":"KPB","line":4,"transit":true,"time":3,"is_transit":true,"distance":1444,"i_long":106.826365},{"distance":1364,"transit":true,"i_lat":-6.137569,"i_long":106.812439,"is_transit":true,"station_name":"Jakarta Kota","time":3,"line":2,"station_id":"JAKK"},{"is_transit":false,"distance":1264,"station_id":"JAY","transit":false,"time":4,"station_name":"Jayakarta","i_lat":-6.141205,"line":2,"i_long":106.820901},{"station_id":"MGB","i_long":106.82482,"time":2,"transit":false,"station_name":"Manggabesar","distance":1080,"is_transit":false,"line":2,"i_lat":-6.149769},{"station_id":"SW","i_long":106.827103,"is_transit":false,"time":2,"station_name":"Sawah Besar","i_lat":-6.160725,"transit":false,"line":2,"distance":906},{"is_transit":false,"station_name":"Juanda","i_long":106.828284,"transit":false,"distance":1149,"i_lat":-6.166716,"station_id":"JUA","line":2,"time":2},{"i_long":106.832183,"transit":false,"time":4,"station_id":"GDD","line":2,"is_transit":false,"i_lat":-6.186295,"station_name":"Gondangdia","distance":2015},{"is_transit":false,"transit":false,"i_lat":-6.198556,"station_id":"CKI","distance":1750,"time":3,"i_long":106.840169,"line":2,"station_name":"Cikini"},{"transit":true,"station_id":"MRI","line":2,"i_long":106.84912,"i_lat":-6.209883,"station_name":"Manggarai","is_transit":true,"time":4,"distance":1590},{"is_transit":false,"transit":false,"station_name":"Matraman","i_lat":-6.212485,"time":2,"i_long":106.858896,"line":1,"distance":1275,"station_id":"MTR"},{"station_id":"JNG","transit":false,"distance":1377,"i_lat":-6.215091,"time":8,"is_transit":false,"line":1,"i_long":106.86807400000001,"station_name":"Jatinegara"},{"line":1,"is_transit":false,"station_id":"KLD","i_long":106.899548,"i_lat":-6.2135,"transit":false,"station_name":"Klender","time":3,"distance":3395},{"line":1,"distance":3100,"station_id":"BUA","is_transit":false,"time":2,"i_lat":-6.215568,"station_name":"Buaran","transit":false,"i_long":106.922662},{"distance":1305,"time":1,"transit":false,"is_transit":false,"i_lat":-6.217455,"i_long":106.939679,"line":1,"station_name":"Klenderbaru","station_id":"KLDB"},{"i_long":106.951283,"i_lat":-6.219053,"station_name":"Cakung","transit":false,"station_id":"CUK","time":8,"is_transit":false,"distance":1385,"line":1},{"distance":3097,"station_name":"Kranji","time":3,"transit":false,"i_lat":-6.224515,"is_transit":false,"i_long":106.977657,"station_id":"KRI","line":1},{"distance":2520,"station_id":"BKS","time":4,"transit":false,"station_name":"Bekasi","i_lat":-6.236616,"line":1,"i_long":106.997013,"is_transit":false},{"station_name":"Bekasi Timur","is_transit":false,"i_long":107.016735,"line":1,"distance":2368,"transit":false,"station_id":"BKST","time":2,"i_lat":-6.248029},{"i_long":107.055722,"line":1,"station_name":"Tambun","is_transit":false,"time":7,"i_lat":-6.258864,"station_id":"TB","transit":false,"distance":4460},{"time":3,"i_lat":-6.261877,"is_transit":false,"i_long":107.083084,"line":1,"station_id":"CIT","transit":false,"station_name":"Cibitung","distance":3420},{"line":1,"is_transit":false,"station_id":"TLM","i_lat":-6.262938,"time":2,"transit":false,"i_long":107.093313,"station_name":"Metland Telaga Murni","distance":2800}]]}