{"data":[[{"i_long":106.855437,"transit":false,"distance":0,"time":0,"is_transit":false,"line":11,"station_name":"Kramat","station_id":"KMT","i_lat":-6.193792},{"station_id":"GST","transit":false,"i_long":106.850107,"is_transit":false,"station_name":"Gang Sentiong","distance":973,"line":11,"time":1,"i_lat":-6.185975}],[{"i_long":106.855437,"i_lat":-6.193792,"is_transit":false,"time":0,"station_name":"Kramat","distance":0,"station_id":"KMT","transit":false,"line":11},{"transit":false,"station_name":"Pondok Jati","distance":1829,"i_long":106.861737,"line":11,"station_id":"POK","time":2,"i_lat":-6.209188,"is_transit":false},{"transit":true,"is_transit":true,"i_lat":-6.215091,"station_name":"Jatinegara","distance":1236,"time":9,"i_long":106.86807400000001,"line":1,"station_id":"JNG"},{"transit":false,"is_transit":false,"i_lat":-6.212485,"station_id":"MTR","i_long":106.858896,"time":2,"distance":1377,"line":1,"station_name":"Matraman"},{"line":2,"station_name":"Manggarai","distance":1275,"is_transit":false,"time":2,"i_lat":-6.209883,"transit":false,"station_id":"MRI","i_long":106.84912},{"transit":false,"distance":3186,"time":4,"station_id":"SUD","station_name":"Sudirman","is_transit":false,"i_lat":-6.202263,"line":1,"i_long":106.822649},{"i_lat":-6.201433,"station_id":"SUDB","i_long":106.819881,"transit":false,"line":1,"is_transit":false,"distance":280,"time":1,"station_name":"Sudirman Baru"},{"i_long":106.816351,"is_transit":false,"line":1,"distance":471,"station_name":"Karet","station_id":"KAT","transit":false,"i_lat":-6.20132,"time":1},{"station_name":"Tanah Abang","is_transit":false,"station_id":"THB","transit":false,"distance":2029,"i_long":106.811091,"time":5,"i_lat":-6.185545,"line":1},{"is_transit":false,"i_long":106.800832,"time":8,"transit":false,"station_id":"DU","station_name":"Duri","line":1,"distance":3632,"i_lat":-6.155215},{"station_name":"Angke","time":4,"is_transit":false,"i_long":106.79867,"distance":1230,"station_id":"AK","transit":false,"line":1,"i_lat":-6.144674},{"line":4,"station_name":"Kampung Bandan","i_lat":-6.132549,"i_long":106.826365,"transit":true,"is_transit":true,"distance":4102,"time":9,"station_id":"KPB"},{"i_lat":-6.14505,"station_name":"Rajawali","transit":false,"distance":1444,"is_transit":false,"station_id":"RJW","time":3,"i_long":106.836569,"line":11},{"station_name":"Kemayoran","station_id":"KMO","time":5,"is_transit":false,"distance":1901,"i_lat":-6.161728,"i_long":106.839204,"transit":false,"line":11},{"i_long":106.84368,"transit":false,"distance":1436,"station_id":"PSE","i_lat":-6.174784,"line":11,"is_transit":false,"time":4,"station_name":"Pasar Senen"},{"transit":false,"i_long":106.850107,"is_transit":false,"station_name":"Gang Sentiong","time":8,"station_id":"GST","i_lat":-6.185975,"distance":1567,"line":11}],[{"time":0,"transit":false,"i_lat":-6.193792,"line":11,"distance":0,"is_transit":false,"station_id":"KMT","station_name":"Kramat","i_long":106.855437},{"station_name":"Pondok Jati","i_lat":-6.209188,"station_id":"POK","line":11,"i_long":106.861737,"transit":false,"is_transit":false,"distance":1829,"time":2},{"transit":true,"i_lat":-6.215091,"distance":1236,"station_id":"JNG","line":1,"is_transit":true,"station_name":"Jatinegara","time":9,"i_long":106.86807400000001},{"i_long":106.858896,"transit":false,"station_id":"MTR","is_transit":false,"time":2,"station_name":"Matraman","i_lat":-6.212485,"line":1,"distance":1377},{"i_long":106.84912,"station_id":"MRI","is_transit":true,"line":2,"time":2,"transit":true,"distance":1275,"station_name":"Manggarai","i_lat":-6.209883},{"transit":false,"station_name":"Cikini","station_id":"CKI","i_lat":-6.198556,"line":2,"is_transit":false,"time":4,"distance":1590,"i_long":106.840169},{"i_long":106.832183,"line":2,"transit":false,"station_name":"Gondangdia","is_transit":false,"station_id":"GDD","time":3,"distance":1750,"i_lat":-6.186295},{"station_name":"Juanda","station_id":"JUA","i_lat":-6.166716,"line":2,"transit":false,"is_transit":false,"distance":2015,"time":4,"i_long":106.828284},{"is_transit":false,"station_name":"Sawah Besar","distance":1149,"i_lat":-6.160725,"station_id":"SW","transit":false,"time":2,"i_long":106.827103,"line":2},{"station_name":"Manggabesar","transit":false,"time":2,"is_transit":false,"distance":906,"i_lat":-6.149769,"i_long":106.82482,"line":2,"station_id":"MGB"},{"station_name":"Jayakarta","is_transit":false,"distance":1080,"station_id":"JAY","time":2,"line":2,"transit":false,"i_lat":-6.141205,"i_long":106.820901},{"i_lat":-6.137569,"station_name":"Jakarta Kota","time":4,"station_id":"JAKK","distance":1264,"i_long":106.812439,"line":2,"transit":true,"is_transit":true},{"distance":1364,"transit":true,"is_transit":true,"time":3,"line":4,"i_long":106.826365,"station_name":"Kampung Bandan","station_id":"KPB","i_lat":-6.132549},{"time":3,"is_transit":false,"i_long":106.836569,"transit":false,"station_id":"RJW","line":11,"i_lat":-6.14505,"station_name":"Rajawali","distance":1444},{"i_lat":-6.161728,"line":11,"transit":false,"time":5,"i_long":106.839204,"station_name":"Kemayoran","distance":1901,"station_id":"KMO","is_transit":false},{"transit":false,"station_id":"PSE","i_lat":-6.174784,"time":4,"i_long":106.84368,"line":11,"station_name":"Pasar Senen","is_transit":false,"distance":1436},{"i_lat":-6.185975,"is_transit":false,"time":8,"i_long":106.850107,"station_name":"Gang Sentiong","transit":false,"distance":1567,"line":11,"station_id":"GST"}]]}