{"data":[[{"line":11,"distance":0,"station_name":"Kramat","i_lat":-6.193792,"is_transit":false,"transit":false,"time":0,"station_id":"KMT","i_long":106.855437},{"transit":false,"station_name":"Pondok Jati","line":11,"i_long":106.861737,"is_transit":false,"distance":1829,"i_lat":-6.209188,"station_id":"POK","time":2},{"is_transit":true,"i_lat":-6.215091,"i_long":106.86807400000001,"time":9,"distance":1236,"station_name":"Jatinegara","station_id":"JNG","transit":true,"line":1},{"i_lat":-6.212485,"is_transit":false,"time":2,"station_id":"MTR","line":1,"distance":1377,"transit":false,"i_long":106.858896,"station_name":"Matraman"},{"distance":1275,"is_transit":false,"i_long":106.84912,"station_id":"MRI","i_lat":-6.209883,"line":2,"transit":false,"time":2,"station_name":"Manggarai"},{"i_lat":-6.202263,"is_transit":false,"line":1,"i_long":106.822649,"station_name":"Sudirman","station_id":"SUD","transit":false,"time":4,"distance":3186},{"time":1,"transit":false,"line":1,"distance":280,"station_name":"Sudirman Baru","i_lat":-6.201433,"i_long":106.819881,"station_id":"SUDB","is_transit":false},{"time":1,"is_transit":false,"distance":471,"station_name":"Karet","transit":false,"i_lat":-6.20132,"station_id":"KAT","i_long":106.816351,"line":1},{"transit":true,"distance":2029,"i_lat":-6.185545,"station_id":"THB","i_long":106.811091,"time":5,"line":1,"station_name":"Tanah Abang","is_transit":true},{"i_long":106.79689,"transit":false,"station_id":"PLM","distance":3191,"line":6,"time":6,"i_lat":-6.207404,"station_name":"Palmerah","is_transit":false},{"time":7,"transit":false,"i_long":106.780334,"is_transit":false,"station_name":"Kebayoran","station_id":"KBY","i_lat":-6.237242,"distance":3737,"line":6},{"line":6,"is_transit":false,"station_id":"PDJ","i_long":106.74273,"i_lat":-6.276362,"transit":false,"distance":6218,"station_name":"Pondokranji","time":8},{"transit":false,"i_lat":-6.288927,"distance":2179,"station_id":"JMU","station_name":"Jurangmangu","line":6,"i_long":106.728916,"is_transit":false,"time":3},{"transit":false,"is_transit":false,"i_lat":-6.296963,"i_long":106.712277,"line":6,"station_id":"SDM","station_name":"Sudimara","distance":1994,"time":4},{"station_name":"Rawa Buntu","transit":false,"line":6,"i_lat":-6.314823,"distance":4566,"time":6,"is_transit":false,"i_long":106.675475,"station_id":"RU"},{"i_lat":-6.319871,"i_long":106.66566,"line":6,"is_transit":false,"station_name":"Serpong","distance":2413,"station_id":"SRP","transit":false,"time":4},{"station_name":"Cisauk","station_id":"CSK","is_transit":false,"line":3,"distance":1784,"i_long":106.640411,"time":4,"transit":false,"i_lat":-6.32484},{"is_transit":false,"distance":2519,"station_name":"Cicayur","station_id":"CC","transit":false,"time":4,"i_long":106.617853,"line":3,"i_lat":-6.329547},{"time":8,"distance":5968,"transit":false,"i_lat":-6.3441410000000005,"i_long":106.568863,"line":6,"station_id":"PRP","is_transit":false,"station_name":"Parung Panjang"},{"station_name":"Cilejit","transit":false,"distance":7025,"is_transit":false,"line":3,"time":9,"i_lat":-6.354349,"station_id":"CJT","i_long":106.508482}],[{"station_name":"Kramat","transit":false,"is_transit":false,"i_lat":-6.193792,"station_id":"KMT","line":11,"distance":0,"time":0,"i_long":106.855437},{"time":1,"line":11,"distance":973,"i_long":106.850107,"station_id":"GST","i_lat":-6.185975,"station_name":"Gang Sentiong","is_transit":false,"transit":false},{"i_lat":-6.174784,"i_long":106.84368,"distance":1567,"line":11,"station_id":"PSE","station_name":"Pasar Senen","is_transit":false,"transit":false,"time":8},{"distance":1436,"is_transit":false,"transit":false,"time":4,"station_id":"KMO","i_lat":-6.161728,"station_name":"Kemayoran","i_long":106.839204,"line":11},{"is_transit":false,"transit":false,"station_id":"RJW","time":5,"station_name":"Rajawali","i_lat":-6.14505,"distance":1901,"line":11,"i_long":106.836569},{"is_transit":true,"transit":true,"time":3,"distance":1444,"station_id":"KPB","i_lat":-6.132549,"station_name":"Kampung Bandan","line":4,"i_long":106.826365},{"i_long":106.79867,"i_lat":-6.144674,"transit":false,"station_name":"Angke","station_id":"AK","time":9,"distance":4102,"line":1,"is_transit":false},{"station_id":"DU","i_lat":-6.155215,"is_transit":false,"station_name":"Duri","time":4,"distance":1230,"transit":false,"i_long":106.800832,"line":1},{"i_long":106.811091,"station_name":"Tanah Abang","i_lat":-6.185545,"is_transit":true,"distance":3632,"time":8,"transit":true,"line":1,"station_id":"THB"},{"distance":3191,"line":6,"station_name":"Palmerah","i_lat":-6.207404,"i_long":106.79689,"time":6,"transit":false,"station_id":"PLM","is_transit":false},{"i_long":106.780334,"line":6,"transit":false,"time":7,"station_id":"KBY","i_lat":-6.237242,"distance":3737,"is_transit":false,"station_name":"Kebayoran"},{"is_transit":false,"station_id":"PDJ","distance":6218,"time":8,"station_name":"Pondokranji","transit":false,"i_lat":-6.276362,"i_long":106.74273,"line":6},{"is_transit":false,"line":6,"distance":2179,"station_id":"JMU","transit":false,"station_name":"Jurangmangu","i_lat":-6.288927,"i_long":106.728916,"time":3},{"i_lat":-6.296963,"distance":1994,"i_long":106.712277,"line":6,"station_name":"Sudimara","time":4,"is_transit":false,"transit":false,"station_id":"SDM"},{"i_long":106.675475,"station_id":"RU","is_transit":false,"transit":false,"distance":4566,"station_name":"Rawa Buntu","i_lat":-6.314823,"time":6,"line":6},{"transit":false,"distance":2413,"i_lat":-6.319871,"i_long":106.66566,"station_name":"Serpong","time":4,"station_id":"SRP","is_transit":false,"line":6},{"time":4,"i_lat":-6.32484,"i_long":106.640411,"station_id":"CSK","is_transit":false,"station_name":"Cisauk","transit":false,"distance":1784,"line":3},{"station_id":"CC","transit":false,"distance":2519,"station_name":"Cicayur","time":4,"i_lat":-6.329547,"i_long":106.617853,"line":3,"is_transit":false},{"transit":false,"station_name":"Parung Panjang","i_lat":-6.3441410000000005,"distance":5968,"station_id":"PRP","is_transit":false,"i_long":106.568863,"line":6,"time":8},{"time":9,"transit":false,"is_transit":false,"i_lat":-6.354349,"station_id":"CJT","distance":7025,"i_long":106.508482,"station_name":"Cilejit","line":3}],[{"station_id":"KMT","i_lat":-6.193792,"is_transit":false,"i_long":106.855437,"line":11,"station_name":"Kramat","transit":false,"time":0,"distance":0},{"is_transit":false,"time":2,"i_lat":-6.209188,"line":11,"i_long":106.861737,"station_id":"POK","distance":1829,"station_name":"Pondok Jati","transit":false},{"distance":1236,"is_transit":true,"transit":true,"station_name":"Jatinegara","station_id":"JNG","i_lat":-6.215091,"time":9,"i_long":106.86807400000001,"line":1},{"transit":false,"station_name":"Matraman","distance":1377,"is_transit":false,"i_long":106.858896,"i_lat":-6.212485,"line":1,"time":2,"station_id":"MTR"},{"i_lat":-6.209883,"station_name":"Manggarai","station_id":"MRI","i_long":106.84912,"is_transit":true,"time":2,"transit":true,"distance":1275,"line":2},{"i_lat":-6.198556,"i_long":106.840169,"is_transit":false,"line":2,"station_name":"Cikini","distance":1590,"station_id":"CKI","time":4,"transit":false},{"is_transit":false,"station_id":"GDD","station_name":"Gondangdia","time":3,"i_lat":-6.186295,"i_long":106.832183,"line":2,"transit":false,"distance":1750},{"station_name":"Juanda","line":2,"station_id":"JUA","i_lat":-6.166716,"transit":false,"i_long":106.828284,"distance":2015,"is_transit":false,"time":4},{"time":2,"distance":1149,"line":2,"station_name":"Sawah Besar","i_lat":-6.160725,"station_id":"SW","is_transit":false,"i_long":106.827103,"transit":false},{"i_long":106.82482,"is_transit":false,"time":2,"line":2,"transit":false,"distance":906,"station_id":"MGB","i_lat":-6.149769,"station_name":"Manggabesar"},{"is_transit":false,"distance":1080,"transit":false,"station_id":"JAY","i_long":106.820901,"station_name":"Jayakarta","line":2,"time":2,"i_lat":-6.141205},{"station_name":"Jakarta Kota","i_long":106.812439,"is_transit":true,"transit":true,"line":2,"station_id":"JAKK","time":4,"distance":1264,"i_lat":-6.137569},{"line":4,"station_name":"Kampung Bandan","is_transit":true,"station_id":"KPB","distance":1364,"time":3,"i_lat":-6.132549,"i_long":106.826365,"transit":true},{"station_id":"AK","distance":4102,"station_name":"Angke","is_transit":false,"i_lat":-6.144674,"transit":false,"i_long":106.79867,"line":1,"time":9},{"line":1,"i_long":106.800832,"transit":false,"time":4,"station_name":"Duri","station_id":"DU","i_lat":-6.155215,"is_transit":false,"distance":1230},{"line":1,"i_lat":-6.185545,"i_long":106.811091,"time":8,"distance":3632,"station_name":"Tanah Abang","transit":true,"station_id":"THB","is_transit":true},{"station_id":"PLM","transit":false,"is_transit":false,"distance":3191,"time":6,"i_lat":-6.207404,"station_name":"Palmerah","i_long":106.79689,"line":6},{"i_lat":-6.237242,"line":6,"distance":3737,"station_id":"KBY","is_transit":false,"time":7,"i_long":106.780334,"station_name":"Kebayoran","transit":false},{"line":6,"station_id":"PDJ","is_transit":false,"distance":6218,"time":8,"transit":false,"i_lat":-6.276362,"station_name":"Pondokranji","i_long":106.74273},{"time":3,"distance":2179,"i_lat":-6.288927,"line":6,"is_transit":false,"station_name":"Jurangmangu","station_id":"JMU","i_long":106.728916,"transit":false},{"time":4,"station_id":"SDM","line":6,"is_transit":false,"i_lat":-6.296963,"i_long":106.712277,"distance":1994,"transit":false,"station_name":"Sudimara"},{"transit":false,"time":6,"station_name":"Rawa Buntu","is_transit":false,"i_long":106.675475,"i_lat":-6.314823,"station_id":"RU","distance":4566,"line":6},{"station_id":"SRP","i_lat":-6.319871,"transit":false,"distance":2413,"i_long":106.66566,"station_name":"Serpong","line":6,"is_transit":false,"time":4},{"i_lat":-6.32484,"is_transit":false,"line":3,"station_id":"CSK","i_long":106.640411,"distance":1784,"station_name":"Cisauk","transit":false,"time":4},{"i_lat":-6.329547,"transit":false,"station_name":"Cicayur","time":4,"is_transit":false,"i_long":106.617853,"line":3,"distance":2519,"station_id":"CC"},{"station_name":"Parung Panjang","time":8,"i_long":106.568863,"station_id":"PRP","is_transit":false,"distance":5968,"i_lat":-6.3441410000000005,"transit":false,"line":6},{"station_name":"Cilejit","transit":false,"distance":7025,"is_transit":false,"station_id":"CJT","time":9,"i_lat":-6.354349,"i_long":106.508482,"line":3}],[{"line":11,"time":0,"i_long":106.855437,"is_transit":false,"station_id":"KMT","transit":false,"i_lat":-6.193792,"distance":0,"station_name":"Kramat"},{"station_id":"GST","i_lat":-6.185975,"line":11,"time":1,"distance":973,"i_long":106.850107,"transit":false,"is_transit":false,"station_name":"Gang Sentiong"},{"i_lat":-6.174784,"station_name":"Pasar Senen","distance":1567,"transit":false,"i_long":106.84368,"time":8,"line":11,"is_transit":false,"station_id":"PSE"},{"station_id":"KMO","i_lat":-6.161728,"line":11,"transit":false,"station_name":"Kemayoran","i_long":106.839204,"is_transit":false,"distance":1436,"time":4},{"station_name":"Rajawali","is_transit":false,"i_lat":-6.14505,"transit":false,"time":5,"line":11,"i_long":106.836569,"distance":1901,"station_id":"RJW"},{"station_name":"Kampung Bandan","station_id":"KPB","i_long":106.826365,"time":3,"line":4,"transit":true,"distance":1444,"i_lat":-6.132549,"is_transit":true},{"station_id":"JAKK","transit":true,"station_name":"Jakarta Kota","distance":1364,"is_transit":true,"i_long":106.812439,"line":2,"i_lat":-6.137569,"time":3},{"transit":false,"time":4,"i_lat":-6.141205,"station_id":"JAY","line":2,"distance":1264,"is_transit":false,"i_long":106.820901,"station_name":"Jayakarta"},{"station_id":"MGB","distance":1080,"transit":false,"i_long":106.82482,"line":2,"station_name":"Manggabesar","time":2,"is_transit":false,"i_lat":-6.149769},{"transit":false,"time":2,"station_name":"Sawah Besar","is_transit":false,"i_long":106.827103,"line":2,"i_lat":-6.160725,"station_id":"SW","distance":906},{"transit":false,"i_long":106.828284,"line":2,"i_lat":-6.166716,"distance":1149,"station_id":"JUA","time":2,"is_transit":false,"station_name":"Juanda"},{"time":4,"i_lat":-6.186295,"distance":2015,"line":2,"station_name":"Gondangdia","transit":false,"is_transit":false,"i_long":106.832183,"station_id":"GDD"},{"is_transit":false,"distance":1750,"i_long":106.840169,"time":3,"station_id":"CKI","station_name":"Cikini","i_lat":-6.198556,"line":2,"transit":false},{"distance":1590,"time":4,"line":2,"i_long":106.84912,"station_id":"MRI","is_transit":true,"station_name":"Manggarai","i_lat":-6.209883,"transit":true},{"distance":3186,"i_long":106.822649,"station_id":"SUD","line":1,"is_transit":false,"transit":false,"time":4,"station_name":"Sudirman","i_lat":-6.202263},{"station_id":"SUDB","distance":280,"i_lat":-6.201433,"transit":false,"is_transit":false,"i_long":106.819881,"time":1,"station_name":"Sudirman Baru","line":1},{"line":1,"station_name":"Karet","time":1,"i_long":106.816351,"i_lat":-6.20132,"transit":false,"station_id":"KAT","distance":471,"is_transit":false},{"transit":true,"i_long":106.811091,"i_lat":-6.185545,"line":1,"is_transit":true,"time":5,"station_name":"Tanah Abang","distance":2029,"station_id":"THB"},{"time":6,"station_name":"Palmerah","transit":false,"distance":3191,"i_lat":-6.207404,"line":6,"i_long":106.79689,"is_transit":false,"station_id":"PLM"},{"i_lat":-6.237242,"line":6,"distance":3737,"is_transit":false,"station_name":"Kebayoran","station_id":"KBY","i_long":106.780334,"transit":false,"time":7},{"transit":false,"station_name":"Pondokranji","distance":6218,"station_id":"PDJ","line":6,"time":8,"i_lat":-6.276362,"i_long":106.74273,"is_transit":false},{"station_name":"Jurangmangu","line":6,"station_id":"JMU","is_transit":false,"i_lat":-6.288927,"i_long":106.728916,"time":3,"distance":2179,"transit":false},{"i_long":106.712277,"station_id":"SDM","transit":false,"line":6,"time":4,"station_name":"Sudimara","is_transit":false,"distance":1994,"i_lat":-6.296963},{"time":6,"station_id":"RU","station_name":"Rawa Buntu","transit":false,"is_transit":false,"i_long":106.675475,"i_lat":-6.314823,"distance":4566,"line":6},{"station_name":"Serpong","i_long":106.66566,"station_id":"SRP","line":6,"i_lat":-6.319871,"transit":false,"distance":2413,"time":4,"is_transit":false},{"transit":false,"distance":1784,"i_long":106.640411,"line":3,"time":4,"station_id":"CSK","station_name":"Cisauk","i_lat":-6.32484,"is_transit":false},{"is_transit":false,"i_lat":-6.329547,"time":4,"line":3,"station_name":"Cicayur","transit":false,"distance":2519,"station_id":"CC","i_long":106.617853},{"station_name":"Parung Panjang","transit":false,"station_id":"PRP","i_long":106.568863,"time":8,"line":6,"distance":5968,"i_lat":-6.3441410000000005,"is_transit":false},{"distance":7025,"is_transit":false,"transit":false,"time":9,"station_id":"CJT","i_lat":-6.354349,"line":3,"station_name":"Cilejit","i_long":106.508482}]]}