{"data":[[{"i_long":106.855437,"station_name":"Kramat","time":0,"station_id":"KMT","transit":false,"distance":0,"i_lat":-6.193792,"is_transit":false,"line":11},{"is_transit":false,"i_lat":-6.209188,"line":11,"time":2,"station_name":"Pondok Jati","i_long":106.861737,"station_id":"POK","distance":1829,"transit":false},{"distance":1236,"i_long":106.86807400000001,"time":9,"station_name":"Jatinegara","station_id":"JNG","is_transit":true,"transit":true,"i_lat":-6.215091,"line":0},{"station_name":"Klender","station_id":"KLD","time":3,"is_transit":false,"transit":false,"i_lat":-6.2135,"distance":3395,"i_long":106.899548,"line":1},{"station_id":"BUA","time":2,"is_transit":false,"station_name":"Buaran","transit":false,"line":0,"i_lat":-6.215568,"distance":3100,"i_long":106.922662},{"station_name":"Klenderbaru","time":1,"i_long":106.939679,"transit":false,"line":1,"distance":1305,"is_transit":false,"i_lat":-6.217455,"station_id":"KLDB"},{"line":0,"time":8,"i_long":106.951283,"is_transit":false,"station_id":"CUK","station_name":"Cakung","distance":1385,"transit":false,"i_lat":-6.219053},{"distance":3097,"i_lat":-6.224515,"is_transit":false,"station_id":"KRI","time":3,"i_long":106.977657,"line":1,"transit":false,"station_name":"Kranji"},{"i_lat":-6.236616,"time":4,"is_transit":false,"distance":2520,"station_name":"Bekasi","i_long":106.997013,"line":0,"transit":false,"station_id":"BKS"},{"station_id":"BKST","is_transit":false,"time":2,"distance":2368,"i_long":107.016735,"transit":false,"i_lat":-6.248029,"line":0,"station_name":"Bekasi Timur"},{"station_name":"Tambun","station_id":"TB","is_transit":false,"transit":false,"time":7,"distance":4460,"i_long":107.055722,"i_lat":-6.258864,"line":1},{"is_transit":false,"line":0,"transit":false,"distance":3420,"station_id":"CIT","time":3,"i_long":107.083084,"i_lat":-6.261877,"station_name":"Cibitung"}],[{"line":11,"time":0,"i_lat":-6.193792,"transit":false,"i_long":106.855437,"station_id":"KMT","is_transit":false,"station_name":"Kramat","distance":0},{"station_name":"Gang Sentiong","i_long":106.850107,"is_transit":false,"line":11,"time":1,"transit":false,"i_lat":-6.185975,"station_id":"GST","distance":973},{"distance":1567,"i_lat":-6.174784,"station_name":"Pasar Senen","is_transit":false,"line":11,"time":8,"station_id":"PSE","i_long":106.84368,"transit":false},{"transit":false,"is_transit":false,"distance":1436,"line":11,"station_id":"KMO","i_long":106.839204,"i_lat":-6.161728,"station_name":"Kemayoran","time":4},{"line":11,"i_lat":-6.14505,"station_id":"RJW","time":5,"station_name":"Rajawali","is_transit":false,"distance":1901,"transit":false,"i_long":106.836569},{"station_id":"KPB","transit":true,"distance":1444,"line":0,"station_name":"Kampung Bandan","i_lat":-6.132549,"i_long":106.826365,"is_transit":true,"time":3},{"i_lat":-6.144674,"time":9,"is_transit":false,"transit":false,"i_long":106.79867,"station_name":"Angke","line":0,"station_id":"AK","distance":4102},{"station_id":"DU","distance":1230,"time":4,"i_long":106.800832,"line":1,"station_name":"Duri","i_lat":-6.155215,"is_transit":true,"transit":true},{"is_transit":true,"station_id":"THB","distance":3632,"time":8,"transit":false,"i_lat":-6.185545,"line":1,"station_name":"Tanah Abang","i_long":106.811091},{"is_transit":false,"station_id":"KAT","transit":false,"distance":2029,"line":1,"station_name":"Karet","time":5,"i_long":106.816351,"i_lat":-6.20132},{"is_transit":false,"station_id":"SUDB","distance":471,"transit":false,"i_long":106.819881,"i_lat":-6.201433,"time":1,"line":1,"station_name":"Sudirman Baru"},{"time":1,"is_transit":false,"distance":280,"station_id":"SUD","line":1,"transit":false,"i_lat":-6.202263,"i_long":106.822649,"station_name":"Sudirman"},{"distance":3186,"station_name":"Manggarai","transit":false,"line":0,"is_transit":true,"i_long":106.84912,"i_lat":-6.209883,"time":4,"station_id":"MRI"},{"station_name":"Matraman","distance":1275,"station_id":"MTR","i_lat":-6.212485,"i_long":106.858896,"time":2,"is_transit":false,"transit":false,"line":1},{"is_transit":true,"transit":false,"time":8,"i_long":106.86807400000001,"distance":1377,"line":0,"station_name":"Jatinegara","station_id":"JNG","i_lat":-6.215091},{"i_long":106.899548,"line":1,"time":3,"i_lat":-6.2135,"transit":false,"distance":3395,"station_name":"Klender","station_id":"KLD","is_transit":false},{"line":0,"station_id":"BUA","is_transit":false,"i_lat":-6.215568,"transit":false,"station_name":"Buaran","i_long":106.922662,"time":2,"distance":3100},{"station_id":"KLDB","time":1,"i_lat":-6.217455,"i_long":106.939679,"is_transit":false,"line":1,"distance":1305,"station_name":"Klenderbaru","transit":false},{"is_transit":false,"station_name":"Cakung","time":8,"line":0,"station_id":"CUK","transit":false,"i_lat":-6.219053,"distance":1385,"i_long":106.951283},{"distance":3097,"line":1,"i_long":106.977657,"station_id":"KRI","time":3,"transit":false,"station_name":"Kranji","i_lat":-6.224515,"is_transit":false},{"distance":2520,"line":0,"station_id":"BKS","transit":false,"i_lat":-6.236616,"time":4,"is_transit":false,"i_long":106.997013,"station_name":"Bekasi"},{"station_id":"BKST","distance":2368,"i_long":107.016735,"transit":false,"time":2,"is_transit":false,"i_lat":-6.248029,"line":0,"station_name":"Bekasi Timur"},{"line":1,"station_id":"TB","time":7,"transit":false,"i_long":107.055722,"distance":4460,"is_transit":false,"i_lat":-6.258864,"station_name":"Tambun"},{"time":3,"i_long":107.083084,"distance":3420,"i_lat":-6.261877,"is_transit":false,"transit":false,"station_name":"Cibitung","station_id":"CIT","line":0}],[{"distance":0,"time":0,"i_lat":-6.193792,"is_transit":false,"transit":false,"i_long":106.855437,"line":11,"station_id":"KMT","station_name":"Kramat"},{"station_id":"GST","transit":false,"i_lat":-6.185975,"distance":973,"line":11,"i_long":106.850107,"is_transit":false,"time":1,"station_name":"Gang Sentiong"},{"i_long":106.84368,"line":11,"station_name":"Pasar Senen","distance":1567,"station_id":"PSE","is_transit":false,"i_lat":-6.174784,"time":8,"transit":false},{"transit":false,"station_name":"Kemayoran","i_lat":-6.161728,"station_id":"KMO","time":4,"is_transit":false,"line":11,"distance":1436,"i_long":106.839204},{"station_id":"RJW","is_transit":false,"i_long":106.836569,"distance":1901,"line":11,"transit":false,"i_lat":-6.14505,"station_name":"Rajawali","time":5},{"time":3,"distance":1444,"station_name":"Kampung Bandan","i_long":106.826365,"transit":true,"station_id":"KPB","i_lat":-6.132549,"line":0,"is_transit":true},{"i_long":106.812439,"i_lat":-6.137569,"line":0,"station_name":"Jakarta Kota","station_id":"JAKK","distance":1364,"time":3,"transit":true,"is_transit":true},{"station_name":"Jayakarta","time":4,"distance":1264,"i_lat":-6.141205,"transit":false,"i_long":106.820901,"line":7,"station_id":"JAY","is_transit":false},{"i_lat":-6.149769,"station_name":"Manggabesar","distance":1080,"i_long":106.82482,"station_id":"MGB","is_transit":false,"transit":false,"time":2,"line":2},{"station_name":"Sawah Besar","line":2,"i_lat":-6.160725,"i_long":106.827103,"time":2,"station_id":"SW","distance":906,"is_transit":false,"transit":false},{"time":2,"i_lat":-6.166716,"transit":false,"line":2,"station_id":"JUA","i_long":106.828284,"station_name":"Juanda","is_transit":false,"distance":1149},{"station_name":"Gondangdia","line":2,"distance":2015,"station_id":"GDD","is_transit":false,"transit":false,"time":4,"i_lat":-6.186295,"i_long":106.832183},{"is_transit":false,"distance":1750,"transit":false,"i_lat":-6.198556,"station_name":"Cikini","i_long":106.840169,"station_id":"CKI","time":3,"line":0},{"line":0,"station_name":"Manggarai","station_id":"MRI","is_transit":true,"distance":1590,"time":4,"i_lat":-6.209883,"transit":true,"i_long":106.84912},{"transit":false,"station_name":"Matraman","station_id":"MTR","line":1,"distance":1275,"time":2,"i_lat":-6.212485,"i_long":106.858896,"is_transit":false},{"line":0,"transit":false,"station_id":"JNG","station_name":"Jatinegara","distance":1377,"is_transit":true,"i_long":106.86807400000001,"time":8,"i_lat":-6.215091},{"time":3,"is_transit":false,"i_lat":-6.2135,"i_long":106.899548,"distance":3395,"transit":false,"station_name":"Klender","station_id":"KLD","line":1},{"distance":3100,"line":0,"station_name":"Buaran","station_id":"BUA","transit":false,"is_transit":false,"time":2,"i_lat":-6.215568,"i_long":106.922662},{"station_name":"Klenderbaru","station_id":"KLDB","is_transit":false,"time":1,"distance":1305,"i_long":106.939679,"transit":false,"i_lat":-6.217455,"line":1},{"line":0,"is_transit":false,"distance":1385,"i_long":106.951283,"time":8,"i_lat":-6.219053,"station_name":"Cakung","station_id":"CUK","transit":false},{"station_name":"Kranji","time":3,"line":1,"transit":false,"station_id":"KRI","is_transit":false,"i_lat":-6.224515,"distance":3097,"i_long":106.977657},{"i_lat":-6.236616,"transit":false,"time":4,"distance":2520,"station_id":"BKS","i_long":106.997013,"is_transit":false,"line":0,"station_name":"Bekasi"},{"station_name":"Bekasi Timur","station_id":"BKST","line":0,"is_transit":false,"time":2,"transit":false,"distance":2368,"i_lat":-6.248029,"i_long":107.016735},{"station_name":"Tambun","transit":false,"station_id":"TB","time":7,"line":1,"distance":4460,"is_transit":false,"i_long":107.055722,"i_lat":-6.258864},{"station_id":"CIT","transit":false,"station_name":"Cibitung","distance":3420,"is_transit":false,"i_lat":-6.261877,"i_long":107.083084,"line":0,"time":3}]]}