{"data":[[{"line":11,"distance":0,"transit":false,"station_id":"KMT","station_name":"Kramat","time":0,"i_lat":-6.193792,"is_transit":false,"i_long":106.855437},{"time":1,"station_id":"GST","distance":973,"transit":false,"station_name":"Gang Sentiong","line":11,"i_lat":-6.185975,"is_transit":false,"i_long":106.850107},{"station_id":"PSE","line":11,"i_lat":-6.174784,"time":8,"distance":1567,"transit":false,"is_transit":false,"i_long":106.84368,"station_name":"Pasar Senen"},{"is_transit":false,"station_id":"KMO","station_name":"Kemayoran","i_lat":-6.161728,"transit":false,"distance":1436,"time":4,"i_long":106.839204,"line":11},{"is_transit":false,"line":11,"i_long":106.836569,"distance":1901,"station_name":"Rajawali","transit":false,"time":5,"station_id":"RJW","i_lat":-6.14505},{"line":4,"transit":true,"station_name":"Kampung Bandan","i_lat":-6.132549,"station_id":"KPB","i_long":106.826365,"is_transit":true,"time":3,"distance":1444},{"distance":4102,"i_lat":-6.144674,"line":1,"station_id":"AK","time":9,"is_transit":false,"station_name":"Angke","i_long":106.79867,"transit":false},{"is_transit":true,"i_lat":-6.155215,"station_id":"DU","i_long":106.800832,"transit":true,"station_name":"Duri","line":1,"distance":1230,"time":4},{"station_name":"Grogol","i_lat":-6.162021,"distance":1700,"i_long":106.788277,"is_transit":false,"transit":false,"station_id":"GGL","time":3,"line":5},{"i_lat":-6.161433,"is_transit":false,"station_id":"PSG","station_name":"Pesing","line":5,"i_long":106.771379,"time":2,"transit":false,"distance":2036},{"is_transit":false,"time":2,"distance":1614,"i_lat":-6.1587309999999995,"line":5,"transit":false,"station_name":"Taman Kota","i_long":106.756522,"station_id":"TKO"},{"transit":false,"time":2,"i_long":106.737035,"line":5,"station_name":"Bojongindah","station_id":"BOI","distance":2334,"is_transit":false,"i_lat":-6.159876},{"station_name":"Rawa Buaya","station_id":"RW","time":4,"is_transit":false,"i_lat":-6.162758,"distance":1152,"transit":false,"line":5,"i_long":106.723064},{"station_id":"KDS","is_transit":false,"time":3,"i_long":106.701612,"line":5,"transit":false,"distance":2504,"station_name":"Kalideres","i_lat":-6.166068}],[{"station_id":"KMT","i_lat":-6.193792,"transit":false,"station_name":"Kramat","distance":0,"time":0,"is_transit":false,"i_long":106.855437,"line":11},{"time":2,"i_long":106.861737,"distance":1829,"station_name":"Pondok Jati","is_transit":false,"transit":false,"i_lat":-6.209188,"station_id":"POK","line":11},{"transit":true,"station_id":"JNG","time":9,"distance":1236,"is_transit":true,"station_name":"Jatinegara","i_lat":-6.215091,"i_long":106.86807400000001,"line":1},{"distance":1377,"i_lat":-6.212485,"station_id":"MTR","is_transit":false,"transit":false,"line":1,"i_long":106.858896,"time":2,"station_name":"Matraman"},{"i_long":106.84912,"distance":1275,"station_id":"MRI","transit":false,"i_lat":-6.209883,"time":2,"line":2,"is_transit":false,"station_name":"Manggarai"},{"time":4,"station_name":"Sudirman","i_long":106.822649,"line":1,"station_id":"SUD","is_transit":false,"i_lat":-6.202263,"distance":3186,"transit":false},{"i_lat":-6.201433,"is_transit":false,"time":1,"line":1,"i_long":106.819881,"transit":false,"distance":280,"station_id":"SUDB","station_name":"Sudirman Baru"},{"i_long":106.816351,"i_lat":-6.20132,"line":1,"distance":471,"station_name":"Karet","station_id":"KAT","time":1,"is_transit":false,"transit":false},{"distance":2029,"is_transit":false,"transit":false,"station_name":"Tanah Abang","station_id":"THB","time":5,"i_lat":-6.185545,"line":1,"i_long":106.811091},{"transit":true,"station_id":"DU","is_transit":true,"distance":3632,"i_lat":-6.155215,"station_name":"Duri","i_long":106.800832,"time":8,"line":1},{"distance":1700,"station_name":"Grogol","transit":false,"station_id":"GGL","is_transit":false,"i_lat":-6.162021,"line":5,"i_long":106.788277,"time":3},{"i_lat":-6.161433,"time":2,"station_id":"PSG","i_long":106.771379,"station_name":"Pesing","is_transit":false,"line":5,"distance":2036,"transit":false},{"transit":false,"distance":1614,"time":2,"i_long":106.756522,"line":5,"i_lat":-6.1587309999999995,"station_name":"Taman Kota","station_id":"TKO","is_transit":false},{"station_name":"Bojongindah","line":5,"station_id":"BOI","i_lat":-6.159876,"time":2,"transit":false,"i_long":106.737035,"is_transit":false,"distance":2334},{"is_transit":false,"station_name":"Rawa Buaya","time":4,"distance":1152,"i_lat":-6.162758,"i_long":106.723064,"line":5,"transit":false,"station_id":"RW"},{"i_lat":-6.166068,"distance":2504,"time":3,"is_transit":false,"transit":false,"i_long":106.701612,"station_id":"KDS","line":5,"station_name":"Kalideres"}],[{"transit":false,"distance":0,"station_id":"KMT","station_name":"Kramat","is_transit":false,"time":0,"i_long":106.855437,"i_lat":-6.193792,"line":11},{"time":2,"station_id":"POK","transit":false,"line":11,"i_long":106.861737,"distance":1829,"i_lat":-6.209188,"station_name":"Pondok Jati","is_transit":false},{"station_id":"JNG","i_lat":-6.215091,"i_long":106.86807400000001,"distance":1236,"transit":true,"station_name":"Jatinegara","line":1,"is_transit":true,"time":9},{"transit":false,"station_id":"MTR","distance":1377,"i_lat":-6.212485,"i_long":106.858896,"line":1,"time":2,"station_name":"Matraman","is_transit":false},{"time":2,"transit":true,"distance":1275,"line":2,"is_transit":true,"station_id":"MRI","station_name":"Manggarai","i_lat":-6.209883,"i_long":106.84912},{"is_transit":false,"station_id":"CKI","i_lat":-6.198556,"i_long":106.840169,"line":2,"transit":false,"time":4,"station_name":"Cikini","distance":1590},{"i_lat":-6.186295,"transit":false,"station_name":"Gondangdia","i_long":106.832183,"is_transit":false,"time":3,"line":2,"distance":1750,"station_id":"GDD"},{"i_lat":-6.166716,"i_long":106.828284,"station_name":"Juanda","is_transit":false,"transit":false,"line":2,"time":4,"station_id":"JUA","distance":2015},{"line":2,"i_lat":-6.160725,"distance":1149,"i_long":106.827103,"station_name":"Sawah Besar","transit":false,"station_id":"SW","is_transit":false,"time":2},{"is_transit":false,"transit":false,"i_lat":-6.149769,"distance":906,"i_long":106.82482,"line":2,"station_name":"Manggabesar","station_id":"MGB","time":2},{"distance":1080,"i_lat":-6.141205,"i_long":106.820901,"station_name":"Jayakarta","station_id":"JAY","line":2,"time":2,"is_transit":false,"transit":false},{"transit":true,"i_lat":-6.137569,"time":4,"station_id":"JAKK","line":2,"is_transit":true,"i_long":106.812439,"station_name":"Jakarta Kota","distance":1264},{"i_lat":-6.132549,"station_id":"KPB","distance":1364,"time":3,"line":4,"transit":true,"station_name":"Kampung Bandan","i_long":106.826365,"is_transit":true},{"time":9,"is_transit":false,"distance":4102,"transit":false,"i_long":106.79867,"station_id":"AK","station_name":"Angke","i_lat":-6.144674,"line":1},{"station_id":"DU","station_name":"Duri","i_long":106.800832,"line":1,"transit":true,"is_transit":true,"i_lat":-6.155215,"distance":1230,"time":4},{"distance":1700,"station_id":"GGL","is_transit":false,"i_long":106.788277,"i_lat":-6.162021,"station_name":"Grogol","transit":false,"time":3,"line":5},{"is_transit":false,"time":2,"transit":false,"station_id":"PSG","station_name":"Pesing","distance":2036,"i_long":106.771379,"line":5,"i_lat":-6.161433},{"line":5,"i_lat":-6.1587309999999995,"station_name":"Taman Kota","transit":false,"time":2,"i_long":106.756522,"station_id":"TKO","is_transit":false,"distance":1614},{"station_id":"BOI","is_transit":false,"i_lat":-6.159876,"station_name":"Bojongindah","transit":false,"line":5,"time":2,"distance":2334,"i_long":106.737035},{"station_name":"Rawa Buaya","is_transit":false,"time":4,"station_id":"RW","i_long":106.723064,"distance":1152,"transit":false,"line":5,"i_lat":-6.162758},{"transit":false,"is_transit":false,"distance":2504,"line":5,"station_name":"Kalideres","i_long":106.701612,"time":3,"i_lat":-6.166068,"station_id":"KDS"}],[{"is_transit":false,"time":0,"transit":false,"i_long":106.855437,"distance":0,"line":11,"station_name":"Kramat","station_id":"KMT","i_lat":-6.193792},{"i_long":106.850107,"station_name":"Gang Sentiong","line":11,"distance":973,"time":1,"i_lat":-6.185975,"transit":false,"is_transit":false,"station_id":"GST"},{"station_id":"PSE","i_long":106.84368,"time":8,"distance":1567,"line":11,"transit":false,"station_name":"Pasar Senen","is_transit":false,"i_lat":-6.174784},{"transit":false,"is_transit":false,"i_lat":-6.161728,"station_name":"Kemayoran","time":4,"distance":1436,"line":11,"station_id":"KMO","i_long":106.839204},{"distance":1901,"transit":false,"is_transit":false,"station_id":"RJW","time":5,"station_name":"Rajawali","i_lat":-6.14505,"i_long":106.836569,"line":11},{"transit":true,"is_transit":true,"i_lat":-6.132549,"i_long":106.826365,"distance":1444,"line":4,"station_id":"KPB","station_name":"Kampung Bandan","time":3},{"station_id":"JAKK","is_transit":true,"time":3,"transit":true,"distance":1364,"station_name":"Jakarta Kota","i_long":106.812439,"i_lat":-6.137569,"line":2},{"station_name":"Jayakarta","time":4,"transit":false,"i_long":106.820901,"line":2,"distance":1264,"station_id":"JAY","i_lat":-6.141205,"is_transit":false},{"transit":false,"station_name":"Manggabesar","distance":1080,"i_lat":-6.149769,"i_long":106.82482,"line":2,"is_transit":false,"time":2,"station_id":"MGB"},{"i_lat":-6.160725,"time":2,"i_long":106.827103,"distance":906,"line":2,"transit":false,"station_name":"Sawah Besar","station_id":"SW","is_transit":false},{"station_name":"Juanda","transit":false,"line":2,"station_id":"JUA","i_lat":-6.166716,"is_transit":false,"time":2,"distance":1149,"i_long":106.828284},{"i_lat":-6.186295,"i_long":106.832183,"station_id":"GDD","time":4,"station_name":"Gondangdia","distance":2015,"line":2,"transit":false,"is_transit":false},{"station_name":"Cikini","line":2,"i_long":106.840169,"station_id":"CKI","time":3,"distance":1750,"transit":false,"is_transit":false,"i_lat":-6.198556},{"line":2,"i_lat":-6.209883,"is_transit":true,"transit":true,"time":4,"distance":1590,"i_long":106.84912,"station_name":"Manggarai","station_id":"MRI"},{"station_name":"Sudirman","station_id":"SUD","transit":false,"is_transit":false,"line":1,"i_lat":-6.202263,"distance":3186,"i_long":106.822649,"time":4},{"station_name":"Sudirman Baru","station_id":"SUDB","is_transit":false,"transit":false,"line":1,"i_long":106.819881,"distance":280,"i_lat":-6.201433,"time":1},{"line":1,"distance":471,"transit":false,"station_name":"Karet","is_transit":false,"time":1,"i_lat":-6.20132,"station_id":"KAT","i_long":106.816351},{"i_lat":-6.185545,"i_long":106.811091,"station_id":"THB","line":1,"transit":false,"distance":2029,"time":5,"station_name":"Tanah Abang","is_transit":false},{"line":1,"station_name":"Duri","time":8,"i_long":106.800832,"transit":true,"station_id":"DU","is_transit":true,"distance":3632,"i_lat":-6.155215},{"is_transit":false,"line":5,"i_lat":-6.162021,"station_name":"Grogol","i_long":106.788277,"time":3,"station_id":"GGL","transit":false,"distance":1700},{"time":2,"transit":false,"i_lat":-6.161433,"station_id":"PSG","i_long":106.771379,"line":5,"distance":2036,"station_name":"Pesing","is_transit":false},{"station_id":"TKO","is_transit":false,"time":2,"transit":false,"line":5,"i_lat":-6.1587309999999995,"i_long":106.756522,"station_name":"Taman Kota","distance":1614},{"transit":false,"time":2,"distance":2334,"station_id":"BOI","line":5,"is_transit":false,"i_long":106.737035,"station_name":"Bojongindah","i_lat":-6.159876},{"line":5,"i_lat":-6.162758,"transit":false,"i_long":106.723064,"time":4,"is_transit":false,"distance":1152,"station_id":"RW","station_name":"Rawa Buaya"},{"is_transit":false,"station_name":"Kalideres","station_id":"KDS","transit":false,"distance":2504,"i_lat":-6.166068,"i_long":106.701612,"time":3,"line":5}]]}