{"data":[[{"i_long":106.855437,"time":0,"transit":false,"i_lat":-6.193792,"is_transit":false,"station_name":"Kramat","line":11,"distance":0,"station_id":"KMT"},{"time":1,"station_name":"Gang Sentiong","is_transit":false,"i_long":106.850107,"station_id":"GST","line":11,"distance":973,"transit":false,"i_lat":-6.185975},{"distance":1567,"station_id":"PSE","station_name":"Pasar Senen","line":11,"time":8,"is_transit":false,"transit":false,"i_long":106.84368,"i_lat":-6.174784}],[{"time":0,"station_id":"KMT","transit":false,"station_name":"Kramat","line":11,"is_transit":false,"i_lat":-6.193792,"i_long":106.855437,"distance":0},{"station_name":"Pondok Jati","station_id":"POK","is_transit":false,"distance":1829,"i_long":106.861737,"transit":false,"time":2,"i_lat":-6.209188,"line":11},{"i_lat":-6.215091,"is_transit":true,"station_name":"Jatinegara","station_id":"JNG","distance":1236,"transit":true,"line":0,"time":9,"i_long":106.86807400000001},{"i_lat":-6.212485,"distance":1377,"time":2,"line":1,"transit":false,"station_name":"Matraman","is_transit":false,"station_id":"MTR","i_long":106.858896},{"distance":1275,"i_lat":-6.209883,"line":0,"transit":false,"is_transit":true,"time":2,"station_id":"MRI","station_name":"Manggarai","i_long":106.84912},{"transit":false,"line":1,"station_id":"SUD","time":4,"is_transit":false,"station_name":"Sudirman","distance":3186,"i_long":106.822649,"i_lat":-6.202263},{"transit":false,"is_transit":false,"station_name":"Sudirman Baru","distance":280,"station_id":"SUDB","i_lat":-6.201433,"line":1,"time":1,"i_long":106.819881},{"distance":471,"i_lat":-6.20132,"i_long":106.816351,"time":1,"is_transit":false,"transit":false,"station_id":"KAT","station_name":"Karet","line":1},{"station_id":"THB","i_lat":-6.185545,"time":5,"i_long":106.811091,"is_transit":true,"transit":false,"station_name":"Tanah Abang","line":1,"distance":2029},{"distance":3632,"station_id":"DU","time":8,"is_transit":true,"i_lat":-6.155215,"station_name":"Duri","i_long":106.800832,"line":1,"transit":true},{"distance":1230,"station_name":"Angke","is_transit":false,"transit":false,"time":4,"station_id":"AK","i_lat":-6.144674,"line":0,"i_long":106.79867},{"time":9,"is_transit":true,"distance":4102,"i_lat":-6.132549,"transit":true,"station_id":"KPB","station_name":"Kampung Bandan","i_long":106.826365,"line":0},{"time":3,"is_transit":false,"distance":1444,"station_name":"Rajawali","i_lat":-6.14505,"line":11,"transit":false,"station_id":"RJW","i_long":106.836569},{"is_transit":false,"time":5,"distance":1901,"i_lat":-6.161728,"station_id":"KMO","transit":false,"station_name":"Kemayoran","i_long":106.839204,"line":11},{"line":11,"i_lat":-6.174784,"distance":1436,"i_long":106.84368,"time":4,"transit":false,"station_id":"PSE","station_name":"Pasar Senen","is_transit":false}],[{"transit":false,"i_long":106.855437,"i_lat":-6.193792,"is_transit":false,"station_name":"Kramat","time":0,"distance":0,"station_id":"KMT","line":11},{"is_transit":false,"transit":false,"i_long":106.861737,"i_lat":-6.209188,"time":2,"distance":1829,"station_id":"POK","station_name":"Pondok Jati","line":11},{"i_lat":-6.215091,"is_transit":true,"transit":true,"station_id":"JNG","station_name":"Jatinegara","time":9,"distance":1236,"i_long":106.86807400000001,"line":0},{"station_id":"MTR","i_long":106.858896,"line":1,"i_lat":-6.212485,"station_name":"Matraman","time":2,"transit":false,"is_transit":false,"distance":1377},{"station_name":"Manggarai","distance":1275,"transit":true,"is_transit":true,"i_lat":-6.209883,"i_long":106.84912,"time":2,"station_id":"MRI","line":0},{"i_long":106.840169,"station_name":"Cikini","i_lat":-6.198556,"line":0,"time":4,"station_id":"CKI","is_transit":false,"distance":1590,"transit":false},{"is_transit":false,"line":2,"transit":false,"station_name":"Gondangdia","time":3,"distance":1750,"i_long":106.832183,"i_lat":-6.186295,"station_id":"GDD"},{"station_id":"JUA","station_name":"Juanda","line":2,"time":4,"i_lat":-6.166716,"distance":2015,"is_transit":false,"i_long":106.828284,"transit":false},{"line":2,"station_id":"SW","distance":1149,"transit":false,"station_name":"Sawah Besar","i_lat":-6.160725,"i_long":106.827103,"is_transit":false,"time":2},{"station_name":"Manggabesar","i_lat":-6.149769,"is_transit":false,"line":2,"transit":false,"time":2,"i_long":106.82482,"distance":906,"station_id":"MGB"},{"time":2,"station_id":"JAY","line":7,"i_lat":-6.141205,"distance":1080,"transit":false,"is_transit":false,"station_name":"Jayakarta","i_long":106.820901},{"distance":1264,"station_id":"JAKK","is_transit":true,"time":4,"transit":true,"i_lat":-6.137569,"i_long":106.812439,"station_name":"Jakarta Kota","line":0},{"transit":true,"is_transit":true,"station_id":"KPB","line":0,"station_name":"Kampung Bandan","i_long":106.826365,"time":3,"distance":1364,"i_lat":-6.132549},{"transit":false,"station_id":"RJW","line":11,"distance":1444,"station_name":"Rajawali","time":3,"i_lat":-6.14505,"i_long":106.836569,"is_transit":false},{"transit":false,"time":5,"station_id":"KMO","is_transit":false,"distance":1901,"i_lat":-6.161728,"line":11,"station_name":"Kemayoran","i_long":106.839204},{"station_name":"Pasar Senen","line":11,"station_id":"PSE","time":4,"i_lat":-6.174784,"distance":1436,"is_transit":false,"i_long":106.84368,"transit":false}]]}