{"data":[[{"is_transit":false,"station_name":"Kramat","transit":false,"i_lat":-6.193792,"station_id":"KMT","i_long":106.855437,"line":11,"distance":0,"time":0},{"is_transit":false,"time":2,"distance":1829,"transit":false,"i_long":106.861737,"station_id":"POK","station_name":"Pondok Jati","i_lat":-6.209188,"line":11},{"i_long":106.86807400000001,"station_name":"Jatinegara","transit":true,"time":9,"line":1,"is_transit":true,"distance":1236,"i_lat":-6.215091,"station_id":"JNG"},{"station_name":"Matraman","distance":1377,"line":1,"station_id":"MTR","is_transit":false,"transit":false,"i_lat":-6.212485,"i_long":106.858896,"time":2},{"i_lat":-6.209883,"time":2,"transit":true,"station_name":"Manggarai","i_long":106.84912,"station_id":"MRI","is_transit":true,"distance":1275,"line":2},{"i_long":106.840169,"transit":false,"distance":1590,"time":4,"station_id":"CKI","line":2,"station_name":"Cikini","i_lat":-6.198556,"is_transit":false}],[{"time":0,"station_name":"Kramat","station_id":"KMT","is_transit":false,"line":11,"i_long":106.855437,"distance":0,"transit":false,"i_lat":-6.193792},{"distance":973,"station_name":"Gang Sentiong","line":11,"i_long":106.850107,"station_id":"GST","i_lat":-6.185975,"time":1,"transit":false,"is_transit":false},{"station_id":"PSE","time":8,"transit":false,"distance":1567,"is_transit":false,"station_name":"Pasar Senen","i_lat":-6.174784,"i_long":106.84368,"line":11},{"is_transit":false,"time":4,"transit":false,"i_lat":-6.161728,"station_id":"KMO","line":11,"i_long":106.839204,"distance":1436,"station_name":"Kemayoran"},{"i_long":106.836569,"distance":1901,"station_id":"RJW","is_transit":false,"station_name":"Rajawali","transit":false,"line":11,"time":5,"i_lat":-6.14505},{"station_name":"Kampung Bandan","transit":true,"is_transit":true,"i_lat":-6.132549,"station_id":"KPB","i_long":106.826365,"line":4,"distance":1444,"time":3},{"line":2,"is_transit":true,"station_name":"Jakarta Kota","time":3,"transit":true,"station_id":"JAKK","distance":1364,"i_lat":-6.137569,"i_long":106.812439},{"i_lat":-6.141205,"is_transit":false,"i_long":106.820901,"time":4,"station_name":"Jayakarta","line":2,"transit":false,"distance":1264,"station_id":"JAY"},{"distance":1080,"station_id":"MGB","transit":false,"line":2,"station_name":"Manggabesar","is_transit":false,"i_lat":-6.149769,"time":2,"i_long":106.82482},{"time":2,"is_transit":false,"line":2,"station_name":"Sawah Besar","i_long":106.827103,"i_lat":-6.160725,"transit":false,"distance":906,"station_id":"SW"},{"time":2,"is_transit":false,"station_name":"Juanda","station_id":"JUA","distance":1149,"i_lat":-6.166716,"i_long":106.828284,"line":2,"transit":false},{"station_name":"Gondangdia","line":2,"station_id":"GDD","i_lat":-6.186295,"time":4,"transit":false,"is_transit":false,"i_long":106.832183,"distance":2015},{"is_transit":false,"distance":1750,"i_long":106.840169,"time":3,"line":2,"i_lat":-6.198556,"station_name":"Cikini","transit":false,"station_id":"CKI"}],[{"time":0,"station_id":"KMT","line":11,"is_transit":false,"distance":0,"station_name":"Kramat","transit":false,"i_long":106.855437,"i_lat":-6.193792},{"distance":973,"transit":false,"station_name":"Gang Sentiong","i_lat":-6.185975,"time":1,"is_transit":false,"station_id":"GST","i_long":106.850107,"line":11},{"line":11,"distance":1567,"transit":false,"station_id":"PSE","station_name":"Pasar Senen","time":8,"i_lat":-6.174784,"i_long":106.84368,"is_transit":false},{"time":4,"station_name":"Kemayoran","is_transit":false,"i_lat":-6.161728,"i_long":106.839204,"station_id":"KMO","line":11,"transit":false,"distance":1436},{"station_name":"Rajawali","i_lat":-6.14505,"distance":1901,"is_transit":false,"transit":false,"line":11,"time":5,"station_id":"RJW","i_long":106.836569},{"i_long":106.826365,"line":4,"station_id":"KPB","is_transit":true,"time":3,"transit":true,"distance":1444,"i_lat":-6.132549,"station_name":"Kampung Bandan"},{"station_name":"Angke","time":9,"is_transit":false,"distance":4102,"i_lat":-6.144674,"station_id":"AK","transit":false,"i_long":106.79867,"line":1},{"station_id":"DU","i_lat":-6.155215,"station_name":"Duri","time":4,"distance":1230,"transit":false,"line":1,"is_transit":false,"i_long":106.800832},{"i_long":106.811091,"is_transit":false,"station_name":"Tanah Abang","transit":false,"time":8,"line":1,"station_id":"THB","i_lat":-6.185545,"distance":3632},{"transit":false,"is_transit":false,"station_id":"KAT","station_name":"Karet","distance":2029,"i_long":106.816351,"time":5,"line":1,"i_lat":-6.20132},{"line":1,"transit":false,"time":1,"station_id":"SUDB","is_transit":false,"station_name":"Sudirman Baru","i_lat":-6.201433,"distance":471,"i_long":106.819881},{"i_long":106.822649,"station_name":"Sudirman","i_lat":-6.202263,"distance":280,"time":1,"transit":false,"is_transit":false,"line":1,"station_id":"SUD"},{"transit":true,"station_id":"MRI","station_name":"Manggarai","distance":3186,"i_long":106.84912,"time":4,"is_transit":true,"line":2,"i_lat":-6.209883},{"line":2,"i_long":106.840169,"is_transit":false,"transit":false,"station_id":"CKI","i_lat":-6.198556,"time":4,"distance":1590,"station_name":"Cikini"}],[{"station_name":"Kramat","line":11,"time":0,"station_id":"KMT","distance":0,"is_transit":false,"transit":false,"i_lat":-6.193792,"i_long":106.855437},{"i_long":106.861737,"line":11,"time":2,"station_name":"Pondok Jati","distance":1829,"transit":false,"is_transit":false,"i_lat":-6.209188,"station_id":"POK"},{"line":1,"is_transit":true,"distance":1236,"i_lat":-6.215091,"time":9,"station_name":"Jatinegara","transit":true,"i_long":106.86807400000001,"station_id":"JNG"},{"is_transit":false,"transit":false,"i_long":106.858896,"line":1,"time":2,"station_id":"MTR","station_name":"Matraman","i_lat":-6.212485,"distance":1377},{"station_name":"Manggarai","time":2,"is_transit":false,"i_long":106.84912,"i_lat":-6.209883,"station_id":"MRI","transit":false,"line":2,"distance":1275},{"line":1,"time":4,"station_id":"SUD","is_transit":false,"distance":3186,"station_name":"Sudirman","transit":false,"i_lat":-6.202263,"i_long":106.822649},{"i_lat":-6.201433,"time":1,"i_long":106.819881,"line":1,"distance":280,"station_id":"SUDB","is_transit":false,"station_name":"Sudirman Baru","transit":false},{"line":1,"time":1,"is_transit":false,"station_name":"Karet","distance":471,"transit":false,"i_lat":-6.20132,"i_long":106.816351,"station_id":"KAT"},{"distance":2029,"time":5,"is_transit":false,"i_long":106.811091,"transit":false,"station_id":"THB","station_name":"Tanah Abang","i_lat":-6.185545,"line":1},{"line":1,"station_name":"Duri","is_transit":false,"distance":3632,"station_id":"DU","time":8,"i_long":106.800832,"transit":false,"i_lat":-6.155215},{"time":4,"station_id":"AK","transit":false,"i_lat":-6.144674,"i_long":106.79867,"distance":1230,"is_transit":false,"station_name":"Angke","line":1},{"time":9,"station_name":"Kampung Bandan","transit":true,"i_lat":-6.132549,"i_long":106.826365,"line":4,"distance":4102,"station_id":"KPB","is_transit":true},{"line":2,"i_long":106.812439,"station_id":"JAKK","is_transit":true,"station_name":"Jakarta Kota","time":3,"distance":1364,"transit":true,"i_lat":-6.137569},{"distance":1264,"time":4,"station_name":"Jayakarta","transit":false,"i_long":106.820901,"station_id":"JAY","i_lat":-6.141205,"is_transit":false,"line":2},{"i_lat":-6.149769,"distance":1080,"i_long":106.82482,"station_name":"Manggabesar","transit":false,"station_id":"MGB","is_transit":false,"line":2,"time":2},{"station_name":"Sawah Besar","i_lat":-6.160725,"transit":false,"line":2,"distance":906,"is_transit":false,"i_long":106.827103,"time":2,"station_id":"SW"},{"i_lat":-6.166716,"line":2,"station_name":"Juanda","transit":false,"i_long":106.828284,"is_transit":false,"station_id":"JUA","time":2,"distance":1149},{"station_id":"GDD","transit":false,"station_name":"Gondangdia","time":4,"is_transit":false,"i_lat":-6.186295,"line":2,"i_long":106.832183,"distance":2015},{"i_long":106.840169,"station_id":"CKI","is_transit":false,"transit":false,"line":2,"i_lat":-6.198556,"station_name":"Cikini","distance":1750,"time":3}]]}