{"data":[[{"line":11,"distance":0,"station_name":"Kramat","transit":false,"i_long":106.855437,"time":0,"station_id":"KMT","i_lat":-6.193792,"is_transit":false},{"i_long":106.861737,"transit":false,"distance":1829,"station_name":"Pondok Jati","station_id":"POK","i_lat":-6.209188,"time":2,"is_transit":false,"line":11},{"distance":1236,"transit":true,"time":9,"i_lat":-6.215091,"is_transit":true,"station_name":"Jatinegara","i_long":106.86807400000001,"line":1,"station_id":"JNG"},{"is_transit":false,"line":1,"station_id":"KLD","i_long":106.899548,"transit":false,"distance":3395,"time":3,"i_lat":-6.2135,"station_name":"Klender"},{"is_transit":false,"station_id":"BUA","transit":false,"i_long":106.922662,"time":2,"station_name":"Buaran","distance":3100,"line":1,"i_lat":-6.215568},{"is_transit":false,"i_lat":-6.217455,"line":1,"i_long":106.939679,"transit":false,"station_id":"KLDB","time":1,"distance":1305,"station_name":"Klenderbaru"},{"station_name":"Cakung","i_lat":-6.219053,"station_id":"CUK","i_long":106.951283,"transit":false,"time":8,"line":1,"is_transit":false,"distance":1385},{"station_id":"KRI","transit":false,"is_transit":false,"i_lat":-6.224515,"time":3,"distance":3097,"station_name":"Kranji","i_long":106.977657,"line":1},{"is_transit":false,"distance":2520,"station_id":"BKS","station_name":"Bekasi","i_lat":-6.236616,"i_long":106.997013,"time":4,"line":1,"transit":false},{"time":2,"station_name":"Bekasi Timur","is_transit":false,"distance":2368,"i_lat":-6.248029,"transit":false,"station_id":"BKST","i_long":107.016735,"line":1},{"transit":false,"time":7,"station_id":"TB","distance":4460,"i_lat":-6.258864,"i_long":107.055722,"is_transit":false,"station_name":"Tambun","line":1},{"line":1,"station_name":"Cibitung","station_id":"CIT","transit":false,"i_lat":-6.261877,"i_long":107.083084,"distance":3420,"is_transit":false,"time":3}],[{"time":0,"i_long":106.855437,"transit":false,"station_name":"Kramat","station_id":"KMT","is_transit":false,"line":11,"i_lat":-6.193792,"distance":0},{"i_lat":-6.185975,"station_id":"GST","line":11,"station_name":"Gang Sentiong","time":1,"distance":973,"transit":false,"is_transit":false,"i_long":106.850107},{"station_name":"Pasar Senen","distance":1567,"station_id":"PSE","i_lat":-6.174784,"time":8,"i_long":106.84368,"is_transit":false,"transit":false,"line":11},{"station_name":"Kemayoran","distance":1436,"i_lat":-6.161728,"is_transit":false,"station_id":"KMO","i_long":106.839204,"time":4,"transit":false,"line":11},{"i_lat":-6.14505,"i_long":106.836569,"transit":false,"line":11,"distance":1901,"station_id":"RJW","station_name":"Rajawali","is_transit":false,"time":5},{"distance":1444,"is_transit":true,"i_long":106.826365,"time":3,"station_id":"KPB","station_name":"Kampung Bandan","i_lat":-6.132549,"transit":true,"line":4},{"station_id":"AK","station_name":"Angke","time":9,"i_lat":-6.144674,"i_long":106.79867,"line":1,"transit":false,"is_transit":false,"distance":4102},{"is_transit":false,"transit":false,"distance":1230,"station_name":"Duri","station_id":"DU","i_long":106.800832,"line":1,"time":4,"i_lat":-6.155215},{"i_lat":-6.185545,"time":8,"i_long":106.811091,"station_id":"THB","transit":false,"line":1,"distance":3632,"station_name":"Tanah Abang","is_transit":false},{"transit":false,"distance":2029,"i_lat":-6.20132,"station_id":"KAT","station_name":"Karet","i_long":106.816351,"line":1,"is_transit":false,"time":5},{"line":1,"time":1,"distance":471,"transit":false,"i_long":106.819881,"station_id":"SUDB","station_name":"Sudirman Baru","is_transit":false,"i_lat":-6.201433},{"time":1,"line":1,"i_lat":-6.202263,"station_name":"Sudirman","station_id":"SUD","distance":280,"transit":false,"i_long":106.822649,"is_transit":false},{"line":2,"transit":false,"station_name":"Manggarai","is_transit":false,"i_long":106.84912,"station_id":"MRI","distance":3186,"i_lat":-6.209883,"time":4},{"station_name":"Matraman","is_transit":false,"i_long":106.858896,"transit":false,"line":1,"distance":1275,"time":2,"station_id":"MTR","i_lat":-6.212485},{"time":8,"station_name":"Jatinegara","is_transit":false,"i_lat":-6.215091,"distance":1377,"station_id":"JNG","transit":false,"line":1,"i_long":106.86807400000001},{"i_long":106.899548,"line":1,"i_lat":-6.2135,"transit":false,"station_id":"KLD","distance":3395,"is_transit":false,"station_name":"Klender","time":3},{"station_name":"Buaran","is_transit":false,"distance":3100,"transit":false,"station_id":"BUA","i_long":106.922662,"i_lat":-6.215568,"time":2,"line":1},{"distance":1305,"time":1,"station_id":"KLDB","i_long":106.939679,"station_name":"Klenderbaru","i_lat":-6.217455,"transit":false,"is_transit":false,"line":1},{"time":8,"station_id":"CUK","i_lat":-6.219053,"distance":1385,"line":1,"transit":false,"station_name":"Cakung","is_transit":false,"i_long":106.951283},{"i_lat":-6.224515,"station_id":"KRI","i_long":106.977657,"station_name":"Kranji","transit":false,"is_transit":false,"time":3,"distance":3097,"line":1},{"station_id":"BKS","i_long":106.997013,"time":4,"line":1,"distance":2520,"transit":false,"station_name":"Bekasi","is_transit":false,"i_lat":-6.236616},{"station_name":"Bekasi Timur","i_lat":-6.248029,"i_long":107.016735,"station_id":"BKST","transit":false,"is_transit":false,"distance":2368,"line":1,"time":2},{"transit":false,"line":1,"time":7,"station_name":"Tambun","is_transit":false,"i_lat":-6.258864,"station_id":"TB","distance":4460,"i_long":107.055722},{"i_long":107.083084,"time":3,"transit":false,"is_transit":false,"line":1,"i_lat":-6.261877,"distance":3420,"station_id":"CIT","station_name":"Cibitung"}],[{"i_lat":-6.193792,"station_id":"KMT","distance":0,"station_name":"Kramat","i_long":106.855437,"transit":false,"line":11,"is_transit":false,"time":0},{"station_name":"Gang Sentiong","station_id":"GST","distance":973,"i_long":106.850107,"is_transit":false,"line":11,"transit":false,"i_lat":-6.185975,"time":1},{"i_lat":-6.174784,"i_long":106.84368,"time":8,"station_id":"PSE","station_name":"Pasar Senen","distance":1567,"is_transit":false,"transit":false,"line":11},{"distance":1436,"i_long":106.839204,"line":11,"station_name":"Kemayoran","i_lat":-6.161728,"time":4,"station_id":"KMO","transit":false,"is_transit":false},{"line":11,"transit":false,"distance":1901,"i_lat":-6.14505,"station_id":"RJW","is_transit":false,"i_long":106.836569,"station_name":"Rajawali","time":5},{"station_name":"Kampung Bandan","i_long":106.826365,"line":4,"time":3,"station_id":"KPB","transit":true,"distance":1444,"is_transit":true,"i_lat":-6.132549},{"transit":true,"distance":1364,"station_id":"JAKK","is_transit":true,"i_lat":-6.137569,"station_name":"Jakarta Kota","time":3,"i_long":106.812439,"line":2},{"i_lat":-6.141205,"station_id":"JAY","time":4,"distance":1264,"transit":false,"is_transit":false,"i_long":106.820901,"line":2,"station_name":"Jayakarta"},{"station_id":"MGB","i_long":106.82482,"time":2,"is_transit":false,"line":2,"station_name":"Manggabesar","transit":false,"i_lat":-6.149769,"distance":1080},{"line":2,"i_lat":-6.160725,"distance":906,"transit":false,"i_long":106.827103,"time":2,"is_transit":false,"station_id":"SW","station_name":"Sawah Besar"},{"transit":false,"distance":1149,"is_transit":false,"time":2,"line":2,"station_name":"Juanda","i_lat":-6.166716,"i_long":106.828284,"station_id":"JUA"},{"time":4,"distance":2015,"transit":false,"i_lat":-6.186295,"station_id":"GDD","line":2,"i_long":106.832183,"station_name":"Gondangdia","is_transit":false},{"station_name":"Cikini","transit":false,"i_lat":-6.198556,"i_long":106.840169,"line":2,"distance":1750,"is_transit":false,"station_id":"CKI","time":3},{"station_id":"MRI","time":4,"i_long":106.84912,"is_transit":true,"transit":true,"line":2,"distance":1590,"station_name":"Manggarai","i_lat":-6.209883},{"line":1,"i_lat":-6.212485,"time":2,"i_long":106.858896,"transit":false,"station_name":"Matraman","distance":1275,"station_id":"MTR","is_transit":false},{"transit":false,"is_transit":false,"station_id":"JNG","i_lat":-6.215091,"i_long":106.86807400000001,"line":1,"distance":1377,"station_name":"Jatinegara","time":8},{"distance":3395,"line":1,"i_long":106.899548,"station_name":"Klender","i_lat":-6.2135,"transit":false,"station_id":"KLD","is_transit":false,"time":3},{"station_id":"BUA","distance":3100,"is_transit":false,"i_long":106.922662,"i_lat":-6.215568,"time":2,"line":1,"station_name":"Buaran","transit":false},{"transit":false,"line":1,"time":1,"is_transit":false,"i_long":106.939679,"distance":1305,"i_lat":-6.217455,"station_id":"KLDB","station_name":"Klenderbaru"},{"time":8,"transit":false,"station_id":"CUK","distance":1385,"i_lat":-6.219053,"is_transit":false,"line":1,"station_name":"Cakung","i_long":106.951283},{"distance":3097,"transit":false,"line":1,"i_long":106.977657,"time":3,"is_transit":false,"i_lat":-6.224515,"station_id":"KRI","station_name":"Kranji"},{"station_id":"BKS","is_transit":false,"i_lat":-6.236616,"distance":2520,"line":1,"i_long":106.997013,"time":4,"transit":false,"station_name":"Bekasi"},{"transit":false,"is_transit":false,"time":2,"station_name":"Bekasi Timur","i_lat":-6.248029,"line":1,"i_long":107.016735,"station_id":"BKST","distance":2368},{"is_transit":false,"transit":false,"i_lat":-6.258864,"i_long":107.055722,"time":7,"line":1,"station_id":"TB","distance":4460,"station_name":"Tambun"},{"i_lat":-6.261877,"i_long":107.083084,"transit":false,"station_name":"Cibitung","time":3,"station_id":"CIT","is_transit":false,"distance":3420,"line":1}]]}