{"data":[[{"distance":0,"i_long":106.855437,"is_transit":false,"line":11,"transit":false,"time":0,"i_lat":-6.193792,"station_name":"Kramat","station_id":"KMT"},{"time":2,"is_transit":false,"station_name":"Pondok Jati","transit":false,"i_long":106.861737,"station_id":"POK","distance":1829,"line":11,"i_lat":-6.209188},{"station_name":"Jatinegara","station_id":"JNG","line":0,"i_long":106.86807400000001,"distance":1236,"transit":true,"time":9,"is_transit":true,"i_lat":-6.215091},{"distance":1377,"station_name":"Matraman","time":2,"i_long":106.858896,"station_id":"MTR","i_lat":-6.212485,"is_transit":false,"line":1,"transit":false},{"distance":1275,"i_lat":-6.209883,"station_name":"Manggarai","line":0,"station_id":"MRI","transit":true,"time":2,"is_transit":true,"i_long":106.84912},{"i_lat":-6.198556,"transit":false,"distance":1590,"station_name":"Cikini","station_id":"CKI","i_long":106.840169,"is_transit":false,"line":0,"time":4}],[{"station_name":"Kramat","distance":0,"station_id":"KMT","is_transit":false,"i_lat":-6.193792,"line":11,"i_long":106.855437,"transit":false,"time":0},{"station_id":"GST","i_long":106.850107,"station_name":"Gang Sentiong","is_transit":false,"transit":false,"time":1,"line":11,"distance":973,"i_lat":-6.185975},{"transit":false,"distance":1567,"station_id":"PSE","i_long":106.84368,"time":8,"line":11,"station_name":"Pasar Senen","is_transit":false,"i_lat":-6.174784},{"transit":false,"line":11,"is_transit":false,"time":4,"station_name":"Kemayoran","distance":1436,"i_long":106.839204,"station_id":"KMO","i_lat":-6.161728},{"is_transit":false,"line":11,"station_name":"Rajawali","time":5,"i_lat":-6.14505,"station_id":"RJW","i_long":106.836569,"transit":false,"distance":1901},{"time":3,"distance":1444,"station_name":"Kampung Bandan","line":0,"i_long":106.826365,"is_transit":true,"transit":true,"i_lat":-6.132549,"station_id":"KPB"},{"i_lat":-6.137569,"station_id":"JAKK","i_long":106.812439,"transit":true,"line":0,"is_transit":true,"distance":1364,"time":3,"station_name":"Jakarta Kota"},{"is_transit":false,"station_id":"JAY","distance":1264,"line":7,"i_lat":-6.141205,"station_name":"Jayakarta","time":4,"i_long":106.820901,"transit":false},{"station_name":"Manggabesar","i_lat":-6.149769,"distance":1080,"line":2,"time":2,"transit":false,"station_id":"MGB","is_transit":false,"i_long":106.82482},{"time":2,"distance":906,"line":2,"i_lat":-6.160725,"station_name":"Sawah Besar","is_transit":false,"station_id":"SW","i_long":106.827103,"transit":false},{"distance":1149,"time":2,"i_long":106.828284,"i_lat":-6.166716,"line":2,"station_name":"Juanda","is_transit":false,"station_id":"JUA","transit":false},{"time":4,"is_transit":false,"distance":2015,"station_name":"Gondangdia","station_id":"GDD","i_lat":-6.186295,"transit":false,"i_long":106.832183,"line":2},{"station_name":"Cikini","i_lat":-6.198556,"distance":1750,"is_transit":false,"station_id":"CKI","transit":false,"i_long":106.840169,"line":0,"time":3}],[{"i_long":106.855437,"time":0,"station_name":"Kramat","is_transit":false,"station_id":"KMT","i_lat":-6.193792,"line":11,"transit":false,"distance":0},{"i_long":106.850107,"station_name":"Gang Sentiong","distance":973,"transit":false,"i_lat":-6.185975,"time":1,"is_transit":false,"station_id":"GST","line":11},{"distance":1567,"station_id":"PSE","line":11,"i_lat":-6.174784,"transit":false,"i_long":106.84368,"station_name":"Pasar Senen","is_transit":false,"time":8},{"station_id":"KMO","i_long":106.839204,"line":11,"station_name":"Kemayoran","i_lat":-6.161728,"transit":false,"is_transit":false,"distance":1436,"time":4},{"transit":false,"station_name":"Rajawali","distance":1901,"time":5,"is_transit":false,"i_long":106.836569,"station_id":"RJW","i_lat":-6.14505,"line":11},{"station_name":"Kampung Bandan","station_id":"KPB","transit":true,"distance":1444,"i_lat":-6.132549,"is_transit":true,"i_long":106.826365,"time":3,"line":0},{"transit":false,"is_transit":false,"distance":4102,"i_long":106.79867,"line":0,"i_lat":-6.144674,"time":9,"station_id":"AK","station_name":"Angke"},{"time":4,"i_lat":-6.155215,"is_transit":true,"i_long":106.800832,"line":1,"transit":true,"distance":1230,"station_name":"Duri","station_id":"DU"},{"i_long":106.811091,"is_transit":true,"time":8,"transit":false,"line":1,"distance":3632,"station_id":"THB","station_name":"Tanah Abang","i_lat":-6.185545},{"i_lat":-6.20132,"line":1,"station_name":"Karet","is_transit":false,"station_id":"KAT","i_long":106.816351,"transit":false,"distance":2029,"time":5},{"i_long":106.819881,"station_name":"Sudirman Baru","i_lat":-6.201433,"line":1,"is_transit":false,"time":1,"transit":false,"station_id":"SUDB","distance":471},{"time":1,"distance":280,"transit":false,"station_name":"Sudirman","station_id":"SUD","i_lat":-6.202263,"is_transit":false,"i_long":106.822649,"line":1},{"distance":3186,"station_id":"MRI","station_name":"Manggarai","is_transit":true,"i_long":106.84912,"time":4,"transit":true,"i_lat":-6.209883,"line":0},{"time":4,"station_name":"Cikini","transit":false,"distance":1590,"station_id":"CKI","line":0,"is_transit":false,"i_lat":-6.198556,"i_long":106.840169}],[{"station_id":"KMT","distance":0,"line":11,"station_name":"Kramat","i_lat":-6.193792,"i_long":106.855437,"transit":false,"is_transit":false,"time":0},{"station_name":"Pondok Jati","is_transit":false,"distance":1829,"line":11,"time":2,"i_lat":-6.209188,"transit":false,"i_long":106.861737,"station_id":"POK"},{"distance":1236,"line":0,"station_name":"Jatinegara","time":9,"station_id":"JNG","transit":true,"i_lat":-6.215091,"is_transit":true,"i_long":106.86807400000001},{"station_name":"Matraman","time":2,"station_id":"MTR","i_long":106.858896,"line":1,"transit":false,"is_transit":false,"i_lat":-6.212485,"distance":1377},{"station_id":"MRI","i_long":106.84912,"time":2,"transit":false,"is_transit":true,"station_name":"Manggarai","i_lat":-6.209883,"distance":1275,"line":0},{"station_name":"Sudirman","i_lat":-6.202263,"is_transit":false,"i_long":106.822649,"station_id":"SUD","line":1,"time":4,"transit":false,"distance":3186},{"station_name":"Sudirman Baru","transit":false,"is_transit":false,"i_lat":-6.201433,"distance":280,"time":1,"station_id":"SUDB","i_long":106.819881,"line":1},{"station_name":"Karet","distance":471,"i_lat":-6.20132,"time":1,"line":1,"is_transit":false,"station_id":"KAT","transit":false,"i_long":106.816351},{"i_long":106.811091,"is_transit":true,"time":5,"transit":false,"distance":2029,"station_name":"Tanah Abang","station_id":"THB","i_lat":-6.185545,"line":1},{"time":8,"transit":true,"station_id":"DU","i_lat":-6.155215,"is_transit":true,"station_name":"Duri","i_long":106.800832,"line":1,"distance":3632},{"transit":false,"line":0,"station_name":"Angke","station_id":"AK","i_lat":-6.144674,"i_long":106.79867,"time":4,"is_transit":false,"distance":1230},{"station_name":"Kampung Bandan","time":9,"i_long":106.826365,"distance":4102,"transit":false,"is_transit":true,"i_lat":-6.132549,"line":0,"station_id":"KPB"},{"station_name":"Jakarta Kota","i_long":106.812439,"line":0,"transit":true,"distance":1364,"station_id":"JAKK","time":3,"is_transit":true,"i_lat":-6.137569},{"i_long":106.820901,"transit":false,"time":4,"is_transit":false,"distance":1264,"station_name":"Jayakarta","station_id":"JAY","i_lat":-6.141205,"line":7},{"station_id":"MGB","time":2,"i_long":106.82482,"is_transit":false,"distance":1080,"i_lat":-6.149769,"transit":false,"line":2,"station_name":"Manggabesar"},{"transit":false,"i_long":106.827103,"station_name":"Sawah Besar","distance":906,"is_transit":false,"station_id":"SW","i_lat":-6.160725,"time":2,"line":2},{"distance":1149,"transit":false,"station_id":"JUA","station_name":"Juanda","is_transit":false,"i_lat":-6.166716,"time":2,"line":2,"i_long":106.828284},{"is_transit":false,"station_name":"Gondangdia","i_long":106.832183,"time":4,"station_id":"GDD","distance":2015,"transit":false,"i_lat":-6.186295,"line":2},{"transit":false,"station_name":"Cikini","i_long":106.840169,"line":0,"is_transit":false,"i_lat":-6.198556,"station_id":"CKI","time":3,"distance":1750}]]}