{"data":[[{"station_id":"KMT","station_name":"Kramat","transit":false,"i_long":106.855437,"i_lat":-6.193792,"distance":0,"is_transit":false,"line":11,"time":0},{"station_name":"Pondok Jati","line":11,"is_transit":false,"station_id":"POK","distance":1829,"i_lat":-6.209188,"time":2,"i_long":106.861737,"transit":false},{"time":9,"station_id":"JNG","distance":1236,"is_transit":true,"transit":true,"i_lat":-6.215091,"station_name":"Jatinegara","i_long":106.86807400000001,"line":1},{"station_name":"Klender","i_long":106.899548,"station_id":"KLD","distance":3395,"line":1,"time":3,"is_transit":false,"transit":false,"i_lat":-6.2135},{"i_lat":-6.215568,"time":2,"distance":3100,"station_name":"Buaran","station_id":"BUA","is_transit":false,"i_long":106.922662,"transit":false,"line":1},{"distance":1305,"station_name":"Klenderbaru","is_transit":false,"i_long":106.939679,"time":1,"i_lat":-6.217455,"transit":false,"line":1,"station_id":"KLDB"},{"i_long":106.951283,"transit":false,"line":1,"distance":1385,"time":8,"station_name":"Cakung","i_lat":-6.219053,"station_id":"CUK","is_transit":false},{"time":3,"station_id":"KRI","transit":false,"is_transit":false,"line":1,"station_name":"Kranji","i_lat":-6.224515,"distance":3097,"i_long":106.977657},{"transit":false,"station_id":"BKS","time":4,"distance":2520,"station_name":"Bekasi","i_lat":-6.236616,"line":1,"i_long":106.997013,"is_transit":false},{"time":2,"is_transit":false,"i_lat":-6.248029,"station_id":"BKST","distance":2368,"station_name":"Bekasi Timur","transit":false,"i_long":107.016735,"line":1},{"distance":4460,"line":1,"station_id":"TB","station_name":"Tambun","i_long":107.055722,"i_lat":-6.258864,"time":7,"is_transit":false,"transit":false},{"time":3,"distance":3420,"station_id":"CIT","station_name":"Cibitung","transit":false,"i_lat":-6.261877,"is_transit":false,"i_long":107.083084,"line":1},{"line":1,"time":2,"station_id":"TLM","is_transit":false,"i_lat":-6.262938,"station_name":"Metland Telaga Murni","i_long":107.093313,"transit":false,"distance":2800}],[{"i_long":106.855437,"time":0,"line":11,"station_name":"Kramat","is_transit":false,"transit":false,"distance":0,"station_id":"KMT","i_lat":-6.193792},{"distance":973,"is_transit":false,"i_long":106.850107,"transit":false,"line":11,"i_lat":-6.185975,"station_name":"Gang Sentiong","time":1,"station_id":"GST"},{"distance":1567,"station_name":"Pasar Senen","transit":false,"i_long":106.84368,"i_lat":-6.174784,"is_transit":false,"time":8,"line":11,"station_id":"PSE"},{"i_lat":-6.161728,"is_transit":false,"station_name":"Kemayoran","distance":1436,"i_long":106.839204,"time":4,"line":11,"station_id":"KMO","transit":false},{"distance":1901,"station_id":"RJW","station_name":"Rajawali","time":5,"is_transit":false,"transit":false,"i_lat":-6.14505,"i_long":106.836569,"line":11},{"line":4,"i_long":106.826365,"time":3,"station_id":"KPB","is_transit":true,"distance":1444,"transit":true,"station_name":"Kampung Bandan","i_lat":-6.132549},{"station_name":"Angke","is_transit":false,"transit":false,"i_long":106.79867,"time":9,"station_id":"AK","line":1,"i_lat":-6.144674,"distance":4102},{"time":4,"line":1,"is_transit":false,"transit":false,"i_lat":-6.155215,"distance":1230,"station_id":"DU","i_long":106.800832,"station_name":"Duri"},{"line":1,"i_lat":-6.185545,"time":8,"transit":false,"i_long":106.811091,"station_id":"THB","station_name":"Tanah Abang","distance":3632,"is_transit":false},{"station_name":"Karet","i_lat":-6.20132,"station_id":"KAT","distance":2029,"line":1,"transit":false,"i_long":106.816351,"is_transit":false,"time":5},{"distance":471,"transit":false,"time":1,"station_name":"Sudirman Baru","is_transit":false,"line":1,"station_id":"SUDB","i_long":106.819881,"i_lat":-6.201433},{"time":1,"station_id":"SUD","i_lat":-6.202263,"i_long":106.822649,"transit":false,"distance":280,"line":1,"station_name":"Sudirman","is_transit":false},{"station_id":"MRI","station_name":"Manggarai","time":4,"transit":false,"i_long":106.84912,"i_lat":-6.209883,"line":2,"distance":3186,"is_transit":false},{"is_transit":false,"transit":false,"i_lat":-6.212485,"i_long":106.858896,"time":2,"line":1,"station_name":"Matraman","distance":1275,"station_id":"MTR"},{"distance":1377,"transit":false,"station_id":"JNG","station_name":"Jatinegara","is_transit":false,"line":1,"i_long":106.86807400000001,"time":8,"i_lat":-6.215091},{"transit":false,"i_lat":-6.2135,"station_id":"KLD","station_name":"Klender","is_transit":false,"line":1,"i_long":106.899548,"time":3,"distance":3395},{"line":1,"i_long":106.922662,"transit":false,"distance":3100,"is_transit":false,"time":2,"station_id":"BUA","station_name":"Buaran","i_lat":-6.215568},{"is_transit":false,"line":1,"station_name":"Klenderbaru","transit":false,"i_lat":-6.217455,"station_id":"KLDB","distance":1305,"i_long":106.939679,"time":1},{"i_lat":-6.219053,"transit":false,"is_transit":false,"station_id":"CUK","time":8,"station_name":"Cakung","distance":1385,"i_long":106.951283,"line":1},{"station_id":"KRI","i_long":106.977657,"station_name":"Kranji","transit":false,"line":1,"i_lat":-6.224515,"distance":3097,"time":3,"is_transit":false},{"is_transit":false,"station_name":"Bekasi","i_lat":-6.236616,"i_long":106.997013,"line":1,"time":4,"transit":false,"station_id":"BKS","distance":2520},{"line":1,"is_transit":false,"i_long":107.016735,"station_id":"BKST","time":2,"transit":false,"distance":2368,"station_name":"Bekasi Timur","i_lat":-6.248029},{"is_transit":false,"i_long":107.055722,"time":7,"distance":4460,"transit":false,"station_id":"TB","line":1,"i_lat":-6.258864,"station_name":"Tambun"},{"station_name":"Cibitung","transit":false,"station_id":"CIT","i_lat":-6.261877,"i_long":107.083084,"line":1,"is_transit":false,"distance":3420,"time":3},{"i_long":107.093313,"transit":false,"line":1,"station_id":"TLM","distance":2800,"i_lat":-6.262938,"time":2,"is_transit":false,"station_name":"Metland Telaga Murni"}],[{"is_transit":false,"station_name":"Kramat","transit":false,"time":0,"line":11,"distance":0,"station_id":"KMT","i_lat":-6.193792,"i_long":106.855437},{"station_id":"GST","time":1,"i_lat":-6.185975,"i_long":106.850107,"distance":973,"station_name":"Gang Sentiong","transit":false,"line":11,"is_transit":false},{"line":11,"transit":false,"station_id":"PSE","i_lat":-6.174784,"is_transit":false,"distance":1567,"station_name":"Pasar Senen","time":8,"i_long":106.84368},{"station_name":"Kemayoran","i_lat":-6.161728,"distance":1436,"i_long":106.839204,"transit":false,"station_id":"KMO","time":4,"is_transit":false,"line":11},{"line":11,"distance":1901,"station_id":"RJW","transit":false,"time":5,"i_lat":-6.14505,"i_long":106.836569,"is_transit":false,"station_name":"Rajawali"},{"transit":true,"i_lat":-6.132549,"line":4,"station_id":"KPB","is_transit":true,"distance":1444,"station_name":"Kampung Bandan","i_long":106.826365,"time":3},{"station_name":"Jakarta Kota","time":3,"station_id":"JAKK","i_lat":-6.137569,"distance":1364,"is_transit":true,"i_long":106.812439,"line":2,"transit":true},{"i_lat":-6.141205,"transit":false,"line":2,"time":4,"is_transit":false,"i_long":106.820901,"distance":1264,"station_id":"JAY","station_name":"Jayakarta"},{"distance":1080,"station_name":"Manggabesar","i_long":106.82482,"time":2,"is_transit":false,"transit":false,"i_lat":-6.149769,"line":2,"station_id":"MGB"},{"transit":false,"line":2,"time":2,"distance":906,"station_name":"Sawah Besar","station_id":"SW","is_transit":false,"i_lat":-6.160725,"i_long":106.827103},{"distance":1149,"is_transit":false,"station_id":"JUA","i_lat":-6.166716,"time":2,"line":2,"station_name":"Juanda","transit":false,"i_long":106.828284},{"station_name":"Gondangdia","line":2,"time":4,"is_transit":false,"station_id":"GDD","i_lat":-6.186295,"distance":2015,"transit":false,"i_long":106.832183},{"station_id":"CKI","transit":false,"distance":1750,"station_name":"Cikini","i_lat":-6.198556,"is_transit":false,"i_long":106.840169,"line":2,"time":3},{"is_transit":true,"time":4,"i_lat":-6.209883,"distance":1590,"station_name":"Manggarai","station_id":"MRI","i_long":106.84912,"line":2,"transit":true},{"station_id":"MTR","station_name":"Matraman","distance":1275,"i_lat":-6.212485,"time":2,"is_transit":false,"i_long":106.858896,"line":1,"transit":false},{"line":1,"i_long":106.86807400000001,"transit":false,"station_name":"Jatinegara","station_id":"JNG","i_lat":-6.215091,"time":8,"distance":1377,"is_transit":false},{"distance":3395,"transit":false,"is_transit":false,"i_long":106.899548,"station_id":"KLD","line":1,"i_lat":-6.2135,"station_name":"Klender","time":3},{"distance":3100,"station_name":"Buaran","is_transit":false,"line":1,"transit":false,"station_id":"BUA","time":2,"i_lat":-6.215568,"i_long":106.922662},{"station_name":"Klenderbaru","transit":false,"time":1,"station_id":"KLDB","is_transit":false,"distance":1305,"i_long":106.939679,"line":1,"i_lat":-6.217455},{"is_transit":false,"line":1,"transit":false,"distance":1385,"station_id":"CUK","time":8,"i_long":106.951283,"i_lat":-6.219053,"station_name":"Cakung"},{"is_transit":false,"i_lat":-6.224515,"i_long":106.977657,"station_name":"Kranji","station_id":"KRI","distance":3097,"line":1,"transit":false,"time":3},{"is_transit":false,"i_lat":-6.236616,"line":1,"station_name":"Bekasi","i_long":106.997013,"distance":2520,"transit":false,"station_id":"BKS","time":4},{"line":1,"station_id":"BKST","i_long":107.016735,"time":2,"station_name":"Bekasi Timur","distance":2368,"is_transit":false,"i_lat":-6.248029,"transit":false},{"i_long":107.055722,"transit":false,"station_name":"Tambun","i_lat":-6.258864,"is_transit":false,"station_id":"TB","distance":4460,"time":7,"line":1},{"station_name":"Cibitung","time":3,"is_transit":false,"station_id":"CIT","transit":false,"i_long":107.083084,"distance":3420,"i_lat":-6.261877,"line":1},{"line":1,"i_lat":-6.262938,"distance":2800,"time":2,"station_name":"Metland Telaga Murni","transit":false,"station_id":"TLM","is_transit":false,"i_long":107.093313}]]}