{"data":[[{"station_id":"KMT","is_transit":false,"distance":0,"station_name":"Kramat","line":11,"transit":false,"i_lat":-6.193792,"i_long":106.855437,"time":0},{"time":2,"i_lat":-6.209188,"line":11,"i_long":106.861737,"transit":false,"station_id":"POK","distance":1829,"station_name":"Pondok Jati","is_transit":false},{"station_name":"Jatinegara","is_transit":true,"distance":1236,"i_lat":-6.215091,"station_id":"JNG","i_long":106.86807400000001,"line":1,"transit":true,"time":9},{"time":2,"transit":false,"line":1,"station_name":"Matraman","station_id":"MTR","is_transit":false,"i_lat":-6.212485,"distance":1377,"i_long":106.858896},{"station_id":"MRI","time":2,"is_transit":true,"i_lat":-6.209883,"line":2,"distance":1275,"transit":true,"station_name":"Manggarai","i_long":106.84912},{"station_name":"Cikini","station_id":"CKI","line":2,"transit":false,"distance":1590,"time":4,"i_long":106.840169,"is_transit":false,"i_lat":-6.198556}],[{"station_name":"Kramat","station_id":"KMT","line":11,"i_lat":-6.193792,"time":0,"transit":false,"is_transit":false,"i_long":106.855437,"distance":0},{"station_name":"Gang Sentiong","i_long":106.850107,"line":11,"distance":973,"i_lat":-6.185975,"transit":false,"is_transit":false,"station_id":"GST","time":1},{"time":8,"i_lat":-6.174784,"transit":false,"station_id":"PSE","station_name":"Pasar Senen","is_transit":false,"distance":1567,"i_long":106.84368,"line":11},{"station_name":"Kemayoran","is_transit":false,"station_id":"KMO","time":4,"transit":false,"distance":1436,"i_lat":-6.161728,"i_long":106.839204,"line":11},{"is_transit":false,"station_name":"Rajawali","i_lat":-6.14505,"station_id":"RJW","time":5,"i_long":106.836569,"transit":false,"distance":1901,"line":11},{"station_id":"KPB","time":3,"i_lat":-6.132549,"line":4,"is_transit":true,"i_long":106.826365,"transit":true,"distance":1444,"station_name":"Kampung Bandan"},{"time":3,"i_long":106.812439,"station_name":"Jakarta Kota","transit":true,"is_transit":true,"station_id":"JAKK","i_lat":-6.137569,"line":2,"distance":1364},{"distance":1264,"station_name":"Jayakarta","station_id":"JAY","time":4,"line":2,"i_lat":-6.141205,"is_transit":false,"transit":false,"i_long":106.820901},{"i_lat":-6.149769,"transit":false,"time":2,"station_id":"MGB","station_name":"Manggabesar","is_transit":false,"distance":1080,"i_long":106.82482,"line":2},{"i_long":106.827103,"is_transit":false,"distance":906,"line":2,"i_lat":-6.160725,"transit":false,"station_name":"Sawah Besar","station_id":"SW","time":2},{"transit":false,"is_transit":false,"distance":1149,"line":2,"i_lat":-6.166716,"station_id":"JUA","station_name":"Juanda","time":2,"i_long":106.828284},{"time":4,"i_lat":-6.186295,"is_transit":false,"line":2,"transit":false,"station_id":"GDD","distance":2015,"station_name":"Gondangdia","i_long":106.832183},{"i_lat":-6.198556,"distance":1750,"is_transit":false,"station_name":"Cikini","time":3,"transit":false,"line":2,"station_id":"CKI","i_long":106.840169}],[{"transit":false,"time":0,"i_lat":-6.193792,"line":11,"is_transit":false,"i_long":106.855437,"station_name":"Kramat","station_id":"KMT","distance":0},{"station_name":"Gang Sentiong","is_transit":false,"station_id":"GST","i_lat":-6.185975,"time":1,"line":11,"transit":false,"i_long":106.850107,"distance":973},{"distance":1567,"transit":false,"station_name":"Pasar Senen","is_transit":false,"station_id":"PSE","i_lat":-6.174784,"line":11,"time":8,"i_long":106.84368},{"station_name":"Kemayoran","is_transit":false,"station_id":"KMO","time":4,"transit":false,"i_long":106.839204,"line":11,"distance":1436,"i_lat":-6.161728},{"station_name":"Rajawali","i_lat":-6.14505,"is_transit":false,"time":5,"transit":false,"station_id":"RJW","i_long":106.836569,"line":11,"distance":1901},{"station_id":"KPB","is_transit":true,"line":4,"i_long":106.826365,"time":3,"transit":true,"station_name":"Kampung Bandan","i_lat":-6.132549,"distance":1444},{"time":9,"i_long":106.79867,"station_name":"Angke","distance":4102,"station_id":"AK","line":1,"transit":false,"i_lat":-6.144674,"is_transit":false},{"transit":false,"i_long":106.800832,"i_lat":-6.155215,"time":4,"station_name":"Duri","station_id":"DU","line":1,"is_transit":false,"distance":1230},{"distance":3632,"transit":false,"station_id":"THB","station_name":"Tanah Abang","i_long":106.811091,"is_transit":false,"i_lat":-6.185545,"line":1,"time":8},{"line":1,"is_transit":false,"i_lat":-6.20132,"distance":2029,"transit":false,"station_name":"Karet","time":5,"i_long":106.816351,"station_id":"KAT"},{"line":1,"distance":471,"is_transit":false,"i_long":106.819881,"station_id":"SUDB","time":1,"station_name":"Sudirman Baru","transit":false,"i_lat":-6.201433},{"line":1,"transit":false,"i_long":106.822649,"is_transit":false,"station_id":"SUD","station_name":"Sudirman","distance":280,"time":1,"i_lat":-6.202263},{"time":4,"transit":true,"i_long":106.84912,"line":2,"station_name":"Manggarai","distance":3186,"is_transit":true,"i_lat":-6.209883,"station_id":"MRI"},{"distance":1590,"time":4,"is_transit":false,"i_long":106.840169,"station_name":"Cikini","i_lat":-6.198556,"transit":false,"station_id":"CKI","line":2}],[{"line":11,"time":0,"station_id":"KMT","distance":0,"station_name":"Kramat","i_lat":-6.193792,"i_long":106.855437,"is_transit":false,"transit":false},{"time":2,"station_name":"Pondok Jati","is_transit":false,"transit":false,"line":11,"distance":1829,"station_id":"POK","i_lat":-6.209188,"i_long":106.861737},{"i_lat":-6.215091,"transit":true,"distance":1236,"i_long":106.86807400000001,"station_id":"JNG","line":1,"station_name":"Jatinegara","is_transit":true,"time":9},{"i_lat":-6.212485,"line":1,"is_transit":false,"time":2,"station_id":"MTR","station_name":"Matraman","distance":1377,"transit":false,"i_long":106.858896},{"time":2,"i_lat":-6.209883,"station_id":"MRI","line":2,"transit":false,"station_name":"Manggarai","is_transit":false,"distance":1275,"i_long":106.84912},{"transit":false,"time":4,"i_long":106.822649,"distance":3186,"station_name":"Sudirman","is_transit":false,"i_lat":-6.202263,"station_id":"SUD","line":1},{"distance":280,"station_name":"Sudirman Baru","is_transit":false,"time":1,"station_id":"SUDB","i_long":106.819881,"i_lat":-6.201433,"transit":false,"line":1},{"line":1,"is_transit":false,"transit":false,"i_long":106.816351,"station_id":"KAT","distance":471,"station_name":"Karet","i_lat":-6.20132,"time":1},{"is_transit":false,"time":5,"i_lat":-6.185545,"transit":false,"station_id":"THB","i_long":106.811091,"line":1,"station_name":"Tanah Abang","distance":2029},{"distance":3632,"i_long":106.800832,"station_id":"DU","is_transit":false,"i_lat":-6.155215,"time":8,"station_name":"Duri","transit":false,"line":1},{"is_transit":false,"time":4,"station_id":"AK","i_lat":-6.144674,"line":1,"distance":1230,"transit":false,"i_long":106.79867,"station_name":"Angke"},{"line":4,"time":9,"distance":4102,"i_long":106.826365,"transit":true,"is_transit":true,"station_id":"KPB","i_lat":-6.132549,"station_name":"Kampung Bandan"},{"i_lat":-6.137569,"line":2,"station_name":"Jakarta Kota","station_id":"JAKK","i_long":106.812439,"distance":1364,"transit":true,"time":3,"is_transit":true},{"transit":false,"distance":1264,"station_name":"Jayakarta","line":2,"station_id":"JAY","time":4,"i_lat":-6.141205,"is_transit":false,"i_long":106.820901},{"distance":1080,"time":2,"line":2,"i_long":106.82482,"station_id":"MGB","is_transit":false,"i_lat":-6.149769,"station_name":"Manggabesar","transit":false},{"distance":906,"transit":false,"is_transit":false,"station_id":"SW","i_lat":-6.160725,"i_long":106.827103,"time":2,"line":2,"station_name":"Sawah Besar"},{"line":2,"i_long":106.828284,"distance":1149,"is_transit":false,"station_id":"JUA","station_name":"Juanda","i_lat":-6.166716,"transit":false,"time":2},{"station_name":"Gondangdia","station_id":"GDD","line":2,"distance":2015,"is_transit":false,"i_long":106.832183,"time":4,"transit":false,"i_lat":-6.186295},{"line":2,"distance":1750,"is_transit":false,"time":3,"station_name":"Cikini","station_id":"CKI","transit":false,"i_lat":-6.198556,"i_long":106.840169}]]}