{"data":[[{"distance":0,"i_lat":-6.193792,"station_name":"Kramat","line":11,"is_transit":false,"time":0,"station_id":"KMT","i_long":106.855437,"transit":false},{"station_name":"Pondok Jati","is_transit":false,"station_id":"POK","i_long":106.861737,"line":11,"time":2,"distance":1829,"i_lat":-6.209188,"transit":false},{"station_id":"JNG","is_transit":true,"station_name":"Jatinegara","transit":true,"time":9,"distance":1236,"i_lat":-6.215091,"i_long":106.86807400000001,"line":1},{"station_id":"MTR","time":2,"line":1,"station_name":"Matraman","transit":false,"is_transit":false,"i_long":106.858896,"i_lat":-6.212485,"distance":1377},{"station_name":"Manggarai","i_long":106.84912,"distance":1275,"station_id":"MRI","is_transit":true,"time":2,"i_lat":-6.209883,"line":2,"transit":true},{"station_id":"TEB","station_name":"Tebet","distance":2610,"line":2,"is_transit":false,"transit":false,"i_lat":-6.226659,"i_long":106.857948,"time":4},{"i_lat":-6.242512,"station_id":"CW","is_transit":false,"distance":1230,"time":2,"i_long":106.856607,"transit":false,"station_name":"Cawang","line":2},{"station_id":"DRN","i_lat":-6.255332,"distance":1546,"line":2,"is_transit":false,"time":3,"transit":false,"i_long":106.85449,"station_name":"Duren Kalibata"},{"time":2,"line":2,"distance":824,"i_lat":-6.263214,"is_transit":false,"transit":false,"i_long":106.851577,"station_name":"Pasar Minggu Baru","station_id":"PSMB"},{"is_transit":false,"transit":false,"i_lat":-6.2842400000000005,"time":2,"i_long":106.843999,"distance":2380,"station_name":"Pasar Minggu","line":2,"station_id":"PSM"},{"is_transit":false,"time":4,"distance":2820,"station_name":"Tanjung Barat","i_long":106.838896,"line":2,"station_id":"TNT","i_lat":-6.3080680000000005,"transit":false}],[{"station_name":"Kramat","is_transit":false,"i_lat":-6.193792,"i_long":106.855437,"line":11,"time":0,"station_id":"KMT","distance":0,"transit":false},{"transit":false,"station_name":"Gang Sentiong","i_lat":-6.185975,"i_long":106.850107,"is_transit":false,"station_id":"GST","distance":973,"line":11,"time":1},{"distance":1567,"i_long":106.84368,"station_id":"PSE","station_name":"Pasar Senen","line":11,"is_transit":false,"i_lat":-6.174784,"transit":false,"time":8},{"is_transit":false,"station_name":"Kemayoran","distance":1436,"i_long":106.839204,"time":4,"line":11,"i_lat":-6.161728,"station_id":"KMO","transit":false},{"line":11,"transit":false,"time":5,"i_long":106.836569,"is_transit":false,"station_name":"Rajawali","i_lat":-6.14505,"distance":1901,"station_id":"RJW"},{"time":3,"distance":1444,"line":4,"transit":true,"i_long":106.826365,"station_id":"KPB","is_transit":true,"station_name":"Kampung Bandan","i_lat":-6.132549},{"line":1,"transit":false,"time":9,"station_name":"Angke","is_transit":false,"distance":4102,"i_long":106.79867,"station_id":"AK","i_lat":-6.144674},{"i_lat":-6.155215,"i_long":106.800832,"transit":false,"is_transit":false,"line":1,"distance":1230,"station_id":"DU","time":4,"station_name":"Duri"},{"i_lat":-6.185545,"distance":3632,"time":8,"i_long":106.811091,"transit":false,"station_id":"THB","line":1,"station_name":"Tanah Abang","is_transit":false},{"transit":false,"is_transit":false,"time":5,"station_id":"KAT","distance":2029,"i_lat":-6.20132,"station_name":"Karet","i_long":106.816351,"line":1},{"line":1,"station_id":"SUDB","distance":471,"i_lat":-6.201433,"is_transit":false,"i_long":106.819881,"station_name":"Sudirman Baru","time":1,"transit":false},{"transit":false,"is_transit":false,"distance":280,"station_name":"Sudirman","line":1,"i_lat":-6.202263,"station_id":"SUD","time":1,"i_long":106.822649},{"station_id":"MRI","station_name":"Manggarai","distance":3186,"line":2,"is_transit":true,"transit":true,"i_lat":-6.209883,"time":4,"i_long":106.84912},{"distance":2610,"i_long":106.857948,"time":4,"station_id":"TEB","line":2,"station_name":"Tebet","is_transit":false,"i_lat":-6.226659,"transit":false},{"is_transit":false,"i_lat":-6.242512,"i_long":106.856607,"station_name":"Cawang","line":2,"distance":1230,"station_id":"CW","time":2,"transit":false},{"time":3,"transit":false,"distance":1546,"i_lat":-6.255332,"i_long":106.85449,"station_id":"DRN","line":2,"station_name":"Duren Kalibata","is_transit":false},{"transit":false,"i_long":106.851577,"station_name":"Pasar Minggu Baru","distance":824,"line":2,"i_lat":-6.263214,"station_id":"PSMB","is_transit":false,"time":2},{"i_long":106.843999,"time":2,"distance":2380,"station_name":"Pasar Minggu","transit":false,"is_transit":false,"line":2,"station_id":"PSM","i_lat":-6.2842400000000005},{"i_long":106.838896,"transit":false,"is_transit":false,"time":4,"distance":2820,"line":2,"station_name":"Tanjung Barat","station_id":"TNT","i_lat":-6.3080680000000005}],[{"time":0,"distance":0,"line":11,"station_id":"KMT","station_name":"Kramat","is_transit":false,"i_lat":-6.193792,"i_long":106.855437,"transit":false},{"is_transit":false,"time":1,"station_name":"Gang Sentiong","station_id":"GST","i_lat":-6.185975,"i_long":106.850107,"transit":false,"distance":973,"line":11},{"is_transit":false,"line":11,"time":8,"station_id":"PSE","i_lat":-6.174784,"distance":1567,"station_name":"Pasar Senen","transit":false,"i_long":106.84368},{"station_id":"KMO","i_lat":-6.161728,"is_transit":false,"time":4,"station_name":"Kemayoran","i_long":106.839204,"line":11,"transit":false,"distance":1436},{"station_name":"Rajawali","time":5,"station_id":"RJW","distance":1901,"transit":false,"is_transit":false,"i_lat":-6.14505,"i_long":106.836569,"line":11},{"line":4,"station_id":"KPB","distance":1444,"station_name":"Kampung Bandan","is_transit":true,"transit":true,"i_long":106.826365,"i_lat":-6.132549,"time":3},{"i_long":106.812439,"station_name":"Jakarta Kota","distance":1364,"line":2,"time":3,"station_id":"JAKK","transit":true,"is_transit":true,"i_lat":-6.137569},{"i_lat":-6.141205,"station_name":"Jayakarta","transit":false,"is_transit":false,"line":2,"station_id":"JAY","i_long":106.820901,"time":4,"distance":1264},{"time":2,"distance":1080,"transit":false,"i_long":106.82482,"station_id":"MGB","line":2,"station_name":"Manggabesar","is_transit":false,"i_lat":-6.149769},{"line":2,"station_name":"Sawah Besar","transit":false,"station_id":"SW","is_transit":false,"i_lat":-6.160725,"i_long":106.827103,"time":2,"distance":906},{"station_name":"Juanda","transit":false,"time":2,"is_transit":false,"i_long":106.828284,"line":2,"station_id":"JUA","distance":1149,"i_lat":-6.166716},{"line":2,"distance":2015,"i_lat":-6.186295,"station_name":"Gondangdia","transit":false,"time":4,"station_id":"GDD","is_transit":false,"i_long":106.832183},{"transit":false,"is_transit":false,"station_id":"CKI","i_long":106.840169,"time":3,"line":2,"station_name":"Cikini","i_lat":-6.198556,"distance":1750},{"i_long":106.84912,"station_name":"Manggarai","transit":false,"i_lat":-6.209883,"line":2,"time":4,"station_id":"MRI","is_transit":false,"distance":1590},{"is_transit":false,"station_name":"Tebet","station_id":"TEB","time":4,"transit":false,"i_long":106.857948,"line":2,"distance":2610,"i_lat":-6.226659},{"time":2,"transit":false,"station_name":"Cawang","line":2,"station_id":"CW","is_transit":false,"distance":1230,"i_lat":-6.242512,"i_long":106.856607},{"station_id":"DRN","time":3,"distance":1546,"transit":false,"is_transit":false,"i_lat":-6.255332,"i_long":106.85449,"line":2,"station_name":"Duren Kalibata"},{"i_long":106.851577,"time":2,"i_lat":-6.263214,"distance":824,"station_name":"Pasar Minggu Baru","line":2,"station_id":"PSMB","transit":false,"is_transit":false},{"distance":2380,"time":2,"i_long":106.843999,"station_name":"Pasar Minggu","line":2,"station_id":"PSM","transit":false,"is_transit":false,"i_lat":-6.2842400000000005},{"line":2,"station_name":"Tanjung Barat","distance":2820,"time":4,"is_transit":false,"i_lat":-6.3080680000000005,"i_long":106.838896,"station_id":"TNT","transit":false}]]}