{"data":[[{"i_long":106.855437,"transit":false,"time":0,"station_id":"KMT","distance":0,"is_transit":false,"i_lat":-6.193792,"line":11,"station_name":"Kramat"},{"transit":false,"i_long":106.861737,"station_id":"POK","is_transit":false,"i_lat":-6.209188,"distance":1829,"station_name":"Pondok Jati","time":2,"line":11},{"distance":1236,"station_name":"Jatinegara","i_lat":-6.215091,"transit":true,"line":1,"is_transit":true,"time":9,"i_long":106.86807400000001,"station_id":"JNG"},{"distance":1377,"line":1,"station_id":"MTR","i_long":106.858896,"is_transit":false,"transit":false,"time":2,"station_name":"Matraman","i_lat":-6.212485},{"i_lat":-6.209883,"line":2,"is_transit":false,"transit":false,"station_id":"MRI","time":2,"i_long":106.84912,"station_name":"Manggarai","distance":1275},{"transit":false,"station_id":"SUD","is_transit":false,"distance":3186,"station_name":"Sudirman","i_lat":-6.202263,"i_long":106.822649,"line":1,"time":4},{"station_name":"Sudirman Baru","i_long":106.819881,"station_id":"SUDB","is_transit":false,"line":1,"i_lat":-6.201433,"transit":false,"time":1,"distance":280},{"distance":471,"station_id":"KAT","i_long":106.816351,"station_name":"Karet","i_lat":-6.20132,"line":1,"is_transit":false,"transit":false,"time":1},{"i_lat":-6.185545,"distance":2029,"time":5,"i_long":106.811091,"is_transit":true,"transit":true,"station_name":"Tanah Abang","line":1,"station_id":"THB"},{"i_lat":-6.207404,"station_id":"PLM","is_transit":false,"station_name":"Palmerah","distance":3191,"transit":false,"time":6,"i_long":106.79689,"line":6},{"station_name":"Kebayoran","distance":3737,"i_long":106.780334,"line":6,"is_transit":false,"station_id":"KBY","time":7,"transit":false,"i_lat":-6.237242},{"i_lat":-6.276362,"line":6,"distance":6218,"station_name":"Pondokranji","is_transit":false,"transit":false,"i_long":106.74273,"time":8,"station_id":"PDJ"},{"distance":2179,"i_lat":-6.288927,"station_name":"Jurangmangu","station_id":"JMU","i_long":106.728916,"time":3,"transit":false,"is_transit":false,"line":6},{"i_lat":-6.296963,"transit":false,"station_name":"Sudimara","is_transit":false,"line":6,"time":4,"distance":1994,"station_id":"SDM","i_long":106.712277},{"station_id":"RU","transit":false,"line":6,"time":6,"distance":4566,"i_lat":-6.314823,"is_transit":false,"station_name":"Rawa Buntu","i_long":106.675475},{"distance":2413,"i_lat":-6.319871,"is_transit":false,"station_id":"SRP","i_long":106.66566,"time":4,"station_name":"Serpong","line":6,"transit":false},{"distance":1784,"station_name":"Cisauk","time":4,"station_id":"CSK","i_long":106.640411,"line":3,"is_transit":false,"transit":false,"i_lat":-6.32484},{"line":3,"i_lat":-6.329547,"station_id":"CC","distance":2519,"transit":false,"time":4,"is_transit":false,"station_name":"Cicayur","i_long":106.617853},{"station_name":"Parung Panjang","distance":5968,"is_transit":false,"line":6,"i_lat":-6.3441410000000005,"time":8,"station_id":"PRP","i_long":106.568863,"transit":false},{"i_lat":-6.354349,"i_long":106.508482,"line":3,"transit":false,"time":9,"is_transit":false,"station_id":"CJT","station_name":"Cilejit","distance":7025}],[{"time":0,"distance":0,"line":11,"station_name":"Kramat","transit":false,"i_long":106.855437,"station_id":"KMT","i_lat":-6.193792,"is_transit":false},{"transit":false,"time":1,"station_name":"Gang Sentiong","i_long":106.850107,"line":11,"distance":973,"is_transit":false,"i_lat":-6.185975,"station_id":"GST"},{"station_id":"PSE","distance":1567,"i_long":106.84368,"transit":false,"is_transit":false,"time":8,"i_lat":-6.174784,"station_name":"Pasar Senen","line":11},{"i_long":106.839204,"station_id":"KMO","i_lat":-6.161728,"distance":1436,"line":11,"transit":false,"time":4,"is_transit":false,"station_name":"Kemayoran"},{"transit":false,"is_transit":false,"time":5,"station_id":"RJW","distance":1901,"line":11,"station_name":"Rajawali","i_lat":-6.14505,"i_long":106.836569},{"i_long":106.826365,"line":4,"transit":true,"time":3,"distance":1444,"station_name":"Kampung Bandan","i_lat":-6.132549,"station_id":"KPB","is_transit":true},{"i_lat":-6.144674,"station_name":"Angke","station_id":"AK","is_transit":false,"time":9,"i_long":106.79867,"distance":4102,"line":1,"transit":false},{"distance":1230,"is_transit":false,"time":4,"station_id":"DU","station_name":"Duri","line":1,"transit":false,"i_lat":-6.155215,"i_long":106.800832},{"line":1,"i_lat":-6.185545,"transit":true,"distance":3632,"i_long":106.811091,"is_transit":true,"time":8,"station_name":"Tanah Abang","station_id":"THB"},{"time":6,"line":6,"station_name":"Palmerah","transit":false,"station_id":"PLM","i_long":106.79689,"is_transit":false,"distance":3191,"i_lat":-6.207404},{"is_transit":false,"time":7,"i_long":106.780334,"line":6,"transit":false,"i_lat":-6.237242,"distance":3737,"station_name":"Kebayoran","station_id":"KBY"},{"transit":false,"is_transit":false,"station_id":"PDJ","line":6,"i_lat":-6.276362,"i_long":106.74273,"station_name":"Pondokranji","time":8,"distance":6218},{"station_name":"Jurangmangu","i_lat":-6.288927,"distance":2179,"station_id":"JMU","i_long":106.728916,"time":3,"line":6,"is_transit":false,"transit":false},{"time":4,"line":6,"i_lat":-6.296963,"is_transit":false,"i_long":106.712277,"transit":false,"distance":1994,"station_name":"Sudimara","station_id":"SDM"},{"i_long":106.675475,"line":6,"distance":4566,"station_name":"Rawa Buntu","station_id":"RU","i_lat":-6.314823,"is_transit":false,"transit":false,"time":6},{"i_lat":-6.319871,"time":4,"station_name":"Serpong","is_transit":false,"distance":2413,"transit":false,"line":6,"i_long":106.66566,"station_id":"SRP"},{"i_lat":-6.32484,"i_long":106.640411,"station_name":"Cisauk","is_transit":false,"station_id":"CSK","transit":false,"line":3,"time":4,"distance":1784},{"distance":2519,"time":4,"station_name":"Cicayur","station_id":"CC","i_lat":-6.329547,"transit":false,"is_transit":false,"line":3,"i_long":106.617853},{"distance":5968,"transit":false,"i_long":106.568863,"line":6,"time":8,"i_lat":-6.3441410000000005,"station_id":"PRP","station_name":"Parung Panjang","is_transit":false},{"distance":7025,"i_lat":-6.354349,"is_transit":false,"station_id":"CJT","i_long":106.508482,"station_name":"Cilejit","line":3,"transit":false,"time":9}],[{"distance":0,"i_lat":-6.193792,"i_long":106.855437,"station_id":"KMT","transit":false,"time":0,"station_name":"Kramat","line":11,"is_transit":false},{"station_id":"POK","i_lat":-6.209188,"i_long":106.861737,"time":2,"line":11,"station_name":"Pondok Jati","is_transit":false,"transit":false,"distance":1829},{"time":9,"station_id":"JNG","i_long":106.86807400000001,"is_transit":true,"distance":1236,"i_lat":-6.215091,"transit":true,"station_name":"Jatinegara","line":1},{"distance":1377,"is_transit":false,"transit":false,"station_id":"MTR","i_lat":-6.212485,"line":1,"i_long":106.858896,"time":2,"station_name":"Matraman"},{"station_name":"Manggarai","transit":true,"is_transit":true,"distance":1275,"i_lat":-6.209883,"i_long":106.84912,"time":2,"station_id":"MRI","line":2},{"i_long":106.840169,"transit":false,"is_transit":false,"station_id":"CKI","i_lat":-6.198556,"line":2,"time":4,"station_name":"Cikini","distance":1590},{"time":3,"i_lat":-6.186295,"line":2,"station_name":"Gondangdia","distance":1750,"station_id":"GDD","is_transit":false,"transit":false,"i_long":106.832183},{"i_long":106.828284,"i_lat":-6.166716,"time":4,"station_name":"Juanda","transit":false,"station_id":"JUA","line":2,"is_transit":false,"distance":2015},{"station_name":"Sawah Besar","i_lat":-6.160725,"distance":1149,"time":2,"is_transit":false,"station_id":"SW","line":2,"i_long":106.827103,"transit":false},{"line":2,"is_transit":false,"station_name":"Manggabesar","i_long":106.82482,"time":2,"transit":false,"distance":906,"i_lat":-6.149769,"station_id":"MGB"},{"time":2,"transit":false,"station_id":"JAY","is_transit":false,"line":2,"station_name":"Jayakarta","distance":1080,"i_lat":-6.141205,"i_long":106.820901},{"distance":1264,"is_transit":true,"time":4,"station_name":"Jakarta Kota","station_id":"JAKK","i_lat":-6.137569,"i_long":106.812439,"transit":true,"line":2},{"line":4,"transit":true,"distance":1364,"is_transit":true,"station_id":"KPB","station_name":"Kampung Bandan","time":3,"i_lat":-6.132549,"i_long":106.826365},{"station_id":"AK","distance":4102,"time":9,"station_name":"Angke","is_transit":false,"line":1,"transit":false,"i_lat":-6.144674,"i_long":106.79867},{"is_transit":false,"distance":1230,"station_id":"DU","line":1,"i_lat":-6.155215,"transit":false,"station_name":"Duri","i_long":106.800832,"time":4},{"i_long":106.811091,"station_id":"THB","is_transit":true,"transit":true,"time":8,"distance":3632,"station_name":"Tanah Abang","i_lat":-6.185545,"line":1},{"time":6,"i_long":106.79689,"transit":false,"i_lat":-6.207404,"station_id":"PLM","is_transit":false,"station_name":"Palmerah","line":6,"distance":3191},{"is_transit":false,"line":6,"i_long":106.780334,"i_lat":-6.237242,"station_name":"Kebayoran","transit":false,"station_id":"KBY","time":7,"distance":3737},{"line":6,"is_transit":false,"transit":false,"distance":6218,"station_name":"Pondokranji","time":8,"station_id":"PDJ","i_long":106.74273,"i_lat":-6.276362},{"station_id":"JMU","station_name":"Jurangmangu","i_lat":-6.288927,"i_long":106.728916,"is_transit":false,"transit":false,"time":3,"line":6,"distance":2179},{"i_lat":-6.296963,"transit":false,"distance":1994,"is_transit":false,"station_name":"Sudimara","time":4,"station_id":"SDM","i_long":106.712277,"line":6},{"time":6,"distance":4566,"is_transit":false,"i_long":106.675475,"station_name":"Rawa Buntu","station_id":"RU","line":6,"i_lat":-6.314823,"transit":false},{"time":4,"station_id":"SRP","station_name":"Serpong","transit":false,"line":6,"distance":2413,"is_transit":false,"i_lat":-6.319871,"i_long":106.66566},{"line":3,"i_lat":-6.32484,"i_long":106.640411,"time":4,"distance":1784,"station_name":"Cisauk","station_id":"CSK","transit":false,"is_transit":false},{"transit":false,"distance":2519,"station_id":"CC","is_transit":false,"time":4,"i_lat":-6.329547,"i_long":106.617853,"line":3,"station_name":"Cicayur"},{"i_lat":-6.3441410000000005,"is_transit":false,"station_name":"Parung Panjang","distance":5968,"i_long":106.568863,"transit":false,"time":8,"station_id":"PRP","line":6},{"i_lat":-6.354349,"i_long":106.508482,"distance":7025,"transit":false,"line":3,"time":9,"station_id":"CJT","is_transit":false,"station_name":"Cilejit"}],[{"station_name":"Kramat","distance":0,"i_lat":-6.193792,"is_transit":false,"i_long":106.855437,"line":11,"time":0,"station_id":"KMT","transit":false},{"distance":973,"station_id":"GST","transit":false,"station_name":"Gang Sentiong","i_lat":-6.185975,"i_long":106.850107,"line":11,"is_transit":false,"time":1},{"i_long":106.84368,"station_name":"Pasar Senen","is_transit":false,"time":8,"transit":false,"i_lat":-6.174784,"station_id":"PSE","line":11,"distance":1567},{"distance":1436,"time":4,"line":11,"i_lat":-6.161728,"i_long":106.839204,"is_transit":false,"transit":false,"station_id":"KMO","station_name":"Kemayoran"},{"i_lat":-6.14505,"station_name":"Rajawali","time":5,"i_long":106.836569,"is_transit":false,"distance":1901,"station_id":"RJW","line":11,"transit":false},{"transit":true,"is_transit":true,"station_name":"Kampung Bandan","station_id":"KPB","i_lat":-6.132549,"distance":1444,"i_long":106.826365,"line":4,"time":3},{"i_lat":-6.137569,"line":2,"time":3,"station_id":"JAKK","distance":1364,"is_transit":true,"i_long":106.812439,"transit":true,"station_name":"Jakarta Kota"},{"distance":1264,"time":4,"station_name":"Jayakarta","i_lat":-6.141205,"transit":false,"station_id":"JAY","i_long":106.820901,"line":2,"is_transit":false},{"is_transit":false,"line":2,"i_long":106.82482,"time":2,"station_id":"MGB","i_lat":-6.149769,"station_name":"Manggabesar","distance":1080,"transit":false},{"i_lat":-6.160725,"transit":false,"station_id":"SW","is_transit":false,"time":2,"line":2,"i_long":106.827103,"distance":906,"station_name":"Sawah Besar"},{"time":2,"station_name":"Juanda","is_transit":false,"transit":false,"distance":1149,"station_id":"JUA","i_long":106.828284,"i_lat":-6.166716,"line":2},{"transit":false,"is_transit":false,"station_name":"Gondangdia","station_id":"GDD","time":4,"distance":2015,"i_long":106.832183,"i_lat":-6.186295,"line":2},{"line":2,"transit":false,"station_name":"Cikini","i_lat":-6.198556,"is_transit":false,"i_long":106.840169,"station_id":"CKI","time":3,"distance":1750},{"transit":true,"station_id":"MRI","time":4,"i_lat":-6.209883,"distance":1590,"station_name":"Manggarai","i_long":106.84912,"is_transit":true,"line":2},{"station_name":"Sudirman","i_long":106.822649,"i_lat":-6.202263,"line":1,"transit":false,"is_transit":false,"time":4,"station_id":"SUD","distance":3186},{"is_transit":false,"i_long":106.819881,"i_lat":-6.201433,"distance":280,"line":1,"time":1,"station_name":"Sudirman Baru","transit":false,"station_id":"SUDB"},{"transit":false,"is_transit":false,"i_long":106.816351,"i_lat":-6.20132,"station_name":"Karet","station_id":"KAT","distance":471,"line":1,"time":1},{"transit":true,"station_id":"THB","distance":2029,"is_transit":true,"time":5,"station_name":"Tanah Abang","i_lat":-6.185545,"i_long":106.811091,"line":1},{"line":6,"time":6,"transit":false,"is_transit":false,"station_name":"Palmerah","station_id":"PLM","i_lat":-6.207404,"i_long":106.79689,"distance":3191},{"station_id":"KBY","i_long":106.780334,"transit":false,"line":6,"station_name":"Kebayoran","time":7,"distance":3737,"i_lat":-6.237242,"is_transit":false},{"transit":false,"station_name":"Pondokranji","time":8,"i_lat":-6.276362,"i_long":106.74273,"line":6,"is_transit":false,"station_id":"PDJ","distance":6218},{"i_long":106.728916,"distance":2179,"station_id":"JMU","i_lat":-6.288927,"transit":false,"station_name":"Jurangmangu","time":3,"line":6,"is_transit":false},{"i_lat":-6.296963,"station_name":"Sudimara","is_transit":false,"time":4,"station_id":"SDM","line":6,"transit":false,"i_long":106.712277,"distance":1994},{"is_transit":false,"i_lat":-6.314823,"i_long":106.675475,"transit":false,"station_name":"Rawa Buntu","line":6,"time":6,"station_id":"RU","distance":4566},{"is_transit":false,"transit":false,"line":6,"distance":2413,"i_long":106.66566,"time":4,"station_name":"Serpong","i_lat":-6.319871,"station_id":"SRP"},{"time":4,"distance":1784,"i_lat":-6.32484,"is_transit":false,"station_name":"Cisauk","transit":false,"station_id":"CSK","i_long":106.640411,"line":3},{"transit":false,"is_transit":false,"station_name":"Cicayur","distance":2519,"station_id":"CC","time":4,"i_lat":-6.329547,"line":3,"i_long":106.617853},{"is_transit":false,"time":8,"station_name":"Parung Panjang","i_long":106.568863,"distance":5968,"line":6,"i_lat":-6.3441410000000005,"station_id":"PRP","transit":false},{"distance":7025,"i_lat":-6.354349,"station_id":"CJT","is_transit":false,"station_name":"Cilejit","line":3,"i_long":106.508482,"transit":false,"time":9}]]}