{"data":[[{"time":0,"i_long":106.855437,"i_lat":-6.193792,"station_id":"KMT","station_name":"Kramat","distance":0,"line":11,"transit":false,"is_transit":false},{"i_long":106.861737,"station_name":"Pondok Jati","line":11,"i_lat":-6.209188,"station_id":"POK","is_transit":false,"time":2,"distance":1829,"transit":false},{"transit":true,"line":1,"station_name":"Jatinegara","i_lat":-6.215091,"distance":1236,"time":9,"is_transit":true,"i_long":106.86807400000001,"station_id":"JNG"},{"line":1,"is_transit":false,"i_lat":-6.212485,"station_name":"Matraman","station_id":"MTR","i_long":106.858896,"time":2,"transit":false,"distance":1377},{"station_id":"MRI","transit":false,"station_name":"Manggarai","time":2,"i_lat":-6.209883,"is_transit":false,"distance":1275,"i_long":106.84912,"line":2},{"i_lat":-6.202263,"time":4,"station_name":"Sudirman","station_id":"SUD","distance":3186,"i_long":106.822649,"line":1,"is_transit":false,"transit":false},{"time":1,"station_name":"Sudirman Baru","distance":280,"i_lat":-6.201433,"is_transit":false,"line":1,"transit":false,"station_id":"SUDB","i_long":106.819881},{"transit":false,"i_long":106.816351,"station_id":"KAT","is_transit":false,"distance":471,"time":1,"line":1,"station_name":"Karet","i_lat":-6.20132},{"i_lat":-6.185545,"is_transit":true,"station_name":"Tanah Abang","station_id":"THB","time":5,"i_long":106.811091,"distance":2029,"transit":true,"line":1},{"transit":false,"i_lat":-6.207404,"i_long":106.79689,"station_id":"PLM","line":6,"is_transit":false,"distance":3191,"time":6,"station_name":"Palmerah"},{"line":6,"station_name":"Kebayoran","time":7,"is_transit":false,"distance":3737,"i_lat":-6.237242,"i_long":106.780334,"station_id":"KBY","transit":false},{"transit":false,"is_transit":false,"time":8,"i_lat":-6.276362,"i_long":106.74273,"station_name":"Pondokranji","station_id":"PDJ","distance":6218,"line":6}],[{"station_name":"Kramat","line":11,"transit":false,"i_long":106.855437,"is_transit":false,"i_lat":-6.193792,"distance":0,"time":0,"station_id":"KMT"},{"station_id":"GST","distance":973,"i_lat":-6.185975,"transit":false,"is_transit":false,"line":11,"station_name":"Gang Sentiong","time":1,"i_long":106.850107},{"station_id":"PSE","i_long":106.84368,"is_transit":false,"time":8,"i_lat":-6.174784,"distance":1567,"line":11,"station_name":"Pasar Senen","transit":false},{"i_long":106.839204,"i_lat":-6.161728,"line":11,"time":4,"station_id":"KMO","is_transit":false,"distance":1436,"transit":false,"station_name":"Kemayoran"},{"distance":1901,"transit":false,"station_id":"RJW","i_long":106.836569,"station_name":"Rajawali","line":11,"is_transit":false,"time":5,"i_lat":-6.14505},{"line":4,"is_transit":true,"station_name":"Kampung Bandan","station_id":"KPB","distance":1444,"i_lat":-6.132549,"i_long":106.826365,"transit":true,"time":3},{"distance":4102,"station_id":"AK","transit":false,"is_transit":false,"station_name":"Angke","i_lat":-6.144674,"i_long":106.79867,"time":9,"line":1},{"transit":false,"distance":1230,"is_transit":false,"line":1,"i_long":106.800832,"station_id":"DU","station_name":"Duri","time":4,"i_lat":-6.155215},{"transit":true,"is_transit":true,"time":8,"station_id":"THB","i_lat":-6.185545,"distance":3632,"line":1,"i_long":106.811091,"station_name":"Tanah Abang"},{"transit":false,"time":6,"line":6,"station_id":"PLM","distance":3191,"i_long":106.79689,"i_lat":-6.207404,"station_name":"Palmerah","is_transit":false},{"station_id":"KBY","station_name":"Kebayoran","transit":false,"distance":3737,"line":6,"is_transit":false,"time":7,"i_lat":-6.237242,"i_long":106.780334},{"distance":6218,"time":8,"station_id":"PDJ","i_long":106.74273,"transit":false,"line":6,"station_name":"Pondokranji","is_transit":false,"i_lat":-6.276362}],[{"distance":0,"line":11,"i_lat":-6.193792,"transit":false,"station_name":"Kramat","station_id":"KMT","is_transit":false,"time":0,"i_long":106.855437},{"station_id":"POK","line":11,"i_long":106.861737,"is_transit":false,"transit":false,"i_lat":-6.209188,"time":2,"station_name":"Pondok Jati","distance":1829},{"station_id":"JNG","i_long":106.86807400000001,"line":1,"is_transit":true,"distance":1236,"time":9,"station_name":"Jatinegara","i_lat":-6.215091,"transit":true},{"station_id":"MTR","line":1,"i_long":106.858896,"i_lat":-6.212485,"is_transit":false,"transit":false,"station_name":"Matraman","time":2,"distance":1377},{"distance":1275,"i_long":106.84912,"transit":true,"station_name":"Manggarai","station_id":"MRI","time":2,"line":2,"is_transit":true,"i_lat":-6.209883},{"line":2,"i_lat":-6.198556,"station_name":"Cikini","transit":false,"time":4,"i_long":106.840169,"station_id":"CKI","is_transit":false,"distance":1590},{"station_id":"GDD","is_transit":false,"i_lat":-6.186295,"station_name":"Gondangdia","transit":false,"line":2,"time":3,"distance":1750,"i_long":106.832183},{"station_name":"Juanda","is_transit":false,"time":4,"station_id":"JUA","i_long":106.828284,"distance":2015,"transit":false,"line":2,"i_lat":-6.166716},{"transit":false,"is_transit":false,"distance":1149,"line":2,"station_name":"Sawah Besar","i_long":106.827103,"time":2,"i_lat":-6.160725,"station_id":"SW"},{"is_transit":false,"time":2,"transit":false,"i_long":106.82482,"distance":906,"line":2,"station_name":"Manggabesar","station_id":"MGB","i_lat":-6.149769},{"i_long":106.820901,"station_name":"Jayakarta","line":2,"distance":1080,"time":2,"i_lat":-6.141205,"transit":false,"is_transit":false,"station_id":"JAY"},{"station_id":"JAKK","i_long":106.812439,"time":4,"distance":1264,"line":2,"transit":true,"station_name":"Jakarta Kota","is_transit":true,"i_lat":-6.137569},{"transit":true,"is_transit":true,"i_lat":-6.132549,"station_name":"Kampung Bandan","time":3,"distance":1364,"line":4,"station_id":"KPB","i_long":106.826365},{"distance":4102,"transit":false,"is_transit":false,"station_id":"AK","time":9,"station_name":"Angke","i_lat":-6.144674,"i_long":106.79867,"line":1},{"transit":false,"is_transit":false,"i_lat":-6.155215,"i_long":106.800832,"distance":1230,"line":1,"station_id":"DU","station_name":"Duri","time":4},{"station_id":"THB","is_transit":true,"time":8,"transit":true,"distance":3632,"station_name":"Tanah Abang","i_long":106.811091,"i_lat":-6.185545,"line":1},{"station_name":"Palmerah","time":6,"transit":false,"i_long":106.79689,"line":6,"distance":3191,"station_id":"PLM","i_lat":-6.207404,"is_transit":false},{"station_name":"Kebayoran","line":6,"time":7,"transit":false,"is_transit":false,"distance":3737,"i_lat":-6.237242,"i_long":106.780334,"station_id":"KBY"},{"line":6,"station_name":"Pondokranji","is_transit":false,"i_lat":-6.276362,"station_id":"PDJ","time":8,"distance":6218,"i_long":106.74273,"transit":false}],[{"transit":false,"line":11,"station_name":"Kramat","distance":0,"time":0,"i_long":106.855437,"i_lat":-6.193792,"station_id":"KMT","is_transit":false},{"station_name":"Gang Sentiong","time":1,"station_id":"GST","is_transit":false,"i_long":106.850107,"transit":false,"line":11,"i_lat":-6.185975,"distance":973},{"time":8,"i_lat":-6.174784,"transit":false,"i_long":106.84368,"station_name":"Pasar Senen","line":11,"station_id":"PSE","distance":1567,"is_transit":false},{"distance":1436,"transit":false,"i_lat":-6.161728,"station_name":"Kemayoran","station_id":"KMO","time":4,"i_long":106.839204,"is_transit":false,"line":11},{"i_lat":-6.14505,"time":5,"i_long":106.836569,"is_transit":false,"distance":1901,"line":11,"transit":false,"station_name":"Rajawali","station_id":"RJW"},{"i_lat":-6.132549,"i_long":106.826365,"distance":1444,"station_name":"Kampung Bandan","station_id":"KPB","transit":true,"is_transit":true,"time":3,"line":4},{"line":2,"i_lat":-6.137569,"transit":true,"station_name":"Jakarta Kota","i_long":106.812439,"is_transit":true,"station_id":"JAKK","time":3,"distance":1364},{"i_lat":-6.141205,"i_long":106.820901,"station_id":"JAY","line":2,"transit":false,"distance":1264,"time":4,"station_name":"Jayakarta","is_transit":false},{"line":2,"station_name":"Manggabesar","time":2,"i_long":106.82482,"transit":false,"station_id":"MGB","is_transit":false,"distance":1080,"i_lat":-6.149769},{"is_transit":false,"line":2,"i_lat":-6.160725,"station_name":"Sawah Besar","i_long":106.827103,"time":2,"station_id":"SW","transit":false,"distance":906},{"time":2,"transit":false,"i_lat":-6.166716,"station_id":"JUA","i_long":106.828284,"line":2,"distance":1149,"station_name":"Juanda","is_transit":false},{"station_id":"GDD","is_transit":false,"time":4,"transit":false,"line":2,"i_lat":-6.186295,"i_long":106.832183,"station_name":"Gondangdia","distance":2015},{"transit":false,"time":3,"distance":1750,"station_id":"CKI","line":2,"is_transit":false,"i_long":106.840169,"station_name":"Cikini","i_lat":-6.198556},{"line":2,"i_lat":-6.209883,"transit":true,"i_long":106.84912,"time":4,"is_transit":true,"distance":1590,"station_id":"MRI","station_name":"Manggarai"},{"is_transit":false,"station_name":"Sudirman","station_id":"SUD","transit":false,"distance":3186,"i_lat":-6.202263,"i_long":106.822649,"time":4,"line":1},{"station_name":"Sudirman Baru","transit":false,"distance":280,"is_transit":false,"line":1,"time":1,"i_lat":-6.201433,"station_id":"SUDB","i_long":106.819881},{"line":1,"time":1,"transit":false,"station_name":"Karet","is_transit":false,"distance":471,"station_id":"KAT","i_lat":-6.20132,"i_long":106.816351},{"distance":2029,"is_transit":true,"line":1,"time":5,"station_id":"THB","i_long":106.811091,"transit":true,"station_name":"Tanah Abang","i_lat":-6.185545},{"station_name":"Palmerah","distance":3191,"time":6,"i_lat":-6.207404,"is_transit":false,"transit":false,"i_long":106.79689,"line":6,"station_id":"PLM"},{"distance":3737,"transit":false,"i_lat":-6.237242,"station_name":"Kebayoran","i_long":106.780334,"time":7,"line":6,"is_transit":false,"station_id":"KBY"},{"station_name":"Pondokranji","station_id":"PDJ","distance":6218,"time":8,"i_long":106.74273,"is_transit":false,"line":6,"i_lat":-6.276362,"transit":false}]]}