{"data":[[{"time":0,"line":11,"station_name":"Kramat","is_transit":false,"transit":false,"i_lat":-6.193792,"distance":0,"i_long":106.855437,"station_id":"KMT"},{"line":11,"transit":false,"station_name":"Pondok Jati","distance":1829,"station_id":"POK","is_transit":false,"time":2,"i_lat":-6.209188,"i_long":106.861737},{"station_name":"Jatinegara","is_transit":true,"i_long":106.86807400000001,"distance":1236,"line":1,"transit":true,"i_lat":-6.215091,"time":9,"station_id":"JNG"},{"station_id":"MTR","distance":1377,"i_lat":-6.212485,"line":1,"station_name":"Matraman","transit":false,"time":2,"i_long":106.858896,"is_transit":false},{"transit":false,"i_lat":-6.209883,"line":2,"station_id":"MRI","distance":1275,"time":2,"station_name":"Manggarai","i_long":106.84912,"is_transit":false},{"transit":false,"distance":3186,"i_lat":-6.202263,"i_long":106.822649,"station_id":"SUD","is_transit":false,"time":4,"line":1,"station_name":"Sudirman"},{"i_lat":-6.201433,"line":1,"time":1,"transit":false,"i_long":106.819881,"is_transit":false,"station_name":"Sudirman Baru","station_id":"SUDB","distance":280},{"station_id":"KAT","i_long":106.816351,"is_transit":false,"line":1,"i_lat":-6.20132,"station_name":"Karet","distance":471,"time":1,"transit":false}],[{"line":11,"station_name":"Kramat","transit":false,"i_lat":-6.193792,"i_long":106.855437,"time":0,"is_transit":false,"distance":0,"station_id":"KMT"},{"transit":false,"distance":973,"i_long":106.850107,"line":11,"station_name":"Gang Sentiong","i_lat":-6.185975,"time":1,"is_transit":false,"station_id":"GST"},{"line":11,"time":8,"distance":1567,"station_id":"PSE","station_name":"Pasar Senen","transit":false,"i_lat":-6.174784,"i_long":106.84368,"is_transit":false},{"distance":1436,"is_transit":false,"transit":false,"i_lat":-6.161728,"station_name":"Kemayoran","station_id":"KMO","line":11,"i_long":106.839204,"time":4},{"station_name":"Rajawali","distance":1901,"i_lat":-6.14505,"i_long":106.836569,"line":11,"is_transit":false,"station_id":"RJW","transit":false,"time":5},{"transit":true,"distance":1444,"is_transit":true,"time":3,"i_lat":-6.132549,"station_id":"KPB","i_long":106.826365,"line":4,"station_name":"Kampung Bandan"},{"transit":false,"i_lat":-6.144674,"is_transit":false,"time":9,"distance":4102,"line":1,"station_name":"Angke","station_id":"AK","i_long":106.79867},{"time":4,"line":1,"i_long":106.800832,"station_id":"DU","is_transit":false,"transit":false,"station_name":"Duri","distance":1230,"i_lat":-6.155215},{"distance":3632,"i_lat":-6.185545,"time":8,"station_id":"THB","transit":false,"station_name":"Tanah Abang","i_long":106.811091,"line":1,"is_transit":false},{"distance":2029,"time":5,"station_id":"KAT","line":1,"i_long":106.816351,"i_lat":-6.20132,"transit":false,"station_name":"Karet","is_transit":false}],[{"is_transit":false,"transit":false,"line":11,"station_name":"Kramat","distance":0,"time":0,"i_lat":-6.193792,"i_long":106.855437,"station_id":"KMT"},{"station_name":"Pondok Jati","i_lat":-6.209188,"is_transit":false,"time":2,"i_long":106.861737,"line":11,"transit":false,"distance":1829,"station_id":"POK"},{"i_lat":-6.215091,"is_transit":true,"station_id":"JNG","line":1,"i_long":106.86807400000001,"station_name":"Jatinegara","time":9,"distance":1236,"transit":true},{"i_lat":-6.212485,"line":1,"transit":false,"station_id":"MTR","is_transit":false,"time":2,"distance":1377,"i_long":106.858896,"station_name":"Matraman"},{"station_id":"MRI","time":2,"transit":true,"station_name":"Manggarai","i_long":106.84912,"line":2,"is_transit":true,"i_lat":-6.209883,"distance":1275},{"line":2,"station_name":"Cikini","transit":false,"i_long":106.840169,"station_id":"CKI","is_transit":false,"time":4,"distance":1590,"i_lat":-6.198556},{"station_id":"GDD","line":2,"station_name":"Gondangdia","time":3,"is_transit":false,"distance":1750,"i_long":106.832183,"i_lat":-6.186295,"transit":false},{"distance":2015,"transit":false,"i_lat":-6.166716,"i_long":106.828284,"is_transit":false,"time":4,"station_name":"Juanda","line":2,"station_id":"JUA"},{"i_long":106.827103,"is_transit":false,"i_lat":-6.160725,"station_id":"SW","time":2,"station_name":"Sawah Besar","distance":1149,"line":2,"transit":false},{"station_id":"MGB","time":2,"transit":false,"i_lat":-6.149769,"line":2,"station_name":"Manggabesar","distance":906,"is_transit":false,"i_long":106.82482},{"is_transit":false,"transit":false,"time":2,"distance":1080,"station_id":"JAY","i_lat":-6.141205,"i_long":106.820901,"line":2,"station_name":"Jayakarta"},{"is_transit":true,"time":4,"line":2,"i_lat":-6.137569,"transit":true,"station_id":"JAKK","distance":1264,"station_name":"Jakarta Kota","i_long":106.812439},{"transit":true,"i_lat":-6.132549,"is_transit":true,"station_name":"Kampung Bandan","station_id":"KPB","i_long":106.826365,"time":3,"distance":1364,"line":4},{"distance":4102,"station_id":"AK","line":1,"i_lat":-6.144674,"transit":false,"i_long":106.79867,"station_name":"Angke","time":9,"is_transit":false},{"time":4,"i_lat":-6.155215,"is_transit":false,"station_id":"DU","line":1,"station_name":"Duri","i_long":106.800832,"transit":false,"distance":1230},{"distance":3632,"station_id":"THB","line":1,"i_long":106.811091,"i_lat":-6.185545,"is_transit":false,"station_name":"Tanah Abang","transit":false,"time":8},{"time":5,"station_id":"KAT","i_long":106.816351,"distance":2029,"is_transit":false,"line":1,"i_lat":-6.20132,"station_name":"Karet","transit":false}],[{"i_long":106.855437,"line":11,"transit":false,"station_id":"KMT","is_transit":false,"time":0,"i_lat":-6.193792,"station_name":"Kramat","distance":0},{"i_lat":-6.185975,"i_long":106.850107,"station_name":"Gang Sentiong","transit":false,"is_transit":false,"distance":973,"station_id":"GST","time":1,"line":11},{"i_long":106.84368,"line":11,"time":8,"is_transit":false,"distance":1567,"i_lat":-6.174784,"station_name":"Pasar Senen","station_id":"PSE","transit":false},{"station_id":"KMO","is_transit":false,"i_lat":-6.161728,"transit":false,"distance":1436,"station_name":"Kemayoran","time":4,"i_long":106.839204,"line":11},{"station_id":"RJW","i_long":106.836569,"distance":1901,"i_lat":-6.14505,"transit":false,"is_transit":false,"time":5,"station_name":"Rajawali","line":11},{"is_transit":true,"time":3,"distance":1444,"transit":true,"station_id":"KPB","i_long":106.826365,"station_name":"Kampung Bandan","i_lat":-6.132549,"line":4},{"distance":1364,"transit":true,"station_id":"JAKK","i_lat":-6.137569,"is_transit":true,"i_long":106.812439,"time":3,"station_name":"Jakarta Kota","line":2},{"i_long":106.820901,"line":2,"is_transit":false,"transit":false,"time":4,"station_name":"Jayakarta","i_lat":-6.141205,"distance":1264,"station_id":"JAY"},{"station_id":"MGB","transit":false,"i_long":106.82482,"time":2,"line":2,"station_name":"Manggabesar","is_transit":false,"i_lat":-6.149769,"distance":1080},{"time":2,"station_id":"SW","transit":false,"distance":906,"i_lat":-6.160725,"i_long":106.827103,"is_transit":false,"station_name":"Sawah Besar","line":2},{"is_transit":false,"station_id":"JUA","i_lat":-6.166716,"transit":false,"i_long":106.828284,"distance":1149,"line":2,"station_name":"Juanda","time":2},{"line":2,"station_name":"Gondangdia","station_id":"GDD","i_long":106.832183,"transit":false,"time":4,"i_lat":-6.186295,"is_transit":false,"distance":2015},{"is_transit":false,"distance":1750,"station_id":"CKI","i_lat":-6.198556,"i_long":106.840169,"transit":false,"station_name":"Cikini","time":3,"line":2},{"station_id":"MRI","line":2,"time":4,"station_name":"Manggarai","transit":true,"i_lat":-6.209883,"distance":1590,"i_long":106.84912,"is_transit":true},{"i_lat":-6.202263,"time":4,"line":1,"station_name":"Sudirman","i_long":106.822649,"transit":false,"station_id":"SUD","is_transit":false,"distance":3186},{"is_transit":false,"i_lat":-6.201433,"station_id":"SUDB","distance":280,"transit":false,"i_long":106.819881,"time":1,"station_name":"Sudirman Baru","line":1},{"i_long":106.816351,"station_id":"KAT","transit":false,"time":1,"i_lat":-6.20132,"distance":471,"station_name":"Karet","line":1,"is_transit":false}]]}