{"data":[[{"station_name":"Kramat","i_lat":-6.193792,"is_transit":false,"time":0,"i_long":106.855437,"station_id":"KMT","distance":0,"line":11,"transit":false},{"is_transit":false,"transit":false,"distance":1829,"station_id":"POK","station_name":"Pondok Jati","i_lat":-6.209188,"time":2,"i_long":106.861737,"line":11},{"distance":1236,"transit":true,"is_transit":true,"i_long":106.86807400000001,"time":9,"line":0,"station_id":"JNG","i_lat":-6.215091,"station_name":"Jatinegara"},{"transit":false,"line":1,"i_long":106.858896,"i_lat":-6.212485,"station_id":"MTR","is_transit":false,"distance":1377,"station_name":"Matraman","time":2},{"line":0,"i_lat":-6.209883,"station_id":"MRI","station_name":"Manggarai","distance":1275,"i_long":106.84912,"time":2,"is_transit":true,"transit":false},{"time":4,"station_id":"SUD","is_transit":false,"distance":3186,"line":1,"station_name":"Sudirman","i_lat":-6.202263,"transit":false,"i_long":106.822649},{"transit":false,"line":1,"i_long":106.819881,"distance":280,"time":1,"station_id":"SUDB","station_name":"Sudirman Baru","i_lat":-6.201433,"is_transit":false},{"is_transit":false,"time":1,"station_name":"Karet","transit":false,"line":1,"station_id":"KAT","distance":471,"i_lat":-6.20132,"i_long":106.816351}],[{"station_id":"KMT","distance":0,"is_transit":false,"transit":false,"station_name":"Kramat","time":0,"i_long":106.855437,"line":11,"i_lat":-6.193792},{"transit":false,"i_long":106.850107,"station_id":"GST","time":1,"station_name":"Gang Sentiong","line":11,"is_transit":false,"distance":973,"i_lat":-6.185975},{"line":11,"distance":1567,"time":8,"transit":false,"is_transit":false,"i_lat":-6.174784,"station_id":"PSE","i_long":106.84368,"station_name":"Pasar Senen"},{"i_long":106.839204,"transit":false,"station_id":"KMO","time":4,"station_name":"Kemayoran","distance":1436,"i_lat":-6.161728,"is_transit":false,"line":11},{"line":11,"time":5,"i_lat":-6.14505,"station_id":"RJW","i_long":106.836569,"transit":false,"is_transit":false,"station_name":"Rajawali","distance":1901},{"distance":1444,"i_lat":-6.132549,"time":3,"i_long":106.826365,"is_transit":true,"line":0,"station_id":"KPB","transit":true,"station_name":"Kampung Bandan"},{"is_transit":false,"distance":4102,"i_long":106.79867,"station_name":"Angke","transit":false,"line":0,"i_lat":-6.144674,"station_id":"AK","time":9},{"i_lat":-6.155215,"line":1,"time":4,"station_id":"DU","station_name":"Duri","i_long":106.800832,"is_transit":true,"transit":true,"distance":1230},{"time":8,"i_long":106.811091,"line":1,"station_name":"Tanah Abang","is_transit":true,"i_lat":-6.185545,"transit":false,"station_id":"THB","distance":3632},{"transit":false,"station_id":"KAT","station_name":"Karet","line":1,"time":5,"distance":2029,"is_transit":false,"i_lat":-6.20132,"i_long":106.816351}],[{"time":0,"is_transit":false,"station_id":"KMT","distance":0,"station_name":"Kramat","transit":false,"i_lat":-6.193792,"i_long":106.855437,"line":11},{"station_name":"Pondok Jati","is_transit":false,"station_id":"POK","distance":1829,"time":2,"i_lat":-6.209188,"transit":false,"i_long":106.861737,"line":11},{"time":9,"i_long":106.86807400000001,"station_id":"JNG","transit":true,"station_name":"Jatinegara","distance":1236,"i_lat":-6.215091,"is_transit":true,"line":0},{"station_name":"Matraman","time":2,"station_id":"MTR","i_lat":-6.212485,"line":1,"transit":false,"is_transit":false,"distance":1377,"i_long":106.858896},{"station_name":"Manggarai","is_transit":true,"i_lat":-6.209883,"i_long":106.84912,"line":0,"station_id":"MRI","time":2,"distance":1275,"transit":true},{"transit":false,"station_id":"CKI","distance":1590,"station_name":"Cikini","time":4,"is_transit":false,"i_long":106.840169,"i_lat":-6.198556,"line":0},{"line":2,"transit":false,"station_id":"GDD","i_lat":-6.186295,"station_name":"Gondangdia","time":3,"is_transit":false,"i_long":106.832183,"distance":1750},{"line":2,"is_transit":false,"station_name":"Juanda","distance":2015,"time":4,"transit":false,"i_lat":-6.166716,"i_long":106.828284,"station_id":"JUA"},{"station_id":"SW","transit":false,"i_lat":-6.160725,"line":2,"time":2,"i_long":106.827103,"station_name":"Sawah Besar","is_transit":false,"distance":1149},{"is_transit":false,"station_id":"MGB","distance":906,"i_lat":-6.149769,"line":2,"station_name":"Manggabesar","transit":false,"i_long":106.82482,"time":2},{"station_name":"Jayakarta","station_id":"JAY","is_transit":false,"distance":1080,"transit":false,"i_long":106.820901,"time":2,"i_lat":-6.141205,"line":7},{"i_lat":-6.137569,"line":0,"station_name":"Jakarta Kota","station_id":"JAKK","time":4,"is_transit":true,"distance":1264,"transit":true,"i_long":106.812439},{"distance":1364,"line":0,"i_long":106.826365,"i_lat":-6.132549,"time":3,"transit":false,"station_id":"KPB","station_name":"Kampung Bandan","is_transit":true},{"station_name":"Angke","transit":false,"i_lat":-6.144674,"station_id":"AK","distance":4102,"i_long":106.79867,"time":9,"is_transit":false,"line":0},{"station_name":"Duri","station_id":"DU","is_transit":true,"distance":1230,"time":4,"line":1,"i_lat":-6.155215,"transit":true,"i_long":106.800832},{"line":1,"transit":false,"distance":3632,"station_id":"THB","station_name":"Tanah Abang","is_transit":true,"i_lat":-6.185545,"i_long":106.811091,"time":8},{"time":5,"line":1,"i_lat":-6.20132,"transit":false,"station_id":"KAT","distance":2029,"is_transit":false,"i_long":106.816351,"station_name":"Karet"}],[{"line":11,"is_transit":false,"station_id":"KMT","distance":0,"i_long":106.855437,"station_name":"Kramat","time":0,"i_lat":-6.193792,"transit":false},{"i_lat":-6.185975,"station_id":"GST","is_transit":false,"transit":false,"distance":973,"i_long":106.850107,"line":11,"time":1,"station_name":"Gang Sentiong"},{"line":11,"transit":false,"i_lat":-6.174784,"time":8,"distance":1567,"is_transit":false,"i_long":106.84368,"station_id":"PSE","station_name":"Pasar Senen"},{"is_transit":false,"distance":1436,"line":11,"station_id":"KMO","transit":false,"station_name":"Kemayoran","time":4,"i_long":106.839204,"i_lat":-6.161728},{"line":11,"transit":false,"station_name":"Rajawali","station_id":"RJW","i_lat":-6.14505,"is_transit":false,"distance":1901,"i_long":106.836569,"time":5},{"distance":1444,"transit":true,"i_long":106.826365,"i_lat":-6.132549,"station_name":"Kampung Bandan","station_id":"KPB","is_transit":true,"line":0,"time":3},{"time":3,"is_transit":true,"transit":true,"i_long":106.812439,"station_name":"Jakarta Kota","i_lat":-6.137569,"distance":1364,"line":0,"station_id":"JAKK"},{"distance":1264,"station_id":"JAY","time":4,"station_name":"Jayakarta","line":7,"is_transit":false,"transit":false,"i_lat":-6.141205,"i_long":106.820901},{"is_transit":false,"station_name":"Manggabesar","time":2,"distance":1080,"station_id":"MGB","i_lat":-6.149769,"transit":false,"i_long":106.82482,"line":2},{"transit":false,"station_name":"Sawah Besar","is_transit":false,"time":2,"i_lat":-6.160725,"station_id":"SW","line":2,"distance":906,"i_long":106.827103},{"is_transit":false,"distance":1149,"station_id":"JUA","time":2,"line":2,"i_lat":-6.166716,"transit":false,"station_name":"Juanda","i_long":106.828284},{"distance":2015,"i_long":106.832183,"line":2,"is_transit":false,"time":4,"station_name":"Gondangdia","transit":false,"i_lat":-6.186295,"station_id":"GDD"},{"distance":1750,"is_transit":false,"time":3,"line":0,"station_id":"CKI","transit":false,"i_long":106.840169,"station_name":"Cikini","i_lat":-6.198556},{"distance":1590,"time":4,"is_transit":true,"i_lat":-6.209883,"station_id":"MRI","station_name":"Manggarai","i_long":106.84912,"line":0,"transit":true},{"station_name":"Sudirman","distance":3186,"line":1,"is_transit":false,"transit":false,"i_long":106.822649,"station_id":"SUD","time":4,"i_lat":-6.202263},{"is_transit":false,"i_long":106.819881,"station_name":"Sudirman Baru","transit":false,"distance":280,"line":1,"time":1,"i_lat":-6.201433,"station_id":"SUDB"},{"line":1,"station_id":"KAT","is_transit":false,"time":1,"distance":471,"station_name":"Karet","i_lat":-6.20132,"i_long":106.816351,"transit":false}]]}