{"data":[[{"i_lat":-6.193792,"station_id":"KMT","line":11,"station_name":"Kramat","time":0,"is_transit":false,"i_long":106.855437,"distance":0,"transit":false},{"i_long":106.861737,"distance":1829,"line":11,"station_name":"Pondok Jati","time":2,"transit":false,"is_transit":false,"i_lat":-6.209188,"station_id":"POK"},{"transit":true,"time":9,"station_id":"JNG","i_long":106.86807400000001,"is_transit":true,"line":1,"station_name":"Jatinegara","distance":1236,"i_lat":-6.215091},{"time":2,"transit":false,"distance":1377,"line":1,"station_name":"Matraman","station_id":"MTR","is_transit":false,"i_lat":-6.212485,"i_long":106.858896},{"distance":1275,"is_transit":true,"station_id":"MRI","i_lat":-6.209883,"i_long":106.84912,"station_name":"Manggarai","line":2,"time":2,"transit":true},{"transit":false,"station_name":"Tebet","station_id":"TEB","line":2,"time":4,"distance":2610,"is_transit":false,"i_lat":-6.226659,"i_long":106.857948},{"is_transit":false,"transit":false,"distance":1230,"station_name":"Cawang","time":2,"station_id":"CW","i_lat":-6.242512,"i_long":106.856607,"line":2},{"distance":1546,"is_transit":false,"line":2,"station_name":"Duren Kalibata","transit":false,"station_id":"DRN","i_lat":-6.255332,"i_long":106.85449,"time":3},{"is_transit":false,"time":2,"transit":false,"i_long":106.851577,"station_name":"Pasar Minggu Baru","line":2,"station_id":"PSMB","distance":824,"i_lat":-6.263214},{"line":2,"time":2,"station_name":"Pasar Minggu","transit":false,"i_lat":-6.2842400000000005,"i_long":106.843999,"distance":2380,"station_id":"PSM","is_transit":false},{"is_transit":false,"distance":2820,"i_long":106.838896,"station_name":"Tanjung Barat","i_lat":-6.3080680000000005,"transit":false,"station_id":"TNT","time":4,"line":2},{"station_name":"Lenteng Agung","i_lat":-6.330363,"line":2,"is_transit":false,"transit":false,"station_id":"LNA","time":3,"i_long":106.832616,"distance":2671},{"station_name":"Univ. Pancasila","line":2,"distance":1029,"is_transit":false,"station_id":"UP","transit":false,"i_long":106.834175,"time":2,"i_lat":-6.339291},{"transit":false,"is_transit":false,"distance":2264,"station_id":"UI","i_long":106.831474,"i_lat":-6.360749,"line":2,"time":3,"station_name":"Univ. Indonesia"}],[{"time":0,"i_long":106.855437,"station_name":"Kramat","station_id":"KMT","line":11,"is_transit":false,"transit":false,"i_lat":-6.193792,"distance":0},{"i_long":106.850107,"transit":false,"i_lat":-6.185975,"station_name":"Gang Sentiong","time":1,"distance":973,"station_id":"GST","is_transit":false,"line":11},{"transit":false,"line":11,"i_long":106.84368,"station_id":"PSE","time":8,"station_name":"Pasar Senen","distance":1567,"is_transit":false,"i_lat":-6.174784},{"i_lat":-6.161728,"line":11,"i_long":106.839204,"station_name":"Kemayoran","distance":1436,"station_id":"KMO","transit":false,"time":4,"is_transit":false},{"time":5,"station_id":"RJW","i_lat":-6.14505,"is_transit":false,"station_name":"Rajawali","line":11,"i_long":106.836569,"transit":false,"distance":1901},{"transit":true,"station_name":"Kampung Bandan","i_long":106.826365,"distance":1444,"i_lat":-6.132549,"is_transit":true,"line":4,"time":3,"station_id":"KPB"},{"station_name":"Angke","time":9,"distance":4102,"transit":false,"is_transit":false,"i_long":106.79867,"station_id":"AK","i_lat":-6.144674,"line":1},{"i_lat":-6.155215,"distance":1230,"time":4,"is_transit":false,"transit":false,"station_id":"DU","i_long":106.800832,"line":1,"station_name":"Duri"},{"is_transit":false,"i_long":106.811091,"transit":false,"i_lat":-6.185545,"station_name":"Tanah Abang","station_id":"THB","line":1,"distance":3632,"time":8},{"time":5,"station_id":"KAT","i_long":106.816351,"line":1,"distance":2029,"i_lat":-6.20132,"transit":false,"is_transit":false,"station_name":"Karet"},{"time":1,"transit":false,"i_long":106.819881,"distance":471,"station_name":"Sudirman Baru","station_id":"SUDB","i_lat":-6.201433,"line":1,"is_transit":false},{"is_transit":false,"i_long":106.822649,"i_lat":-6.202263,"time":1,"station_name":"Sudirman","line":1,"transit":false,"distance":280,"station_id":"SUD"},{"is_transit":true,"line":2,"station_name":"Manggarai","transit":true,"i_lat":-6.209883,"i_long":106.84912,"distance":3186,"time":4,"station_id":"MRI"},{"time":4,"distance":2610,"station_id":"TEB","is_transit":false,"i_long":106.857948,"station_name":"Tebet","i_lat":-6.226659,"transit":false,"line":2},{"station_name":"Cawang","line":2,"time":2,"is_transit":false,"i_lat":-6.242512,"i_long":106.856607,"station_id":"CW","transit":false,"distance":1230},{"transit":false,"line":2,"station_name":"Duren Kalibata","is_transit":false,"i_lat":-6.255332,"distance":1546,"i_long":106.85449,"station_id":"DRN","time":3},{"distance":824,"station_id":"PSMB","i_long":106.851577,"transit":false,"i_lat":-6.263214,"is_transit":false,"time":2,"station_name":"Pasar Minggu Baru","line":2},{"line":2,"i_long":106.843999,"time":2,"station_name":"Pasar Minggu","transit":false,"i_lat":-6.2842400000000005,"distance":2380,"is_transit":false,"station_id":"PSM"},{"distance":2820,"is_transit":false,"station_name":"Tanjung Barat","time":4,"station_id":"TNT","i_lat":-6.3080680000000005,"line":2,"i_long":106.838896,"transit":false},{"line":2,"i_lat":-6.330363,"station_id":"LNA","distance":2671,"is_transit":false,"station_name":"Lenteng Agung","time":3,"transit":false,"i_long":106.832616},{"station_id":"UP","i_lat":-6.339291,"station_name":"Univ. Pancasila","i_long":106.834175,"time":2,"transit":false,"distance":1029,"is_transit":false,"line":2},{"i_lat":-6.360749,"time":3,"transit":false,"station_id":"UI","i_long":106.831474,"line":2,"distance":2264,"is_transit":false,"station_name":"Univ. Indonesia"}],[{"transit":false,"station_name":"Kramat","time":0,"is_transit":false,"i_long":106.855437,"station_id":"KMT","i_lat":-6.193792,"line":11,"distance":0},{"time":1,"distance":973,"i_lat":-6.185975,"transit":false,"station_name":"Gang Sentiong","i_long":106.850107,"line":11,"is_transit":false,"station_id":"GST"},{"i_lat":-6.174784,"time":8,"distance":1567,"i_long":106.84368,"station_name":"Pasar Senen","transit":false,"station_id":"PSE","line":11,"is_transit":false},{"transit":false,"line":11,"distance":1436,"station_name":"Kemayoran","station_id":"KMO","i_lat":-6.161728,"is_transit":false,"i_long":106.839204,"time":4},{"station_name":"Rajawali","distance":1901,"station_id":"RJW","i_long":106.836569,"line":11,"i_lat":-6.14505,"transit":false,"is_transit":false,"time":5},{"line":4,"transit":true,"time":3,"station_name":"Kampung Bandan","distance":1444,"is_transit":true,"station_id":"KPB","i_lat":-6.132549,"i_long":106.826365},{"transit":true,"i_lat":-6.137569,"i_long":106.812439,"line":2,"station_name":"Jakarta Kota","distance":1364,"is_transit":true,"station_id":"JAKK","time":3},{"station_name":"Jayakarta","distance":1264,"transit":false,"is_transit":false,"station_id":"JAY","i_lat":-6.141205,"i_long":106.820901,"line":2,"time":4},{"station_name":"Manggabesar","transit":false,"station_id":"MGB","is_transit":false,"line":2,"time":2,"i_lat":-6.149769,"i_long":106.82482,"distance":1080},{"i_lat":-6.160725,"line":2,"distance":906,"i_long":106.827103,"is_transit":false,"time":2,"station_id":"SW","transit":false,"station_name":"Sawah Besar"},{"i_lat":-6.166716,"time":2,"station_name":"Juanda","is_transit":false,"i_long":106.828284,"station_id":"JUA","transit":false,"distance":1149,"line":2},{"transit":false,"distance":2015,"line":2,"i_lat":-6.186295,"i_long":106.832183,"station_name":"Gondangdia","time":4,"station_id":"GDD","is_transit":false},{"time":3,"transit":false,"station_name":"Cikini","is_transit":false,"i_long":106.840169,"station_id":"CKI","distance":1750,"i_lat":-6.198556,"line":2},{"station_id":"MRI","i_lat":-6.209883,"is_transit":false,"i_long":106.84912,"line":2,"station_name":"Manggarai","transit":false,"time":4,"distance":1590},{"i_long":106.857948,"time":4,"i_lat":-6.226659,"station_id":"TEB","station_name":"Tebet","is_transit":false,"transit":false,"distance":2610,"line":2},{"line":2,"time":2,"station_id":"CW","is_transit":false,"distance":1230,"i_lat":-6.242512,"i_long":106.856607,"station_name":"Cawang","transit":false},{"distance":1546,"is_transit":false,"line":2,"station_id":"DRN","i_lat":-6.255332,"transit":false,"station_name":"Duren Kalibata","i_long":106.85449,"time":3},{"i_long":106.851577,"i_lat":-6.263214,"transit":false,"station_id":"PSMB","distance":824,"is_transit":false,"line":2,"station_name":"Pasar Minggu Baru","time":2},{"station_name":"Pasar Minggu","distance":2380,"station_id":"PSM","is_transit":false,"line":2,"time":2,"i_lat":-6.2842400000000005,"i_long":106.843999,"transit":false},{"line":2,"distance":2820,"station_id":"TNT","i_long":106.838896,"station_name":"Tanjung Barat","transit":false,"time":4,"i_lat":-6.3080680000000005,"is_transit":false},{"distance":2671,"time":3,"station_id":"LNA","i_lat":-6.330363,"station_name":"Lenteng Agung","line":2,"transit":false,"is_transit":false,"i_long":106.832616},{"i_long":106.834175,"i_lat":-6.339291,"distance":1029,"is_transit":false,"time":2,"transit":false,"station_id":"UP","line":2,"station_name":"Univ. Pancasila"},{"line":2,"time":3,"i_lat":-6.360749,"distance":2264,"station_id":"UI","transit":false,"is_transit":false,"station_name":"Univ. Indonesia","i_long":106.831474}]]}