{"data":[[{"i_long":106.855437,"station_id":"KMT","transit":false,"line":11,"station_name":"Kramat","i_lat":-6.193792,"time":0,"is_transit":false,"distance":0},{"i_long":106.850107,"i_lat":-6.185975,"distance":973,"transit":false,"station_id":"GST","station_name":"Gang Sentiong","time":1,"line":11,"is_transit":false},{"line":11,"i_long":106.84368,"station_id":"PSE","station_name":"Pasar Senen","transit":false,"is_transit":false,"distance":1567,"i_lat":-6.174784,"time":8}],[{"station_id":"KMT","is_transit":false,"line":11,"i_lat":-6.193792,"transit":false,"i_long":106.855437,"station_name":"Kramat","time":0,"distance":0},{"distance":1829,"station_name":"Pondok Jati","i_long":106.861737,"i_lat":-6.209188,"station_id":"POK","line":11,"is_transit":false,"time":2,"transit":false},{"distance":1236,"time":9,"i_lat":-6.215091,"transit":true,"is_transit":true,"station_id":"JNG","line":1,"i_long":106.86807400000001,"station_name":"Jatinegara"},{"i_long":106.858896,"is_transit":false,"station_name":"Matraman","transit":false,"time":2,"station_id":"MTR","i_lat":-6.212485,"distance":1377,"line":1},{"time":2,"distance":1275,"transit":false,"station_id":"MRI","line":2,"station_name":"Manggarai","i_lat":-6.209883,"i_long":106.84912,"is_transit":false},{"i_lat":-6.202263,"time":4,"distance":3186,"station_id":"SUD","station_name":"Sudirman","is_transit":false,"i_long":106.822649,"transit":false,"line":1},{"station_id":"SUDB","line":1,"is_transit":false,"transit":false,"station_name":"Sudirman Baru","i_long":106.819881,"distance":280,"time":1,"i_lat":-6.201433},{"i_long":106.816351,"distance":471,"transit":false,"station_name":"Karet","time":1,"station_id":"KAT","i_lat":-6.20132,"line":1,"is_transit":false},{"line":1,"time":5,"distance":2029,"i_long":106.811091,"transit":false,"station_id":"THB","station_name":"Tanah Abang","i_lat":-6.185545,"is_transit":false},{"distance":3632,"line":1,"time":8,"i_lat":-6.155215,"station_id":"DU","i_long":106.800832,"transit":false,"station_name":"Duri","is_transit":false},{"i_lat":-6.144674,"distance":1230,"station_name":"Angke","line":1,"transit":false,"is_transit":false,"time":4,"i_long":106.79867,"station_id":"AK"},{"i_lat":-6.132549,"time":9,"station_id":"KPB","transit":true,"distance":4102,"i_long":106.826365,"is_transit":true,"station_name":"Kampung Bandan","line":4},{"line":11,"station_id":"RJW","distance":1444,"i_lat":-6.14505,"is_transit":false,"transit":false,"i_long":106.836569,"time":3,"station_name":"Rajawali"},{"station_id":"KMO","station_name":"Kemayoran","is_transit":false,"line":11,"time":5,"i_long":106.839204,"distance":1901,"i_lat":-6.161728,"transit":false},{"time":4,"i_lat":-6.174784,"i_long":106.84368,"line":11,"transit":false,"station_id":"PSE","station_name":"Pasar Senen","is_transit":false,"distance":1436}],[{"is_transit":false,"time":0,"transit":false,"i_long":106.855437,"distance":0,"line":11,"station_name":"Kramat","i_lat":-6.193792,"station_id":"KMT"},{"line":11,"station_id":"POK","i_lat":-6.209188,"distance":1829,"i_long":106.861737,"time":2,"is_transit":false,"station_name":"Pondok Jati","transit":false},{"i_lat":-6.215091,"i_long":106.86807400000001,"time":9,"line":1,"station_name":"Jatinegara","transit":true,"station_id":"JNG","is_transit":true,"distance":1236},{"station_id":"MTR","distance":1377,"i_long":106.858896,"transit":false,"station_name":"Matraman","is_transit":false,"i_lat":-6.212485,"line":1,"time":2},{"station_name":"Manggarai","station_id":"MRI","time":2,"line":2,"transit":true,"is_transit":true,"distance":1275,"i_lat":-6.209883,"i_long":106.84912},{"line":2,"i_long":106.840169,"distance":1590,"i_lat":-6.198556,"station_name":"Cikini","station_id":"CKI","transit":false,"is_transit":false,"time":4},{"i_lat":-6.186295,"station_name":"Gondangdia","i_long":106.832183,"distance":1750,"is_transit":false,"line":2,"transit":false,"time":3,"station_id":"GDD"},{"transit":false,"i_long":106.828284,"station_name":"Juanda","distance":2015,"line":2,"is_transit":false,"time":4,"i_lat":-6.166716,"station_id":"JUA"},{"i_long":106.827103,"station_name":"Sawah Besar","is_transit":false,"time":2,"i_lat":-6.160725,"line":2,"transit":false,"station_id":"SW","distance":1149},{"distance":906,"i_long":106.82482,"station_name":"Manggabesar","time":2,"station_id":"MGB","i_lat":-6.149769,"transit":false,"is_transit":false,"line":2},{"time":2,"transit":false,"station_id":"JAY","i_long":106.820901,"line":2,"station_name":"Jayakarta","is_transit":false,"distance":1080,"i_lat":-6.141205},{"i_long":106.812439,"is_transit":true,"transit":true,"station_name":"Jakarta Kota","distance":1264,"i_lat":-6.137569,"line":2,"time":4,"station_id":"JAKK"},{"transit":true,"is_transit":true,"distance":1364,"line":4,"station_name":"Kampung Bandan","i_long":106.826365,"station_id":"KPB","i_lat":-6.132549,"time":3},{"station_id":"RJW","transit":false,"station_name":"Rajawali","distance":1444,"is_transit":false,"time":3,"line":11,"i_lat":-6.14505,"i_long":106.836569},{"distance":1901,"station_name":"Kemayoran","transit":false,"i_lat":-6.161728,"station_id":"KMO","i_long":106.839204,"is_transit":false,"line":11,"time":5},{"transit":false,"time":4,"station_name":"Pasar Senen","station_id":"PSE","distance":1436,"i_lat":-6.174784,"is_transit":false,"i_long":106.84368,"line":11}]]}