{"data":[[{"station_name":"Kramat","station_id":"KMT","line":11,"distance":0,"time":0,"i_long":106.855437,"transit":false,"i_lat":-6.193792,"is_transit":false},{"is_transit":false,"time":2,"i_lat":-6.209188,"distance":1829,"station_id":"POK","transit":false,"i_long":106.861737,"line":11,"station_name":"Pondok Jati"},{"station_name":"Jatinegara","time":9,"line":1,"is_transit":true,"i_long":106.86807400000001,"i_lat":-6.215091,"station_id":"JNG","distance":1236,"transit":true},{"i_lat":-6.212485,"time":2,"i_long":106.858896,"line":1,"station_name":"Matraman","station_id":"MTR","is_transit":false,"distance":1377,"transit":false},{"line":2,"is_transit":false,"transit":false,"i_lat":-6.209883,"station_id":"MRI","i_long":106.84912,"distance":1275,"station_name":"Manggarai","time":2},{"station_id":"SUD","i_long":106.822649,"station_name":"Sudirman","i_lat":-6.202263,"transit":false,"time":4,"line":1,"is_transit":false,"distance":3186},{"transit":false,"time":1,"i_long":106.819881,"station_id":"SUDB","is_transit":false,"i_lat":-6.201433,"line":1,"distance":280,"station_name":"Sudirman Baru"},{"i_long":106.816351,"line":1,"station_id":"KAT","time":1,"i_lat":-6.20132,"distance":471,"is_transit":false,"station_name":"Karet","transit":false},{"distance":2029,"is_transit":true,"station_name":"Tanah Abang","i_long":106.811091,"station_id":"THB","time":5,"transit":true,"line":1,"i_lat":-6.185545},{"is_transit":false,"distance":3191,"i_long":106.79689,"time":6,"i_lat":-6.207404,"transit":false,"line":6,"station_id":"PLM","station_name":"Palmerah"},{"is_transit":false,"station_id":"KBY","line":6,"i_long":106.780334,"i_lat":-6.237242,"time":7,"station_name":"Kebayoran","transit":false,"distance":3737},{"station_id":"PDJ","distance":6218,"time":8,"transit":false,"station_name":"Pondokranji","is_transit":false,"i_long":106.74273,"i_lat":-6.276362,"line":6},{"distance":2179,"i_lat":-6.288927,"line":6,"is_transit":false,"i_long":106.728916,"time":3,"transit":false,"station_id":"JMU","station_name":"Jurangmangu"},{"is_transit":false,"i_lat":-6.296963,"transit":false,"station_name":"Sudimara","i_long":106.712277,"line":6,"station_id":"SDM","distance":1994,"time":4},{"station_name":"Rawa Buntu","i_lat":-6.314823,"transit":false,"is_transit":false,"station_id":"RU","distance":4566,"i_long":106.675475,"line":6,"time":6},{"distance":2413,"station_name":"Serpong","time":4,"line":6,"station_id":"SRP","transit":false,"i_long":106.66566,"i_lat":-6.319871,"is_transit":false},{"line":3,"i_lat":-6.32484,"time":4,"station_name":"Cisauk","i_long":106.640411,"transit":false,"is_transit":false,"distance":1784,"station_id":"CSK"},{"station_id":"CC","time":4,"is_transit":false,"line":3,"transit":false,"i_long":106.617853,"i_lat":-6.329547,"station_name":"Cicayur","distance":2519}],[{"transit":false,"time":0,"is_transit":false,"i_lat":-6.193792,"line":11,"distance":0,"station_name":"Kramat","i_long":106.855437,"station_id":"KMT"},{"line":11,"i_lat":-6.185975,"time":1,"distance":973,"station_id":"GST","station_name":"Gang Sentiong","transit":false,"is_transit":false,"i_long":106.850107},{"distance":1567,"line":11,"time":8,"is_transit":false,"i_lat":-6.174784,"transit":false,"station_id":"PSE","i_long":106.84368,"station_name":"Pasar Senen"},{"line":11,"transit":false,"is_transit":false,"i_lat":-6.161728,"i_long":106.839204,"time":4,"station_name":"Kemayoran","distance":1436,"station_id":"KMO"},{"station_name":"Rajawali","is_transit":false,"i_lat":-6.14505,"time":5,"distance":1901,"transit":false,"i_long":106.836569,"station_id":"RJW","line":11},{"distance":1444,"i_long":106.826365,"is_transit":true,"transit":true,"station_name":"Kampung Bandan","i_lat":-6.132549,"line":4,"station_id":"KPB","time":3},{"line":1,"transit":false,"i_long":106.79867,"station_name":"Angke","time":9,"i_lat":-6.144674,"station_id":"AK","distance":4102,"is_transit":false},{"i_long":106.800832,"i_lat":-6.155215,"line":1,"station_name":"Duri","is_transit":false,"transit":false,"time":4,"station_id":"DU","distance":1230},{"distance":3632,"time":8,"station_name":"Tanah Abang","is_transit":true,"transit":true,"i_lat":-6.185545,"line":1,"station_id":"THB","i_long":106.811091},{"distance":3191,"station_name":"Palmerah","i_lat":-6.207404,"line":6,"station_id":"PLM","is_transit":false,"transit":false,"i_long":106.79689,"time":6},{"transit":false,"line":6,"station_name":"Kebayoran","distance":3737,"station_id":"KBY","i_long":106.780334,"is_transit":false,"i_lat":-6.237242,"time":7},{"i_lat":-6.276362,"line":6,"distance":6218,"i_long":106.74273,"transit":false,"time":8,"station_id":"PDJ","is_transit":false,"station_name":"Pondokranji"},{"station_id":"JMU","station_name":"Jurangmangu","time":3,"transit":false,"i_long":106.728916,"distance":2179,"i_lat":-6.288927,"is_transit":false,"line":6},{"distance":1994,"transit":false,"station_id":"SDM","is_transit":false,"i_long":106.712277,"time":4,"station_name":"Sudimara","i_lat":-6.296963,"line":6},{"distance":4566,"i_long":106.675475,"line":6,"i_lat":-6.314823,"time":6,"station_id":"RU","is_transit":false,"transit":false,"station_name":"Rawa Buntu"},{"distance":2413,"line":6,"i_long":106.66566,"i_lat":-6.319871,"station_name":"Serpong","is_transit":false,"station_id":"SRP","transit":false,"time":4},{"station_id":"CSK","time":4,"is_transit":false,"line":3,"i_lat":-6.32484,"distance":1784,"station_name":"Cisauk","transit":false,"i_long":106.640411},{"i_long":106.617853,"transit":false,"time":4,"i_lat":-6.329547,"is_transit":false,"distance":2519,"station_name":"Cicayur","station_id":"CC","line":3}],[{"distance":0,"line":11,"station_id":"KMT","transit":false,"is_transit":false,"i_lat":-6.193792,"time":0,"station_name":"Kramat","i_long":106.855437},{"distance":1829,"station_id":"POK","is_transit":false,"transit":false,"i_lat":-6.209188,"i_long":106.861737,"line":11,"station_name":"Pondok Jati","time":2},{"transit":true,"station_name":"Jatinegara","distance":1236,"station_id":"JNG","time":9,"i_lat":-6.215091,"i_long":106.86807400000001,"is_transit":true,"line":1},{"station_id":"MTR","is_transit":false,"time":2,"distance":1377,"i_lat":-6.212485,"station_name":"Matraman","i_long":106.858896,"transit":false,"line":1},{"transit":true,"i_lat":-6.209883,"station_name":"Manggarai","is_transit":true,"station_id":"MRI","distance":1275,"time":2,"i_long":106.84912,"line":2},{"distance":1590,"i_lat":-6.198556,"time":4,"i_long":106.840169,"station_id":"CKI","station_name":"Cikini","transit":false,"is_transit":false,"line":2},{"distance":1750,"station_name":"Gondangdia","is_transit":false,"line":2,"time":3,"station_id":"GDD","i_lat":-6.186295,"transit":false,"i_long":106.832183},{"time":4,"station_id":"JUA","distance":2015,"transit":false,"is_transit":false,"line":2,"i_lat":-6.166716,"station_name":"Juanda","i_long":106.828284},{"station_name":"Sawah Besar","time":2,"i_lat":-6.160725,"i_long":106.827103,"distance":1149,"line":2,"is_transit":false,"station_id":"SW","transit":false},{"station_id":"MGB","is_transit":false,"line":2,"i_lat":-6.149769,"station_name":"Manggabesar","distance":906,"time":2,"transit":false,"i_long":106.82482},{"distance":1080,"transit":false,"is_transit":false,"time":2,"i_long":106.820901,"station_id":"JAY","i_lat":-6.141205,"line":2,"station_name":"Jayakarta"},{"i_lat":-6.137569,"station_id":"JAKK","time":4,"i_long":106.812439,"station_name":"Jakarta Kota","is_transit":true,"line":2,"distance":1264,"transit":true},{"i_lat":-6.132549,"station_id":"KPB","transit":true,"station_name":"Kampung Bandan","line":4,"i_long":106.826365,"time":3,"is_transit":true,"distance":1364},{"is_transit":false,"i_long":106.79867,"transit":false,"station_id":"AK","distance":4102,"i_lat":-6.144674,"time":9,"line":1,"station_name":"Angke"},{"station_name":"Duri","time":4,"transit":false,"i_long":106.800832,"line":1,"station_id":"DU","i_lat":-6.155215,"distance":1230,"is_transit":false},{"is_transit":true,"i_lat":-6.185545,"distance":3632,"line":1,"i_long":106.811091,"station_id":"THB","transit":true,"time":8,"station_name":"Tanah Abang"},{"i_lat":-6.207404,"is_transit":false,"i_long":106.79689,"distance":3191,"time":6,"station_name":"Palmerah","transit":false,"line":6,"station_id":"PLM"},{"station_name":"Kebayoran","transit":false,"line":6,"i_lat":-6.237242,"time":7,"is_transit":false,"i_long":106.780334,"distance":3737,"station_id":"KBY"},{"station_id":"PDJ","i_lat":-6.276362,"is_transit":false,"i_long":106.74273,"time":8,"station_name":"Pondokranji","distance":6218,"transit":false,"line":6},{"is_transit":false,"line":6,"transit":false,"distance":2179,"time":3,"station_name":"Jurangmangu","i_lat":-6.288927,"station_id":"JMU","i_long":106.728916},{"i_long":106.712277,"line":6,"distance":1994,"i_lat":-6.296963,"is_transit":false,"station_id":"SDM","station_name":"Sudimara","transit":false,"time":4},{"station_id":"RU","transit":false,"i_long":106.675475,"line":6,"time":6,"distance":4566,"is_transit":false,"i_lat":-6.314823,"station_name":"Rawa Buntu"},{"time":4,"is_transit":false,"transit":false,"distance":2413,"i_long":106.66566,"i_lat":-6.319871,"station_name":"Serpong","line":6,"station_id":"SRP"},{"transit":false,"is_transit":false,"i_lat":-6.32484,"distance":1784,"station_name":"Cisauk","line":3,"station_id":"CSK","time":4,"i_long":106.640411},{"line":3,"is_transit":false,"station_id":"CC","distance":2519,"i_long":106.617853,"time":4,"station_name":"Cicayur","transit":false,"i_lat":-6.329547}],[{"station_name":"Kramat","i_lat":-6.193792,"is_transit":false,"i_long":106.855437,"transit":false,"time":0,"line":11,"station_id":"KMT","distance":0},{"i_long":106.850107,"time":1,"i_lat":-6.185975,"transit":false,"station_id":"GST","station_name":"Gang Sentiong","line":11,"distance":973,"is_transit":false},{"distance":1567,"i_lat":-6.174784,"is_transit":false,"i_long":106.84368,"station_name":"Pasar Senen","station_id":"PSE","transit":false,"time":8,"line":11},{"is_transit":false,"transit":false,"time":4,"i_lat":-6.161728,"line":11,"distance":1436,"station_name":"Kemayoran","station_id":"KMO","i_long":106.839204},{"station_name":"Rajawali","i_lat":-6.14505,"time":5,"i_long":106.836569,"distance":1901,"transit":false,"station_id":"RJW","line":11,"is_transit":false},{"i_lat":-6.132549,"line":4,"station_id":"KPB","distance":1444,"station_name":"Kampung Bandan","is_transit":true,"i_long":106.826365,"transit":true,"time":3},{"transit":true,"time":3,"distance":1364,"station_name":"Jakarta Kota","line":2,"i_lat":-6.137569,"is_transit":true,"i_long":106.812439,"station_id":"JAKK"},{"station_name":"Jayakarta","is_transit":false,"i_long":106.820901,"distance":1264,"time":4,"station_id":"JAY","transit":false,"i_lat":-6.141205,"line":2},{"is_transit":false,"time":2,"distance":1080,"i_long":106.82482,"station_name":"Manggabesar","line":2,"station_id":"MGB","transit":false,"i_lat":-6.149769},{"transit":false,"distance":906,"i_lat":-6.160725,"time":2,"line":2,"station_id":"SW","is_transit":false,"i_long":106.827103,"station_name":"Sawah Besar"},{"line":2,"transit":false,"time":2,"station_id":"JUA","distance":1149,"i_long":106.828284,"i_lat":-6.166716,"station_name":"Juanda","is_transit":false},{"i_lat":-6.186295,"line":2,"station_name":"Gondangdia","transit":false,"is_transit":false,"time":4,"distance":2015,"station_id":"GDD","i_long":106.832183},{"station_id":"CKI","time":3,"is_transit":false,"station_name":"Cikini","distance":1750,"transit":false,"i_long":106.840169,"line":2,"i_lat":-6.198556},{"station_name":"Manggarai","distance":1590,"station_id":"MRI","is_transit":true,"i_long":106.84912,"time":4,"i_lat":-6.209883,"transit":true,"line":2},{"is_transit":false,"time":4,"distance":3186,"station_id":"SUD","transit":false,"line":1,"station_name":"Sudirman","i_lat":-6.202263,"i_long":106.822649},{"station_id":"SUDB","i_lat":-6.201433,"distance":280,"time":1,"transit":false,"is_transit":false,"line":1,"i_long":106.819881,"station_name":"Sudirman Baru"},{"station_name":"Karet","transit":false,"is_transit":false,"i_long":106.816351,"time":1,"i_lat":-6.20132,"line":1,"station_id":"KAT","distance":471},{"line":1,"time":5,"transit":true,"station_id":"THB","is_transit":true,"i_lat":-6.185545,"distance":2029,"station_name":"Tanah Abang","i_long":106.811091},{"station_name":"Palmerah","i_lat":-6.207404,"time":6,"distance":3191,"i_long":106.79689,"line":6,"transit":false,"is_transit":false,"station_id":"PLM"},{"line":6,"transit":false,"station_name":"Kebayoran","i_long":106.780334,"station_id":"KBY","time":7,"i_lat":-6.237242,"distance":3737,"is_transit":false},{"i_long":106.74273,"is_transit":false,"i_lat":-6.276362,"line":6,"station_name":"Pondokranji","time":8,"distance":6218,"transit":false,"station_id":"PDJ"},{"i_long":106.728916,"transit":false,"is_transit":false,"time":3,"i_lat":-6.288927,"station_name":"Jurangmangu","line":6,"distance":2179,"station_id":"JMU"},{"station_name":"Sudimara","is_transit":false,"station_id":"SDM","i_lat":-6.296963,"transit":false,"time":4,"i_long":106.712277,"distance":1994,"line":6},{"station_name":"Rawa Buntu","station_id":"RU","is_transit":false,"time":6,"i_lat":-6.314823,"transit":false,"distance":4566,"i_long":106.675475,"line":6},{"transit":false,"distance":2413,"i_lat":-6.319871,"is_transit":false,"time":4,"station_name":"Serpong","line":6,"station_id":"SRP","i_long":106.66566},{"transit":false,"i_lat":-6.32484,"is_transit":false,"station_id":"CSK","time":4,"distance":1784,"i_long":106.640411,"station_name":"Cisauk","line":3},{"distance":2519,"transit":false,"station_id":"CC","line":3,"is_transit":false,"i_lat":-6.329547,"i_long":106.617853,"time":4,"station_name":"Cicayur"}]]}