{"data":[[{"station_id":"KMT","transit":false,"time":0,"i_long":106.855437,"line":11,"is_transit":false,"station_name":"Kramat","distance":0,"i_lat":-6.193792},{"line":11,"time":2,"i_lat":-6.209188,"station_name":"Pondok Jati","distance":1829,"i_long":106.861737,"transit":false,"station_id":"POK","is_transit":false},{"i_lat":-6.215091,"line":1,"station_id":"JNG","transit":true,"distance":1236,"i_long":106.86807400000001,"is_transit":true,"station_name":"Jatinegara","time":9},{"station_name":"Matraman","i_lat":-6.212485,"time":2,"i_long":106.858896,"transit":false,"is_transit":false,"line":1,"station_id":"MTR","distance":1377},{"distance":1275,"line":2,"i_long":106.84912,"i_lat":-6.209883,"time":2,"station_name":"Manggarai","is_transit":false,"station_id":"MRI","transit":false},{"station_name":"Sudirman","is_transit":false,"station_id":"SUD","transit":false,"i_long":106.822649,"line":1,"time":4,"distance":3186,"i_lat":-6.202263},{"line":1,"station_name":"Sudirman Baru","station_id":"SUDB","is_transit":false,"transit":false,"time":1,"i_lat":-6.201433,"i_long":106.819881,"distance":280},{"station_id":"KAT","station_name":"Karet","i_long":106.816351,"is_transit":false,"distance":471,"i_lat":-6.20132,"line":1,"transit":false,"time":1},{"station_name":"Tanah Abang","station_id":"THB","distance":2029,"i_long":106.811091,"i_lat":-6.185545,"is_transit":true,"transit":true,"time":5,"line":1},{"i_lat":-6.207404,"line":6,"time":6,"transit":false,"station_id":"PLM","is_transit":false,"station_name":"Palmerah","distance":3191,"i_long":106.79689},{"i_long":106.780334,"station_name":"Kebayoran","line":6,"station_id":"KBY","is_transit":false,"time":7,"distance":3737,"transit":false,"i_lat":-6.237242},{"is_transit":false,"transit":false,"time":8,"line":6,"i_long":106.74273,"station_id":"PDJ","distance":6218,"i_lat":-6.276362,"station_name":"Pondokranji"},{"is_transit":false,"distance":2179,"i_long":106.728916,"line":6,"time":3,"station_id":"JMU","station_name":"Jurangmangu","transit":false,"i_lat":-6.288927},{"i_long":106.712277,"i_lat":-6.296963,"line":6,"station_id":"SDM","transit":false,"is_transit":false,"station_name":"Sudimara","distance":1994,"time":4},{"transit":false,"time":6,"i_lat":-6.314823,"station_id":"RU","line":6,"is_transit":false,"distance":4566,"station_name":"Rawa Buntu","i_long":106.675475},{"line":6,"i_long":106.66566,"station_id":"SRP","i_lat":-6.319871,"transit":false,"time":4,"is_transit":false,"distance":2413,"station_name":"Serpong"},{"distance":1784,"transit":false,"i_lat":-6.32484,"time":4,"station_name":"Cisauk","i_long":106.640411,"line":3,"station_id":"CSK","is_transit":false},{"station_id":"CC","is_transit":false,"i_lat":-6.329547,"i_long":106.617853,"line":3,"station_name":"Cicayur","transit":false,"time":4,"distance":2519},{"i_lat":-6.3441410000000005,"i_long":106.568863,"is_transit":false,"time":8,"transit":false,"station_name":"Parung Panjang","station_id":"PRP","distance":5968,"line":6}],[{"station_name":"Kramat","distance":0,"time":0,"line":11,"i_long":106.855437,"i_lat":-6.193792,"transit":false,"station_id":"KMT","is_transit":false},{"line":11,"i_long":106.850107,"is_transit":false,"transit":false,"station_name":"Gang Sentiong","i_lat":-6.185975,"station_id":"GST","time":1,"distance":973},{"time":8,"i_lat":-6.174784,"station_id":"PSE","is_transit":false,"station_name":"Pasar Senen","i_long":106.84368,"distance":1567,"transit":false,"line":11},{"i_lat":-6.161728,"i_long":106.839204,"distance":1436,"station_name":"Kemayoran","is_transit":false,"line":11,"transit":false,"station_id":"KMO","time":4},{"i_lat":-6.14505,"station_id":"RJW","i_long":106.836569,"line":11,"is_transit":false,"time":5,"station_name":"Rajawali","transit":false,"distance":1901},{"time":3,"line":4,"distance":1444,"is_transit":true,"transit":true,"i_long":106.826365,"station_name":"Kampung Bandan","i_lat":-6.132549,"station_id":"KPB"},{"station_name":"Angke","transit":false,"line":1,"distance":4102,"i_lat":-6.144674,"time":9,"i_long":106.79867,"station_id":"AK","is_transit":false},{"i_lat":-6.155215,"is_transit":false,"station_id":"DU","distance":1230,"i_long":106.800832,"transit":false,"line":1,"time":4,"station_name":"Duri"},{"line":1,"i_lat":-6.185545,"is_transit":true,"transit":true,"time":8,"distance":3632,"i_long":106.811091,"station_id":"THB","station_name":"Tanah Abang"},{"time":6,"i_long":106.79689,"line":6,"station_name":"Palmerah","transit":false,"station_id":"PLM","distance":3191,"is_transit":false,"i_lat":-6.207404},{"is_transit":false,"station_name":"Kebayoran","i_lat":-6.237242,"line":6,"transit":false,"i_long":106.780334,"station_id":"KBY","distance":3737,"time":7},{"distance":6218,"i_lat":-6.276362,"i_long":106.74273,"transit":false,"line":6,"time":8,"station_id":"PDJ","is_transit":false,"station_name":"Pondokranji"},{"time":3,"transit":false,"station_name":"Jurangmangu","i_lat":-6.288927,"i_long":106.728916,"line":6,"station_id":"JMU","is_transit":false,"distance":2179},{"transit":false,"station_id":"SDM","time":4,"distance":1994,"i_lat":-6.296963,"line":6,"is_transit":false,"i_long":106.712277,"station_name":"Sudimara"},{"transit":false,"is_transit":false,"station_id":"RU","station_name":"Rawa Buntu","i_lat":-6.314823,"line":6,"distance":4566,"time":6,"i_long":106.675475},{"station_id":"SRP","is_transit":false,"i_lat":-6.319871,"line":6,"transit":false,"time":4,"station_name":"Serpong","distance":2413,"i_long":106.66566},{"line":3,"transit":false,"time":4,"station_id":"CSK","is_transit":false,"distance":1784,"station_name":"Cisauk","i_lat":-6.32484,"i_long":106.640411},{"time":4,"line":3,"station_id":"CC","station_name":"Cicayur","distance":2519,"i_lat":-6.329547,"transit":false,"i_long":106.617853,"is_transit":false},{"line":6,"time":8,"station_name":"Parung Panjang","transit":false,"is_transit":false,"i_lat":-6.3441410000000005,"i_long":106.568863,"distance":5968,"station_id":"PRP"}],[{"transit":false,"station_name":"Kramat","is_transit":false,"line":11,"time":0,"i_lat":-6.193792,"distance":0,"i_long":106.855437,"station_id":"KMT"},{"station_id":"POK","is_transit":false,"i_long":106.861737,"transit":false,"time":2,"i_lat":-6.209188,"distance":1829,"station_name":"Pondok Jati","line":11},{"i_lat":-6.215091,"station_id":"JNG","distance":1236,"transit":true,"i_long":106.86807400000001,"station_name":"Jatinegara","time":9,"line":1,"is_transit":true},{"transit":false,"distance":1377,"station_name":"Matraman","i_long":106.858896,"is_transit":false,"line":1,"time":2,"i_lat":-6.212485,"station_id":"MTR"},{"line":2,"i_lat":-6.209883,"is_transit":true,"time":2,"station_id":"MRI","station_name":"Manggarai","transit":true,"distance":1275,"i_long":106.84912},{"i_long":106.840169,"time":4,"station_id":"CKI","transit":false,"distance":1590,"station_name":"Cikini","i_lat":-6.198556,"line":2,"is_transit":false},{"transit":false,"line":2,"distance":1750,"station_name":"Gondangdia","is_transit":false,"i_long":106.832183,"time":3,"i_lat":-6.186295,"station_id":"GDD"},{"i_long":106.828284,"station_id":"JUA","transit":false,"station_name":"Juanda","line":2,"time":4,"distance":2015,"i_lat":-6.166716,"is_transit":false},{"is_transit":false,"station_id":"SW","distance":1149,"transit":false,"time":2,"station_name":"Sawah Besar","i_lat":-6.160725,"i_long":106.827103,"line":2},{"i_long":106.82482,"is_transit":false,"time":2,"line":2,"transit":false,"i_lat":-6.149769,"station_id":"MGB","station_name":"Manggabesar","distance":906},{"is_transit":false,"time":2,"distance":1080,"i_long":106.820901,"i_lat":-6.141205,"station_name":"Jayakarta","line":2,"station_id":"JAY","transit":false},{"station_id":"JAKK","i_long":106.812439,"distance":1264,"station_name":"Jakarta Kota","transit":true,"i_lat":-6.137569,"time":4,"line":2,"is_transit":true},{"i_long":106.826365,"line":4,"is_transit":true,"transit":true,"time":3,"i_lat":-6.132549,"station_id":"KPB","station_name":"Kampung Bandan","distance":1364},{"i_lat":-6.144674,"transit":false,"is_transit":false,"station_id":"AK","station_name":"Angke","distance":4102,"time":9,"i_long":106.79867,"line":1},{"is_transit":false,"station_name":"Duri","i_lat":-6.155215,"station_id":"DU","i_long":106.800832,"distance":1230,"line":1,"transit":false,"time":4},{"station_name":"Tanah Abang","i_lat":-6.185545,"line":1,"transit":true,"distance":3632,"station_id":"THB","is_transit":true,"time":8,"i_long":106.811091},{"station_id":"PLM","is_transit":false,"transit":false,"distance":3191,"i_lat":-6.207404,"line":6,"time":6,"i_long":106.79689,"station_name":"Palmerah"},{"time":7,"i_long":106.780334,"distance":3737,"transit":false,"is_transit":false,"station_id":"KBY","station_name":"Kebayoran","i_lat":-6.237242,"line":6},{"is_transit":false,"i_long":106.74273,"station_id":"PDJ","i_lat":-6.276362,"line":6,"time":8,"distance":6218,"transit":false,"station_name":"Pondokranji"},{"transit":false,"time":3,"i_long":106.728916,"station_id":"JMU","station_name":"Jurangmangu","distance":2179,"i_lat":-6.288927,"line":6,"is_transit":false},{"time":4,"is_transit":false,"i_long":106.712277,"station_id":"SDM","i_lat":-6.296963,"distance":1994,"station_name":"Sudimara","line":6,"transit":false},{"transit":false,"time":6,"line":6,"station_name":"Rawa Buntu","station_id":"RU","i_lat":-6.314823,"distance":4566,"i_long":106.675475,"is_transit":false},{"distance":2413,"i_lat":-6.319871,"line":6,"is_transit":false,"transit":false,"time":4,"i_long":106.66566,"station_id":"SRP","station_name":"Serpong"},{"distance":1784,"line":3,"transit":false,"i_long":106.640411,"station_name":"Cisauk","station_id":"CSK","is_transit":false,"i_lat":-6.32484,"time":4},{"station_name":"Cicayur","station_id":"CC","i_lat":-6.329547,"is_transit":false,"i_long":106.617853,"distance":2519,"transit":false,"time":4,"line":3},{"i_lat":-6.3441410000000005,"station_name":"Parung Panjang","transit":false,"distance":5968,"line":6,"i_long":106.568863,"station_id":"PRP","is_transit":false,"time":8}],[{"i_long":106.855437,"i_lat":-6.193792,"distance":0,"transit":false,"time":0,"line":11,"is_transit":false,"station_name":"Kramat","station_id":"KMT"},{"time":1,"distance":973,"station_id":"GST","line":11,"is_transit":false,"station_name":"Gang Sentiong","transit":false,"i_lat":-6.185975,"i_long":106.850107},{"transit":false,"time":8,"i_long":106.84368,"i_lat":-6.174784,"station_id":"PSE","distance":1567,"station_name":"Pasar Senen","line":11,"is_transit":false},{"line":11,"station_name":"Kemayoran","station_id":"KMO","transit":false,"is_transit":false,"distance":1436,"i_long":106.839204,"time":4,"i_lat":-6.161728},{"i_lat":-6.14505,"line":11,"station_id":"RJW","distance":1901,"is_transit":false,"transit":false,"time":5,"station_name":"Rajawali","i_long":106.836569},{"i_long":106.826365,"distance":1444,"transit":true,"i_lat":-6.132549,"time":3,"line":4,"station_id":"KPB","is_transit":true,"station_name":"Kampung Bandan"},{"i_lat":-6.137569,"is_transit":true,"line":2,"transit":true,"i_long":106.812439,"time":3,"distance":1364,"station_id":"JAKK","station_name":"Jakarta Kota"},{"station_name":"Jayakarta","line":2,"transit":false,"time":4,"station_id":"JAY","is_transit":false,"i_lat":-6.141205,"i_long":106.820901,"distance":1264},{"i_lat":-6.149769,"transit":false,"time":2,"distance":1080,"station_id":"MGB","is_transit":false,"i_long":106.82482,"station_name":"Manggabesar","line":2},{"station_name":"Sawah Besar","distance":906,"i_long":106.827103,"station_id":"SW","time":2,"transit":false,"i_lat":-6.160725,"is_transit":false,"line":2},{"station_id":"JUA","distance":1149,"i_lat":-6.166716,"is_transit":false,"time":2,"station_name":"Juanda","transit":false,"i_long":106.828284,"line":2},{"time":4,"station_id":"GDD","transit":false,"i_long":106.832183,"distance":2015,"i_lat":-6.186295,"is_transit":false,"station_name":"Gondangdia","line":2},{"is_transit":false,"time":3,"i_lat":-6.198556,"station_id":"CKI","line":2,"transit":false,"station_name":"Cikini","i_long":106.840169,"distance":1750},{"transit":true,"time":4,"station_name":"Manggarai","i_long":106.84912,"distance":1590,"is_transit":true,"line":2,"i_lat":-6.209883,"station_id":"MRI"},{"i_lat":-6.202263,"time":4,"is_transit":false,"station_name":"Sudirman","distance":3186,"transit":false,"line":1,"i_long":106.822649,"station_id":"SUD"},{"transit":false,"distance":280,"line":1,"i_long":106.819881,"station_id":"SUDB","is_transit":false,"time":1,"i_lat":-6.201433,"station_name":"Sudirman Baru"},{"is_transit":false,"station_id":"KAT","i_lat":-6.20132,"transit":false,"station_name":"Karet","time":1,"distance":471,"i_long":106.816351,"line":1},{"transit":true,"i_long":106.811091,"is_transit":true,"station_name":"Tanah Abang","distance":2029,"time":5,"i_lat":-6.185545,"line":1,"station_id":"THB"},{"line":6,"i_long":106.79689,"time":6,"station_id":"PLM","station_name":"Palmerah","distance":3191,"is_transit":false,"transit":false,"i_lat":-6.207404},{"station_name":"Kebayoran","is_transit":false,"station_id":"KBY","distance":3737,"line":6,"transit":false,"i_long":106.780334,"i_lat":-6.237242,"time":7},{"time":8,"distance":6218,"line":6,"i_lat":-6.276362,"is_transit":false,"i_long":106.74273,"station_name":"Pondokranji","station_id":"PDJ","transit":false},{"station_name":"Jurangmangu","is_transit":false,"distance":2179,"station_id":"JMU","time":3,"i_lat":-6.288927,"line":6,"i_long":106.728916,"transit":false},{"i_lat":-6.296963,"time":4,"is_transit":false,"station_id":"SDM","distance":1994,"transit":false,"line":6,"station_name":"Sudimara","i_long":106.712277},{"time":6,"line":6,"i_lat":-6.314823,"station_id":"RU","distance":4566,"i_long":106.675475,"station_name":"Rawa Buntu","is_transit":false,"transit":false},{"line":6,"station_name":"Serpong","distance":2413,"i_long":106.66566,"transit":false,"i_lat":-6.319871,"time":4,"is_transit":false,"station_id":"SRP"},{"i_lat":-6.32484,"i_long":106.640411,"is_transit":false,"station_id":"CSK","transit":false,"time":4,"station_name":"Cisauk","line":3,"distance":1784},{"distance":2519,"i_long":106.617853,"transit":false,"i_lat":-6.329547,"line":3,"is_transit":false,"station_id":"CC","time":4,"station_name":"Cicayur"},{"i_long":106.568863,"time":8,"station_id":"PRP","transit":false,"station_name":"Parung Panjang","i_lat":-6.3441410000000005,"distance":5968,"line":6,"is_transit":false}]]}