{"data":[[{"station_id":"KMT","distance":0,"transit":false,"station_name":"Kramat","i_lat":-6.193792,"is_transit":false,"i_long":106.855437,"line":11,"time":0},{"station_id":"POK","is_transit":false,"i_long":106.861737,"distance":1829,"i_lat":-6.209188,"time":2,"station_name":"Pondok Jati","transit":false,"line":11},{"station_name":"Jatinegara","line":0,"distance":1236,"is_transit":true,"station_id":"JNG","transit":true,"i_long":106.86807400000001,"time":9,"i_lat":-6.215091},{"transit":false,"i_lat":-6.212485,"time":2,"distance":1377,"is_transit":false,"i_long":106.858896,"station_id":"MTR","station_name":"Matraman","line":1},{"i_long":106.84912,"station_id":"MRI","line":0,"is_transit":true,"distance":1275,"time":2,"i_lat":-6.209883,"transit":false,"station_name":"Manggarai"},{"time":4,"station_id":"SUD","is_transit":false,"i_long":106.822649,"line":1,"station_name":"Sudirman","transit":false,"distance":3186,"i_lat":-6.202263},{"line":1,"time":1,"station_id":"SUDB","transit":false,"distance":280,"station_name":"Sudirman Baru","is_transit":false,"i_lat":-6.201433,"i_long":106.819881},{"is_transit":false,"distance":471,"transit":false,"i_lat":-6.20132,"line":1,"station_name":"Karet","time":1,"i_long":106.816351,"station_id":"KAT"},{"distance":2029,"station_id":"THB","is_transit":true,"station_name":"Tanah Abang","transit":true,"i_long":106.811091,"i_lat":-6.185545,"line":1,"time":5},{"is_transit":false,"line":6,"time":6,"station_name":"Palmerah","transit":false,"i_long":106.79689,"distance":3191,"i_lat":-6.207404,"station_id":"PLM"}],[{"transit":false,"station_name":"Kramat","i_lat":-6.193792,"i_long":106.855437,"time":0,"line":11,"is_transit":false,"distance":0,"station_id":"KMT"},{"time":1,"transit":false,"station_name":"Gang Sentiong","i_lat":-6.185975,"line":11,"is_transit":false,"station_id":"GST","distance":973,"i_long":106.850107},{"is_transit":false,"i_lat":-6.174784,"station_id":"PSE","transit":false,"i_long":106.84368,"distance":1567,"station_name":"Pasar Senen","line":11,"time":8},{"distance":1436,"is_transit":false,"i_lat":-6.161728,"transit":false,"station_id":"KMO","i_long":106.839204,"time":4,"line":11,"station_name":"Kemayoran"},{"line":11,"transit":false,"time":5,"station_id":"RJW","i_lat":-6.14505,"is_transit":false,"distance":1901,"i_long":106.836569,"station_name":"Rajawali"},{"line":0,"is_transit":true,"station_id":"KPB","distance":1444,"station_name":"Kampung Bandan","i_long":106.826365,"transit":true,"time":3,"i_lat":-6.132549},{"is_transit":false,"time":9,"i_long":106.79867,"distance":4102,"station_name":"Angke","transit":false,"station_id":"AK","line":0,"i_lat":-6.144674},{"station_name":"Duri","i_lat":-6.155215,"station_id":"DU","i_long":106.800832,"distance":1230,"time":4,"line":1,"is_transit":true,"transit":true},{"station_id":"THB","distance":3632,"line":1,"station_name":"Tanah Abang","is_transit":true,"i_lat":-6.185545,"time":8,"transit":true,"i_long":106.811091},{"i_long":106.79689,"time":6,"i_lat":-6.207404,"station_id":"PLM","is_transit":false,"line":6,"transit":false,"distance":3191,"station_name":"Palmerah"}],[{"transit":false,"distance":0,"i_long":106.855437,"is_transit":false,"time":0,"i_lat":-6.193792,"line":11,"station_id":"KMT","station_name":"Kramat"},{"i_lat":-6.209188,"time":2,"i_long":106.861737,"is_transit":false,"line":11,"station_id":"POK","transit":false,"distance":1829,"station_name":"Pondok Jati"},{"i_lat":-6.215091,"station_name":"Jatinegara","station_id":"JNG","time":9,"line":0,"distance":1236,"transit":true,"is_transit":true,"i_long":106.86807400000001},{"time":2,"is_transit":false,"distance":1377,"line":1,"station_id":"MTR","transit":false,"i_long":106.858896,"i_lat":-6.212485,"station_name":"Matraman"},{"distance":1275,"station_name":"Manggarai","i_lat":-6.209883,"i_long":106.84912,"station_id":"MRI","time":2,"transit":true,"is_transit":true,"line":0},{"i_lat":-6.198556,"is_transit":false,"station_name":"Cikini","i_long":106.840169,"line":0,"distance":1590,"time":4,"station_id":"CKI","transit":false},{"i_lat":-6.186295,"station_id":"GDD","i_long":106.832183,"distance":1750,"transit":false,"station_name":"Gondangdia","is_transit":false,"time":3,"line":2},{"is_transit":false,"i_lat":-6.166716,"i_long":106.828284,"station_name":"Juanda","transit":false,"station_id":"JUA","time":4,"distance":2015,"line":2},{"transit":false,"line":2,"station_id":"SW","i_lat":-6.160725,"station_name":"Sawah Besar","time":2,"i_long":106.827103,"is_transit":false,"distance":1149},{"distance":906,"transit":false,"time":2,"i_lat":-6.149769,"i_long":106.82482,"is_transit":false,"station_id":"MGB","line":2,"station_name":"Manggabesar"},{"distance":1080,"line":7,"is_transit":false,"station_id":"JAY","i_long":106.820901,"transit":false,"time":2,"i_lat":-6.141205,"station_name":"Jayakarta"},{"station_id":"JAKK","i_lat":-6.137569,"time":4,"transit":true,"distance":1264,"i_long":106.812439,"line":0,"station_name":"Jakarta Kota","is_transit":true},{"i_long":106.826365,"transit":false,"distance":1364,"i_lat":-6.132549,"time":3,"station_id":"KPB","is_transit":true,"station_name":"Kampung Bandan","line":0},{"station_id":"AK","i_lat":-6.144674,"station_name":"Angke","transit":false,"time":9,"is_transit":false,"i_long":106.79867,"line":0,"distance":4102},{"i_lat":-6.155215,"line":1,"distance":1230,"transit":true,"i_long":106.800832,"is_transit":true,"time":4,"station_id":"DU","station_name":"Duri"},{"transit":true,"is_transit":true,"line":1,"station_name":"Tanah Abang","station_id":"THB","i_lat":-6.185545,"distance":3632,"time":8,"i_long":106.811091},{"line":6,"i_long":106.79689,"station_name":"Palmerah","i_lat":-6.207404,"station_id":"PLM","time":6,"distance":3191,"is_transit":false,"transit":false}],[{"i_lat":-6.193792,"is_transit":false,"station_id":"KMT","transit":false,"station_name":"Kramat","i_long":106.855437,"line":11,"distance":0,"time":0},{"distance":973,"i_lat":-6.185975,"line":11,"i_long":106.850107,"time":1,"is_transit":false,"station_id":"GST","transit":false,"station_name":"Gang Sentiong"},{"time":8,"transit":false,"station_id":"PSE","distance":1567,"line":11,"is_transit":false,"station_name":"Pasar Senen","i_long":106.84368,"i_lat":-6.174784},{"is_transit":false,"i_long":106.839204,"time":4,"station_id":"KMO","distance":1436,"line":11,"transit":false,"i_lat":-6.161728,"station_name":"Kemayoran"},{"i_lat":-6.14505,"time":5,"station_id":"RJW","station_name":"Rajawali","distance":1901,"transit":false,"is_transit":false,"line":11,"i_long":106.836569},{"time":3,"distance":1444,"station_id":"KPB","station_name":"Kampung Bandan","i_lat":-6.132549,"is_transit":true,"transit":true,"i_long":106.826365,"line":0},{"time":3,"distance":1364,"station_name":"Jakarta Kota","line":0,"transit":true,"i_lat":-6.137569,"is_transit":true,"i_long":106.812439,"station_id":"JAKK"},{"station_name":"Jayakarta","i_long":106.820901,"transit":false,"time":4,"line":7,"station_id":"JAY","distance":1264,"is_transit":false,"i_lat":-6.141205},{"time":2,"station_id":"MGB","is_transit":false,"transit":false,"station_name":"Manggabesar","i_lat":-6.149769,"i_long":106.82482,"distance":1080,"line":2},{"time":2,"i_long":106.827103,"transit":false,"station_name":"Sawah Besar","is_transit":false,"line":2,"distance":906,"station_id":"SW","i_lat":-6.160725},{"station_id":"JUA","is_transit":false,"distance":1149,"line":2,"transit":false,"time":2,"station_name":"Juanda","i_lat":-6.166716,"i_long":106.828284},{"time":4,"station_name":"Gondangdia","i_lat":-6.186295,"transit":false,"i_long":106.832183,"distance":2015,"is_transit":false,"station_id":"GDD","line":2},{"station_id":"CKI","station_name":"Cikini","i_long":106.840169,"line":0,"distance":1750,"is_transit":false,"time":3,"transit":false,"i_lat":-6.198556},{"transit":true,"time":4,"station_id":"MRI","distance":1590,"i_lat":-6.209883,"is_transit":true,"i_long":106.84912,"line":0,"station_name":"Manggarai"},{"transit":false,"i_long":106.822649,"line":1,"distance":3186,"i_lat":-6.202263,"station_name":"Sudirman","time":4,"is_transit":false,"station_id":"SUD"},{"distance":280,"station_name":"Sudirman Baru","is_transit":false,"line":1,"transit":false,"time":1,"i_long":106.819881,"i_lat":-6.201433,"station_id":"SUDB"},{"i_lat":-6.20132,"distance":471,"transit":false,"line":1,"i_long":106.816351,"time":1,"station_name":"Karet","station_id":"KAT","is_transit":false},{"time":5,"transit":true,"i_lat":-6.185545,"station_name":"Tanah Abang","is_transit":true,"distance":2029,"line":1,"station_id":"THB","i_long":106.811091},{"i_long":106.79689,"line":6,"is_transit":false,"time":6,"distance":3191,"transit":false,"station_id":"PLM","station_name":"Palmerah","i_lat":-6.207404}]]}