{"data":[[{"station_name":"Kramat","i_long":106.855437,"line":11,"station_id":"KMT","distance":0,"is_transit":false,"transit":false,"i_lat":-6.193792,"time":0},{"station_name":"Pondok Jati","line":11,"time":2,"transit":false,"i_lat":-6.209188,"distance":1829,"station_id":"POK","is_transit":false,"i_long":106.861737},{"time":9,"i_lat":-6.215091,"is_transit":true,"i_long":106.86807400000001,"transit":true,"station_name":"Jatinegara","distance":1236,"station_id":"JNG","line":1},{"is_transit":false,"distance":1377,"transit":false,"i_lat":-6.212485,"line":1,"station_name":"Matraman","i_long":106.858896,"time":2,"station_id":"MTR"},{"distance":1275,"i_long":106.84912,"station_id":"MRI","line":2,"transit":false,"is_transit":false,"i_lat":-6.209883,"time":2,"station_name":"Manggarai"},{"station_name":"Sudirman","i_lat":-6.202263,"distance":3186,"is_transit":false,"transit":false,"station_id":"SUD","i_long":106.822649,"line":1,"time":4},{"station_id":"SUDB","i_long":106.819881,"distance":280,"station_name":"Sudirman Baru","time":1,"line":1,"transit":false,"is_transit":false,"i_lat":-6.201433},{"i_lat":-6.20132,"time":1,"i_long":106.816351,"is_transit":false,"transit":false,"distance":471,"station_id":"KAT","station_name":"Karet","line":1},{"station_name":"Tanah Abang","time":5,"is_transit":true,"transit":true,"i_long":106.811091,"i_lat":-6.185545,"line":1,"distance":2029,"station_id":"THB"},{"transit":false,"i_lat":-6.207404,"i_long":106.79689,"distance":3191,"line":6,"is_transit":false,"station_id":"PLM","time":6,"station_name":"Palmerah"}],[{"distance":0,"line":11,"i_lat":-6.193792,"i_long":106.855437,"is_transit":false,"transit":false,"time":0,"station_id":"KMT","station_name":"Kramat"},{"i_long":106.850107,"station_name":"Gang Sentiong","distance":973,"is_transit":false,"transit":false,"station_id":"GST","line":11,"i_lat":-6.185975,"time":1},{"i_long":106.84368,"station_id":"PSE","is_transit":false,"i_lat":-6.174784,"line":11,"station_name":"Pasar Senen","time":8,"distance":1567,"transit":false},{"transit":false,"line":11,"i_lat":-6.161728,"time":4,"distance":1436,"i_long":106.839204,"station_name":"Kemayoran","station_id":"KMO","is_transit":false},{"distance":1901,"is_transit":false,"station_name":"Rajawali","transit":false,"i_lat":-6.14505,"line":11,"time":5,"station_id":"RJW","i_long":106.836569},{"i_lat":-6.132549,"station_id":"KPB","station_name":"Kampung Bandan","time":3,"transit":true,"i_long":106.826365,"line":4,"is_transit":true,"distance":1444},{"time":9,"is_transit":false,"transit":false,"i_long":106.79867,"distance":4102,"i_lat":-6.144674,"station_id":"AK","station_name":"Angke","line":1},{"is_transit":false,"i_long":106.800832,"distance":1230,"time":4,"station_name":"Duri","line":1,"station_id":"DU","transit":false,"i_lat":-6.155215},{"transit":true,"station_name":"Tanah Abang","i_lat":-6.185545,"line":1,"distance":3632,"station_id":"THB","is_transit":true,"time":8,"i_long":106.811091},{"distance":3191,"station_name":"Palmerah","time":6,"station_id":"PLM","is_transit":false,"transit":false,"i_lat":-6.207404,"line":6,"i_long":106.79689}],[{"transit":false,"i_lat":-6.193792,"station_id":"KMT","time":0,"i_long":106.855437,"line":11,"distance":0,"station_name":"Kramat","is_transit":false},{"line":11,"station_id":"POK","station_name":"Pondok Jati","time":2,"transit":false,"i_lat":-6.209188,"i_long":106.861737,"distance":1829,"is_transit":false},{"transit":true,"distance":1236,"i_lat":-6.215091,"station_name":"Jatinegara","i_long":106.86807400000001,"is_transit":true,"line":1,"station_id":"JNG","time":9},{"distance":1377,"time":2,"i_lat":-6.212485,"is_transit":false,"line":1,"station_id":"MTR","station_name":"Matraman","i_long":106.858896,"transit":false},{"i_long":106.84912,"time":2,"i_lat":-6.209883,"line":2,"is_transit":true,"distance":1275,"transit":true,"station_id":"MRI","station_name":"Manggarai"},{"time":4,"station_id":"CKI","line":2,"station_name":"Cikini","i_long":106.840169,"transit":false,"i_lat":-6.198556,"is_transit":false,"distance":1590},{"is_transit":false,"time":3,"i_lat":-6.186295,"line":2,"distance":1750,"station_name":"Gondangdia","station_id":"GDD","transit":false,"i_long":106.832183},{"transit":false,"i_lat":-6.166716,"station_id":"JUA","distance":2015,"time":4,"i_long":106.828284,"is_transit":false,"station_name":"Juanda","line":2},{"time":2,"distance":1149,"station_id":"SW","transit":false,"i_long":106.827103,"i_lat":-6.160725,"line":2,"station_name":"Sawah Besar","is_transit":false},{"is_transit":false,"distance":906,"station_name":"Manggabesar","time":2,"line":2,"transit":false,"i_lat":-6.149769,"i_long":106.82482,"station_id":"MGB"},{"station_id":"JAY","station_name":"Jayakarta","i_long":106.820901,"is_transit":false,"line":2,"distance":1080,"i_lat":-6.141205,"transit":false,"time":2},{"transit":true,"distance":1264,"line":2,"time":4,"station_id":"JAKK","station_name":"Jakarta Kota","is_transit":true,"i_lat":-6.137569,"i_long":106.812439},{"time":3,"station_id":"KPB","transit":true,"i_long":106.826365,"line":4,"is_transit":true,"distance":1364,"station_name":"Kampung Bandan","i_lat":-6.132549},{"is_transit":false,"station_id":"AK","station_name":"Angke","time":9,"transit":false,"i_long":106.79867,"line":1,"distance":4102,"i_lat":-6.144674},{"distance":1230,"line":1,"i_lat":-6.155215,"time":4,"station_name":"Duri","station_id":"DU","transit":false,"is_transit":false,"i_long":106.800832},{"station_name":"Tanah Abang","time":8,"distance":3632,"i_long":106.811091,"line":1,"transit":true,"station_id":"THB","i_lat":-6.185545,"is_transit":true},{"station_name":"Palmerah","transit":false,"station_id":"PLM","i_lat":-6.207404,"is_transit":false,"distance":3191,"i_long":106.79689,"time":6,"line":6}],[{"i_lat":-6.193792,"i_long":106.855437,"transit":false,"line":11,"is_transit":false,"station_name":"Kramat","station_id":"KMT","time":0,"distance":0},{"distance":973,"station_name":"Gang Sentiong","line":11,"station_id":"GST","i_lat":-6.185975,"time":1,"is_transit":false,"transit":false,"i_long":106.850107},{"time":8,"station_name":"Pasar Senen","line":11,"station_id":"PSE","is_transit":false,"distance":1567,"transit":false,"i_long":106.84368,"i_lat":-6.174784},{"i_lat":-6.161728,"i_long":106.839204,"time":4,"line":11,"station_name":"Kemayoran","transit":false,"distance":1436,"is_transit":false,"station_id":"KMO"},{"line":11,"is_transit":false,"i_lat":-6.14505,"distance":1901,"transit":false,"station_name":"Rajawali","time":5,"station_id":"RJW","i_long":106.836569},{"i_long":106.826365,"line":4,"station_id":"KPB","i_lat":-6.132549,"station_name":"Kampung Bandan","time":3,"distance":1444,"transit":true,"is_transit":true},{"i_lat":-6.137569,"line":2,"time":3,"station_id":"JAKK","transit":true,"i_long":106.812439,"is_transit":true,"station_name":"Jakarta Kota","distance":1364},{"is_transit":false,"i_lat":-6.141205,"i_long":106.820901,"station_id":"JAY","line":2,"transit":false,"distance":1264,"time":4,"station_name":"Jayakarta"},{"line":2,"transit":false,"time":2,"station_id":"MGB","i_lat":-6.149769,"i_long":106.82482,"station_name":"Manggabesar","is_transit":false,"distance":1080},{"station_id":"SW","i_lat":-6.160725,"line":2,"transit":false,"station_name":"Sawah Besar","distance":906,"is_transit":false,"i_long":106.827103,"time":2},{"line":2,"is_transit":false,"distance":1149,"transit":false,"station_id":"JUA","i_long":106.828284,"station_name":"Juanda","time":2,"i_lat":-6.166716},{"i_lat":-6.186295,"time":4,"distance":2015,"is_transit":false,"transit":false,"i_long":106.832183,"line":2,"station_id":"GDD","station_name":"Gondangdia"},{"distance":1750,"line":2,"time":3,"station_id":"CKI","i_lat":-6.198556,"i_long":106.840169,"transit":false,"is_transit":false,"station_name":"Cikini"},{"is_transit":true,"distance":1590,"time":4,"station_id":"MRI","i_long":106.84912,"transit":true,"station_name":"Manggarai","line":2,"i_lat":-6.209883},{"i_lat":-6.202263,"line":1,"distance":3186,"transit":false,"i_long":106.822649,"is_transit":false,"station_id":"SUD","station_name":"Sudirman","time":4},{"i_long":106.819881,"line":1,"transit":false,"station_id":"SUDB","station_name":"Sudirman Baru","is_transit":false,"time":1,"i_lat":-6.201433,"distance":280},{"station_name":"Karet","is_transit":false,"station_id":"KAT","transit":false,"i_long":106.816351,"i_lat":-6.20132,"line":1,"time":1,"distance":471},{"distance":2029,"station_name":"Tanah Abang","i_long":106.811091,"is_transit":true,"line":1,"i_lat":-6.185545,"time":5,"transit":true,"station_id":"THB"},{"is_transit":false,"line":6,"station_name":"Palmerah","i_long":106.79689,"i_lat":-6.207404,"distance":3191,"station_id":"PLM","transit":false,"time":6}]]}