{"data":[[{"station_id":"KMT","distance":0,"transit":false,"station_name":"Kramat","time":0,"is_transit":false,"i_lat":-6.193792,"i_long":106.855437,"line":11},{"time":1,"is_transit":false,"station_id":"GST","transit":false,"i_lat":-6.185975,"line":11,"distance":973,"i_long":106.850107,"station_name":"Gang Sentiong"},{"distance":1567,"transit":false,"station_id":"PSE","line":11,"i_lat":-6.174784,"station_name":"Pasar Senen","i_long":106.84368,"time":8,"is_transit":false},{"i_long":106.839204,"i_lat":-6.161728,"station_name":"Kemayoran","station_id":"KMO","is_transit":false,"distance":1436,"time":4,"transit":false,"line":11},{"distance":1901,"i_long":106.836569,"i_lat":-6.14505,"station_name":"Rajawali","station_id":"RJW","transit":false,"time":5,"is_transit":false,"line":11},{"transit":true,"station_name":"Kampung Bandan","i_lat":-6.132549,"line":4,"is_transit":true,"station_id":"KPB","distance":1444,"time":3,"i_long":106.826365},{"transit":false,"is_transit":false,"time":9,"i_long":106.79867,"station_name":"Angke","station_id":"AK","distance":4102,"i_lat":-6.144674,"line":1},{"time":4,"distance":1230,"i_lat":-6.155215,"station_id":"DU","is_transit":true,"line":1,"station_name":"Duri","transit":true,"i_long":106.800832},{"i_lat":-6.162021,"distance":1700,"station_name":"Grogol","time":3,"i_long":106.788277,"station_id":"GGL","line":5,"transit":false,"is_transit":false},{"time":2,"is_transit":false,"distance":2036,"transit":false,"line":5,"station_id":"PSG","i_long":106.771379,"station_name":"Pesing","i_lat":-6.161433},{"is_transit":false,"time":2,"i_long":106.756522,"distance":1614,"i_lat":-6.1587309999999995,"transit":false,"station_name":"Taman Kota","station_id":"TKO","line":5},{"distance":2334,"station_id":"BOI","time":2,"line":5,"transit":false,"station_name":"Bojongindah","is_transit":false,"i_lat":-6.159876,"i_long":106.737035},{"is_transit":false,"station_id":"RW","line":5,"i_lat":-6.162758,"transit":false,"station_name":"Rawa Buaya","i_long":106.723064,"distance":1152,"time":4},{"i_lat":-6.166068,"station_name":"Kalideres","station_id":"KDS","distance":2504,"time":3,"i_long":106.701612,"line":5,"transit":false,"is_transit":false},{"is_transit":false,"i_lat":-6.169933,"transit":false,"time":3,"i_long":106.679458,"station_id":"PI","distance":2548,"line":5,"station_name":"Poris"}],[{"time":0,"distance":0,"transit":false,"i_long":106.855437,"i_lat":-6.193792,"station_id":"KMT","station_name":"Kramat","is_transit":false,"line":11},{"is_transit":false,"station_name":"Pondok Jati","i_lat":-6.209188,"i_long":106.861737,"station_id":"POK","distance":1829,"time":2,"line":11,"transit":false},{"line":1,"transit":true,"station_name":"Jatinegara","i_long":106.86807400000001,"station_id":"JNG","is_transit":true,"time":9,"distance":1236,"i_lat":-6.215091},{"line":1,"time":2,"transit":false,"is_transit":false,"i_long":106.858896,"i_lat":-6.212485,"station_id":"MTR","station_name":"Matraman","distance":1377},{"distance":1275,"station_id":"MRI","is_transit":false,"time":2,"i_long":106.84912,"i_lat":-6.209883,"station_name":"Manggarai","transit":false,"line":2},{"line":1,"distance":3186,"station_name":"Sudirman","i_lat":-6.202263,"i_long":106.822649,"station_id":"SUD","is_transit":false,"transit":false,"time":4},{"station_name":"Sudirman Baru","distance":280,"i_long":106.819881,"station_id":"SUDB","is_transit":false,"transit":false,"time":1,"i_lat":-6.201433,"line":1},{"station_name":"Karet","time":1,"transit":false,"i_long":106.816351,"distance":471,"is_transit":false,"i_lat":-6.20132,"station_id":"KAT","line":1},{"is_transit":false,"station_name":"Tanah Abang","station_id":"THB","time":5,"distance":2029,"i_lat":-6.185545,"i_long":106.811091,"line":1,"transit":false},{"station_name":"Duri","time":8,"is_transit":true,"distance":3632,"station_id":"DU","transit":true,"line":1,"i_long":106.800832,"i_lat":-6.155215},{"distance":1700,"i_long":106.788277,"station_id":"GGL","is_transit":false,"i_lat":-6.162021,"line":5,"time":3,"transit":false,"station_name":"Grogol"},{"distance":2036,"time":2,"i_long":106.771379,"line":5,"is_transit":false,"transit":false,"i_lat":-6.161433,"station_name":"Pesing","station_id":"PSG"},{"station_id":"TKO","distance":1614,"is_transit":false,"transit":false,"i_lat":-6.1587309999999995,"time":2,"i_long":106.756522,"line":5,"station_name":"Taman Kota"},{"station_name":"Bojongindah","distance":2334,"transit":false,"is_transit":false,"i_lat":-6.159876,"station_id":"BOI","i_long":106.737035,"line":5,"time":2},{"station_id":"RW","is_transit":false,"distance":1152,"line":5,"station_name":"Rawa Buaya","time":4,"transit":false,"i_long":106.723064,"i_lat":-6.162758},{"distance":2504,"i_lat":-6.166068,"is_transit":false,"transit":false,"time":3,"i_long":106.701612,"station_id":"KDS","line":5,"station_name":"Kalideres"},{"i_lat":-6.169933,"station_id":"PI","is_transit":false,"station_name":"Poris","time":3,"i_long":106.679458,"line":5,"distance":2548,"transit":false}],[{"time":0,"station_name":"Kramat","distance":0,"i_long":106.855437,"transit":false,"is_transit":false,"station_id":"KMT","i_lat":-6.193792,"line":11},{"is_transit":false,"distance":1829,"station_name":"Pondok Jati","time":2,"i_long":106.861737,"transit":false,"i_lat":-6.209188,"station_id":"POK","line":11},{"i_long":106.86807400000001,"line":1,"is_transit":true,"time":9,"i_lat":-6.215091,"distance":1236,"transit":true,"station_name":"Jatinegara","station_id":"JNG"},{"distance":1377,"time":2,"line":1,"station_name":"Matraman","station_id":"MTR","transit":false,"i_long":106.858896,"i_lat":-6.212485,"is_transit":false},{"transit":true,"station_name":"Manggarai","i_long":106.84912,"line":2,"is_transit":true,"station_id":"MRI","distance":1275,"i_lat":-6.209883,"time":2},{"i_long":106.840169,"is_transit":false,"line":2,"station_id":"CKI","time":4,"station_name":"Cikini","transit":false,"i_lat":-6.198556,"distance":1590},{"station_id":"GDD","distance":1750,"i_long":106.832183,"i_lat":-6.186295,"station_name":"Gondangdia","is_transit":false,"line":2,"transit":false,"time":3},{"is_transit":false,"transit":false,"distance":2015,"station_name":"Juanda","i_long":106.828284,"i_lat":-6.166716,"station_id":"JUA","time":4,"line":2},{"i_long":106.827103,"station_name":"Sawah Besar","distance":1149,"line":2,"i_lat":-6.160725,"time":2,"is_transit":false,"station_id":"SW","transit":false},{"station_name":"Manggabesar","station_id":"MGB","i_long":106.82482,"time":2,"i_lat":-6.149769,"is_transit":false,"transit":false,"distance":906,"line":2},{"time":2,"line":2,"transit":false,"is_transit":false,"station_name":"Jayakarta","distance":1080,"station_id":"JAY","i_long":106.820901,"i_lat":-6.141205},{"station_name":"Jakarta Kota","station_id":"JAKK","distance":1264,"is_transit":true,"line":2,"time":4,"i_long":106.812439,"transit":true,"i_lat":-6.137569},{"line":4,"station_name":"Kampung Bandan","i_long":106.826365,"time":3,"distance":1364,"is_transit":true,"i_lat":-6.132549,"station_id":"KPB","transit":true},{"i_lat":-6.144674,"is_transit":false,"station_id":"AK","transit":false,"station_name":"Angke","distance":4102,"i_long":106.79867,"time":9,"line":1},{"is_transit":true,"distance":1230,"transit":true,"i_long":106.800832,"station_id":"DU","i_lat":-6.155215,"station_name":"Duri","time":4,"line":1},{"distance":1700,"time":3,"is_transit":false,"station_name":"Grogol","transit":false,"line":5,"i_lat":-6.162021,"station_id":"GGL","i_long":106.788277},{"i_long":106.771379,"station_id":"PSG","is_transit":false,"transit":false,"i_lat":-6.161433,"line":5,"distance":2036,"station_name":"Pesing","time":2},{"i_long":106.756522,"station_name":"Taman Kota","distance":1614,"i_lat":-6.1587309999999995,"line":5,"station_id":"TKO","is_transit":false,"transit":false,"time":2},{"is_transit":false,"time":2,"station_name":"Bojongindah","station_id":"BOI","i_lat":-6.159876,"distance":2334,"line":5,"transit":false,"i_long":106.737035},{"station_name":"Rawa Buaya","line":5,"station_id":"RW","distance":1152,"time":4,"transit":false,"is_transit":false,"i_lat":-6.162758,"i_long":106.723064},{"i_lat":-6.166068,"station_name":"Kalideres","i_long":106.701612,"transit":false,"line":5,"time":3,"distance":2504,"is_transit":false,"station_id":"KDS"},{"i_long":106.679458,"transit":false,"station_id":"PI","i_lat":-6.169933,"time":3,"is_transit":false,"distance":2548,"station_name":"Poris","line":5}],[{"i_long":106.855437,"is_transit":false,"time":0,"line":11,"distance":0,"station_id":"KMT","station_name":"Kramat","transit":false,"i_lat":-6.193792},{"time":1,"is_transit":false,"transit":false,"station_name":"Gang Sentiong","i_long":106.850107,"distance":973,"i_lat":-6.185975,"station_id":"GST","line":11},{"line":11,"distance":1567,"station_name":"Pasar Senen","station_id":"PSE","transit":false,"i_lat":-6.174784,"time":8,"i_long":106.84368,"is_transit":false},{"time":4,"station_id":"KMO","station_name":"Kemayoran","distance":1436,"i_lat":-6.161728,"i_long":106.839204,"is_transit":false,"transit":false,"line":11},{"i_long":106.836569,"station_id":"RJW","station_name":"Rajawali","time":5,"distance":1901,"is_transit":false,"i_lat":-6.14505,"line":11,"transit":false},{"time":3,"line":4,"is_transit":true,"i_lat":-6.132549,"transit":true,"station_id":"KPB","distance":1444,"i_long":106.826365,"station_name":"Kampung Bandan"},{"station_id":"JAKK","transit":true,"i_lat":-6.137569,"is_transit":true,"i_long":106.812439,"time":3,"distance":1364,"station_name":"Jakarta Kota","line":2},{"station_id":"JAY","is_transit":false,"line":2,"i_long":106.820901,"distance":1264,"i_lat":-6.141205,"time":4,"transit":false,"station_name":"Jayakarta"},{"is_transit":false,"station_name":"Manggabesar","station_id":"MGB","distance":1080,"time":2,"transit":false,"line":2,"i_lat":-6.149769,"i_long":106.82482},{"transit":false,"distance":906,"station_name":"Sawah Besar","time":2,"i_lat":-6.160725,"i_long":106.827103,"is_transit":false,"line":2,"station_id":"SW"},{"time":2,"line":2,"station_id":"JUA","is_transit":false,"i_long":106.828284,"distance":1149,"station_name":"Juanda","transit":false,"i_lat":-6.166716},{"i_long":106.832183,"transit":false,"line":2,"station_id":"GDD","station_name":"Gondangdia","time":4,"i_lat":-6.186295,"is_transit":false,"distance":2015},{"line":2,"station_name":"Cikini","station_id":"CKI","time":3,"i_lat":-6.198556,"transit":false,"i_long":106.840169,"distance":1750,"is_transit":false},{"line":2,"time":4,"station_name":"Manggarai","is_transit":true,"station_id":"MRI","transit":true,"distance":1590,"i_lat":-6.209883,"i_long":106.84912},{"time":4,"transit":false,"station_id":"SUD","station_name":"Sudirman","is_transit":false,"distance":3186,"i_lat":-6.202263,"i_long":106.822649,"line":1},{"i_long":106.819881,"time":1,"is_transit":false,"distance":280,"station_name":"Sudirman Baru","station_id":"SUDB","line":1,"transit":false,"i_lat":-6.201433},{"i_lat":-6.20132,"station_id":"KAT","time":1,"transit":false,"station_name":"Karet","i_long":106.816351,"distance":471,"line":1,"is_transit":false},{"i_lat":-6.185545,"i_long":106.811091,"station_name":"Tanah Abang","station_id":"THB","time":5,"transit":false,"line":1,"is_transit":false,"distance":2029},{"station_id":"DU","i_long":106.800832,"distance":3632,"is_transit":true,"line":1,"transit":true,"time":8,"i_lat":-6.155215,"station_name":"Duri"},{"distance":1700,"i_lat":-6.162021,"line":5,"time":3,"is_transit":false,"transit":false,"i_long":106.788277,"station_id":"GGL","station_name":"Grogol"},{"i_lat":-6.161433,"station_id":"PSG","line":5,"is_transit":false,"distance":2036,"transit":false,"time":2,"station_name":"Pesing","i_long":106.771379},{"is_transit":false,"line":5,"station_name":"Taman Kota","i_lat":-6.1587309999999995,"i_long":106.756522,"transit":false,"station_id":"TKO","time":2,"distance":1614},{"station_name":"Bojongindah","is_transit":false,"station_id":"BOI","transit":false,"i_lat":-6.159876,"i_long":106.737035,"time":2,"line":5,"distance":2334},{"station_name":"Rawa Buaya","distance":1152,"is_transit":false,"i_lat":-6.162758,"i_long":106.723064,"line":5,"transit":false,"time":4,"station_id":"RW"},{"time":3,"is_transit":false,"i_long":106.701612,"station_name":"Kalideres","station_id":"KDS","distance":2504,"i_lat":-6.166068,"line":5,"transit":false},{"station_id":"PI","i_long":106.679458,"line":5,"distance":2548,"transit":false,"i_lat":-6.169933,"station_name":"Poris","time":3,"is_transit":false}]]}