{"data":[[{"station_name":"Kramat","distance":0,"transit":false,"i_long":106.855437,"time":0,"i_lat":-6.193792,"station_id":"KMT","is_transit":false,"line":11},{"time":1,"station_name":"Gang Sentiong","i_lat":-6.185975,"line":11,"station_id":"GST","is_transit":false,"distance":973,"transit":false,"i_long":106.850107},{"is_transit":false,"i_lat":-6.174784,"station_id":"PSE","time":8,"i_long":106.84368,"distance":1567,"transit":false,"line":11,"station_name":"Pasar Senen"},{"distance":1436,"station_id":"KMO","line":11,"station_name":"Kemayoran","i_long":106.839204,"time":4,"i_lat":-6.161728,"transit":false,"is_transit":false},{"line":11,"i_lat":-6.14505,"time":5,"is_transit":false,"transit":false,"station_id":"RJW","station_name":"Rajawali","distance":1901,"i_long":106.836569},{"time":3,"line":0,"transit":true,"station_id":"KPB","station_name":"Kampung Bandan","i_lat":-6.132549,"is_transit":true,"distance":1444,"i_long":106.826365},{"station_name":"Angke","is_transit":false,"time":9,"distance":4102,"line":0,"station_id":"AK","i_lat":-6.144674,"i_long":106.79867,"transit":false},{"i_long":106.800832,"time":4,"station_name":"Duri","transit":true,"line":1,"station_id":"DU","is_transit":true,"distance":1230,"i_lat":-6.155215},{"i_lat":-6.162021,"line":5,"station_name":"Grogol","distance":1700,"is_transit":false,"time":3,"i_long":106.788277,"transit":false,"station_id":"GGL"},{"i_long":106.771379,"time":2,"distance":2036,"station_name":"Pesing","i_lat":-6.161433,"transit":false,"station_id":"PSG","is_transit":false,"line":5},{"station_id":"TKO","i_lat":-6.1587309999999995,"station_name":"Taman Kota","line":5,"time":2,"distance":1614,"transit":false,"i_long":106.756522,"is_transit":false},{"station_id":"BOI","is_transit":false,"time":2,"distance":2334,"line":0,"station_name":"Bojongindah","i_lat":-6.159876,"i_long":106.737035,"transit":false},{"line":5,"distance":1152,"is_transit":false,"time":4,"station_name":"Rawa Buaya","transit":false,"i_long":106.723064,"station_id":"RW","i_lat":-6.162758},{"transit":false,"line":5,"time":3,"i_long":106.701612,"station_id":"KDS","station_name":"Kalideres","distance":2504,"is_transit":false,"i_lat":-6.166068}],[{"i_lat":-6.193792,"line":11,"time":0,"distance":0,"is_transit":false,"transit":false,"station_name":"Kramat","i_long":106.855437,"station_id":"KMT"},{"i_lat":-6.209188,"station_id":"POK","distance":1829,"station_name":"Pondok Jati","is_transit":false,"time":2,"transit":false,"i_long":106.861737,"line":11},{"i_long":106.86807400000001,"line":0,"station_id":"JNG","distance":1236,"transit":true,"station_name":"Jatinegara","i_lat":-6.215091,"is_transit":true,"time":9},{"line":1,"transit":false,"station_id":"MTR","i_long":106.858896,"i_lat":-6.212485,"distance":1377,"station_name":"Matraman","is_transit":false,"time":2},{"transit":false,"line":0,"station_name":"Manggarai","time":2,"is_transit":true,"station_id":"MRI","distance":1275,"i_long":106.84912,"i_lat":-6.209883},{"line":1,"transit":false,"distance":3186,"station_name":"Sudirman","is_transit":false,"station_id":"SUD","i_long":106.822649,"i_lat":-6.202263,"time":4},{"is_transit":false,"line":1,"i_lat":-6.201433,"station_name":"Sudirman Baru","time":1,"station_id":"SUDB","distance":280,"i_long":106.819881,"transit":false},{"i_long":106.816351,"is_transit":false,"time":1,"distance":471,"i_lat":-6.20132,"station_id":"KAT","station_name":"Karet","transit":false,"line":1},{"transit":false,"station_id":"THB","is_transit":true,"station_name":"Tanah Abang","time":5,"distance":2029,"i_lat":-6.185545,"line":1,"i_long":106.811091},{"distance":3632,"i_long":106.800832,"line":1,"station_name":"Duri","transit":true,"station_id":"DU","time":8,"i_lat":-6.155215,"is_transit":true},{"transit":false,"i_long":106.788277,"is_transit":false,"time":3,"i_lat":-6.162021,"distance":1700,"station_name":"Grogol","line":5,"station_id":"GGL"},{"transit":false,"i_lat":-6.161433,"distance":2036,"i_long":106.771379,"line":5,"station_id":"PSG","is_transit":false,"station_name":"Pesing","time":2},{"i_lat":-6.1587309999999995,"i_long":106.756522,"line":5,"is_transit":false,"station_name":"Taman Kota","time":2,"station_id":"TKO","distance":1614,"transit":false},{"time":2,"transit":false,"i_lat":-6.159876,"i_long":106.737035,"is_transit":false,"station_name":"Bojongindah","distance":2334,"line":0,"station_id":"BOI"},{"station_id":"RW","station_name":"Rawa Buaya","transit":false,"i_long":106.723064,"i_lat":-6.162758,"line":5,"is_transit":false,"time":4,"distance":1152},{"station_name":"Kalideres","distance":2504,"i_lat":-6.166068,"station_id":"KDS","is_transit":false,"time":3,"i_long":106.701612,"transit":false,"line":5}],[{"station_id":"KMT","line":11,"station_name":"Kramat","time":0,"distance":0,"transit":false,"is_transit":false,"i_long":106.855437,"i_lat":-6.193792},{"station_id":"POK","transit":false,"is_transit":false,"i_long":106.861737,"i_lat":-6.209188,"line":11,"station_name":"Pondok Jati","time":2,"distance":1829},{"distance":1236,"station_name":"Jatinegara","is_transit":true,"i_lat":-6.215091,"transit":true,"line":0,"station_id":"JNG","time":9,"i_long":106.86807400000001},{"distance":1377,"i_lat":-6.212485,"line":1,"is_transit":false,"time":2,"transit":false,"i_long":106.858896,"station_id":"MTR","station_name":"Matraman"},{"distance":1275,"i_lat":-6.209883,"i_long":106.84912,"station_name":"Manggarai","line":0,"transit":true,"time":2,"is_transit":true,"station_id":"MRI"},{"time":4,"station_id":"CKI","distance":1590,"line":0,"i_lat":-6.198556,"i_long":106.840169,"station_name":"Cikini","transit":false,"is_transit":false},{"is_transit":false,"time":3,"i_lat":-6.186295,"station_name":"Gondangdia","station_id":"GDD","distance":1750,"transit":false,"i_long":106.832183,"line":2},{"station_name":"Juanda","time":4,"transit":false,"i_lat":-6.166716,"distance":2015,"line":2,"i_long":106.828284,"station_id":"JUA","is_transit":false},{"distance":1149,"station_name":"Sawah Besar","line":2,"i_long":106.827103,"is_transit":false,"transit":false,"station_id":"SW","i_lat":-6.160725,"time":2},{"station_name":"Manggabesar","is_transit":false,"time":2,"i_lat":-6.149769,"distance":906,"line":2,"i_long":106.82482,"transit":false,"station_id":"MGB"},{"station_name":"Jayakarta","station_id":"JAY","line":7,"is_transit":false,"i_long":106.820901,"distance":1080,"transit":false,"time":2,"i_lat":-6.141205},{"i_lat":-6.137569,"is_transit":true,"time":4,"i_long":106.812439,"station_name":"Jakarta Kota","distance":1264,"transit":true,"line":0,"station_id":"JAKK"},{"station_name":"Kampung Bandan","station_id":"KPB","transit":false,"i_lat":-6.132549,"is_transit":true,"i_long":106.826365,"distance":1364,"line":0,"time":3},{"is_transit":false,"i_lat":-6.144674,"line":0,"i_long":106.79867,"time":9,"distance":4102,"station_name":"Angke","transit":false,"station_id":"AK"},{"station_id":"DU","i_long":106.800832,"is_transit":true,"line":1,"distance":1230,"transit":true,"station_name":"Duri","i_lat":-6.155215,"time":4},{"station_name":"Grogol","station_id":"GGL","is_transit":false,"time":3,"transit":false,"distance":1700,"i_long":106.788277,"line":5,"i_lat":-6.162021},{"time":2,"station_name":"Pesing","is_transit":false,"distance":2036,"station_id":"PSG","transit":false,"i_lat":-6.161433,"i_long":106.771379,"line":5},{"line":5,"transit":false,"is_transit":false,"i_lat":-6.1587309999999995,"i_long":106.756522,"station_name":"Taman Kota","station_id":"TKO","distance":1614,"time":2},{"distance":2334,"i_long":106.737035,"i_lat":-6.159876,"line":0,"station_id":"BOI","transit":false,"station_name":"Bojongindah","is_transit":false,"time":2},{"is_transit":false,"i_lat":-6.162758,"line":5,"distance":1152,"time":4,"station_name":"Rawa Buaya","transit":false,"i_long":106.723064,"station_id":"RW"},{"distance":2504,"time":3,"transit":false,"station_name":"Kalideres","is_transit":false,"i_long":106.701612,"line":5,"i_lat":-6.166068,"station_id":"KDS"}],[{"distance":0,"station_id":"KMT","is_transit":false,"time":0,"transit":false,"i_lat":-6.193792,"i_long":106.855437,"line":11,"station_name":"Kramat"},{"time":1,"transit":false,"station_name":"Gang Sentiong","i_lat":-6.185975,"i_long":106.850107,"distance":973,"line":11,"station_id":"GST","is_transit":false},{"transit":false,"station_name":"Pasar Senen","i_lat":-6.174784,"i_long":106.84368,"distance":1567,"station_id":"PSE","line":11,"is_transit":false,"time":8},{"i_long":106.839204,"station_name":"Kemayoran","time":4,"distance":1436,"is_transit":false,"transit":false,"line":11,"station_id":"KMO","i_lat":-6.161728},{"time":5,"line":11,"is_transit":false,"transit":false,"station_id":"RJW","station_name":"Rajawali","distance":1901,"i_long":106.836569,"i_lat":-6.14505},{"time":3,"i_long":106.826365,"station_id":"KPB","distance":1444,"transit":true,"line":0,"is_transit":true,"i_lat":-6.132549,"station_name":"Kampung Bandan"},{"is_transit":true,"line":0,"i_long":106.812439,"station_id":"JAKK","i_lat":-6.137569,"station_name":"Jakarta Kota","time":3,"transit":true,"distance":1364},{"station_name":"Jayakarta","is_transit":false,"i_lat":-6.141205,"transit":false,"line":7,"station_id":"JAY","time":4,"distance":1264,"i_long":106.820901},{"station_id":"MGB","i_lat":-6.149769,"is_transit":false,"line":2,"time":2,"transit":false,"distance":1080,"station_name":"Manggabesar","i_long":106.82482},{"transit":false,"station_id":"SW","time":2,"i_lat":-6.160725,"i_long":106.827103,"is_transit":false,"station_name":"Sawah Besar","distance":906,"line":2},{"time":2,"i_lat":-6.166716,"i_long":106.828284,"is_transit":false,"distance":1149,"station_id":"JUA","transit":false,"station_name":"Juanda","line":2},{"station_id":"GDD","i_long":106.832183,"is_transit":false,"station_name":"Gondangdia","line":2,"time":4,"distance":2015,"i_lat":-6.186295,"transit":false},{"i_lat":-6.198556,"station_id":"CKI","i_long":106.840169,"station_name":"Cikini","transit":false,"is_transit":false,"distance":1750,"time":3,"line":0},{"transit":true,"i_lat":-6.209883,"station_name":"Manggarai","distance":1590,"station_id":"MRI","is_transit":true,"time":4,"i_long":106.84912,"line":0},{"transit":false,"line":1,"i_lat":-6.202263,"time":4,"i_long":106.822649,"is_transit":false,"station_id":"SUD","station_name":"Sudirman","distance":3186},{"time":1,"i_lat":-6.201433,"station_id":"SUDB","station_name":"Sudirman Baru","is_transit":false,"transit":false,"i_long":106.819881,"distance":280,"line":1},{"i_lat":-6.20132,"transit":false,"station_name":"Karet","time":1,"i_long":106.816351,"distance":471,"is_transit":false,"station_id":"KAT","line":1},{"is_transit":true,"i_lat":-6.185545,"i_long":106.811091,"transit":false,"line":1,"station_name":"Tanah Abang","time":5,"station_id":"THB","distance":2029},{"distance":3632,"time":8,"station_id":"DU","line":1,"i_long":106.800832,"station_name":"Duri","is_transit":true,"transit":true,"i_lat":-6.155215},{"is_transit":false,"time":3,"transit":false,"station_id":"GGL","distance":1700,"station_name":"Grogol","i_lat":-6.162021,"line":5,"i_long":106.788277},{"transit":false,"time":2,"distance":2036,"station_name":"Pesing","i_long":106.771379,"line":5,"is_transit":false,"i_lat":-6.161433,"station_id":"PSG"},{"i_long":106.756522,"station_name":"Taman Kota","is_transit":false,"transit":false,"time":2,"distance":1614,"i_lat":-6.1587309999999995,"station_id":"TKO","line":5},{"line":0,"station_id":"BOI","station_name":"Bojongindah","distance":2334,"is_transit":false,"transit":false,"time":2,"i_lat":-6.159876,"i_long":106.737035},{"station_name":"Rawa Buaya","i_long":106.723064,"is_transit":false,"station_id":"RW","time":4,"transit":false,"line":5,"i_lat":-6.162758,"distance":1152},{"transit":false,"station_id":"KDS","station_name":"Kalideres","distance":2504,"is_transit":false,"line":5,"i_long":106.701612,"i_lat":-6.166068,"time":3}]]}