{"data":[[{"i_lat":-6.193792,"line":11,"distance":0,"station_name":"Kramat","i_long":106.855437,"is_transit":false,"transit":false,"station_id":"KMT","time":0},{"line":11,"i_long":106.861737,"station_id":"POK","is_transit":false,"time":2,"distance":1829,"i_lat":-6.209188,"transit":false,"station_name":"Pondok Jati"},{"time":9,"transit":true,"station_name":"Jatinegara","is_transit":true,"distance":1236,"i_long":106.86807400000001,"i_lat":-6.215091,"line":1,"station_id":"JNG"},{"station_name":"Klender","station_id":"KLD","time":3,"i_lat":-6.2135,"transit":false,"is_transit":false,"i_long":106.899548,"line":1,"distance":3395},{"transit":false,"line":1,"distance":3100,"station_name":"Buaran","i_lat":-6.215568,"is_transit":false,"i_long":106.922662,"time":2,"station_id":"BUA"},{"i_long":106.939679,"distance":1305,"i_lat":-6.217455,"transit":false,"line":1,"station_id":"KLDB","station_name":"Klenderbaru","time":1,"is_transit":false},{"is_transit":false,"i_lat":-6.219053,"i_long":106.951283,"time":8,"station_name":"Cakung","distance":1385,"line":1,"transit":false,"station_id":"CUK"},{"line":1,"time":3,"station_id":"KRI","i_long":106.977657,"distance":3097,"i_lat":-6.224515,"transit":false,"station_name":"Kranji","is_transit":false},{"transit":false,"station_id":"BKS","time":4,"is_transit":false,"distance":2520,"i_lat":-6.236616,"line":1,"station_name":"Bekasi","i_long":106.997013},{"distance":2368,"i_long":107.016735,"time":2,"i_lat":-6.248029,"transit":false,"station_id":"BKST","station_name":"Bekasi Timur","is_transit":false,"line":1},{"station_id":"TB","is_transit":false,"transit":false,"i_lat":-6.258864,"station_name":"Tambun","time":7,"distance":4460,"i_long":107.055722,"line":1},{"i_lat":-6.261877,"time":3,"distance":3420,"transit":false,"station_name":"Cibitung","i_long":107.083084,"station_id":"CIT","line":1,"is_transit":false},{"i_long":107.093313,"station_name":"Metland Telaga Murni","i_lat":-6.262938,"distance":2800,"transit":false,"station_id":"TLM","time":2,"line":1,"is_transit":false}],[{"station_id":"KMT","is_transit":false,"time":0,"station_name":"Kramat","distance":0,"i_lat":-6.193792,"i_long":106.855437,"line":11,"transit":false},{"is_transit":false,"station_name":"Gang Sentiong","distance":973,"i_long":106.850107,"transit":false,"i_lat":-6.185975,"line":11,"time":1,"station_id":"GST"},{"distance":1567,"i_long":106.84368,"i_lat":-6.174784,"station_id":"PSE","station_name":"Pasar Senen","transit":false,"line":11,"is_transit":false,"time":8},{"i_long":106.839204,"line":11,"is_transit":false,"station_name":"Kemayoran","transit":false,"distance":1436,"i_lat":-6.161728,"station_id":"KMO","time":4},{"i_long":106.836569,"time":5,"station_id":"RJW","i_lat":-6.14505,"distance":1901,"line":11,"station_name":"Rajawali","is_transit":false,"transit":false},{"station_name":"Kampung Bandan","distance":1444,"time":3,"station_id":"KPB","i_long":106.826365,"line":4,"is_transit":true,"transit":true,"i_lat":-6.132549},{"is_transit":false,"station_name":"Angke","transit":false,"distance":4102,"i_lat":-6.144674,"i_long":106.79867,"station_id":"AK","line":1,"time":9},{"i_lat":-6.155215,"time":4,"i_long":106.800832,"station_name":"Duri","distance":1230,"is_transit":false,"line":1,"station_id":"DU","transit":false},{"line":1,"station_id":"THB","is_transit":false,"time":8,"distance":3632,"i_lat":-6.185545,"i_long":106.811091,"transit":false,"station_name":"Tanah Abang"},{"is_transit":false,"i_long":106.816351,"station_name":"Karet","i_lat":-6.20132,"transit":false,"station_id":"KAT","time":5,"distance":2029,"line":1},{"distance":471,"i_lat":-6.201433,"line":1,"transit":false,"station_name":"Sudirman Baru","station_id":"SUDB","i_long":106.819881,"is_transit":false,"time":1},{"is_transit":false,"distance":280,"i_lat":-6.202263,"time":1,"i_long":106.822649,"station_name":"Sudirman","station_id":"SUD","line":1,"transit":false},{"line":2,"time":4,"is_transit":false,"distance":3186,"i_lat":-6.209883,"station_id":"MRI","i_long":106.84912,"transit":false,"station_name":"Manggarai"},{"station_id":"MTR","line":1,"i_lat":-6.212485,"distance":1275,"i_long":106.858896,"is_transit":false,"transit":false,"station_name":"Matraman","time":2},{"i_long":106.86807400000001,"distance":1377,"i_lat":-6.215091,"transit":false,"line":1,"station_name":"Jatinegara","time":8,"is_transit":false,"station_id":"JNG"},{"line":1,"i_long":106.899548,"station_name":"Klender","distance":3395,"is_transit":false,"time":3,"transit":false,"station_id":"KLD","i_lat":-6.2135},{"line":1,"transit":false,"station_id":"BUA","i_lat":-6.215568,"station_name":"Buaran","is_transit":false,"time":2,"distance":3100,"i_long":106.922662},{"transit":false,"station_name":"Klenderbaru","station_id":"KLDB","time":1,"i_lat":-6.217455,"i_long":106.939679,"distance":1305,"is_transit":false,"line":1},{"station_name":"Cakung","time":8,"distance":1385,"i_lat":-6.219053,"station_id":"CUK","is_transit":false,"i_long":106.951283,"line":1,"transit":false},{"line":1,"station_name":"Kranji","is_transit":false,"transit":false,"i_lat":-6.224515,"distance":3097,"station_id":"KRI","time":3,"i_long":106.977657},{"station_name":"Bekasi","i_lat":-6.236616,"line":1,"time":4,"distance":2520,"station_id":"BKS","i_long":106.997013,"is_transit":false,"transit":false},{"i_lat":-6.248029,"line":1,"station_id":"BKST","transit":false,"distance":2368,"i_long":107.016735,"is_transit":false,"station_name":"Bekasi Timur","time":2},{"station_name":"Tambun","line":1,"transit":false,"time":7,"i_long":107.055722,"is_transit":false,"i_lat":-6.258864,"station_id":"TB","distance":4460},{"time":3,"line":1,"i_long":107.083084,"station_id":"CIT","station_name":"Cibitung","i_lat":-6.261877,"is_transit":false,"distance":3420,"transit":false},{"transit":false,"station_name":"Metland Telaga Murni","station_id":"TLM","i_lat":-6.262938,"line":1,"time":2,"is_transit":false,"distance":2800,"i_long":107.093313}],[{"station_id":"KMT","is_transit":false,"station_name":"Kramat","transit":false,"i_long":106.855437,"time":0,"distance":0,"i_lat":-6.193792,"line":11},{"line":11,"station_name":"Gang Sentiong","i_lat":-6.185975,"time":1,"transit":false,"distance":973,"station_id":"GST","is_transit":false,"i_long":106.850107},{"i_long":106.84368,"is_transit":false,"time":8,"distance":1567,"transit":false,"i_lat":-6.174784,"station_id":"PSE","station_name":"Pasar Senen","line":11},{"i_lat":-6.161728,"transit":false,"line":11,"distance":1436,"station_name":"Kemayoran","is_transit":false,"time":4,"station_id":"KMO","i_long":106.839204},{"station_id":"RJW","time":5,"i_long":106.836569,"transit":false,"station_name":"Rajawali","distance":1901,"is_transit":false,"i_lat":-6.14505,"line":11},{"station_name":"Kampung Bandan","distance":1444,"is_transit":true,"i_lat":-6.132549,"time":3,"i_long":106.826365,"station_id":"KPB","line":4,"transit":true},{"time":3,"line":2,"i_long":106.812439,"is_transit":true,"distance":1364,"station_id":"JAKK","station_name":"Jakarta Kota","transit":true,"i_lat":-6.137569},{"transit":false,"is_transit":false,"station_name":"Jayakarta","distance":1264,"time":4,"i_lat":-6.141205,"i_long":106.820901,"line":2,"station_id":"JAY"},{"is_transit":false,"i_long":106.82482,"station_id":"MGB","station_name":"Manggabesar","distance":1080,"line":2,"i_lat":-6.149769,"time":2,"transit":false},{"i_lat":-6.160725,"station_id":"SW","time":2,"is_transit":false,"distance":906,"transit":false,"i_long":106.827103,"line":2,"station_name":"Sawah Besar"},{"i_lat":-6.166716,"station_name":"Juanda","station_id":"JUA","i_long":106.828284,"line":2,"is_transit":false,"time":2,"distance":1149,"transit":false},{"distance":2015,"line":2,"i_long":106.832183,"station_id":"GDD","is_transit":false,"i_lat":-6.186295,"time":4,"station_name":"Gondangdia","transit":false},{"i_long":106.840169,"distance":1750,"line":2,"time":3,"station_name":"Cikini","station_id":"CKI","transit":false,"is_transit":false,"i_lat":-6.198556},{"station_id":"MRI","distance":1590,"time":4,"i_lat":-6.209883,"is_transit":true,"station_name":"Manggarai","i_long":106.84912,"line":2,"transit":true},{"is_transit":false,"i_lat":-6.212485,"line":1,"station_id":"MTR","i_long":106.858896,"transit":false,"distance":1275,"station_name":"Matraman","time":2},{"i_lat":-6.215091,"is_transit":false,"station_id":"JNG","time":8,"station_name":"Jatinegara","i_long":106.86807400000001,"line":1,"distance":1377,"transit":false},{"i_long":106.899548,"station_id":"KLD","time":3,"station_name":"Klender","transit":false,"i_lat":-6.2135,"line":1,"is_transit":false,"distance":3395},{"line":1,"distance":3100,"is_transit":false,"station_name":"Buaran","i_lat":-6.215568,"transit":false,"i_long":106.922662,"station_id":"BUA","time":2},{"station_name":"Klenderbaru","time":1,"i_lat":-6.217455,"line":1,"is_transit":false,"distance":1305,"i_long":106.939679,"transit":false,"station_id":"KLDB"},{"is_transit":false,"transit":false,"station_name":"Cakung","time":8,"i_lat":-6.219053,"distance":1385,"i_long":106.951283,"line":1,"station_id":"CUK"},{"time":3,"transit":false,"i_long":106.977657,"station_id":"KRI","is_transit":false,"station_name":"Kranji","distance":3097,"i_lat":-6.224515,"line":1},{"i_long":106.997013,"line":1,"is_transit":false,"station_name":"Bekasi","i_lat":-6.236616,"station_id":"BKS","time":4,"distance":2520,"transit":false},{"distance":2368,"station_id":"BKST","i_lat":-6.248029,"line":1,"station_name":"Bekasi Timur","time":2,"i_long":107.016735,"transit":false,"is_transit":false},{"station_id":"TB","time":7,"distance":4460,"is_transit":false,"transit":false,"i_lat":-6.258864,"station_name":"Tambun","line":1,"i_long":107.055722},{"is_transit":false,"station_id":"CIT","line":1,"i_long":107.083084,"transit":false,"station_name":"Cibitung","time":3,"i_lat":-6.261877,"distance":3420},{"time":2,"station_name":"Metland Telaga Murni","transit":false,"distance":2800,"station_id":"TLM","line":1,"is_transit":false,"i_lat":-6.262938,"i_long":107.093313}]]}