{"data":[[{"station_id":"KMT","distance":0,"transit":false,"time":0,"i_lat":-6.193792,"i_long":106.855437,"station_name":"Kramat","is_transit":false,"line":11},{"station_id":"POK","time":2,"transit":false,"i_lat":-6.209188,"distance":1829,"station_name":"Pondok Jati","is_transit":false,"i_long":106.861737,"line":11},{"time":9,"distance":1236,"i_lat":-6.215091,"station_id":"JNG","i_long":106.86807400000001,"station_name":"Jatinegara","transit":true,"line":0,"is_transit":true},{"station_id":"KLD","i_lat":-6.2135,"is_transit":false,"line":1,"transit":false,"time":3,"distance":3395,"i_long":106.899548,"station_name":"Klender"},{"line":0,"is_transit":false,"i_lat":-6.215568,"station_name":"Buaran","time":2,"transit":false,"station_id":"BUA","distance":3100,"i_long":106.922662},{"transit":false,"station_name":"Klenderbaru","time":1,"i_long":106.939679,"line":1,"station_id":"KLDB","distance":1305,"i_lat":-6.217455,"is_transit":false}],[{"distance":0,"time":0,"station_id":"KMT","line":11,"transit":false,"station_name":"Kramat","is_transit":false,"i_lat":-6.193792,"i_long":106.855437},{"distance":973,"i_lat":-6.185975,"transit":false,"line":11,"station_id":"GST","station_name":"Gang Sentiong","is_transit":false,"i_long":106.850107,"time":1},{"station_name":"Pasar Senen","is_transit":false,"distance":1567,"line":11,"station_id":"PSE","time":8,"transit":false,"i_long":106.84368,"i_lat":-6.174784},{"is_transit":false,"distance":1436,"station_id":"KMO","time":4,"station_name":"Kemayoran","line":11,"transit":false,"i_lat":-6.161728,"i_long":106.839204},{"station_id":"RJW","distance":1901,"i_long":106.836569,"i_lat":-6.14505,"line":11,"time":5,"transit":false,"station_name":"Rajawali","is_transit":false},{"line":0,"station_name":"Kampung Bandan","i_long":106.826365,"i_lat":-6.132549,"time":3,"is_transit":true,"distance":1444,"station_id":"KPB","transit":true},{"i_long":106.79867,"time":9,"is_transit":false,"distance":4102,"line":0,"station_id":"AK","station_name":"Angke","transit":false,"i_lat":-6.144674},{"is_transit":true,"station_id":"DU","i_lat":-6.155215,"i_long":106.800832,"time":4,"station_name":"Duri","transit":true,"distance":1230,"line":1},{"station_name":"Tanah Abang","distance":3632,"is_transit":true,"line":1,"time":8,"station_id":"THB","i_long":106.811091,"transit":false,"i_lat":-6.185545},{"i_long":106.816351,"station_name":"Karet","station_id":"KAT","i_lat":-6.20132,"is_transit":false,"time":5,"distance":2029,"transit":false,"line":1},{"line":1,"i_long":106.819881,"distance":471,"station_name":"Sudirman Baru","station_id":"SUDB","time":1,"transit":false,"is_transit":false,"i_lat":-6.201433},{"i_lat":-6.202263,"line":1,"distance":280,"i_long":106.822649,"transit":false,"station_name":"Sudirman","is_transit":false,"time":1,"station_id":"SUD"},{"station_name":"Manggarai","i_long":106.84912,"distance":3186,"line":0,"is_transit":true,"time":4,"transit":false,"station_id":"MRI","i_lat":-6.209883},{"i_lat":-6.212485,"time":2,"distance":1275,"is_transit":false,"transit":false,"station_name":"Matraman","station_id":"MTR","line":1,"i_long":106.858896},{"line":0,"station_name":"Jatinegara","is_transit":true,"station_id":"JNG","distance":1377,"transit":false,"i_long":106.86807400000001,"time":8,"i_lat":-6.215091},{"is_transit":false,"time":3,"i_lat":-6.2135,"station_id":"KLD","transit":false,"distance":3395,"station_name":"Klender","i_long":106.899548,"line":1},{"time":2,"transit":false,"station_name":"Buaran","i_long":106.922662,"line":0,"distance":3100,"is_transit":false,"station_id":"BUA","i_lat":-6.215568},{"i_long":106.939679,"line":1,"station_id":"KLDB","time":1,"distance":1305,"is_transit":false,"transit":false,"i_lat":-6.217455,"station_name":"Klenderbaru"}],[{"is_transit":false,"line":11,"i_long":106.855437,"i_lat":-6.193792,"station_id":"KMT","transit":false,"distance":0,"time":0,"station_name":"Kramat"},{"distance":973,"is_transit":false,"transit":false,"line":11,"i_lat":-6.185975,"time":1,"station_id":"GST","station_name":"Gang Sentiong","i_long":106.850107},{"i_lat":-6.174784,"distance":1567,"i_long":106.84368,"line":11,"station_name":"Pasar Senen","station_id":"PSE","is_transit":false,"transit":false,"time":8},{"transit":false,"station_name":"Kemayoran","distance":1436,"i_lat":-6.161728,"station_id":"KMO","i_long":106.839204,"line":11,"is_transit":false,"time":4},{"distance":1901,"line":11,"station_id":"RJW","is_transit":false,"transit":false,"i_lat":-6.14505,"station_name":"Rajawali","time":5,"i_long":106.836569},{"i_lat":-6.132549,"station_name":"Kampung Bandan","i_long":106.826365,"station_id":"KPB","line":0,"is_transit":true,"distance":1444,"time":3,"transit":true},{"station_id":"JAKK","station_name":"Jakarta Kota","is_transit":true,"distance":1364,"transit":true,"line":0,"i_lat":-6.137569,"time":3,"i_long":106.812439},{"i_lat":-6.141205,"station_name":"Jayakarta","is_transit":false,"time":4,"distance":1264,"transit":false,"i_long":106.820901,"station_id":"JAY","line":7},{"transit":false,"time":2,"i_lat":-6.149769,"station_name":"Manggabesar","station_id":"MGB","i_long":106.82482,"line":2,"is_transit":false,"distance":1080},{"is_transit":false,"time":2,"transit":false,"i_long":106.827103,"station_name":"Sawah Besar","distance":906,"station_id":"SW","line":2,"i_lat":-6.160725},{"i_long":106.828284,"station_id":"JUA","time":2,"distance":1149,"i_lat":-6.166716,"line":2,"is_transit":false,"transit":false,"station_name":"Juanda"},{"i_lat":-6.186295,"distance":2015,"line":2,"i_long":106.832183,"station_name":"Gondangdia","time":4,"station_id":"GDD","transit":false,"is_transit":false},{"is_transit":false,"time":3,"distance":1750,"i_lat":-6.198556,"transit":false,"line":0,"station_id":"CKI","i_long":106.840169,"station_name":"Cikini"},{"line":0,"i_lat":-6.209883,"is_transit":true,"station_id":"MRI","transit":true,"i_long":106.84912,"station_name":"Manggarai","time":4,"distance":1590},{"distance":1275,"i_long":106.858896,"is_transit":false,"line":1,"i_lat":-6.212485,"transit":false,"station_id":"MTR","station_name":"Matraman","time":2},{"time":8,"distance":1377,"line":0,"is_transit":true,"station_id":"JNG","transit":false,"i_long":106.86807400000001,"i_lat":-6.215091,"station_name":"Jatinegara"},{"transit":false,"station_id":"KLD","distance":3395,"i_long":106.899548,"is_transit":false,"time":3,"station_name":"Klender","i_lat":-6.2135,"line":1},{"distance":3100,"is_transit":false,"time":2,"line":0,"station_id":"BUA","transit":false,"i_long":106.922662,"station_name":"Buaran","i_lat":-6.215568},{"distance":1305,"time":1,"is_transit":false,"i_lat":-6.217455,"station_id":"KLDB","station_name":"Klenderbaru","i_long":106.939679,"line":1,"transit":false}]]}