{"data":[[{"i_long":106.855437,"is_transit":false,"i_lat":-6.193792,"line":11,"transit":false,"time":0,"station_id":"KMT","station_name":"Kramat","distance":0},{"distance":1829,"station_name":"Pondok Jati","i_long":106.861737,"transit":false,"station_id":"POK","time":2,"i_lat":-6.209188,"line":11,"is_transit":false},{"time":9,"i_long":106.86807400000001,"station_id":"JNG","station_name":"Jatinegara","distance":1236,"line":0,"i_lat":-6.215091,"is_transit":true,"transit":true},{"station_id":"KLD","station_name":"Klender","time":3,"transit":false,"is_transit":false,"i_long":106.899548,"i_lat":-6.2135,"line":1,"distance":3395},{"time":2,"distance":3100,"i_lat":-6.215568,"station_id":"BUA","i_long":106.922662,"transit":false,"station_name":"Buaran","is_transit":false,"line":0},{"distance":1305,"i_lat":-6.217455,"station_id":"KLDB","line":1,"i_long":106.939679,"transit":false,"time":1,"is_transit":false,"station_name":"Klenderbaru"},{"is_transit":false,"i_long":106.951283,"line":0,"time":8,"distance":1385,"transit":false,"station_id":"CUK","i_lat":-6.219053,"station_name":"Cakung"},{"time":3,"station_name":"Kranji","line":1,"station_id":"KRI","is_transit":false,"i_lat":-6.224515,"transit":false,"i_long":106.977657,"distance":3097},{"transit":false,"station_id":"BKS","distance":2520,"station_name":"Bekasi","i_lat":-6.236616,"i_long":106.997013,"line":0,"is_transit":false,"time":4},{"transit":false,"station_id":"BKST","i_lat":-6.248029,"line":0,"distance":2368,"is_transit":false,"station_name":"Bekasi Timur","i_long":107.016735,"time":2},{"distance":4460,"time":7,"transit":false,"station_id":"TB","station_name":"Tambun","i_lat":-6.258864,"i_long":107.055722,"line":1,"is_transit":false},{"i_lat":-6.261877,"distance":3420,"time":3,"transit":false,"i_long":107.083084,"station_id":"CIT","is_transit":false,"station_name":"Cibitung","line":0},{"line":1,"transit":false,"time":2,"distance":2800,"station_name":"Metland Telaga Murni","is_transit":false,"station_id":"TLM","i_long":107.093313,"i_lat":-6.262938}],[{"line":11,"distance":0,"time":0,"is_transit":false,"station_name":"Kramat","i_lat":-6.193792,"transit":false,"i_long":106.855437,"station_id":"KMT"},{"distance":973,"station_name":"Gang Sentiong","i_long":106.850107,"transit":false,"is_transit":false,"station_id":"GST","line":11,"time":1,"i_lat":-6.185975},{"i_lat":-6.174784,"is_transit":false,"time":8,"i_long":106.84368,"station_id":"PSE","station_name":"Pasar Senen","line":11,"distance":1567,"transit":false},{"i_long":106.839204,"is_transit":false,"station_name":"Kemayoran","time":4,"transit":false,"distance":1436,"station_id":"KMO","i_lat":-6.161728,"line":11},{"station_id":"RJW","station_name":"Rajawali","i_lat":-6.14505,"is_transit":false,"line":11,"time":5,"i_long":106.836569,"transit":false,"distance":1901},{"station_name":"Kampung Bandan","distance":1444,"line":0,"transit":true,"time":3,"i_lat":-6.132549,"i_long":106.826365,"station_id":"KPB","is_transit":true},{"i_lat":-6.144674,"line":0,"transit":false,"station_id":"AK","distance":4102,"i_long":106.79867,"station_name":"Angke","is_transit":false,"time":9},{"station_name":"Duri","time":4,"i_lat":-6.155215,"is_transit":true,"distance":1230,"station_id":"DU","i_long":106.800832,"line":1,"transit":true},{"line":1,"distance":3632,"i_lat":-6.185545,"station_name":"Tanah Abang","i_long":106.811091,"is_transit":true,"transit":false,"station_id":"THB","time":8},{"i_lat":-6.20132,"station_name":"Karet","station_id":"KAT","time":5,"is_transit":false,"distance":2029,"line":1,"i_long":106.816351,"transit":false},{"i_long":106.819881,"line":1,"time":1,"is_transit":false,"station_id":"SUDB","station_name":"Sudirman Baru","distance":471,"transit":false,"i_lat":-6.201433},{"is_transit":false,"i_long":106.822649,"line":1,"transit":false,"distance":280,"station_name":"Sudirman","station_id":"SUD","time":1,"i_lat":-6.202263},{"station_name":"Manggarai","line":0,"distance":3186,"i_lat":-6.209883,"time":4,"transit":false,"is_transit":true,"station_id":"MRI","i_long":106.84912},{"i_long":106.858896,"station_name":"Matraman","transit":false,"is_transit":false,"distance":1275,"time":2,"station_id":"MTR","i_lat":-6.212485,"line":1},{"is_transit":true,"line":0,"station_name":"Jatinegara","distance":1377,"i_lat":-6.215091,"transit":false,"station_id":"JNG","i_long":106.86807400000001,"time":8},{"station_name":"Klender","distance":3395,"i_long":106.899548,"station_id":"KLD","time":3,"is_transit":false,"i_lat":-6.2135,"transit":false,"line":1},{"transit":false,"station_name":"Buaran","i_long":106.922662,"distance":3100,"time":2,"is_transit":false,"station_id":"BUA","line":0,"i_lat":-6.215568},{"station_name":"Klenderbaru","station_id":"KLDB","i_lat":-6.217455,"is_transit":false,"time":1,"transit":false,"i_long":106.939679,"line":1,"distance":1305},{"station_name":"Cakung","transit":false,"is_transit":false,"station_id":"CUK","i_long":106.951283,"time":8,"i_lat":-6.219053,"line":0,"distance":1385},{"line":1,"station_name":"Kranji","transit":false,"time":3,"i_long":106.977657,"is_transit":false,"distance":3097,"station_id":"KRI","i_lat":-6.224515},{"is_transit":false,"station_id":"BKS","i_long":106.997013,"i_lat":-6.236616,"distance":2520,"time":4,"line":0,"transit":false,"station_name":"Bekasi"},{"i_lat":-6.248029,"distance":2368,"i_long":107.016735,"time":2,"line":0,"transit":false,"station_id":"BKST","is_transit":false,"station_name":"Bekasi Timur"},{"line":1,"distance":4460,"time":7,"station_name":"Tambun","transit":false,"i_long":107.055722,"i_lat":-6.258864,"is_transit":false,"station_id":"TB"},{"transit":false,"time":3,"distance":3420,"is_transit":false,"i_lat":-6.261877,"station_id":"CIT","station_name":"Cibitung","line":0,"i_long":107.083084},{"line":1,"is_transit":false,"station_name":"Metland Telaga Murni","i_lat":-6.262938,"distance":2800,"station_id":"TLM","time":2,"transit":false,"i_long":107.093313}],[{"transit":false,"is_transit":false,"station_id":"KMT","line":11,"distance":0,"station_name":"Kramat","i_long":106.855437,"time":0,"i_lat":-6.193792},{"i_lat":-6.185975,"station_id":"GST","is_transit":false,"line":11,"i_long":106.850107,"distance":973,"station_name":"Gang Sentiong","transit":false,"time":1},{"distance":1567,"station_id":"PSE","transit":false,"i_long":106.84368,"is_transit":false,"line":11,"time":8,"station_name":"Pasar Senen","i_lat":-6.174784},{"station_name":"Kemayoran","station_id":"KMO","line":11,"transit":false,"i_lat":-6.161728,"is_transit":false,"time":4,"i_long":106.839204,"distance":1436},{"line":11,"transit":false,"distance":1901,"time":5,"station_name":"Rajawali","i_long":106.836569,"i_lat":-6.14505,"station_id":"RJW","is_transit":false},{"i_long":106.826365,"line":0,"time":3,"is_transit":true,"distance":1444,"station_name":"Kampung Bandan","station_id":"KPB","i_lat":-6.132549,"transit":true},{"station_name":"Jakarta Kota","time":3,"distance":1364,"line":0,"station_id":"JAKK","i_long":106.812439,"transit":true,"is_transit":true,"i_lat":-6.137569},{"i_lat":-6.141205,"station_name":"Jayakarta","time":4,"line":7,"i_long":106.820901,"is_transit":false,"distance":1264,"transit":false,"station_id":"JAY"},{"i_lat":-6.149769,"is_transit":false,"i_long":106.82482,"line":2,"distance":1080,"station_name":"Manggabesar","transit":false,"time":2,"station_id":"MGB"},{"station_name":"Sawah Besar","time":2,"distance":906,"i_long":106.827103,"line":2,"is_transit":false,"i_lat":-6.160725,"transit":false,"station_id":"SW"},{"station_id":"JUA","station_name":"Juanda","i_long":106.828284,"i_lat":-6.166716,"time":2,"line":2,"transit":false,"is_transit":false,"distance":1149},{"station_name":"Gondangdia","i_long":106.832183,"station_id":"GDD","line":2,"is_transit":false,"distance":2015,"i_lat":-6.186295,"time":4,"transit":false},{"i_long":106.840169,"transit":false,"is_transit":false,"i_lat":-6.198556,"line":0,"station_name":"Cikini","time":3,"distance":1750,"station_id":"CKI"},{"time":4,"i_long":106.84912,"station_name":"Manggarai","i_lat":-6.209883,"is_transit":true,"station_id":"MRI","line":0,"transit":true,"distance":1590},{"station_name":"Matraman","line":1,"transit":false,"i_lat":-6.212485,"i_long":106.858896,"time":2,"station_id":"MTR","is_transit":false,"distance":1275},{"station_id":"JNG","line":0,"distance":1377,"i_lat":-6.215091,"transit":false,"time":8,"station_name":"Jatinegara","is_transit":true,"i_long":106.86807400000001},{"station_id":"KLD","station_name":"Klender","i_long":106.899548,"line":1,"distance":3395,"i_lat":-6.2135,"is_transit":false,"time":3,"transit":false},{"distance":3100,"i_lat":-6.215568,"transit":false,"i_long":106.922662,"station_name":"Buaran","time":2,"is_transit":false,"station_id":"BUA","line":0},{"transit":false,"station_name":"Klenderbaru","i_lat":-6.217455,"i_long":106.939679,"is_transit":false,"line":1,"time":1,"distance":1305,"station_id":"KLDB"},{"station_name":"Cakung","i_lat":-6.219053,"transit":false,"line":0,"station_id":"CUK","distance":1385,"time":8,"is_transit":false,"i_long":106.951283},{"time":3,"station_id":"KRI","station_name":"Kranji","transit":false,"i_lat":-6.224515,"distance":3097,"i_long":106.977657,"line":1,"is_transit":false},{"distance":2520,"transit":false,"station_name":"Bekasi","time":4,"is_transit":false,"station_id":"BKS","i_lat":-6.236616,"line":0,"i_long":106.997013},{"station_id":"BKST","transit":false,"line":0,"distance":2368,"time":2,"i_lat":-6.248029,"i_long":107.016735,"station_name":"Bekasi Timur","is_transit":false},{"station_name":"Tambun","i_long":107.055722,"time":7,"station_id":"TB","line":1,"is_transit":false,"i_lat":-6.258864,"transit":false,"distance":4460},{"transit":false,"line":0,"station_id":"CIT","is_transit":false,"i_long":107.083084,"distance":3420,"time":3,"station_name":"Cibitung","i_lat":-6.261877},{"time":2,"i_long":107.093313,"station_id":"TLM","line":1,"is_transit":false,"station_name":"Metland Telaga Murni","i_lat":-6.262938,"transit":false,"distance":2800}]]}