{"data":[[{"station_name":"Kramat","i_lat":-6.193792,"station_id":"KMT","is_transit":false,"line":11,"i_long":106.855437,"distance":0,"transit":false,"time":0},{"time":2,"is_transit":false,"transit":false,"station_name":"Pondok Jati","line":11,"i_lat":-6.209188,"distance":1829,"station_id":"POK","i_long":106.861737},{"distance":1236,"station_name":"Jatinegara","transit":true,"is_transit":true,"i_lat":-6.215091,"i_long":106.86807400000001,"station_id":"JNG","line":1,"time":9},{"is_transit":false,"distance":3395,"transit":false,"i_lat":-6.2135,"i_long":106.899548,"station_id":"KLD","station_name":"Klender","line":1,"time":3},{"i_long":106.922662,"station_name":"Buaran","line":1,"distance":3100,"transit":false,"station_id":"BUA","time":2,"is_transit":false,"i_lat":-6.215568},{"distance":1305,"line":1,"station_id":"KLDB","station_name":"Klenderbaru","i_lat":-6.217455,"transit":false,"is_transit":false,"time":1,"i_long":106.939679},{"i_long":106.951283,"time":8,"transit":false,"line":1,"station_id":"CUK","station_name":"Cakung","is_transit":false,"distance":1385,"i_lat":-6.219053},{"i_lat":-6.224515,"station_id":"KRI","line":1,"transit":false,"i_long":106.977657,"station_name":"Kranji","distance":3097,"is_transit":false,"time":3},{"station_id":"BKS","distance":2520,"i_long":106.997013,"is_transit":false,"i_lat":-6.236616,"transit":false,"station_name":"Bekasi","line":1,"time":4},{"time":2,"transit":false,"station_name":"Bekasi Timur","station_id":"BKST","is_transit":false,"i_lat":-6.248029,"line":1,"i_long":107.016735,"distance":2368},{"time":7,"i_long":107.055722,"i_lat":-6.258864,"station_id":"TB","line":1,"distance":4460,"transit":false,"station_name":"Tambun","is_transit":false},{"station_id":"CIT","line":1,"station_name":"Cibitung","time":3,"i_long":107.083084,"transit":false,"i_lat":-6.261877,"is_transit":false,"distance":3420}],[{"line":11,"station_name":"Kramat","station_id":"KMT","time":0,"is_transit":false,"i_long":106.855437,"distance":0,"transit":false,"i_lat":-6.193792},{"time":1,"station_id":"GST","transit":false,"is_transit":false,"i_lat":-6.185975,"distance":973,"i_long":106.850107,"line":11,"station_name":"Gang Sentiong"},{"i_long":106.84368,"station_name":"Pasar Senen","transit":false,"station_id":"PSE","is_transit":false,"i_lat":-6.174784,"time":8,"line":11,"distance":1567},{"station_id":"KMO","distance":1436,"station_name":"Kemayoran","time":4,"is_transit":false,"transit":false,"i_lat":-6.161728,"line":11,"i_long":106.839204},{"i_long":106.836569,"transit":false,"distance":1901,"is_transit":false,"station_id":"RJW","station_name":"Rajawali","time":5,"i_lat":-6.14505,"line":11},{"i_long":106.826365,"transit":true,"station_id":"KPB","is_transit":true,"station_name":"Kampung Bandan","time":3,"i_lat":-6.132549,"line":4,"distance":1444},{"line":1,"is_transit":false,"time":9,"distance":4102,"transit":false,"station_id":"AK","i_lat":-6.144674,"station_name":"Angke","i_long":106.79867},{"transit":false,"time":4,"i_lat":-6.155215,"station_id":"DU","is_transit":false,"i_long":106.800832,"distance":1230,"line":1,"station_name":"Duri"},{"time":8,"transit":false,"i_lat":-6.185545,"line":1,"distance":3632,"i_long":106.811091,"is_transit":false,"station_id":"THB","station_name":"Tanah Abang"},{"distance":2029,"is_transit":false,"time":5,"i_lat":-6.20132,"transit":false,"station_id":"KAT","station_name":"Karet","line":1,"i_long":106.816351},{"transit":false,"i_lat":-6.201433,"i_long":106.819881,"station_id":"SUDB","line":1,"distance":471,"time":1,"station_name":"Sudirman Baru","is_transit":false},{"i_lat":-6.202263,"i_long":106.822649,"transit":false,"line":1,"station_name":"Sudirman","distance":280,"station_id":"SUD","is_transit":false,"time":1},{"is_transit":false,"distance":3186,"station_name":"Manggarai","transit":false,"time":4,"line":2,"i_long":106.84912,"station_id":"MRI","i_lat":-6.209883},{"station_id":"MTR","is_transit":false,"transit":false,"station_name":"Matraman","time":2,"i_lat":-6.212485,"distance":1275,"line":1,"i_long":106.858896},{"station_name":"Jatinegara","time":8,"i_long":106.86807400000001,"line":1,"is_transit":false,"i_lat":-6.215091,"distance":1377,"transit":false,"station_id":"JNG"},{"distance":3395,"station_name":"Klender","station_id":"KLD","transit":false,"i_lat":-6.2135,"line":1,"i_long":106.899548,"is_transit":false,"time":3},{"i_lat":-6.215568,"is_transit":false,"distance":3100,"transit":false,"station_name":"Buaran","time":2,"i_long":106.922662,"station_id":"BUA","line":1},{"i_long":106.939679,"line":1,"station_id":"KLDB","i_lat":-6.217455,"is_transit":false,"time":1,"distance":1305,"station_name":"Klenderbaru","transit":false},{"station_id":"CUK","station_name":"Cakung","i_long":106.951283,"transit":false,"line":1,"is_transit":false,"time":8,"i_lat":-6.219053,"distance":1385},{"distance":3097,"station_id":"KRI","is_transit":false,"i_lat":-6.224515,"i_long":106.977657,"time":3,"transit":false,"station_name":"Kranji","line":1},{"distance":2520,"i_lat":-6.236616,"station_id":"BKS","station_name":"Bekasi","i_long":106.997013,"time":4,"is_transit":false,"transit":false,"line":1},{"station_id":"BKST","i_lat":-6.248029,"station_name":"Bekasi Timur","line":1,"time":2,"distance":2368,"is_transit":false,"transit":false,"i_long":107.016735},{"station_name":"Tambun","distance":4460,"line":1,"i_lat":-6.258864,"transit":false,"station_id":"TB","time":7,"is_transit":false,"i_long":107.055722},{"time":3,"i_lat":-6.261877,"is_transit":false,"i_long":107.083084,"station_id":"CIT","line":1,"distance":3420,"transit":false,"station_name":"Cibitung"}],[{"distance":0,"i_lat":-6.193792,"line":11,"station_id":"KMT","is_transit":false,"i_long":106.855437,"transit":false,"time":0,"station_name":"Kramat"},{"line":11,"i_long":106.850107,"i_lat":-6.185975,"time":1,"station_id":"GST","transit":false,"station_name":"Gang Sentiong","is_transit":false,"distance":973},{"transit":false,"station_id":"PSE","time":8,"is_transit":false,"i_long":106.84368,"line":11,"i_lat":-6.174784,"distance":1567,"station_name":"Pasar Senen"},{"time":4,"i_lat":-6.161728,"distance":1436,"is_transit":false,"i_long":106.839204,"transit":false,"station_id":"KMO","station_name":"Kemayoran","line":11},{"i_lat":-6.14505,"station_id":"RJW","i_long":106.836569,"line":11,"station_name":"Rajawali","is_transit":false,"distance":1901,"time":5,"transit":false},{"distance":1444,"transit":true,"time":3,"i_lat":-6.132549,"is_transit":true,"line":4,"i_long":106.826365,"station_name":"Kampung Bandan","station_id":"KPB"},{"transit":true,"station_name":"Jakarta Kota","i_long":106.812439,"time":3,"distance":1364,"i_lat":-6.137569,"line":2,"station_id":"JAKK","is_transit":true},{"transit":false,"i_long":106.820901,"is_transit":false,"time":4,"line":2,"station_id":"JAY","i_lat":-6.141205,"station_name":"Jayakarta","distance":1264},{"station_id":"MGB","i_lat":-6.149769,"is_transit":false,"time":2,"line":2,"distance":1080,"station_name":"Manggabesar","transit":false,"i_long":106.82482},{"time":2,"i_lat":-6.160725,"line":2,"station_name":"Sawah Besar","i_long":106.827103,"is_transit":false,"distance":906,"station_id":"SW","transit":false},{"distance":1149,"i_lat":-6.166716,"line":2,"i_long":106.828284,"station_id":"JUA","transit":false,"is_transit":false,"time":2,"station_name":"Juanda"},{"time":4,"line":2,"distance":2015,"station_id":"GDD","transit":false,"station_name":"Gondangdia","is_transit":false,"i_long":106.832183,"i_lat":-6.186295},{"i_long":106.840169,"distance":1750,"station_id":"CKI","i_lat":-6.198556,"transit":false,"is_transit":false,"time":3,"station_name":"Cikini","line":2},{"station_name":"Manggarai","i_lat":-6.209883,"is_transit":true,"distance":1590,"i_long":106.84912,"transit":true,"line":2,"station_id":"MRI","time":4},{"distance":1275,"transit":false,"is_transit":false,"i_long":106.858896,"station_id":"MTR","i_lat":-6.212485,"station_name":"Matraman","time":2,"line":1},{"i_long":106.86807400000001,"is_transit":false,"distance":1377,"time":8,"i_lat":-6.215091,"line":1,"station_id":"JNG","station_name":"Jatinegara","transit":false},{"i_long":106.899548,"line":1,"station_name":"Klender","time":3,"i_lat":-6.2135,"station_id":"KLD","transit":false,"is_transit":false,"distance":3395},{"distance":3100,"station_id":"BUA","time":2,"transit":false,"is_transit":false,"i_lat":-6.215568,"i_long":106.922662,"station_name":"Buaran","line":1},{"i_lat":-6.217455,"transit":false,"time":1,"station_id":"KLDB","distance":1305,"i_long":106.939679,"line":1,"station_name":"Klenderbaru","is_transit":false},{"is_transit":false,"time":8,"line":1,"i_lat":-6.219053,"station_name":"Cakung","transit":false,"i_long":106.951283,"station_id":"CUK","distance":1385},{"transit":false,"station_name":"Kranji","line":1,"time":3,"i_long":106.977657,"distance":3097,"station_id":"KRI","is_transit":false,"i_lat":-6.224515},{"transit":false,"time":4,"station_id":"BKS","i_long":106.997013,"station_name":"Bekasi","i_lat":-6.236616,"line":1,"distance":2520,"is_transit":false},{"time":2,"distance":2368,"i_lat":-6.248029,"transit":false,"line":1,"i_long":107.016735,"station_name":"Bekasi Timur","station_id":"BKST","is_transit":false},{"station_name":"Tambun","is_transit":false,"distance":4460,"i_lat":-6.258864,"transit":false,"station_id":"TB","line":1,"time":7,"i_long":107.055722},{"station_name":"Cibitung","transit":false,"time":3,"station_id":"CIT","i_long":107.083084,"is_transit":false,"line":1,"distance":3420,"i_lat":-6.261877}]]}