{"data":[[{"station_id":"KMT","i_lat":-6.193792,"transit":false,"station_name":"Kramat","i_long":106.855437,"line":11,"distance":0,"time":0,"is_transit":false},{"i_lat":-6.209188,"distance":1829,"is_transit":false,"line":11,"i_long":106.861737,"transit":false,"time":2,"station_name":"Pondok Jati","station_id":"POK"},{"i_long":106.86807400000001,"line":1,"station_name":"Jatinegara","is_transit":true,"time":9,"distance":1236,"station_id":"JNG","transit":true,"i_lat":-6.215091},{"line":1,"is_transit":false,"i_lat":-6.212485,"i_long":106.858896,"station_name":"Matraman","distance":1377,"transit":false,"time":2,"station_id":"MTR"},{"station_id":"MRI","i_lat":-6.209883,"is_transit":true,"line":2,"time":2,"distance":1275,"station_name":"Manggarai","i_long":106.84912,"transit":true},{"station_name":"Tebet","is_transit":false,"i_long":106.857948,"transit":false,"station_id":"TEB","i_lat":-6.226659,"time":4,"line":2,"distance":2610},{"station_name":"Cawang","transit":false,"distance":1230,"line":2,"station_id":"CW","i_lat":-6.242512,"time":2,"i_long":106.856607,"is_transit":false},{"time":3,"station_id":"DRN","line":2,"distance":1546,"is_transit":false,"i_lat":-6.255332,"station_name":"Duren Kalibata","i_long":106.85449,"transit":false},{"time":2,"transit":false,"i_long":106.851577,"station_id":"PSMB","distance":824,"station_name":"Pasar Minggu Baru","is_transit":false,"i_lat":-6.263214,"line":2},{"is_transit":false,"station_id":"PSM","time":2,"station_name":"Pasar Minggu","transit":false,"i_long":106.843999,"i_lat":-6.2842400000000005,"line":2,"distance":2380},{"station_name":"Tanjung Barat","distance":2820,"i_lat":-6.3080680000000005,"line":2,"i_long":106.838896,"transit":false,"station_id":"TNT","time":4,"is_transit":false}],[{"i_long":106.855437,"station_id":"KMT","i_lat":-6.193792,"transit":false,"time":0,"distance":0,"station_name":"Kramat","is_transit":false,"line":11},{"is_transit":false,"distance":973,"station_id":"GST","i_lat":-6.185975,"line":11,"transit":false,"station_name":"Gang Sentiong","time":1,"i_long":106.850107},{"is_transit":false,"distance":1567,"i_long":106.84368,"time":8,"line":11,"station_id":"PSE","transit":false,"station_name":"Pasar Senen","i_lat":-6.174784},{"i_long":106.839204,"time":4,"distance":1436,"transit":false,"is_transit":false,"line":11,"station_id":"KMO","station_name":"Kemayoran","i_lat":-6.161728},{"transit":false,"i_lat":-6.14505,"distance":1901,"i_long":106.836569,"time":5,"station_id":"RJW","is_transit":false,"line":11,"station_name":"Rajawali"},{"i_long":106.826365,"station_id":"KPB","line":4,"station_name":"Kampung Bandan","time":3,"distance":1444,"transit":true,"is_transit":true,"i_lat":-6.132549},{"line":1,"station_name":"Angke","transit":false,"distance":4102,"is_transit":false,"station_id":"AK","i_lat":-6.144674,"i_long":106.79867,"time":9},{"transit":false,"is_transit":false,"distance":1230,"i_lat":-6.155215,"time":4,"station_id":"DU","i_long":106.800832,"line":1,"station_name":"Duri"},{"is_transit":false,"i_long":106.811091,"i_lat":-6.185545,"transit":false,"station_id":"THB","line":1,"time":8,"distance":3632,"station_name":"Tanah Abang"},{"i_long":106.816351,"time":5,"line":1,"transit":false,"distance":2029,"station_name":"Karet","station_id":"KAT","is_transit":false,"i_lat":-6.20132},{"transit":false,"station_name":"Sudirman Baru","line":1,"station_id":"SUDB","i_lat":-6.201433,"is_transit":false,"i_long":106.819881,"distance":471,"time":1},{"station_id":"SUD","station_name":"Sudirman","time":1,"i_long":106.822649,"line":1,"is_transit":false,"i_lat":-6.202263,"transit":false,"distance":280},{"distance":3186,"transit":true,"i_lat":-6.209883,"is_transit":true,"station_id":"MRI","i_long":106.84912,"station_name":"Manggarai","time":4,"line":2},{"transit":false,"station_name":"Tebet","time":4,"line":2,"is_transit":false,"distance":2610,"i_long":106.857948,"i_lat":-6.226659,"station_id":"TEB"},{"station_name":"Cawang","station_id":"CW","distance":1230,"time":2,"i_long":106.856607,"i_lat":-6.242512,"is_transit":false,"line":2,"transit":false},{"i_long":106.85449,"transit":false,"station_name":"Duren Kalibata","time":3,"station_id":"DRN","distance":1546,"line":2,"i_lat":-6.255332,"is_transit":false},{"station_name":"Pasar Minggu Baru","transit":false,"station_id":"PSMB","i_lat":-6.263214,"line":2,"is_transit":false,"i_long":106.851577,"distance":824,"time":2},{"time":2,"is_transit":false,"transit":false,"station_name":"Pasar Minggu","station_id":"PSM","i_lat":-6.2842400000000005,"line":2,"distance":2380,"i_long":106.843999},{"distance":2820,"transit":false,"is_transit":false,"i_lat":-6.3080680000000005,"station_name":"Tanjung Barat","line":2,"time":4,"station_id":"TNT","i_long":106.838896}],[{"distance":0,"transit":false,"station_id":"KMT","station_name":"Kramat","is_transit":false,"i_lat":-6.193792,"i_long":106.855437,"time":0,"line":11},{"i_lat":-6.185975,"distance":973,"i_long":106.850107,"line":11,"time":1,"transit":false,"is_transit":false,"station_id":"GST","station_name":"Gang Sentiong"},{"line":11,"transit":false,"time":8,"station_name":"Pasar Senen","station_id":"PSE","distance":1567,"i_lat":-6.174784,"is_transit":false,"i_long":106.84368},{"line":11,"i_lat":-6.161728,"station_name":"Kemayoran","distance":1436,"transit":false,"is_transit":false,"station_id":"KMO","time":4,"i_long":106.839204},{"i_long":106.836569,"time":5,"distance":1901,"i_lat":-6.14505,"transit":false,"line":11,"station_id":"RJW","station_name":"Rajawali","is_transit":false},{"time":3,"i_lat":-6.132549,"i_long":106.826365,"distance":1444,"transit":true,"is_transit":true,"station_name":"Kampung Bandan","station_id":"KPB","line":4},{"transit":true,"station_name":"Jakarta Kota","i_lat":-6.137569,"station_id":"JAKK","i_long":106.812439,"line":2,"time":3,"is_transit":true,"distance":1364},{"time":4,"station_name":"Jayakarta","is_transit":false,"i_long":106.820901,"station_id":"JAY","distance":1264,"transit":false,"i_lat":-6.141205,"line":2},{"i_long":106.82482,"i_lat":-6.149769,"transit":false,"is_transit":false,"time":2,"station_id":"MGB","distance":1080,"line":2,"station_name":"Manggabesar"},{"distance":906,"transit":false,"i_long":106.827103,"line":2,"time":2,"station_name":"Sawah Besar","i_lat":-6.160725,"station_id":"SW","is_transit":false},{"is_transit":false,"transit":false,"station_name":"Juanda","i_lat":-6.166716,"time":2,"station_id":"JUA","i_long":106.828284,"distance":1149,"line":2},{"transit":false,"line":2,"station_id":"GDD","time":4,"distance":2015,"station_name":"Gondangdia","i_long":106.832183,"i_lat":-6.186295,"is_transit":false},{"transit":false,"is_transit":false,"line":2,"station_id":"CKI","distance":1750,"i_lat":-6.198556,"time":3,"i_long":106.840169,"station_name":"Cikini"},{"transit":false,"distance":1590,"station_name":"Manggarai","time":4,"station_id":"MRI","is_transit":false,"i_lat":-6.209883,"i_long":106.84912,"line":2},{"i_lat":-6.226659,"time":4,"line":2,"i_long":106.857948,"station_name":"Tebet","station_id":"TEB","is_transit":false,"distance":2610,"transit":false},{"line":2,"station_id":"CW","station_name":"Cawang","time":2,"distance":1230,"is_transit":false,"i_lat":-6.242512,"i_long":106.856607,"transit":false},{"station_id":"DRN","line":2,"is_transit":false,"time":3,"distance":1546,"i_long":106.85449,"station_name":"Duren Kalibata","i_lat":-6.255332,"transit":false},{"transit":false,"is_transit":false,"i_lat":-6.263214,"time":2,"line":2,"station_name":"Pasar Minggu Baru","station_id":"PSMB","distance":824,"i_long":106.851577},{"is_transit":false,"station_name":"Pasar Minggu","i_lat":-6.2842400000000005,"i_long":106.843999,"station_id":"PSM","line":2,"distance":2380,"transit":false,"time":2},{"line":2,"i_long":106.838896,"time":4,"distance":2820,"i_lat":-6.3080680000000005,"transit":false,"station_id":"TNT","station_name":"Tanjung Barat","is_transit":false}]]}