{"data":[[{"i_long":106.855437,"transit":false,"distance":0,"station_id":"KMT","time":0,"is_transit":false,"i_lat":-6.193792,"station_name":"Kramat","line":11},{"station_name":"Pondok Jati","i_lat":-6.209188,"time":2,"distance":1829,"is_transit":false,"line":11,"station_id":"POK","i_long":106.861737,"transit":false},{"i_lat":-6.215091,"transit":true,"station_name":"Jatinegara","station_id":"JNG","is_transit":true,"i_long":106.86807400000001,"time":9,"distance":1236,"line":1},{"station_name":"Matraman","line":1,"i_long":106.858896,"time":2,"i_lat":-6.212485,"distance":1377,"transit":false,"is_transit":false,"station_id":"MTR"},{"line":2,"station_id":"MRI","station_name":"Manggarai","transit":false,"i_lat":-6.209883,"is_transit":false,"distance":1275,"time":2,"i_long":106.84912},{"distance":3186,"line":1,"time":4,"transit":false,"i_lat":-6.202263,"station_name":"Sudirman","i_long":106.822649,"station_id":"SUD","is_transit":false},{"i_long":106.819881,"line":1,"station_name":"Sudirman Baru","is_transit":false,"transit":false,"distance":280,"i_lat":-6.201433,"time":1,"station_id":"SUDB"},{"i_long":106.816351,"time":1,"transit":false,"station_id":"KAT","is_transit":false,"distance":471,"line":1,"station_name":"Karet","i_lat":-6.20132},{"is_transit":true,"distance":2029,"i_long":106.811091,"time":5,"i_lat":-6.185545,"station_name":"Tanah Abang","line":1,"transit":true,"station_id":"THB"},{"distance":3191,"time":6,"station_id":"PLM","station_name":"Palmerah","i_long":106.79689,"is_transit":false,"line":6,"transit":false,"i_lat":-6.207404},{"station_id":"KBY","transit":false,"distance":3737,"i_lat":-6.237242,"line":6,"is_transit":false,"i_long":106.780334,"station_name":"Kebayoran","time":7},{"time":8,"is_transit":false,"station_id":"PDJ","i_long":106.74273,"i_lat":-6.276362,"distance":6218,"line":6,"station_name":"Pondokranji","transit":false}],[{"i_lat":-6.193792,"is_transit":false,"time":0,"line":11,"transit":false,"distance":0,"station_name":"Kramat","station_id":"KMT","i_long":106.855437},{"i_lat":-6.185975,"is_transit":false,"station_id":"GST","time":1,"station_name":"Gang Sentiong","transit":false,"i_long":106.850107,"line":11,"distance":973},{"i_long":106.84368,"i_lat":-6.174784,"transit":false,"station_id":"PSE","time":8,"station_name":"Pasar Senen","is_transit":false,"line":11,"distance":1567},{"station_id":"KMO","is_transit":false,"i_lat":-6.161728,"i_long":106.839204,"station_name":"Kemayoran","line":11,"time":4,"transit":false,"distance":1436},{"station_name":"Rajawali","transit":false,"i_lat":-6.14505,"i_long":106.836569,"distance":1901,"station_id":"RJW","time":5,"line":11,"is_transit":false},{"i_long":106.826365,"line":4,"distance":1444,"transit":true,"time":3,"is_transit":true,"station_id":"KPB","station_name":"Kampung Bandan","i_lat":-6.132549},{"i_long":106.79867,"is_transit":false,"line":1,"distance":4102,"i_lat":-6.144674,"time":9,"transit":false,"station_id":"AK","station_name":"Angke"},{"i_long":106.800832,"line":1,"station_id":"DU","station_name":"Duri","transit":false,"time":4,"i_lat":-6.155215,"is_transit":false,"distance":1230},{"distance":3632,"transit":true,"station_name":"Tanah Abang","is_transit":true,"time":8,"station_id":"THB","i_lat":-6.185545,"i_long":106.811091,"line":1},{"line":6,"is_transit":false,"time":6,"distance":3191,"station_name":"Palmerah","i_lat":-6.207404,"transit":false,"i_long":106.79689,"station_id":"PLM"},{"i_lat":-6.237242,"distance":3737,"time":7,"station_id":"KBY","station_name":"Kebayoran","line":6,"transit":false,"i_long":106.780334,"is_transit":false},{"station_name":"Pondokranji","time":8,"transit":false,"i_lat":-6.276362,"distance":6218,"i_long":106.74273,"is_transit":false,"station_id":"PDJ","line":6}],[{"time":0,"transit":false,"i_lat":-6.193792,"station_name":"Kramat","i_long":106.855437,"is_transit":false,"line":11,"distance":0,"station_id":"KMT"},{"i_long":106.861737,"station_id":"POK","distance":1829,"i_lat":-6.209188,"is_transit":false,"transit":false,"time":2,"station_name":"Pondok Jati","line":11},{"i_long":106.86807400000001,"station_name":"Jatinegara","distance":1236,"i_lat":-6.215091,"line":1,"time":9,"transit":true,"is_transit":true,"station_id":"JNG"},{"station_id":"MTR","distance":1377,"i_lat":-6.212485,"i_long":106.858896,"station_name":"Matraman","is_transit":false,"time":2,"line":1,"transit":false},{"station_id":"MRI","distance":1275,"is_transit":true,"i_long":106.84912,"line":2,"time":2,"station_name":"Manggarai","transit":true,"i_lat":-6.209883},{"i_lat":-6.198556,"distance":1590,"time":4,"transit":false,"station_id":"CKI","i_long":106.840169,"line":2,"is_transit":false,"station_name":"Cikini"},{"i_lat":-6.186295,"time":3,"station_name":"Gondangdia","line":2,"station_id":"GDD","distance":1750,"is_transit":false,"i_long":106.832183,"transit":false},{"station_name":"Juanda","i_lat":-6.166716,"time":4,"station_id":"JUA","is_transit":false,"distance":2015,"i_long":106.828284,"line":2,"transit":false},{"time":2,"line":2,"i_lat":-6.160725,"i_long":106.827103,"transit":false,"station_name":"Sawah Besar","station_id":"SW","is_transit":false,"distance":1149},{"distance":906,"is_transit":false,"station_name":"Manggabesar","i_lat":-6.149769,"station_id":"MGB","transit":false,"line":2,"i_long":106.82482,"time":2},{"distance":1080,"i_lat":-6.141205,"station_id":"JAY","station_name":"Jayakarta","is_transit":false,"i_long":106.820901,"time":2,"transit":false,"line":2},{"time":4,"transit":true,"i_long":106.812439,"distance":1264,"i_lat":-6.137569,"station_id":"JAKK","station_name":"Jakarta Kota","line":2,"is_transit":true},{"transit":true,"station_id":"KPB","is_transit":true,"i_lat":-6.132549,"station_name":"Kampung Bandan","i_long":106.826365,"time":3,"distance":1364,"line":4},{"i_lat":-6.144674,"distance":4102,"station_name":"Angke","time":9,"transit":false,"station_id":"AK","is_transit":false,"i_long":106.79867,"line":1},{"station_id":"DU","transit":false,"i_lat":-6.155215,"i_long":106.800832,"is_transit":false,"time":4,"line":1,"distance":1230,"station_name":"Duri"},{"i_long":106.811091,"station_id":"THB","i_lat":-6.185545,"line":1,"time":8,"transit":true,"distance":3632,"is_transit":true,"station_name":"Tanah Abang"},{"station_name":"Palmerah","distance":3191,"i_long":106.79689,"line":6,"transit":false,"is_transit":false,"station_id":"PLM","time":6,"i_lat":-6.207404},{"is_transit":false,"station_name":"Kebayoran","i_long":106.780334,"transit":false,"station_id":"KBY","distance":3737,"i_lat":-6.237242,"time":7,"line":6},{"time":8,"station_id":"PDJ","line":6,"transit":false,"distance":6218,"station_name":"Pondokranji","is_transit":false,"i_lat":-6.276362,"i_long":106.74273}],[{"i_long":106.855437,"line":11,"transit":false,"station_name":"Kramat","time":0,"is_transit":false,"distance":0,"i_lat":-6.193792,"station_id":"KMT"},{"i_lat":-6.185975,"is_transit":false,"transit":false,"i_long":106.850107,"distance":973,"station_name":"Gang Sentiong","line":11,"station_id":"GST","time":1},{"transit":false,"i_long":106.84368,"is_transit":false,"station_name":"Pasar Senen","station_id":"PSE","distance":1567,"i_lat":-6.174784,"line":11,"time":8},{"i_long":106.839204,"station_id":"KMO","line":11,"station_name":"Kemayoran","i_lat":-6.161728,"transit":false,"time":4,"distance":1436,"is_transit":false},{"transit":false,"station_id":"RJW","i_long":106.836569,"line":11,"station_name":"Rajawali","distance":1901,"time":5,"is_transit":false,"i_lat":-6.14505},{"i_long":106.826365,"time":3,"station_id":"KPB","station_name":"Kampung Bandan","distance":1444,"i_lat":-6.132549,"is_transit":true,"transit":true,"line":4},{"transit":true,"i_lat":-6.137569,"i_long":106.812439,"distance":1364,"station_id":"JAKK","time":3,"station_name":"Jakarta Kota","is_transit":true,"line":2},{"i_lat":-6.141205,"i_long":106.820901,"distance":1264,"transit":false,"station_id":"JAY","station_name":"Jayakarta","line":2,"is_transit":false,"time":4},{"station_name":"Manggabesar","station_id":"MGB","is_transit":false,"i_lat":-6.149769,"transit":false,"line":2,"i_long":106.82482,"time":2,"distance":1080},{"i_long":106.827103,"is_transit":false,"station_name":"Sawah Besar","time":2,"transit":false,"i_lat":-6.160725,"station_id":"SW","line":2,"distance":906},{"station_id":"JUA","transit":false,"is_transit":false,"line":2,"i_lat":-6.166716,"time":2,"station_name":"Juanda","i_long":106.828284,"distance":1149},{"station_name":"Gondangdia","i_lat":-6.186295,"station_id":"GDD","i_long":106.832183,"is_transit":false,"line":2,"transit":false,"distance":2015,"time":4},{"station_name":"Cikini","is_transit":false,"transit":false,"i_lat":-6.198556,"line":2,"i_long":106.840169,"distance":1750,"station_id":"CKI","time":3},{"station_name":"Manggarai","distance":1590,"i_long":106.84912,"i_lat":-6.209883,"transit":true,"station_id":"MRI","is_transit":true,"time":4,"line":2},{"distance":3186,"time":4,"station_id":"SUD","is_transit":false,"transit":false,"station_name":"Sudirman","i_lat":-6.202263,"i_long":106.822649,"line":1},{"i_lat":-6.201433,"distance":280,"time":1,"transit":false,"station_name":"Sudirman Baru","station_id":"SUDB","is_transit":false,"line":1,"i_long":106.819881},{"transit":false,"i_lat":-6.20132,"time":1,"distance":471,"station_id":"KAT","station_name":"Karet","is_transit":false,"i_long":106.816351,"line":1},{"distance":2029,"i_lat":-6.185545,"time":5,"station_id":"THB","i_long":106.811091,"station_name":"Tanah Abang","is_transit":true,"line":1,"transit":true},{"station_id":"PLM","distance":3191,"station_name":"Palmerah","is_transit":false,"line":6,"time":6,"transit":false,"i_lat":-6.207404,"i_long":106.79689},{"i_long":106.780334,"distance":3737,"line":6,"station_id":"KBY","i_lat":-6.237242,"transit":false,"station_name":"Kebayoran","is_transit":false,"time":7},{"i_lat":-6.276362,"time":8,"transit":false,"is_transit":false,"line":6,"i_long":106.74273,"station_id":"PDJ","station_name":"Pondokranji","distance":6218}]]}