{"data":[[{"line":11,"station_id":"KMT","i_lat":-6.193792,"is_transit":false,"distance":0,"station_name":"Kramat","time":0,"i_long":106.855437,"transit":false},{"station_id":"POK","transit":false,"i_lat":-6.209188,"i_long":106.861737,"is_transit":false,"time":2,"line":11,"distance":1829,"station_name":"Pondok Jati"},{"transit":true,"i_long":106.86807400000001,"distance":1236,"station_name":"Jatinegara","station_id":"JNG","time":9,"line":0,"i_lat":-6.215091,"is_transit":true},{"transit":false,"is_transit":false,"time":2,"distance":1377,"i_lat":-6.212485,"station_id":"MTR","station_name":"Matraman","i_long":106.858896,"line":1},{"is_transit":true,"transit":false,"distance":1275,"time":2,"i_long":106.84912,"station_id":"MRI","line":0,"i_lat":-6.209883,"station_name":"Manggarai"},{"line":1,"i_long":106.822649,"time":4,"transit":false,"distance":3186,"station_id":"SUD","is_transit":false,"station_name":"Sudirman","i_lat":-6.202263},{"station_name":"Sudirman Baru","is_transit":false,"i_lat":-6.201433,"i_long":106.819881,"distance":280,"station_id":"SUDB","time":1,"transit":false,"line":1},{"line":1,"time":1,"is_transit":false,"transit":false,"i_lat":-6.20132,"station_id":"KAT","i_long":106.816351,"station_name":"Karet","distance":471},{"distance":2029,"is_transit":true,"transit":true,"i_long":106.811091,"time":5,"station_name":"Tanah Abang","line":1,"i_lat":-6.185545,"station_id":"THB"},{"is_transit":false,"transit":false,"station_name":"Palmerah","station_id":"PLM","distance":3191,"line":6,"i_lat":-6.207404,"i_long":106.79689,"time":6},{"distance":3737,"time":7,"i_long":106.780334,"station_name":"Kebayoran","station_id":"KBY","transit":false,"i_lat":-6.237242,"line":6,"is_transit":false},{"is_transit":false,"transit":false,"station_id":"PDJ","i_lat":-6.276362,"line":6,"time":8,"i_long":106.74273,"station_name":"Pondokranji","distance":6218},{"station_name":"Jurangmangu","line":6,"i_long":106.728916,"i_lat":-6.288927,"time":3,"transit":false,"is_transit":false,"station_id":"JMU","distance":2179},{"time":4,"station_name":"Sudimara","station_id":"SDM","i_long":106.712277,"i_lat":-6.296963,"transit":false,"line":6,"is_transit":false,"distance":1994},{"station_name":"Rawa Buntu","station_id":"RU","time":6,"distance":4566,"transit":false,"i_long":106.675475,"is_transit":false,"i_lat":-6.314823,"line":6},{"station_name":"Serpong","distance":2413,"is_transit":false,"station_id":"SRP","transit":false,"i_lat":-6.319871,"i_long":106.66566,"line":6,"time":4},{"i_long":106.640411,"station_id":"CSK","i_lat":-6.32484,"time":4,"transit":false,"is_transit":false,"station_name":"Cisauk","line":0,"distance":1784},{"station_id":"CC","i_long":106.617853,"station_name":"Cicayur","i_lat":-6.329547,"line":0,"transit":false,"is_transit":false,"distance":2519,"time":4},{"i_lat":-6.3441410000000005,"station_name":"Parung Panjang","distance":5968,"station_id":"PRP","time":8,"line":6,"transit":false,"is_transit":false,"i_long":106.568863},{"line":0,"distance":7025,"station_id":"CJT","time":9,"i_lat":-6.354349,"station_name":"Cilejit","transit":false,"i_long":106.508482,"is_transit":false}],[{"station_name":"Kramat","i_lat":-6.193792,"distance":0,"i_long":106.855437,"time":0,"line":11,"is_transit":false,"station_id":"KMT","transit":false},{"transit":false,"station_name":"Gang Sentiong","i_lat":-6.185975,"i_long":106.850107,"station_id":"GST","line":11,"is_transit":false,"time":1,"distance":973},{"distance":1567,"station_name":"Pasar Senen","station_id":"PSE","transit":false,"is_transit":false,"i_lat":-6.174784,"time":8,"i_long":106.84368,"line":11},{"station_name":"Kemayoran","time":4,"transit":false,"station_id":"KMO","i_long":106.839204,"i_lat":-6.161728,"distance":1436,"line":11,"is_transit":false},{"is_transit":false,"station_name":"Rajawali","i_long":106.836569,"time":5,"i_lat":-6.14505,"transit":false,"distance":1901,"line":11,"station_id":"RJW"},{"station_name":"Kampung Bandan","i_lat":-6.132549,"line":0,"time":3,"is_transit":true,"transit":true,"distance":1444,"station_id":"KPB","i_long":106.826365},{"distance":4102,"time":9,"station_name":"Angke","station_id":"AK","transit":false,"is_transit":false,"line":0,"i_long":106.79867,"i_lat":-6.144674},{"time":4,"transit":true,"station_id":"DU","line":1,"i_lat":-6.155215,"station_name":"Duri","i_long":106.800832,"is_transit":true,"distance":1230},{"line":1,"station_id":"THB","time":8,"transit":true,"distance":3632,"is_transit":true,"station_name":"Tanah Abang","i_long":106.811091,"i_lat":-6.185545},{"transit":false,"station_name":"Palmerah","time":6,"station_id":"PLM","i_lat":-6.207404,"distance":3191,"i_long":106.79689,"is_transit":false,"line":6},{"station_name":"Kebayoran","i_lat":-6.237242,"line":6,"station_id":"KBY","transit":false,"distance":3737,"is_transit":false,"time":7,"i_long":106.780334},{"time":8,"i_lat":-6.276362,"station_id":"PDJ","is_transit":false,"transit":false,"station_name":"Pondokranji","line":6,"i_long":106.74273,"distance":6218},{"station_id":"JMU","line":6,"time":3,"distance":2179,"station_name":"Jurangmangu","transit":false,"i_lat":-6.288927,"is_transit":false,"i_long":106.728916},{"is_transit":false,"transit":false,"i_lat":-6.296963,"i_long":106.712277,"station_name":"Sudimara","time":4,"distance":1994,"line":6,"station_id":"SDM"},{"transit":false,"i_long":106.675475,"is_transit":false,"line":6,"station_id":"RU","i_lat":-6.314823,"station_name":"Rawa Buntu","time":6,"distance":4566},{"distance":2413,"is_transit":false,"station_id":"SRP","time":4,"i_long":106.66566,"station_name":"Serpong","transit":false,"i_lat":-6.319871,"line":6},{"time":4,"distance":1784,"transit":false,"is_transit":false,"station_id":"CSK","station_name":"Cisauk","i_lat":-6.32484,"i_long":106.640411,"line":0},{"transit":false,"is_transit":false,"station_id":"CC","i_lat":-6.329547,"i_long":106.617853,"station_name":"Cicayur","time":4,"distance":2519,"line":0},{"distance":5968,"time":8,"station_id":"PRP","i_long":106.568863,"station_name":"Parung Panjang","is_transit":false,"transit":false,"i_lat":-6.3441410000000005,"line":6},{"is_transit":false,"station_id":"CJT","time":9,"i_lat":-6.354349,"line":0,"station_name":"Cilejit","transit":false,"i_long":106.508482,"distance":7025}],[{"line":11,"station_id":"KMT","transit":false,"distance":0,"station_name":"Kramat","i_long":106.855437,"time":0,"is_transit":false,"i_lat":-6.193792},{"time":2,"i_lat":-6.209188,"transit":false,"line":11,"station_id":"POK","i_long":106.861737,"is_transit":false,"distance":1829,"station_name":"Pondok Jati"},{"line":0,"station_name":"Jatinegara","distance":1236,"time":9,"transit":true,"is_transit":true,"station_id":"JNG","i_long":106.86807400000001,"i_lat":-6.215091},{"distance":1377,"station_id":"MTR","transit":false,"station_name":"Matraman","time":2,"is_transit":false,"line":1,"i_lat":-6.212485,"i_long":106.858896},{"is_transit":true,"station_id":"MRI","time":2,"transit":true,"i_lat":-6.209883,"i_long":106.84912,"line":0,"distance":1275,"station_name":"Manggarai"},{"line":0,"is_transit":false,"i_lat":-6.198556,"time":4,"station_name":"Cikini","transit":false,"distance":1590,"station_id":"CKI","i_long":106.840169},{"transit":false,"line":2,"time":3,"is_transit":false,"distance":1750,"i_long":106.832183,"station_name":"Gondangdia","station_id":"GDD","i_lat":-6.186295},{"i_lat":-6.166716,"station_name":"Juanda","i_long":106.828284,"station_id":"JUA","transit":false,"distance":2015,"line":2,"is_transit":false,"time":4},{"transit":false,"line":2,"is_transit":false,"station_name":"Sawah Besar","i_lat":-6.160725,"station_id":"SW","time":2,"distance":1149,"i_long":106.827103},{"time":2,"transit":false,"is_transit":false,"station_id":"MGB","i_lat":-6.149769,"i_long":106.82482,"line":2,"distance":906,"station_name":"Manggabesar"},{"distance":1080,"station_name":"Jayakarta","time":2,"is_transit":false,"transit":false,"station_id":"JAY","i_long":106.820901,"line":7,"i_lat":-6.141205},{"transit":true,"distance":1264,"i_lat":-6.137569,"i_long":106.812439,"station_name":"Jakarta Kota","is_transit":true,"time":4,"line":0,"station_id":"JAKK"},{"time":3,"transit":false,"station_name":"Kampung Bandan","line":0,"station_id":"KPB","distance":1364,"i_lat":-6.132549,"is_transit":true,"i_long":106.826365},{"station_name":"Angke","time":9,"i_lat":-6.144674,"line":0,"distance":4102,"is_transit":false,"station_id":"AK","i_long":106.79867,"transit":false},{"station_id":"DU","time":4,"i_lat":-6.155215,"transit":true,"is_transit":true,"i_long":106.800832,"line":1,"station_name":"Duri","distance":1230},{"transit":true,"time":8,"distance":3632,"is_transit":true,"station_id":"THB","i_long":106.811091,"station_name":"Tanah Abang","line":1,"i_lat":-6.185545},{"station_id":"PLM","i_lat":-6.207404,"station_name":"Palmerah","time":6,"is_transit":false,"i_long":106.79689,"transit":false,"distance":3191,"line":6},{"transit":false,"i_lat":-6.237242,"i_long":106.780334,"line":6,"station_id":"KBY","time":7,"is_transit":false,"station_name":"Kebayoran","distance":3737},{"transit":false,"is_transit":false,"distance":6218,"time":8,"i_lat":-6.276362,"i_long":106.74273,"station_id":"PDJ","line":6,"station_name":"Pondokranji"},{"station_name":"Jurangmangu","line":6,"transit":false,"i_lat":-6.288927,"distance":2179,"station_id":"JMU","i_long":106.728916,"time":3,"is_transit":false},{"i_lat":-6.296963,"distance":1994,"is_transit":false,"i_long":106.712277,"station_id":"SDM","time":4,"transit":false,"station_name":"Sudimara","line":6},{"station_name":"Rawa Buntu","i_lat":-6.314823,"is_transit":false,"line":6,"distance":4566,"station_id":"RU","time":6,"transit":false,"i_long":106.675475},{"time":4,"station_name":"Serpong","transit":false,"i_long":106.66566,"line":6,"station_id":"SRP","i_lat":-6.319871,"distance":2413,"is_transit":false},{"station_name":"Cisauk","i_lat":-6.32484,"line":0,"is_transit":false,"station_id":"CSK","i_long":106.640411,"time":4,"transit":false,"distance":1784},{"station_name":"Cicayur","line":0,"transit":false,"distance":2519,"is_transit":false,"station_id":"CC","time":4,"i_lat":-6.329547,"i_long":106.617853},{"time":8,"is_transit":false,"distance":5968,"station_name":"Parung Panjang","transit":false,"i_lat":-6.3441410000000005,"i_long":106.568863,"line":6,"station_id":"PRP"},{"station_id":"CJT","distance":7025,"is_transit":false,"line":0,"i_lat":-6.354349,"station_name":"Cilejit","time":9,"transit":false,"i_long":106.508482}],[{"line":11,"distance":0,"station_name":"Kramat","transit":false,"station_id":"KMT","i_long":106.855437,"i_lat":-6.193792,"is_transit":false,"time":0},{"time":1,"i_long":106.850107,"transit":false,"station_name":"Gang Sentiong","distance":973,"i_lat":-6.185975,"line":11,"is_transit":false,"station_id":"GST"},{"i_lat":-6.174784,"transit":false,"i_long":106.84368,"station_id":"PSE","distance":1567,"is_transit":false,"station_name":"Pasar Senen","time":8,"line":11},{"distance":1436,"i_lat":-6.161728,"time":4,"is_transit":false,"transit":false,"i_long":106.839204,"line":11,"station_id":"KMO","station_name":"Kemayoran"},{"is_transit":false,"distance":1901,"i_lat":-6.14505,"i_long":106.836569,"transit":false,"station_name":"Rajawali","station_id":"RJW","line":11,"time":5},{"i_long":106.826365,"transit":true,"station_id":"KPB","i_lat":-6.132549,"line":0,"distance":1444,"is_transit":true,"station_name":"Kampung Bandan","time":3},{"distance":1364,"line":0,"station_id":"JAKK","i_lat":-6.137569,"transit":true,"is_transit":true,"station_name":"Jakarta Kota","time":3,"i_long":106.812439},{"is_transit":false,"station_name":"Jayakarta","transit":false,"line":7,"i_lat":-6.141205,"station_id":"JAY","distance":1264,"time":4,"i_long":106.820901},{"distance":1080,"i_lat":-6.149769,"transit":false,"station_name":"Manggabesar","line":2,"time":2,"i_long":106.82482,"is_transit":false,"station_id":"MGB"},{"station_id":"SW","distance":906,"time":2,"i_lat":-6.160725,"transit":false,"i_long":106.827103,"is_transit":false,"station_name":"Sawah Besar","line":2},{"i_lat":-6.166716,"line":2,"time":2,"distance":1149,"station_id":"JUA","is_transit":false,"transit":false,"i_long":106.828284,"station_name":"Juanda"},{"time":4,"i_lat":-6.186295,"line":2,"transit":false,"i_long":106.832183,"station_name":"Gondangdia","station_id":"GDD","is_transit":false,"distance":2015},{"i_long":106.840169,"transit":false,"is_transit":false,"i_lat":-6.198556,"station_name":"Cikini","line":0,"distance":1750,"station_id":"CKI","time":3},{"is_transit":true,"station_name":"Manggarai","i_long":106.84912,"transit":true,"time":4,"station_id":"MRI","i_lat":-6.209883,"line":0,"distance":1590},{"is_transit":false,"distance":3186,"time":4,"i_lat":-6.202263,"station_id":"SUD","transit":false,"line":1,"station_name":"Sudirman","i_long":106.822649},{"i_long":106.819881,"station_name":"Sudirman Baru","line":1,"is_transit":false,"distance":280,"time":1,"transit":false,"i_lat":-6.201433,"station_id":"SUDB"},{"is_transit":false,"distance":471,"i_lat":-6.20132,"station_name":"Karet","station_id":"KAT","transit":false,"i_long":106.816351,"time":1,"line":1},{"time":5,"distance":2029,"i_lat":-6.185545,"station_id":"THB","i_long":106.811091,"is_transit":true,"line":1,"station_name":"Tanah Abang","transit":true},{"distance":3191,"i_lat":-6.207404,"transit":false,"is_transit":false,"station_id":"PLM","station_name":"Palmerah","time":6,"line":6,"i_long":106.79689},{"distance":3737,"transit":false,"is_transit":false,"station_id":"KBY","i_lat":-6.237242,"station_name":"Kebayoran","time":7,"i_long":106.780334,"line":6},{"time":8,"i_long":106.74273,"transit":false,"is_transit":false,"line":6,"i_lat":-6.276362,"distance":6218,"station_name":"Pondokranji","station_id":"PDJ"},{"line":6,"station_name":"Jurangmangu","i_long":106.728916,"time":3,"station_id":"JMU","i_lat":-6.288927,"distance":2179,"is_transit":false,"transit":false},{"distance":1994,"is_transit":false,"station_id":"SDM","line":6,"time":4,"station_name":"Sudimara","transit":false,"i_lat":-6.296963,"i_long":106.712277},{"transit":false,"i_long":106.675475,"i_lat":-6.314823,"station_id":"RU","station_name":"Rawa Buntu","time":6,"line":6,"is_transit":false,"distance":4566},{"station_name":"Serpong","distance":2413,"is_transit":false,"time":4,"i_long":106.66566,"line":6,"i_lat":-6.319871,"station_id":"SRP","transit":false},{"station_name":"Cisauk","station_id":"CSK","time":4,"transit":false,"i_lat":-6.32484,"line":0,"i_long":106.640411,"is_transit":false,"distance":1784},{"distance":2519,"station_id":"CC","transit":false,"i_lat":-6.329547,"time":4,"is_transit":false,"line":0,"i_long":106.617853,"station_name":"Cicayur"},{"i_long":106.568863,"i_lat":-6.3441410000000005,"distance":5968,"station_name":"Parung Panjang","transit":false,"line":6,"station_id":"PRP","time":8,"is_transit":false},{"line":0,"i_lat":-6.354349,"station_id":"CJT","transit":false,"station_name":"Cilejit","is_transit":false,"time":9,"distance":7025,"i_long":106.508482}]]}