{"data":[[{"station_name":"Kramat","distance":0,"i_lat":-6.193792,"is_transit":false,"station_id":"KMT","line":11,"transit":false,"i_long":106.855437,"time":0},{"i_long":106.861737,"station_name":"Pondok Jati","is_transit":false,"time":2,"station_id":"POK","i_lat":-6.209188,"line":11,"distance":1829,"transit":false},{"station_id":"JNG","i_lat":-6.215091,"time":9,"distance":1236,"station_name":"Jatinegara","i_long":106.86807400000001,"transit":true,"is_transit":true,"line":1},{"i_lat":-6.212485,"i_long":106.858896,"transit":false,"station_id":"MTR","station_name":"Matraman","is_transit":false,"distance":1377,"line":1,"time":2},{"i_lat":-6.209883,"i_long":106.84912,"time":2,"transit":false,"is_transit":false,"station_id":"MRI","distance":1275,"line":2,"station_name":"Manggarai"},{"transit":false,"station_id":"SUD","station_name":"Sudirman","i_long":106.822649,"line":1,"distance":3186,"is_transit":false,"time":4,"i_lat":-6.202263},{"line":1,"station_name":"Sudirman Baru","is_transit":false,"transit":false,"station_id":"SUDB","distance":280,"i_lat":-6.201433,"i_long":106.819881,"time":1},{"time":1,"station_id":"KAT","i_long":106.816351,"is_transit":false,"station_name":"Karet","distance":471,"transit":false,"i_lat":-6.20132,"line":1},{"line":1,"station_name":"Tanah Abang","distance":2029,"is_transit":true,"transit":true,"station_id":"THB","i_lat":-6.185545,"time":5,"i_long":106.811091},{"transit":false,"is_transit":false,"distance":3191,"station_id":"PLM","i_lat":-6.207404,"station_name":"Palmerah","i_long":106.79689,"time":6,"line":6},{"distance":3737,"i_lat":-6.237242,"line":6,"station_name":"Kebayoran","i_long":106.780334,"transit":false,"is_transit":false,"station_id":"KBY","time":7},{"time":8,"distance":6218,"is_transit":false,"i_lat":-6.276362,"i_long":106.74273,"line":6,"transit":false,"station_name":"Pondokranji","station_id":"PDJ"},{"is_transit":false,"station_name":"Jurangmangu","station_id":"JMU","distance":2179,"i_lat":-6.288927,"i_long":106.728916,"time":3,"line":6,"transit":false},{"is_transit":false,"station_id":"SDM","distance":1994,"time":4,"i_lat":-6.296963,"i_long":106.712277,"station_name":"Sudimara","line":6,"transit":false},{"distance":4566,"station_id":"RU","time":6,"line":6,"i_lat":-6.314823,"i_long":106.675475,"transit":false,"is_transit":false,"station_name":"Rawa Buntu"},{"transit":false,"time":4,"is_transit":false,"station_id":"SRP","i_lat":-6.319871,"distance":2413,"line":6,"station_name":"Serpong","i_long":106.66566},{"line":3,"transit":false,"i_lat":-6.32484,"station_name":"Cisauk","is_transit":false,"time":4,"station_id":"CSK","i_long":106.640411,"distance":1784},{"line":3,"transit":false,"station_id":"CC","station_name":"Cicayur","time":4,"i_lat":-6.329547,"is_transit":false,"distance":2519,"i_long":106.617853},{"line":6,"time":8,"distance":5968,"i_long":106.568863,"station_name":"Parung Panjang","is_transit":false,"station_id":"PRP","transit":false,"i_lat":-6.3441410000000005}],[{"i_lat":-6.193792,"distance":0,"time":0,"is_transit":false,"line":11,"i_long":106.855437,"station_name":"Kramat","station_id":"KMT","transit":false},{"transit":false,"station_name":"Gang Sentiong","station_id":"GST","distance":973,"is_transit":false,"i_long":106.850107,"time":1,"line":11,"i_lat":-6.185975},{"station_id":"PSE","line":11,"i_lat":-6.174784,"transit":false,"time":8,"distance":1567,"station_name":"Pasar Senen","i_long":106.84368,"is_transit":false},{"line":11,"transit":false,"time":4,"station_name":"Kemayoran","i_long":106.839204,"is_transit":false,"station_id":"KMO","distance":1436,"i_lat":-6.161728},{"i_lat":-6.14505,"station_name":"Rajawali","station_id":"RJW","line":11,"transit":false,"time":5,"i_long":106.836569,"is_transit":false,"distance":1901},{"transit":true,"is_transit":true,"time":3,"distance":1444,"station_name":"Kampung Bandan","i_long":106.826365,"i_lat":-6.132549,"station_id":"KPB","line":4},{"station_id":"AK","i_lat":-6.144674,"line":1,"is_transit":false,"transit":false,"station_name":"Angke","time":9,"distance":4102,"i_long":106.79867},{"distance":1230,"i_lat":-6.155215,"transit":false,"station_name":"Duri","line":1,"is_transit":false,"time":4,"station_id":"DU","i_long":106.800832},{"distance":3632,"i_long":106.811091,"i_lat":-6.185545,"transit":true,"station_name":"Tanah Abang","is_transit":true,"line":1,"time":8,"station_id":"THB"},{"i_lat":-6.207404,"i_long":106.79689,"station_id":"PLM","transit":false,"time":6,"station_name":"Palmerah","is_transit":false,"distance":3191,"line":6},{"is_transit":false,"i_long":106.780334,"line":6,"time":7,"station_name":"Kebayoran","station_id":"KBY","transit":false,"distance":3737,"i_lat":-6.237242},{"line":6,"transit":false,"i_lat":-6.276362,"time":8,"is_transit":false,"station_id":"PDJ","station_name":"Pondokranji","distance":6218,"i_long":106.74273},{"station_id":"JMU","i_lat":-6.288927,"is_transit":false,"time":3,"distance":2179,"transit":false,"station_name":"Jurangmangu","i_long":106.728916,"line":6},{"i_long":106.712277,"station_name":"Sudimara","transit":false,"is_transit":false,"station_id":"SDM","i_lat":-6.296963,"time":4,"line":6,"distance":1994},{"transit":false,"time":6,"distance":4566,"is_transit":false,"i_lat":-6.314823,"station_id":"RU","line":6,"i_long":106.675475,"station_name":"Rawa Buntu"},{"station_id":"SRP","is_transit":false,"distance":2413,"i_long":106.66566,"line":6,"i_lat":-6.319871,"station_name":"Serpong","time":4,"transit":false},{"station_name":"Cisauk","i_long":106.640411,"is_transit":false,"line":3,"station_id":"CSK","time":4,"distance":1784,"transit":false,"i_lat":-6.32484},{"station_name":"Cicayur","is_transit":false,"i_lat":-6.329547,"station_id":"CC","time":4,"i_long":106.617853,"transit":false,"distance":2519,"line":3},{"transit":false,"is_transit":false,"i_lat":-6.3441410000000005,"time":8,"distance":5968,"i_long":106.568863,"line":6,"station_id":"PRP","station_name":"Parung Panjang"}],[{"station_name":"Kramat","i_long":106.855437,"station_id":"KMT","distance":0,"i_lat":-6.193792,"is_transit":false,"transit":false,"time":0,"line":11},{"is_transit":false,"station_id":"POK","distance":1829,"time":2,"line":11,"i_lat":-6.209188,"i_long":106.861737,"station_name":"Pondok Jati","transit":false},{"distance":1236,"i_lat":-6.215091,"station_name":"Jatinegara","transit":true,"time":9,"i_long":106.86807400000001,"line":1,"is_transit":true,"station_id":"JNG"},{"i_lat":-6.212485,"station_id":"MTR","is_transit":false,"i_long":106.858896,"transit":false,"station_name":"Matraman","time":2,"line":1,"distance":1377},{"time":2,"i_long":106.84912,"station_name":"Manggarai","transit":true,"station_id":"MRI","is_transit":true,"distance":1275,"i_lat":-6.209883,"line":2},{"time":4,"i_long":106.840169,"station_id":"CKI","distance":1590,"transit":false,"station_name":"Cikini","is_transit":false,"i_lat":-6.198556,"line":2},{"station_id":"GDD","is_transit":false,"station_name":"Gondangdia","time":3,"i_lat":-6.186295,"line":2,"distance":1750,"i_long":106.832183,"transit":false},{"transit":false,"station_id":"JUA","is_transit":false,"time":4,"i_long":106.828284,"i_lat":-6.166716,"distance":2015,"station_name":"Juanda","line":2},{"is_transit":false,"i_long":106.827103,"transit":false,"station_id":"SW","distance":1149,"station_name":"Sawah Besar","time":2,"i_lat":-6.160725,"line":2},{"i_long":106.82482,"line":2,"station_id":"MGB","transit":false,"is_transit":false,"time":2,"distance":906,"station_name":"Manggabesar","i_lat":-6.149769},{"transit":false,"station_name":"Jayakarta","station_id":"JAY","line":2,"distance":1080,"i_lat":-6.141205,"is_transit":false,"i_long":106.820901,"time":2},{"distance":1264,"i_long":106.812439,"transit":true,"is_transit":true,"time":4,"station_id":"JAKK","i_lat":-6.137569,"line":2,"station_name":"Jakarta Kota"},{"is_transit":true,"i_lat":-6.132549,"station_id":"KPB","transit":true,"line":4,"i_long":106.826365,"distance":1364,"time":3,"station_name":"Kampung Bandan"},{"distance":4102,"line":1,"i_lat":-6.144674,"i_long":106.79867,"is_transit":false,"time":9,"station_name":"Angke","transit":false,"station_id":"AK"},{"i_long":106.800832,"time":4,"station_id":"DU","line":1,"i_lat":-6.155215,"transit":false,"is_transit":false,"distance":1230,"station_name":"Duri"},{"station_id":"THB","is_transit":true,"distance":3632,"i_long":106.811091,"line":1,"i_lat":-6.185545,"transit":true,"time":8,"station_name":"Tanah Abang"},{"distance":3191,"is_transit":false,"station_id":"PLM","line":6,"time":6,"transit":false,"station_name":"Palmerah","i_long":106.79689,"i_lat":-6.207404},{"i_long":106.780334,"transit":false,"station_name":"Kebayoran","distance":3737,"line":6,"is_transit":false,"time":7,"station_id":"KBY","i_lat":-6.237242},{"distance":6218,"i_long":106.74273,"station_id":"PDJ","time":8,"i_lat":-6.276362,"line":6,"station_name":"Pondokranji","transit":false,"is_transit":false},{"station_id":"JMU","i_long":106.728916,"time":3,"line":6,"station_name":"Jurangmangu","transit":false,"distance":2179,"i_lat":-6.288927,"is_transit":false},{"i_lat":-6.296963,"transit":false,"time":4,"i_long":106.712277,"line":6,"is_transit":false,"station_id":"SDM","distance":1994,"station_name":"Sudimara"},{"distance":4566,"i_lat":-6.314823,"transit":false,"is_transit":false,"time":6,"station_name":"Rawa Buntu","i_long":106.675475,"station_id":"RU","line":6},{"station_name":"Serpong","time":4,"transit":false,"is_transit":false,"distance":2413,"station_id":"SRP","line":6,"i_lat":-6.319871,"i_long":106.66566},{"time":4,"is_transit":false,"distance":1784,"i_lat":-6.32484,"line":3,"station_id":"CSK","transit":false,"station_name":"Cisauk","i_long":106.640411},{"is_transit":false,"i_long":106.617853,"station_name":"Cicayur","station_id":"CC","i_lat":-6.329547,"transit":false,"distance":2519,"line":3,"time":4},{"i_long":106.568863,"time":8,"distance":5968,"is_transit":false,"station_name":"Parung Panjang","line":6,"transit":false,"station_id":"PRP","i_lat":-6.3441410000000005}],[{"station_id":"KMT","distance":0,"i_long":106.855437,"is_transit":false,"i_lat":-6.193792,"time":0,"station_name":"Kramat","line":11,"transit":false},{"i_lat":-6.185975,"is_transit":false,"time":1,"i_long":106.850107,"transit":false,"line":11,"station_id":"GST","station_name":"Gang Sentiong","distance":973},{"i_lat":-6.174784,"transit":false,"i_long":106.84368,"distance":1567,"station_name":"Pasar Senen","station_id":"PSE","time":8,"is_transit":false,"line":11},{"station_id":"KMO","station_name":"Kemayoran","time":4,"i_long":106.839204,"i_lat":-6.161728,"is_transit":false,"distance":1436,"line":11,"transit":false},{"transit":false,"distance":1901,"station_id":"RJW","i_lat":-6.14505,"station_name":"Rajawali","is_transit":false,"time":5,"i_long":106.836569,"line":11},{"is_transit":true,"station_id":"KPB","distance":1444,"i_long":106.826365,"station_name":"Kampung Bandan","transit":true,"time":3,"line":4,"i_lat":-6.132549},{"station_name":"Jakarta Kota","distance":1364,"transit":true,"station_id":"JAKK","time":3,"i_long":106.812439,"is_transit":true,"i_lat":-6.137569,"line":2},{"i_lat":-6.141205,"transit":false,"station_name":"Jayakarta","time":4,"line":2,"distance":1264,"is_transit":false,"i_long":106.820901,"station_id":"JAY"},{"i_lat":-6.149769,"is_transit":false,"station_id":"MGB","distance":1080,"transit":false,"station_name":"Manggabesar","time":2,"line":2,"i_long":106.82482},{"station_name":"Sawah Besar","transit":false,"distance":906,"line":2,"i_long":106.827103,"time":2,"i_lat":-6.160725,"station_id":"SW","is_transit":false},{"distance":1149,"station_name":"Juanda","i_lat":-6.166716,"i_long":106.828284,"station_id":"JUA","line":2,"is_transit":false,"time":2,"transit":false},{"time":4,"transit":false,"is_transit":false,"i_lat":-6.186295,"station_id":"GDD","i_long":106.832183,"distance":2015,"line":2,"station_name":"Gondangdia"},{"distance":1750,"is_transit":false,"i_long":106.840169,"time":3,"line":2,"station_name":"Cikini","station_id":"CKI","i_lat":-6.198556,"transit":false},{"distance":1590,"line":2,"is_transit":true,"station_id":"MRI","station_name":"Manggarai","time":4,"i_lat":-6.209883,"transit":true,"i_long":106.84912},{"distance":3186,"i_lat":-6.202263,"station_name":"Sudirman","station_id":"SUD","line":1,"transit":false,"time":4,"i_long":106.822649,"is_transit":false},{"is_transit":false,"station_name":"Sudirman Baru","distance":280,"i_lat":-6.201433,"station_id":"SUDB","time":1,"i_long":106.819881,"line":1,"transit":false},{"station_name":"Karet","i_long":106.816351,"time":1,"station_id":"KAT","is_transit":false,"transit":false,"distance":471,"i_lat":-6.20132,"line":1},{"distance":2029,"i_lat":-6.185545,"i_long":106.811091,"line":1,"station_name":"Tanah Abang","is_transit":true,"time":5,"station_id":"THB","transit":true},{"transit":false,"time":6,"station_name":"Palmerah","distance":3191,"i_long":106.79689,"is_transit":false,"i_lat":-6.207404,"line":6,"station_id":"PLM"},{"transit":false,"is_transit":false,"station_id":"KBY","station_name":"Kebayoran","time":7,"distance":3737,"i_long":106.780334,"line":6,"i_lat":-6.237242},{"i_long":106.74273,"time":8,"i_lat":-6.276362,"station_name":"Pondokranji","station_id":"PDJ","is_transit":false,"line":6,"transit":false,"distance":6218},{"i_lat":-6.288927,"transit":false,"i_long":106.728916,"distance":2179,"line":6,"station_name":"Jurangmangu","is_transit":false,"time":3,"station_id":"JMU"},{"distance":1994,"line":6,"is_transit":false,"transit":false,"station_id":"SDM","i_long":106.712277,"time":4,"i_lat":-6.296963,"station_name":"Sudimara"},{"i_lat":-6.314823,"i_long":106.675475,"is_transit":false,"time":6,"station_id":"RU","transit":false,"line":6,"station_name":"Rawa Buntu","distance":4566},{"distance":2413,"station_name":"Serpong","station_id":"SRP","i_lat":-6.319871,"line":6,"transit":false,"time":4,"is_transit":false,"i_long":106.66566},{"line":3,"i_long":106.640411,"station_id":"CSK","is_transit":false,"transit":false,"i_lat":-6.32484,"station_name":"Cisauk","distance":1784,"time":4},{"i_lat":-6.329547,"line":3,"transit":false,"time":4,"distance":2519,"i_long":106.617853,"is_transit":false,"station_name":"Cicayur","station_id":"CC"},{"is_transit":false,"distance":5968,"i_lat":-6.3441410000000005,"line":6,"station_name":"Parung Panjang","time":8,"station_id":"PRP","i_long":106.568863,"transit":false}]]}