{"data":[[{"time":0,"distance":0,"i_lat":-6.193792,"station_name":"Kramat","transit":false,"is_transit":false,"line":11,"station_id":"KMT","i_long":106.855437},{"is_transit":false,"time":2,"transit":false,"distance":1829,"station_name":"Pondok Jati","i_lat":-6.209188,"i_long":106.861737,"station_id":"POK","line":11},{"line":1,"transit":true,"station_id":"JNG","station_name":"Jatinegara","i_lat":-6.215091,"is_transit":true,"time":9,"distance":1236,"i_long":106.86807400000001},{"station_name":"Matraman","distance":1377,"is_transit":false,"line":1,"station_id":"MTR","i_lat":-6.212485,"transit":false,"time":2,"i_long":106.858896},{"distance":1275,"time":2,"i_long":106.84912,"is_transit":false,"line":2,"station_id":"MRI","i_lat":-6.209883,"station_name":"Manggarai","transit":false},{"station_id":"SUD","i_lat":-6.202263,"line":1,"distance":3186,"time":4,"is_transit":false,"i_long":106.822649,"station_name":"Sudirman","transit":false},{"time":1,"station_id":"SUDB","i_long":106.819881,"line":1,"is_transit":false,"distance":280,"station_name":"Sudirman Baru","i_lat":-6.201433,"transit":false},{"time":1,"station_name":"Karet","station_id":"KAT","i_long":106.816351,"is_transit":false,"transit":false,"line":1,"i_lat":-6.20132,"distance":471},{"transit":true,"i_long":106.811091,"line":1,"time":5,"i_lat":-6.185545,"station_name":"Tanah Abang","is_transit":true,"station_id":"THB","distance":2029},{"time":6,"line":6,"i_long":106.79689,"station_name":"Palmerah","transit":false,"station_id":"PLM","distance":3191,"i_lat":-6.207404,"is_transit":false},{"time":7,"station_name":"Kebayoran","i_lat":-6.237242,"station_id":"KBY","transit":false,"is_transit":false,"line":6,"distance":3737,"i_long":106.780334},{"is_transit":false,"distance":6218,"i_long":106.74273,"transit":false,"line":6,"time":8,"station_id":"PDJ","station_name":"Pondokranji","i_lat":-6.276362},{"station_name":"Jurangmangu","transit":false,"i_lat":-6.288927,"line":6,"is_transit":false,"distance":2179,"i_long":106.728916,"time":3,"station_id":"JMU"},{"line":6,"time":4,"station_name":"Sudimara","i_lat":-6.296963,"station_id":"SDM","transit":false,"distance":1994,"i_long":106.712277,"is_transit":false}],[{"is_transit":false,"station_name":"Kramat","station_id":"KMT","i_long":106.855437,"line":11,"distance":0,"i_lat":-6.193792,"time":0,"transit":false},{"line":11,"transit":false,"station_id":"GST","station_name":"Gang Sentiong","distance":973,"is_transit":false,"i_long":106.850107,"i_lat":-6.185975,"time":1},{"distance":1567,"i_lat":-6.174784,"i_long":106.84368,"time":8,"station_name":"Pasar Senen","is_transit":false,"transit":false,"station_id":"PSE","line":11},{"i_lat":-6.161728,"is_transit":false,"line":11,"station_id":"KMO","time":4,"i_long":106.839204,"distance":1436,"station_name":"Kemayoran","transit":false},{"station_id":"RJW","distance":1901,"is_transit":false,"station_name":"Rajawali","i_long":106.836569,"line":11,"transit":false,"time":5,"i_lat":-6.14505},{"i_lat":-6.132549,"transit":true,"station_name":"Kampung Bandan","station_id":"KPB","is_transit":true,"i_long":106.826365,"line":4,"time":3,"distance":1444},{"time":9,"line":1,"i_long":106.79867,"station_id":"AK","station_name":"Angke","is_transit":false,"distance":4102,"i_lat":-6.144674,"transit":false},{"distance":1230,"i_lat":-6.155215,"station_name":"Duri","transit":false,"i_long":106.800832,"time":4,"station_id":"DU","line":1,"is_transit":false},{"station_id":"THB","time":8,"distance":3632,"i_long":106.811091,"i_lat":-6.185545,"transit":true,"station_name":"Tanah Abang","line":1,"is_transit":true},{"is_transit":false,"distance":3191,"transit":false,"station_name":"Palmerah","i_lat":-6.207404,"line":6,"time":6,"i_long":106.79689,"station_id":"PLM"},{"station_name":"Kebayoran","i_lat":-6.237242,"transit":false,"i_long":106.780334,"is_transit":false,"station_id":"KBY","time":7,"distance":3737,"line":6},{"transit":false,"line":6,"station_id":"PDJ","i_lat":-6.276362,"station_name":"Pondokranji","is_transit":false,"distance":6218,"time":8,"i_long":106.74273},{"distance":2179,"transit":false,"i_lat":-6.288927,"station_name":"Jurangmangu","station_id":"JMU","is_transit":false,"line":6,"time":3,"i_long":106.728916},{"station_name":"Sudimara","distance":1994,"i_lat":-6.296963,"i_long":106.712277,"is_transit":false,"line":6,"transit":false,"station_id":"SDM","time":4}],[{"is_transit":false,"time":0,"station_id":"KMT","line":11,"distance":0,"station_name":"Kramat","i_long":106.855437,"transit":false,"i_lat":-6.193792},{"is_transit":false,"transit":false,"station_name":"Pondok Jati","i_lat":-6.209188,"line":11,"station_id":"POK","distance":1829,"i_long":106.861737,"time":2},{"i_long":106.86807400000001,"station_name":"Jatinegara","line":1,"station_id":"JNG","transit":true,"i_lat":-6.215091,"is_transit":true,"time":9,"distance":1236},{"i_lat":-6.212485,"line":1,"is_transit":false,"station_id":"MTR","station_name":"Matraman","distance":1377,"i_long":106.858896,"transit":false,"time":2},{"station_id":"MRI","is_transit":true,"i_long":106.84912,"i_lat":-6.209883,"station_name":"Manggarai","transit":true,"distance":1275,"line":2,"time":2},{"time":4,"transit":false,"station_name":"Cikini","i_long":106.840169,"line":2,"station_id":"CKI","distance":1590,"i_lat":-6.198556,"is_transit":false},{"distance":1750,"is_transit":false,"station_name":"Gondangdia","line":2,"station_id":"GDD","i_long":106.832183,"time":3,"i_lat":-6.186295,"transit":false},{"distance":2015,"transit":false,"station_name":"Juanda","i_long":106.828284,"is_transit":false,"line":2,"time":4,"station_id":"JUA","i_lat":-6.166716},{"i_long":106.827103,"line":2,"i_lat":-6.160725,"is_transit":false,"station_name":"Sawah Besar","time":2,"transit":false,"station_id":"SW","distance":1149},{"i_lat":-6.149769,"line":2,"station_id":"MGB","i_long":106.82482,"is_transit":false,"transit":false,"distance":906,"station_name":"Manggabesar","time":2},{"i_long":106.820901,"line":2,"is_transit":false,"station_name":"Jayakarta","time":2,"transit":false,"station_id":"JAY","distance":1080,"i_lat":-6.141205},{"i_long":106.812439,"time":4,"station_name":"Jakarta Kota","i_lat":-6.137569,"line":2,"transit":true,"station_id":"JAKK","is_transit":true,"distance":1264},{"i_lat":-6.132549,"i_long":106.826365,"transit":true,"station_name":"Kampung Bandan","distance":1364,"station_id":"KPB","time":3,"is_transit":true,"line":4},{"line":1,"i_long":106.79867,"station_name":"Angke","station_id":"AK","is_transit":false,"transit":false,"time":9,"distance":4102,"i_lat":-6.144674},{"i_lat":-6.155215,"station_name":"Duri","transit":false,"time":4,"is_transit":false,"distance":1230,"i_long":106.800832,"line":1,"station_id":"DU"},{"station_name":"Tanah Abang","i_long":106.811091,"time":8,"i_lat":-6.185545,"station_id":"THB","is_transit":true,"distance":3632,"line":1,"transit":true},{"station_name":"Palmerah","is_transit":false,"line":6,"station_id":"PLM","time":6,"transit":false,"distance":3191,"i_long":106.79689,"i_lat":-6.207404},{"station_name":"Kebayoran","line":6,"i_lat":-6.237242,"station_id":"KBY","is_transit":false,"transit":false,"distance":3737,"time":7,"i_long":106.780334},{"time":8,"i_long":106.74273,"is_transit":false,"distance":6218,"station_id":"PDJ","i_lat":-6.276362,"line":6,"transit":false,"station_name":"Pondokranji"},{"transit":false,"line":6,"distance":2179,"station_name":"Jurangmangu","station_id":"JMU","time":3,"is_transit":false,"i_lat":-6.288927,"i_long":106.728916},{"station_id":"SDM","i_long":106.712277,"i_lat":-6.296963,"time":4,"is_transit":false,"line":6,"station_name":"Sudimara","distance":1994,"transit":false}],[{"i_lat":-6.193792,"i_long":106.855437,"station_name":"Kramat","is_transit":false,"time":0,"line":11,"distance":0,"station_id":"KMT","transit":false},{"time":1,"station_name":"Gang Sentiong","is_transit":false,"station_id":"GST","i_long":106.850107,"i_lat":-6.185975,"distance":973,"transit":false,"line":11},{"i_lat":-6.174784,"distance":1567,"is_transit":false,"station_name":"Pasar Senen","line":11,"station_id":"PSE","i_long":106.84368,"transit":false,"time":8},{"station_id":"KMO","is_transit":false,"transit":false,"i_long":106.839204,"i_lat":-6.161728,"line":11,"station_name":"Kemayoran","distance":1436,"time":4},{"is_transit":false,"time":5,"station_id":"RJW","transit":false,"i_long":106.836569,"station_name":"Rajawali","distance":1901,"line":11,"i_lat":-6.14505},{"i_lat":-6.132549,"line":4,"distance":1444,"transit":true,"station_id":"KPB","i_long":106.826365,"is_transit":true,"station_name":"Kampung Bandan","time":3},{"is_transit":true,"line":2,"time":3,"i_lat":-6.137569,"station_name":"Jakarta Kota","transit":true,"station_id":"JAKK","distance":1364,"i_long":106.812439},{"station_id":"JAY","transit":false,"station_name":"Jayakarta","i_lat":-6.141205,"i_long":106.820901,"time":4,"distance":1264,"is_transit":false,"line":2},{"transit":false,"line":2,"i_lat":-6.149769,"is_transit":false,"station_id":"MGB","time":2,"i_long":106.82482,"station_name":"Manggabesar","distance":1080},{"i_long":106.827103,"is_transit":false,"i_lat":-6.160725,"distance":906,"time":2,"station_name":"Sawah Besar","line":2,"station_id":"SW","transit":false},{"time":2,"i_lat":-6.166716,"line":2,"i_long":106.828284,"transit":false,"is_transit":false,"station_name":"Juanda","station_id":"JUA","distance":1149},{"i_lat":-6.186295,"line":2,"station_name":"Gondangdia","is_transit":false,"transit":false,"i_long":106.832183,"time":4,"distance":2015,"station_id":"GDD"},{"station_name":"Cikini","transit":false,"i_lat":-6.198556,"distance":1750,"is_transit":false,"line":2,"station_id":"CKI","time":3,"i_long":106.840169},{"station_id":"MRI","line":2,"station_name":"Manggarai","time":4,"i_lat":-6.209883,"i_long":106.84912,"transit":true,"distance":1590,"is_transit":true},{"distance":3186,"station_name":"Sudirman","transit":false,"line":1,"time":4,"i_long":106.822649,"station_id":"SUD","i_lat":-6.202263,"is_transit":false},{"line":1,"is_transit":false,"time":1,"station_name":"Sudirman Baru","distance":280,"i_long":106.819881,"transit":false,"station_id":"SUDB","i_lat":-6.201433},{"distance":471,"station_id":"KAT","time":1,"i_lat":-6.20132,"i_long":106.816351,"transit":false,"line":1,"station_name":"Karet","is_transit":false},{"i_lat":-6.185545,"transit":true,"distance":2029,"is_transit":true,"station_id":"THB","i_long":106.811091,"station_name":"Tanah Abang","line":1,"time":5},{"station_name":"Palmerah","station_id":"PLM","distance":3191,"is_transit":false,"time":6,"i_lat":-6.207404,"i_long":106.79689,"line":6,"transit":false},{"time":7,"station_name":"Kebayoran","i_lat":-6.237242,"station_id":"KBY","transit":false,"i_long":106.780334,"line":6,"is_transit":false,"distance":3737},{"station_id":"PDJ","i_lat":-6.276362,"time":8,"i_long":106.74273,"station_name":"Pondokranji","distance":6218,"transit":false,"line":6,"is_transit":false},{"line":6,"distance":2179,"i_lat":-6.288927,"time":3,"transit":false,"station_name":"Jurangmangu","station_id":"JMU","is_transit":false,"i_long":106.728916},{"station_id":"SDM","distance":1994,"is_transit":false,"time":4,"i_lat":-6.296963,"line":6,"station_name":"Sudimara","i_long":106.712277,"transit":false}]]}