{"data":[[{"station_name":"Kramat","station_id":"KMT","time":0,"i_long":106.855437,"line":11,"distance":0,"transit":false,"is_transit":false,"i_lat":-6.193792},{"i_lat":-6.209188,"is_transit":false,"station_id":"POK","distance":1829,"i_long":106.861737,"line":11,"station_name":"Pondok Jati","time":2,"transit":false},{"distance":1236,"i_lat":-6.215091,"station_id":"JNG","is_transit":true,"line":1,"time":9,"transit":true,"station_name":"Jatinegara","i_long":106.86807400000001},{"is_transit":false,"time":2,"line":1,"i_long":106.858896,"transit":false,"distance":1377,"i_lat":-6.212485,"station_name":"Matraman","station_id":"MTR"},{"distance":1275,"is_transit":false,"i_lat":-6.209883,"transit":false,"i_long":106.84912,"line":2,"time":2,"station_id":"MRI","station_name":"Manggarai"},{"i_lat":-6.202263,"distance":3186,"is_transit":false,"time":4,"station_id":"SUD","i_long":106.822649,"station_name":"Sudirman","line":1,"transit":false},{"time":1,"station_id":"SUDB","line":1,"is_transit":false,"distance":280,"station_name":"Sudirman Baru","i_lat":-6.201433,"i_long":106.819881,"transit":false},{"station_name":"Karet","time":1,"i_long":106.816351,"is_transit":false,"station_id":"KAT","i_lat":-6.20132,"distance":471,"transit":false,"line":1},{"i_lat":-6.185545,"station_name":"Tanah Abang","line":1,"is_transit":true,"station_id":"THB","i_long":106.811091,"distance":2029,"time":5,"transit":true},{"transit":false,"station_id":"PLM","i_long":106.79689,"line":6,"time":6,"distance":3191,"is_transit":false,"i_lat":-6.207404,"station_name":"Palmerah"},{"line":6,"is_transit":false,"time":7,"distance":3737,"station_id":"KBY","station_name":"Kebayoran","transit":false,"i_lat":-6.237242,"i_long":106.780334},{"station_name":"Pondokranji","line":6,"distance":6218,"i_long":106.74273,"transit":false,"is_transit":false,"station_id":"PDJ","i_lat":-6.276362,"time":8},{"station_name":"Jurangmangu","station_id":"JMU","line":6,"distance":2179,"i_long":106.728916,"i_lat":-6.288927,"is_transit":false,"transit":false,"time":3},{"time":4,"i_lat":-6.296963,"i_long":106.712277,"line":6,"is_transit":false,"station_name":"Sudimara","transit":false,"station_id":"SDM","distance":1994}],[{"transit":false,"i_long":106.855437,"i_lat":-6.193792,"line":11,"distance":0,"is_transit":false,"station_name":"Kramat","time":0,"station_id":"KMT"},{"distance":973,"i_long":106.850107,"is_transit":false,"i_lat":-6.185975,"transit":false,"station_name":"Gang Sentiong","time":1,"station_id":"GST","line":11},{"is_transit":false,"distance":1567,"time":8,"i_lat":-6.174784,"line":11,"transit":false,"station_name":"Pasar Senen","station_id":"PSE","i_long":106.84368},{"station_id":"KMO","i_long":106.839204,"transit":false,"distance":1436,"station_name":"Kemayoran","i_lat":-6.161728,"line":11,"is_transit":false,"time":4},{"station_name":"Rajawali","station_id":"RJW","line":11,"distance":1901,"i_lat":-6.14505,"is_transit":false,"time":5,"transit":false,"i_long":106.836569},{"distance":1444,"i_long":106.826365,"transit":true,"station_id":"KPB","i_lat":-6.132549,"is_transit":true,"station_name":"Kampung Bandan","line":4,"time":3},{"time":9,"distance":4102,"is_transit":false,"transit":false,"station_name":"Angke","i_long":106.79867,"i_lat":-6.144674,"station_id":"AK","line":1},{"station_name":"Duri","i_long":106.800832,"time":4,"station_id":"DU","line":1,"distance":1230,"transit":false,"is_transit":false,"i_lat":-6.155215},{"time":8,"distance":3632,"station_id":"THB","is_transit":true,"transit":true,"i_lat":-6.185545,"i_long":106.811091,"line":1,"station_name":"Tanah Abang"},{"distance":3191,"line":6,"station_id":"PLM","station_name":"Palmerah","time":6,"is_transit":false,"i_long":106.79689,"transit":false,"i_lat":-6.207404},{"is_transit":false,"i_lat":-6.237242,"station_name":"Kebayoran","distance":3737,"station_id":"KBY","i_long":106.780334,"line":6,"time":7,"transit":false},{"time":8,"transit":false,"i_lat":-6.276362,"line":6,"distance":6218,"station_id":"PDJ","i_long":106.74273,"is_transit":false,"station_name":"Pondokranji"},{"station_id":"JMU","station_name":"Jurangmangu","line":6,"i_long":106.728916,"is_transit":false,"time":3,"transit":false,"i_lat":-6.288927,"distance":2179},{"line":6,"i_lat":-6.296963,"transit":false,"distance":1994,"station_name":"Sudimara","time":4,"is_transit":false,"station_id":"SDM","i_long":106.712277}],[{"distance":0,"i_lat":-6.193792,"is_transit":false,"station_name":"Kramat","station_id":"KMT","time":0,"transit":false,"i_long":106.855437,"line":11},{"is_transit":false,"station_id":"POK","i_long":106.861737,"station_name":"Pondok Jati","distance":1829,"i_lat":-6.209188,"transit":false,"line":11,"time":2},{"distance":1236,"i_long":106.86807400000001,"line":1,"time":9,"is_transit":true,"station_id":"JNG","transit":true,"station_name":"Jatinegara","i_lat":-6.215091},{"line":1,"distance":1377,"station_id":"MTR","i_lat":-6.212485,"station_name":"Matraman","i_long":106.858896,"is_transit":false,"time":2,"transit":false},{"transit":true,"station_id":"MRI","time":2,"i_long":106.84912,"distance":1275,"is_transit":true,"station_name":"Manggarai","i_lat":-6.209883,"line":2},{"time":4,"station_id":"CKI","transit":false,"i_long":106.840169,"is_transit":false,"distance":1590,"line":2,"station_name":"Cikini","i_lat":-6.198556},{"i_lat":-6.186295,"station_id":"GDD","station_name":"Gondangdia","is_transit":false,"distance":1750,"transit":false,"i_long":106.832183,"time":3,"line":2},{"transit":false,"line":2,"i_lat":-6.166716,"distance":2015,"i_long":106.828284,"station_name":"Juanda","time":4,"is_transit":false,"station_id":"JUA"},{"i_long":106.827103,"station_name":"Sawah Besar","is_transit":false,"transit":false,"i_lat":-6.160725,"distance":1149,"station_id":"SW","line":2,"time":2},{"time":2,"transit":false,"station_id":"MGB","i_long":106.82482,"station_name":"Manggabesar","is_transit":false,"distance":906,"i_lat":-6.149769,"line":2},{"i_long":106.820901,"transit":false,"is_transit":false,"i_lat":-6.141205,"time":2,"station_name":"Jayakarta","station_id":"JAY","distance":1080,"line":2},{"station_name":"Jakarta Kota","station_id":"JAKK","is_transit":true,"transit":true,"i_lat":-6.137569,"i_long":106.812439,"distance":1264,"line":2,"time":4},{"line":4,"i_lat":-6.132549,"station_id":"KPB","is_transit":true,"i_long":106.826365,"station_name":"Kampung Bandan","distance":1364,"time":3,"transit":true},{"transit":false,"i_lat":-6.144674,"station_id":"AK","i_long":106.79867,"station_name":"Angke","distance":4102,"line":1,"time":9,"is_transit":false},{"station_id":"DU","distance":1230,"i_lat":-6.155215,"is_transit":false,"time":4,"transit":false,"station_name":"Duri","line":1,"i_long":106.800832},{"distance":3632,"time":8,"line":1,"station_name":"Tanah Abang","station_id":"THB","transit":true,"is_transit":true,"i_lat":-6.185545,"i_long":106.811091},{"is_transit":false,"station_name":"Palmerah","transit":false,"station_id":"PLM","distance":3191,"time":6,"i_long":106.79689,"i_lat":-6.207404,"line":6},{"line":6,"time":7,"station_name":"Kebayoran","i_lat":-6.237242,"station_id":"KBY","is_transit":false,"transit":false,"distance":3737,"i_long":106.780334},{"is_transit":false,"distance":6218,"transit":false,"line":6,"i_lat":-6.276362,"station_name":"Pondokranji","i_long":106.74273,"station_id":"PDJ","time":8},{"line":6,"i_long":106.728916,"i_lat":-6.288927,"station_name":"Jurangmangu","distance":2179,"time":3,"transit":false,"station_id":"JMU","is_transit":false},{"station_name":"Sudimara","i_long":106.712277,"transit":false,"line":6,"is_transit":false,"station_id":"SDM","i_lat":-6.296963,"distance":1994,"time":4}],[{"transit":false,"station_name":"Kramat","i_long":106.855437,"line":11,"is_transit":false,"i_lat":-6.193792,"station_id":"KMT","distance":0,"time":0},{"is_transit":false,"station_name":"Gang Sentiong","i_long":106.850107,"transit":false,"time":1,"line":11,"distance":973,"i_lat":-6.185975,"station_id":"GST"},{"line":11,"distance":1567,"transit":false,"time":8,"station_id":"PSE","i_lat":-6.174784,"station_name":"Pasar Senen","is_transit":false,"i_long":106.84368},{"transit":false,"is_transit":false,"station_id":"KMO","distance":1436,"station_name":"Kemayoran","i_lat":-6.161728,"i_long":106.839204,"time":4,"line":11},{"station_name":"Rajawali","transit":false,"time":5,"i_long":106.836569,"line":11,"station_id":"RJW","distance":1901,"i_lat":-6.14505,"is_transit":false},{"line":4,"station_name":"Kampung Bandan","time":3,"is_transit":true,"i_lat":-6.132549,"distance":1444,"station_id":"KPB","transit":true,"i_long":106.826365},{"station_id":"JAKK","is_transit":true,"time":3,"line":2,"transit":true,"i_lat":-6.137569,"station_name":"Jakarta Kota","i_long":106.812439,"distance":1364},{"distance":1264,"station_name":"Jayakarta","i_lat":-6.141205,"is_transit":false,"i_long":106.820901,"line":2,"station_id":"JAY","time":4,"transit":false},{"i_long":106.82482,"station_id":"MGB","distance":1080,"station_name":"Manggabesar","i_lat":-6.149769,"transit":false,"is_transit":false,"line":2,"time":2},{"station_name":"Sawah Besar","time":2,"i_lat":-6.160725,"station_id":"SW","distance":906,"i_long":106.827103,"line":2,"transit":false,"is_transit":false},{"transit":false,"station_name":"Juanda","is_transit":false,"time":2,"i_lat":-6.166716,"distance":1149,"station_id":"JUA","i_long":106.828284,"line":2},{"time":4,"station_name":"Gondangdia","distance":2015,"station_id":"GDD","i_lat":-6.186295,"i_long":106.832183,"is_transit":false,"line":2,"transit":false},{"time":3,"distance":1750,"i_long":106.840169,"line":2,"station_id":"CKI","transit":false,"i_lat":-6.198556,"is_transit":false,"station_name":"Cikini"},{"line":2,"station_name":"Manggarai","transit":true,"time":4,"station_id":"MRI","distance":1590,"i_lat":-6.209883,"is_transit":true,"i_long":106.84912},{"transit":false,"time":4,"distance":3186,"line":1,"station_id":"SUD","is_transit":false,"i_lat":-6.202263,"i_long":106.822649,"station_name":"Sudirman"},{"i_lat":-6.201433,"i_long":106.819881,"station_id":"SUDB","time":1,"transit":false,"station_name":"Sudirman Baru","distance":280,"is_transit":false,"line":1},{"station_id":"KAT","transit":false,"time":1,"line":1,"station_name":"Karet","is_transit":false,"distance":471,"i_lat":-6.20132,"i_long":106.816351},{"i_lat":-6.185545,"distance":2029,"time":5,"i_long":106.811091,"station_id":"THB","station_name":"Tanah Abang","transit":true,"line":1,"is_transit":true},{"i_long":106.79689,"line":6,"transit":false,"station_id":"PLM","time":6,"distance":3191,"is_transit":false,"i_lat":-6.207404,"station_name":"Palmerah"},{"transit":false,"i_lat":-6.237242,"i_long":106.780334,"line":6,"station_id":"KBY","station_name":"Kebayoran","distance":3737,"time":7,"is_transit":false},{"i_lat":-6.276362,"transit":false,"station_id":"PDJ","time":8,"station_name":"Pondokranji","is_transit":false,"distance":6218,"i_long":106.74273,"line":6},{"transit":false,"i_long":106.728916,"i_lat":-6.288927,"station_name":"Jurangmangu","line":6,"is_transit":false,"distance":2179,"time":3,"station_id":"JMU"},{"transit":false,"line":6,"i_lat":-6.296963,"station_id":"SDM","is_transit":false,"distance":1994,"i_long":106.712277,"station_name":"Sudimara","time":4}]]}