{"data":[[{"is_transit":false,"time":0,"station_name":"Kramat","i_lat":-6.193792,"station_id":"KMT","i_long":106.855437,"distance":0,"line":11,"transit":false},{"station_id":"POK","distance":1829,"transit":false,"line":11,"station_name":"Pondok Jati","time":2,"is_transit":false,"i_long":106.861737,"i_lat":-6.209188},{"station_id":"JNG","line":1,"time":9,"i_lat":-6.215091,"i_long":106.86807400000001,"distance":1236,"station_name":"Jatinegara","is_transit":true,"transit":true},{"distance":1377,"i_lat":-6.212485,"station_id":"MTR","transit":false,"i_long":106.858896,"is_transit":false,"time":2,"line":1,"station_name":"Matraman"},{"distance":1275,"station_name":"Manggarai","i_long":106.84912,"time":2,"line":2,"transit":false,"station_id":"MRI","i_lat":-6.209883,"is_transit":false},{"i_long":106.822649,"i_lat":-6.202263,"station_name":"Sudirman","transit":false,"time":4,"distance":3186,"station_id":"SUD","is_transit":false,"line":1},{"station_name":"Sudirman Baru","time":1,"distance":280,"line":1,"i_long":106.819881,"i_lat":-6.201433,"is_transit":false,"transit":false,"station_id":"SUDB"},{"is_transit":false,"transit":false,"time":1,"station_id":"KAT","station_name":"Karet","i_lat":-6.20132,"distance":471,"line":1,"i_long":106.816351}],[{"station_name":"Kramat","distance":0,"i_lat":-6.193792,"time":0,"is_transit":false,"i_long":106.855437,"transit":false,"line":11,"station_id":"KMT"},{"station_id":"GST","distance":973,"i_lat":-6.185975,"i_long":106.850107,"line":11,"time":1,"is_transit":false,"station_name":"Gang Sentiong","transit":false},{"time":8,"station_name":"Pasar Senen","distance":1567,"line":11,"i_lat":-6.174784,"station_id":"PSE","is_transit":false,"i_long":106.84368,"transit":false},{"is_transit":false,"line":11,"station_name":"Kemayoran","transit":false,"time":4,"i_lat":-6.161728,"distance":1436,"i_long":106.839204,"station_id":"KMO"},{"station_id":"RJW","distance":1901,"is_transit":false,"line":11,"time":5,"i_lat":-6.14505,"i_long":106.836569,"station_name":"Rajawali","transit":false},{"line":4,"time":3,"station_name":"Kampung Bandan","i_lat":-6.132549,"i_long":106.826365,"transit":true,"is_transit":true,"distance":1444,"station_id":"KPB"},{"line":1,"is_transit":false,"transit":false,"distance":4102,"i_lat":-6.144674,"station_name":"Angke","station_id":"AK","time":9,"i_long":106.79867},{"time":4,"station_id":"DU","is_transit":false,"i_lat":-6.155215,"i_long":106.800832,"station_name":"Duri","line":1,"transit":false,"distance":1230},{"is_transit":false,"i_lat":-6.185545,"i_long":106.811091,"distance":3632,"station_name":"Tanah Abang","time":8,"station_id":"THB","transit":false,"line":1},{"i_long":106.816351,"time":5,"distance":2029,"station_id":"KAT","is_transit":false,"i_lat":-6.20132,"line":1,"station_name":"Karet","transit":false}],[{"time":0,"i_lat":-6.193792,"i_long":106.855437,"transit":false,"line":11,"is_transit":false,"station_name":"Kramat","distance":0,"station_id":"KMT"},{"station_name":"Pondok Jati","i_long":106.861737,"station_id":"POK","distance":1829,"transit":false,"time":2,"line":11,"is_transit":false,"i_lat":-6.209188},{"station_id":"JNG","is_transit":true,"i_long":106.86807400000001,"i_lat":-6.215091,"line":1,"station_name":"Jatinegara","time":9,"distance":1236,"transit":true},{"station_name":"Matraman","is_transit":false,"station_id":"MTR","distance":1377,"i_lat":-6.212485,"time":2,"transit":false,"i_long":106.858896,"line":1},{"station_id":"MRI","is_transit":true,"distance":1275,"station_name":"Manggarai","i_lat":-6.209883,"line":2,"transit":true,"i_long":106.84912,"time":2},{"distance":1590,"station_id":"CKI","is_transit":false,"line":2,"time":4,"i_long":106.840169,"i_lat":-6.198556,"station_name":"Cikini","transit":false},{"station_id":"GDD","time":3,"distance":1750,"transit":false,"i_long":106.832183,"is_transit":false,"i_lat":-6.186295,"line":2,"station_name":"Gondangdia"},{"distance":2015,"transit":false,"station_id":"JUA","line":2,"station_name":"Juanda","i_lat":-6.166716,"time":4,"is_transit":false,"i_long":106.828284},{"transit":false,"station_name":"Sawah Besar","distance":1149,"station_id":"SW","i_lat":-6.160725,"line":2,"i_long":106.827103,"is_transit":false,"time":2},{"i_long":106.82482,"distance":906,"i_lat":-6.149769,"is_transit":false,"time":2,"line":2,"station_name":"Manggabesar","transit":false,"station_id":"MGB"},{"distance":1080,"i_lat":-6.141205,"station_id":"JAY","time":2,"i_long":106.820901,"station_name":"Jayakarta","line":2,"transit":false,"is_transit":false},{"station_id":"JAKK","transit":true,"i_long":106.812439,"station_name":"Jakarta Kota","is_transit":true,"distance":1264,"time":4,"line":2,"i_lat":-6.137569},{"station_id":"KPB","is_transit":true,"time":3,"distance":1364,"i_lat":-6.132549,"i_long":106.826365,"station_name":"Kampung Bandan","transit":true,"line":4},{"i_lat":-6.144674,"station_name":"Angke","is_transit":false,"distance":4102,"time":9,"transit":false,"station_id":"AK","i_long":106.79867,"line":1},{"time":4,"distance":1230,"station_id":"DU","is_transit":false,"station_name":"Duri","line":1,"i_lat":-6.155215,"i_long":106.800832,"transit":false},{"transit":false,"i_lat":-6.185545,"station_id":"THB","distance":3632,"i_long":106.811091,"is_transit":false,"time":8,"station_name":"Tanah Abang","line":1},{"i_lat":-6.20132,"line":1,"is_transit":false,"station_name":"Karet","time":5,"distance":2029,"transit":false,"i_long":106.816351,"station_id":"KAT"}],[{"time":0,"station_name":"Kramat","line":11,"distance":0,"station_id":"KMT","i_lat":-6.193792,"i_long":106.855437,"is_transit":false,"transit":false},{"distance":973,"station_id":"GST","transit":false,"is_transit":false,"i_lat":-6.185975,"time":1,"line":11,"station_name":"Gang Sentiong","i_long":106.850107},{"station_name":"Pasar Senen","station_id":"PSE","is_transit":false,"distance":1567,"transit":false,"i_long":106.84368,"time":8,"i_lat":-6.174784,"line":11},{"line":11,"station_id":"KMO","is_transit":false,"time":4,"station_name":"Kemayoran","transit":false,"i_long":106.839204,"i_lat":-6.161728,"distance":1436},{"distance":1901,"i_lat":-6.14505,"is_transit":false,"i_long":106.836569,"line":11,"station_id":"RJW","transit":false,"time":5,"station_name":"Rajawali"},{"station_id":"KPB","distance":1444,"i_lat":-6.132549,"is_transit":true,"time":3,"transit":true,"i_long":106.826365,"station_name":"Kampung Bandan","line":4},{"distance":1364,"i_lat":-6.137569,"transit":true,"is_transit":true,"station_id":"JAKK","i_long":106.812439,"station_name":"Jakarta Kota","time":3,"line":2},{"distance":1264,"time":4,"transit":false,"station_id":"JAY","is_transit":false,"line":2,"station_name":"Jayakarta","i_lat":-6.141205,"i_long":106.820901},{"transit":false,"station_id":"MGB","time":2,"is_transit":false,"i_lat":-6.149769,"i_long":106.82482,"line":2,"station_name":"Manggabesar","distance":1080},{"i_long":106.827103,"time":2,"distance":906,"station_name":"Sawah Besar","line":2,"transit":false,"station_id":"SW","i_lat":-6.160725,"is_transit":false},{"time":2,"station_name":"Juanda","distance":1149,"line":2,"transit":false,"station_id":"JUA","is_transit":false,"i_long":106.828284,"i_lat":-6.166716},{"i_long":106.832183,"time":4,"station_id":"GDD","station_name":"Gondangdia","i_lat":-6.186295,"is_transit":false,"line":2,"transit":false,"distance":2015},{"distance":1750,"i_lat":-6.198556,"station_id":"CKI","transit":false,"line":2,"station_name":"Cikini","is_transit":false,"time":3,"i_long":106.840169},{"line":2,"station_id":"MRI","time":4,"station_name":"Manggarai","i_lat":-6.209883,"i_long":106.84912,"distance":1590,"transit":true,"is_transit":true},{"time":4,"is_transit":false,"line":1,"station_name":"Sudirman","i_long":106.822649,"transit":false,"i_lat":-6.202263,"distance":3186,"station_id":"SUD"},{"station_id":"SUDB","time":1,"transit":false,"i_long":106.819881,"i_lat":-6.201433,"line":1,"distance":280,"station_name":"Sudirman Baru","is_transit":false},{"station_id":"KAT","transit":false,"distance":471,"time":1,"i_lat":-6.20132,"is_transit":false,"i_long":106.816351,"line":1,"station_name":"Karet"}]]}