{"data":[[{"station_name":"Kampung Bandan","station_id":"KPB","distance":0,"is_transit":true,"i_long":106.826365,"transit":false,"i_lat":-6.132549,"line":0,"time":0},{"line":0,"i_long":106.79867,"station_id":"AK","station_name":"Angke","is_transit":false,"distance":4102,"i_lat":-6.144674,"time":9,"transit":false},{"is_transit":true,"transit":true,"i_lat":-6.155215,"station_id":"DU","i_long":106.800832,"line":1,"time":4,"distance":1230,"station_name":"Duri"},{"station_name":"Tanah Abang","time":8,"i_long":106.811091,"is_transit":true,"distance":3632,"line":1,"i_lat":-6.185545,"station_id":"THB","transit":true},{"is_transit":false,"transit":false,"distance":3191,"i_long":106.79689,"time":6,"line":6,"i_lat":-6.207404,"station_name":"Palmerah","station_id":"PLM"},{"station_name":"Kebayoran","i_long":106.780334,"i_lat":-6.237242,"time":7,"distance":3737,"is_transit":false,"line":6,"transit":false,"station_id":"KBY"},{"station_id":"PDJ","is_transit":false,"i_lat":-6.276362,"station_name":"Pondokranji","i_long":106.74273,"line":6,"time":8,"distance":6218,"transit":false},{"transit":false,"is_transit":false,"time":3,"line":6,"distance":2179,"i_long":106.728916,"station_id":"JMU","station_name":"Jurangmangu","i_lat":-6.288927},{"station_id":"SDM","is_transit":false,"distance":1994,"station_name":"Sudimara","transit":false,"time":4,"i_long":106.712277,"line":6,"i_lat":-6.296963}],[{"station_id":"KPB","time":0,"i_lat":-6.132549,"transit":false,"line":0,"station_name":"Kampung Bandan","distance":0,"is_transit":true,"i_long":106.826365},{"i_lat":-6.137569,"station_name":"Jakarta Kota","time":3,"station_id":"JAKK","line":0,"transit":true,"is_transit":true,"distance":1364,"i_long":106.812439},{"i_lat":-6.141205,"station_id":"JAY","station_name":"Jayakarta","transit":false,"time":4,"distance":1264,"line":7,"is_transit":false,"i_long":106.820901},{"i_long":106.82482,"line":2,"station_id":"MGB","time":2,"is_transit":false,"distance":1080,"i_lat":-6.149769,"station_name":"Manggabesar","transit":false},{"line":2,"station_id":"SW","station_name":"Sawah Besar","i_lat":-6.160725,"transit":false,"i_long":106.827103,"is_transit":false,"distance":906,"time":2},{"is_transit":false,"distance":1149,"i_long":106.828284,"station_name":"Juanda","i_lat":-6.166716,"line":2,"station_id":"JUA","time":2,"transit":false},{"transit":false,"is_transit":false,"distance":2015,"i_long":106.832183,"station_id":"GDD","line":2,"time":4,"i_lat":-6.186295,"station_name":"Gondangdia"},{"station_name":"Cikini","transit":false,"i_long":106.840169,"station_id":"CKI","is_transit":false,"i_lat":-6.198556,"time":3,"distance":1750,"line":0},{"distance":1590,"station_name":"Manggarai","transit":true,"i_long":106.84912,"line":0,"station_id":"MRI","time":4,"i_lat":-6.209883,"is_transit":true},{"i_lat":-6.202263,"line":1,"i_long":106.822649,"station_name":"Sudirman","is_transit":false,"distance":3186,"transit":false,"station_id":"SUD","time":4},{"station_id":"SUDB","station_name":"Sudirman Baru","i_lat":-6.201433,"i_long":106.819881,"line":1,"time":1,"transit":false,"distance":280,"is_transit":false},{"is_transit":false,"time":1,"transit":false,"i_lat":-6.20132,"distance":471,"line":1,"i_long":106.816351,"station_id":"KAT","station_name":"Karet"},{"station_id":"THB","station_name":"Tanah Abang","time":5,"i_long":106.811091,"transit":true,"line":1,"distance":2029,"is_transit":true,"i_lat":-6.185545},{"i_long":106.79689,"transit":false,"i_lat":-6.207404,"station_name":"Palmerah","time":6,"distance":3191,"line":6,"station_id":"PLM","is_transit":false},{"i_lat":-6.237242,"station_id":"KBY","distance":3737,"is_transit":false,"i_long":106.780334,"station_name":"Kebayoran","line":6,"transit":false,"time":7},{"station_id":"PDJ","line":6,"station_name":"Pondokranji","i_long":106.74273,"distance":6218,"transit":false,"time":8,"is_transit":false,"i_lat":-6.276362},{"time":3,"distance":2179,"i_long":106.728916,"i_lat":-6.288927,"station_id":"JMU","station_name":"Jurangmangu","transit":false,"is_transit":false,"line":6},{"line":6,"station_id":"SDM","i_long":106.712277,"transit":false,"time":4,"i_lat":-6.296963,"is_transit":false,"station_name":"Sudimara","distance":1994}],[{"i_lat":-6.132549,"distance":0,"is_transit":true,"transit":false,"line":0,"station_name":"Kampung Bandan","time":0,"station_id":"KPB","i_long":106.826365},{"time":3,"is_transit":false,"line":11,"i_long":106.836569,"transit":false,"station_id":"RJW","distance":1444,"station_name":"Rajawali","i_lat":-6.14505},{"transit":false,"distance":1901,"i_lat":-6.161728,"station_id":"KMO","station_name":"Kemayoran","time":5,"is_transit":false,"line":11,"i_long":106.839204},{"distance":1436,"station_name":"Pasar Senen","station_id":"PSE","time":4,"i_long":106.84368,"is_transit":false,"transit":false,"i_lat":-6.174784,"line":11},{"station_name":"Gang Sentiong","transit":false,"line":11,"is_transit":false,"time":8,"distance":1567,"i_lat":-6.185975,"i_long":106.850107,"station_id":"GST"},{"i_long":106.855437,"i_lat":-6.193792,"station_id":"KMT","time":1,"transit":false,"line":11,"station_name":"Kramat","is_transit":false,"distance":973},{"i_long":106.861737,"station_id":"POK","transit":false,"station_name":"Pondok Jati","i_lat":-6.209188,"time":2,"is_transit":false,"distance":1829,"line":11},{"i_long":106.86807400000001,"is_transit":true,"distance":1236,"i_lat":-6.215091,"station_name":"Jatinegara","station_id":"JNG","transit":true,"time":9,"line":0},{"is_transit":false,"transit":false,"time":2,"i_lat":-6.212485,"i_long":106.858896,"station_name":"Matraman","line":1,"distance":1377,"station_id":"MTR"},{"line":0,"i_lat":-6.209883,"station_id":"MRI","transit":false,"i_long":106.84912,"is_transit":true,"station_name":"Manggarai","distance":1275,"time":2},{"distance":3186,"time":4,"station_name":"Sudirman","transit":false,"i_long":106.822649,"station_id":"SUD","i_lat":-6.202263,"line":1,"is_transit":false},{"station_name":"Sudirman Baru","time":1,"i_lat":-6.201433,"station_id":"SUDB","distance":280,"is_transit":false,"transit":false,"line":1,"i_long":106.819881},{"station_id":"KAT","is_transit":false,"time":1,"transit":false,"i_long":106.816351,"line":1,"i_lat":-6.20132,"station_name":"Karet","distance":471},{"is_transit":true,"station_name":"Tanah Abang","distance":2029,"line":1,"transit":true,"i_lat":-6.185545,"station_id":"THB","i_long":106.811091,"time":5},{"i_lat":-6.207404,"station_id":"PLM","station_name":"Palmerah","is_transit":false,"i_long":106.79689,"line":6,"distance":3191,"transit":false,"time":6},{"distance":3737,"line":6,"station_id":"KBY","transit":false,"station_name":"Kebayoran","time":7,"i_lat":-6.237242,"i_long":106.780334,"is_transit":false},{"distance":6218,"transit":false,"line":6,"station_name":"Pondokranji","station_id":"PDJ","is_transit":false,"time":8,"i_lat":-6.276362,"i_long":106.74273},{"is_transit":false,"station_name":"Jurangmangu","station_id":"JMU","transit":false,"i_lat":-6.288927,"distance":2179,"line":6,"time":3,"i_long":106.728916},{"distance":1994,"i_lat":-6.296963,"line":6,"station_name":"Sudimara","station_id":"SDM","i_long":106.712277,"time":4,"is_transit":false,"transit":false}]]}