{"data":[[{"is_transit":false,"distance":0,"line":4,"i_long":106.826365,"i_lat":-6.132549,"station_name":"Kampung Bandan","transit":false,"station_id":"KPB","time":0},{"time":3,"i_long":106.836569,"distance":1444,"line":11,"i_lat":-6.14505,"transit":false,"station_name":"Rajawali","station_id":"RJW","is_transit":false},{"i_lat":-6.161728,"distance":1901,"transit":false,"is_transit":false,"i_long":106.839204,"line":11,"station_id":"KMO","station_name":"Kemayoran","time":5},{"is_transit":false,"transit":false,"i_lat":-6.174784,"distance":1436,"line":11,"station_name":"Pasar Senen","station_id":"PSE","time":4,"i_long":106.84368}],[{"line":4,"distance":0,"is_transit":false,"transit":false,"station_id":"KPB","time":0,"station_name":"Kampung Bandan","i_lat":-6.132549,"i_long":106.826365},{"station_name":"Angke","i_lat":-6.144674,"time":9,"distance":4102,"i_long":106.79867,"transit":false,"is_transit":false,"line":1,"station_id":"AK"},{"line":1,"transit":false,"is_transit":false,"i_long":106.800832,"distance":1230,"i_lat":-6.155215,"station_id":"DU","time":4,"station_name":"Duri"},{"i_long":106.811091,"i_lat":-6.185545,"is_transit":false,"distance":3632,"station_id":"THB","line":1,"station_name":"Tanah Abang","transit":false,"time":8},{"is_transit":false,"distance":2029,"time":5,"station_id":"KAT","station_name":"Karet","transit":false,"i_lat":-6.20132,"i_long":106.816351,"line":1},{"i_long":106.819881,"time":1,"line":1,"station_id":"SUDB","is_transit":false,"transit":false,"station_name":"Sudirman Baru","distance":471,"i_lat":-6.201433},{"is_transit":false,"time":1,"i_long":106.822649,"transit":false,"station_id":"SUD","distance":280,"station_name":"Sudirman","i_lat":-6.202263,"line":1},{"station_name":"Manggarai","distance":3186,"i_lat":-6.209883,"line":2,"time":4,"i_long":106.84912,"is_transit":false,"transit":false,"station_id":"MRI"},{"is_transit":false,"time":2,"transit":false,"i_lat":-6.212485,"station_id":"MTR","i_long":106.858896,"line":1,"station_name":"Matraman","distance":1275},{"station_name":"Jatinegara","station_id":"JNG","i_long":106.86807400000001,"line":1,"distance":1377,"time":8,"i_lat":-6.215091,"is_transit":true,"transit":true},{"time":2,"transit":false,"i_lat":-6.209188,"is_transit":false,"distance":1236,"line":11,"i_long":106.861737,"station_name":"Pondok Jati","station_id":"POK"},{"distance":1829,"station_id":"KMT","is_transit":false,"time":2,"transit":false,"line":11,"i_long":106.855437,"i_lat":-6.193792,"station_name":"Kramat"},{"i_lat":-6.185975,"station_id":"GST","transit":false,"station_name":"Gang Sentiong","time":1,"distance":973,"line":11,"i_long":106.850107,"is_transit":false},{"is_transit":false,"i_lat":-6.174784,"i_long":106.84368,"line":11,"station_id":"PSE","distance":1567,"station_name":"Pasar Senen","time":8,"transit":false}],[{"station_id":"KPB","time":0,"station_name":"Kampung Bandan","distance":0,"line":4,"i_long":106.826365,"is_transit":false,"i_lat":-6.132549,"transit":false},{"distance":1364,"time":3,"is_transit":true,"i_long":106.812439,"line":2,"station_name":"Jakarta Kota","station_id":"JAKK","i_lat":-6.137569,"transit":true},{"i_long":106.820901,"time":4,"station_id":"JAY","station_name":"Jayakarta","i_lat":-6.141205,"line":2,"transit":false,"is_transit":false,"distance":1264},{"station_id":"MGB","distance":1080,"line":2,"i_long":106.82482,"is_transit":false,"time":2,"i_lat":-6.149769,"station_name":"Manggabesar","transit":false},{"is_transit":false,"transit":false,"i_long":106.827103,"i_lat":-6.160725,"distance":906,"station_id":"SW","station_name":"Sawah Besar","time":2,"line":2},{"i_long":106.828284,"is_transit":false,"line":2,"transit":false,"station_name":"Juanda","station_id":"JUA","i_lat":-6.166716,"time":2,"distance":1149},{"line":2,"transit":false,"station_name":"Gondangdia","is_transit":false,"time":4,"distance":2015,"station_id":"GDD","i_lat":-6.186295,"i_long":106.832183},{"i_lat":-6.198556,"transit":false,"station_id":"CKI","i_long":106.840169,"line":2,"time":3,"station_name":"Cikini","is_transit":false,"distance":1750},{"distance":1590,"i_long":106.84912,"station_id":"MRI","station_name":"Manggarai","is_transit":true,"time":4,"line":2,"i_lat":-6.209883,"transit":true},{"distance":1275,"transit":false,"i_long":106.858896,"station_name":"Matraman","time":2,"is_transit":false,"line":1,"i_lat":-6.212485,"station_id":"MTR"},{"is_transit":true,"transit":true,"i_lat":-6.215091,"time":8,"i_long":106.86807400000001,"line":1,"station_name":"Jatinegara","station_id":"JNG","distance":1377},{"i_long":106.861737,"transit":false,"time":2,"station_id":"POK","is_transit":false,"station_name":"Pondok Jati","distance":1236,"line":11,"i_lat":-6.209188},{"time":2,"transit":false,"i_long":106.855437,"station_id":"KMT","distance":1829,"is_transit":false,"line":11,"i_lat":-6.193792,"station_name":"Kramat"},{"time":1,"station_name":"Gang Sentiong","station_id":"GST","i_long":106.850107,"distance":973,"line":11,"transit":false,"i_lat":-6.185975,"is_transit":false},{"i_lat":-6.174784,"line":11,"distance":1567,"station_name":"Pasar Senen","transit":false,"time":8,"is_transit":false,"station_id":"PSE","i_long":106.84368}]]}