{"data":[[{"time":0,"distance":0,"i_lat":-6.132549,"line":4,"is_transit":false,"station_id":"KPB","transit":false,"i_long":106.826365,"station_name":"Kampung Bandan"},{"station_id":"RJW","distance":1444,"transit":false,"time":3,"is_transit":false,"i_lat":-6.14505,"line":11,"i_long":106.836569,"station_name":"Rajawali"},{"line":11,"time":5,"i_long":106.839204,"is_transit":false,"distance":1901,"station_id":"KMO","station_name":"Kemayoran","transit":false,"i_lat":-6.161728}],[{"i_lat":-6.132549,"line":4,"distance":0,"station_id":"KPB","is_transit":false,"time":0,"i_long":106.826365,"station_name":"Kampung Bandan","transit":false},{"line":1,"station_id":"AK","is_transit":false,"distance":4102,"time":9,"transit":false,"i_lat":-6.144674,"station_name":"Angke","i_long":106.79867},{"distance":1230,"transit":false,"i_lat":-6.155215,"line":1,"is_transit":false,"station_name":"Duri","station_id":"DU","i_long":106.800832,"time":4},{"time":8,"station_id":"THB","line":1,"is_transit":false,"i_lat":-6.185545,"i_long":106.811091,"distance":3632,"station_name":"Tanah Abang","transit":false},{"transit":false,"time":5,"station_name":"Karet","is_transit":false,"i_long":106.816351,"i_lat":-6.20132,"station_id":"KAT","distance":2029,"line":1},{"station_id":"SUDB","i_lat":-6.201433,"transit":false,"distance":471,"i_long":106.819881,"station_name":"Sudirman Baru","line":1,"is_transit":false,"time":1},{"i_lat":-6.202263,"is_transit":false,"line":1,"station_id":"SUD","i_long":106.822649,"distance":280,"station_name":"Sudirman","transit":false,"time":1},{"i_lat":-6.209883,"transit":false,"station_name":"Manggarai","time":4,"is_transit":false,"i_long":106.84912,"line":2,"distance":3186,"station_id":"MRI"},{"station_name":"Matraman","time":2,"i_long":106.858896,"station_id":"MTR","is_transit":false,"distance":1275,"i_lat":-6.212485,"transit":false,"line":1},{"station_name":"Jatinegara","transit":true,"distance":1377,"is_transit":true,"station_id":"JNG","time":8,"i_lat":-6.215091,"i_long":106.86807400000001,"line":1},{"line":11,"time":2,"i_long":106.861737,"is_transit":false,"station_id":"POK","transit":false,"i_lat":-6.209188,"distance":1236,"station_name":"Pondok Jati"},{"transit":false,"i_lat":-6.193792,"line":11,"time":2,"distance":1829,"i_long":106.855437,"station_id":"KMT","is_transit":false,"station_name":"Kramat"},{"i_lat":-6.185975,"station_name":"Gang Sentiong","distance":973,"transit":false,"i_long":106.850107,"time":1,"line":11,"is_transit":false,"station_id":"GST"},{"station_id":"PSE","i_lat":-6.174784,"line":11,"transit":false,"station_name":"Pasar Senen","i_long":106.84368,"is_transit":false,"distance":1567,"time":8},{"station_name":"Kemayoran","is_transit":false,"i_lat":-6.161728,"transit":false,"time":4,"line":11,"i_long":106.839204,"distance":1436,"station_id":"KMO"}],[{"station_name":"Kampung Bandan","station_id":"KPB","i_long":106.826365,"time":0,"line":4,"transit":false,"distance":0,"i_lat":-6.132549,"is_transit":false},{"station_id":"JAKK","station_name":"Jakarta Kota","transit":true,"distance":1364,"is_transit":true,"i_long":106.812439,"line":2,"i_lat":-6.137569,"time":3},{"time":4,"transit":false,"i_lat":-6.141205,"station_id":"JAY","line":2,"distance":1264,"is_transit":false,"i_long":106.820901,"station_name":"Jayakarta"},{"station_id":"MGB","distance":1080,"transit":false,"i_long":106.82482,"line":2,"station_name":"Manggabesar","time":2,"is_transit":false,"i_lat":-6.149769},{"transit":false,"time":2,"station_name":"Sawah Besar","is_transit":false,"i_long":106.827103,"line":2,"i_lat":-6.160725,"station_id":"SW","distance":906},{"transit":false,"i_long":106.828284,"line":2,"i_lat":-6.166716,"distance":1149,"station_id":"JUA","time":2,"is_transit":false,"station_name":"Juanda"},{"time":4,"i_lat":-6.186295,"distance":2015,"line":2,"station_name":"Gondangdia","transit":false,"is_transit":false,"i_long":106.832183,"station_id":"GDD"},{"is_transit":false,"distance":1750,"i_long":106.840169,"time":3,"station_id":"CKI","station_name":"Cikini","i_lat":-6.198556,"line":2,"transit":false},{"distance":1590,"time":4,"line":2,"i_long":106.84912,"station_id":"MRI","is_transit":true,"station_name":"Manggarai","i_lat":-6.209883,"transit":true},{"distance":1275,"i_long":106.858896,"station_id":"MTR","line":1,"is_transit":false,"time":2,"station_name":"Matraman","transit":false,"i_lat":-6.212485},{"station_id":"JNG","distance":1377,"i_lat":-6.215091,"transit":true,"is_transit":true,"i_long":106.86807400000001,"time":8,"station_name":"Jatinegara","line":1},{"line":11,"station_name":"Pondok Jati","time":2,"i_long":106.861737,"i_lat":-6.209188,"transit":false,"station_id":"POK","distance":1236,"is_transit":false},{"i_long":106.855437,"transit":false,"distance":1829,"station_name":"Kramat","i_lat":-6.193792,"time":2,"is_transit":false,"station_id":"KMT","line":11},{"transit":false,"distance":973,"station_name":"Gang Sentiong","time":1,"i_long":106.850107,"is_transit":false,"i_lat":-6.185975,"line":11,"station_id":"GST"},{"is_transit":false,"distance":1567,"i_long":106.84368,"station_name":"Pasar Senen","station_id":"PSE","i_lat":-6.174784,"transit":false,"line":11,"time":8},{"i_lat":-6.161728,"station_name":"Kemayoran","time":4,"line":11,"is_transit":false,"distance":1436,"transit":false,"i_long":106.839204,"station_id":"KMO"}]]}