{"data":[[{"i_lat":-6.132549,"is_transit":false,"distance":0,"station_id":"KPB","transit":false,"station_name":"Kampung Bandan","i_long":106.826365,"line":4,"time":0},{"time":9,"distance":4102,"i_long":106.79867,"line":1,"is_transit":false,"station_name":"Angke","i_lat":-6.144674,"station_id":"AK","transit":false},{"distance":1230,"i_lat":-6.155215,"is_transit":false,"station_name":"Duri","i_long":106.800832,"station_id":"DU","line":1,"transit":false,"time":4},{"line":1,"transit":false,"station_name":"Tanah Abang","is_transit":false,"distance":3632,"time":8,"i_lat":-6.185545,"i_long":106.811091,"station_id":"THB"},{"line":1,"station_name":"Karet","i_lat":-6.20132,"i_long":106.816351,"time":5,"distance":2029,"is_transit":false,"transit":false,"station_id":"KAT"},{"time":1,"i_long":106.819881,"i_lat":-6.201433,"distance":471,"line":1,"is_transit":false,"station_id":"SUDB","transit":false,"station_name":"Sudirman Baru"},{"time":1,"distance":280,"line":1,"is_transit":false,"station_name":"Sudirman","transit":false,"i_lat":-6.202263,"i_long":106.822649,"station_id":"SUD"},{"is_transit":true,"station_id":"MRI","station_name":"Manggarai","transit":true,"time":4,"distance":3186,"line":2,"i_lat":-6.209883,"i_long":106.84912},{"is_transit":false,"station_id":"TEB","transit":false,"time":4,"i_lat":-6.226659,"distance":2610,"i_long":106.857948,"line":2,"station_name":"Tebet"},{"transit":false,"station_id":"CW","i_lat":-6.242512,"distance":1230,"time":2,"station_name":"Cawang","i_long":106.856607,"line":2,"is_transit":false},{"line":2,"i_long":106.85449,"station_id":"DRN","station_name":"Duren Kalibata","time":3,"distance":1546,"transit":false,"is_transit":false,"i_lat":-6.255332},{"station_id":"PSMB","distance":824,"transit":false,"is_transit":false,"time":2,"i_lat":-6.263214,"i_long":106.851577,"line":2,"station_name":"Pasar Minggu Baru"},{"transit":false,"i_long":106.843999,"distance":2380,"station_name":"Pasar Minggu","time":2,"i_lat":-6.2842400000000005,"line":2,"is_transit":false,"station_id":"PSM"},{"i_lat":-6.3080680000000005,"transit":false,"i_long":106.838896,"station_name":"Tanjung Barat","distance":2820,"time":4,"is_transit":false,"station_id":"TNT","line":2},{"line":2,"i_lat":-6.330363,"transit":false,"i_long":106.832616,"station_name":"Lenteng Agung","time":3,"station_id":"LNA","is_transit":false,"distance":2671},{"line":2,"is_transit":false,"distance":1029,"time":2,"i_long":106.834175,"i_lat":-6.339291,"station_id":"UP","station_name":"Univ. Pancasila","transit":false},{"distance":2264,"time":3,"i_lat":-6.360749,"station_id":"UI","line":2,"transit":false,"is_transit":false,"station_name":"Univ. Indonesia","i_long":106.831474},{"distance":1109,"transit":false,"is_transit":false,"i_lat":-6.369073,"station_name":"Pondok Cina","time":2,"line":2,"station_id":"POC","i_long":106.831114}],[{"distance":0,"station_name":"Kampung Bandan","line":4,"is_transit":false,"station_id":"KPB","i_long":106.826365,"time":0,"transit":false,"i_lat":-6.132549},{"transit":true,"station_name":"Jakarta Kota","i_lat":-6.137569,"station_id":"JAKK","is_transit":true,"time":3,"line":2,"i_long":106.812439,"distance":1364},{"i_lat":-6.141205,"line":2,"time":4,"station_id":"JAY","is_transit":false,"station_name":"Jayakarta","transit":false,"i_long":106.820901,"distance":1264},{"station_name":"Manggabesar","distance":1080,"i_lat":-6.149769,"station_id":"MGB","time":2,"i_long":106.82482,"line":2,"is_transit":false,"transit":false},{"station_name":"Sawah Besar","line":2,"station_id":"SW","time":2,"distance":906,"i_lat":-6.160725,"is_transit":false,"i_long":106.827103,"transit":false},{"station_name":"Juanda","i_lat":-6.166716,"transit":false,"time":2,"i_long":106.828284,"line":2,"distance":1149,"is_transit":false,"station_id":"JUA"},{"line":2,"distance":2015,"station_name":"Gondangdia","transit":false,"i_lat":-6.186295,"station_id":"GDD","time":4,"i_long":106.832183,"is_transit":false},{"time":3,"station_id":"CKI","line":2,"station_name":"Cikini","i_long":106.840169,"distance":1750,"i_lat":-6.198556,"is_transit":false,"transit":false},{"station_name":"Manggarai","time":4,"i_lat":-6.209883,"transit":false,"distance":1590,"station_id":"MRI","i_long":106.84912,"is_transit":false,"line":2},{"i_lat":-6.226659,"i_long":106.857948,"station_id":"TEB","transit":false,"time":4,"station_name":"Tebet","line":2,"distance":2610,"is_transit":false},{"line":2,"is_transit":false,"transit":false,"station_id":"CW","station_name":"Cawang","i_lat":-6.242512,"time":2,"i_long":106.856607,"distance":1230},{"transit":false,"line":2,"station_id":"DRN","distance":1546,"is_transit":false,"station_name":"Duren Kalibata","i_lat":-6.255332,"i_long":106.85449,"time":3},{"distance":824,"station_id":"PSMB","transit":false,"time":2,"i_lat":-6.263214,"line":2,"is_transit":false,"station_name":"Pasar Minggu Baru","i_long":106.851577},{"distance":2380,"station_id":"PSM","transit":false,"is_transit":false,"time":2,"i_lat":-6.2842400000000005,"station_name":"Pasar Minggu","i_long":106.843999,"line":2},{"distance":2820,"i_lat":-6.3080680000000005,"is_transit":false,"station_name":"Tanjung Barat","i_long":106.838896,"time":4,"station_id":"TNT","transit":false,"line":2},{"is_transit":false,"i_long":106.832616,"distance":2671,"line":2,"station_id":"LNA","transit":false,"time":3,"station_name":"Lenteng Agung","i_lat":-6.330363},{"time":2,"distance":1029,"line":2,"station_name":"Univ. Pancasila","i_long":106.834175,"is_transit":false,"station_id":"UP","i_lat":-6.339291,"transit":false},{"station_id":"UI","is_transit":false,"transit":false,"distance":2264,"i_long":106.831474,"line":2,"time":3,"station_name":"Univ. Indonesia","i_lat":-6.360749},{"station_name":"Pondok Cina","line":2,"is_transit":false,"time":2,"i_lat":-6.369073,"station_id":"POC","i_long":106.831114,"distance":1109,"transit":false}],[{"transit":false,"station_id":"KPB","station_name":"Kampung Bandan","i_lat":-6.132549,"i_long":106.826365,"is_transit":false,"distance":0,"line":4,"time":0},{"distance":1444,"i_long":106.836569,"line":11,"station_id":"RJW","transit":false,"time":3,"i_lat":-6.14505,"station_name":"Rajawali","is_transit":false},{"distance":1901,"station_id":"KMO","transit":false,"i_lat":-6.161728,"i_long":106.839204,"station_name":"Kemayoran","time":5,"is_transit":false,"line":11},{"distance":1436,"line":11,"station_id":"PSE","transit":false,"station_name":"Pasar Senen","time":4,"i_long":106.84368,"is_transit":false,"i_lat":-6.174784},{"station_name":"Gang Sentiong","i_lat":-6.185975,"line":11,"distance":1567,"station_id":"GST","time":8,"transit":false,"i_long":106.850107,"is_transit":false},{"i_lat":-6.193792,"i_long":106.855437,"station_id":"KMT","transit":false,"station_name":"Kramat","line":11,"is_transit":false,"time":1,"distance":973},{"station_id":"POK","distance":1829,"is_transit":false,"transit":false,"station_name":"Pondok Jati","i_lat":-6.209188,"line":11,"time":2,"i_long":106.861737},{"distance":1236,"station_name":"Jatinegara","i_lat":-6.215091,"line":1,"time":9,"is_transit":true,"station_id":"JNG","transit":true,"i_long":106.86807400000001},{"transit":false,"line":1,"is_transit":false,"station_name":"Matraman","i_long":106.858896,"distance":1377,"time":2,"station_id":"MTR","i_lat":-6.212485},{"time":2,"i_long":106.84912,"i_lat":-6.209883,"is_transit":true,"transit":true,"line":2,"station_name":"Manggarai","distance":1275,"station_id":"MRI"},{"station_name":"Tebet","i_lat":-6.226659,"distance":2610,"station_id":"TEB","time":4,"i_long":106.857948,"transit":false,"line":2,"is_transit":false},{"i_long":106.856607,"is_transit":false,"station_name":"Cawang","i_lat":-6.242512,"time":2,"line":2,"distance":1230,"station_id":"CW","transit":false},{"i_lat":-6.255332,"time":3,"is_transit":false,"distance":1546,"transit":false,"line":2,"i_long":106.85449,"station_id":"DRN","station_name":"Duren Kalibata"},{"line":2,"i_lat":-6.263214,"station_name":"Pasar Minggu Baru","i_long":106.851577,"distance":824,"is_transit":false,"transit":false,"station_id":"PSMB","time":2},{"i_lat":-6.2842400000000005,"line":2,"i_long":106.843999,"station_name":"Pasar Minggu","is_transit":false,"distance":2380,"time":2,"transit":false,"station_id":"PSM"},{"station_name":"Tanjung Barat","station_id":"TNT","time":4,"line":2,"i_lat":-6.3080680000000005,"is_transit":false,"i_long":106.838896,"distance":2820,"transit":false},{"transit":false,"station_name":"Lenteng Agung","i_long":106.832616,"distance":2671,"line":2,"station_id":"LNA","time":3,"is_transit":false,"i_lat":-6.330363},{"i_lat":-6.339291,"line":2,"i_long":106.834175,"distance":1029,"station_name":"Univ. Pancasila","station_id":"UP","is_transit":false,"time":2,"transit":false},{"station_name":"Univ. Indonesia","transit":false,"is_transit":false,"line":2,"distance":2264,"i_long":106.831474,"time":3,"i_lat":-6.360749,"station_id":"UI"},{"station_id":"POC","i_long":106.831114,"line":2,"station_name":"Pondok Cina","i_lat":-6.369073,"time":2,"transit":false,"is_transit":false,"distance":1109}]]}