{"data":[[{"is_transit":false,"i_long":106.826365,"distance":0,"line":4,"station_id":"KPB","transit":false,"time":0,"station_name":"Kampung Bandan","i_lat":-6.132549},{"time":9,"distance":4102,"line":1,"station_name":"Angke","i_long":106.79867,"is_transit":false,"station_id":"AK","i_lat":-6.144674,"transit":false},{"distance":1230,"station_id":"DU","transit":false,"is_transit":false,"i_lat":-6.155215,"time":4,"i_long":106.800832,"line":1,"station_name":"Duri"},{"transit":false,"is_transit":false,"station_id":"THB","station_name":"Tanah Abang","i_lat":-6.185545,"i_long":106.811091,"line":1,"distance":3632,"time":8},{"i_long":106.816351,"transit":false,"i_lat":-6.20132,"time":5,"is_transit":false,"distance":2029,"line":1,"station_name":"Karet","station_id":"KAT"},{"line":1,"i_lat":-6.201433,"station_name":"Sudirman Baru","transit":false,"time":1,"i_long":106.819881,"station_id":"SUDB","is_transit":false,"distance":471},{"time":1,"distance":280,"is_transit":false,"transit":false,"station_name":"Sudirman","station_id":"SUD","i_long":106.822649,"line":1,"i_lat":-6.202263},{"station_name":"Manggarai","i_lat":-6.209883,"i_long":106.84912,"is_transit":true,"time":4,"line":2,"transit":true,"distance":3186,"station_id":"MRI"},{"station_name":"Tebet","time":4,"i_long":106.857948,"transit":false,"station_id":"TEB","i_lat":-6.226659,"line":2,"distance":2610,"is_transit":false},{"i_lat":-6.242512,"station_name":"Cawang","distance":1230,"station_id":"CW","line":2,"time":2,"transit":false,"is_transit":false,"i_long":106.856607},{"is_transit":false,"time":3,"station_id":"DRN","station_name":"Duren Kalibata","i_long":106.85449,"i_lat":-6.255332,"distance":1546,"transit":false,"line":2},{"station_name":"Pasar Minggu Baru","is_transit":false,"station_id":"PSMB","i_lat":-6.263214,"line":2,"transit":false,"i_long":106.851577,"distance":824,"time":2},{"station_id":"PSM","line":2,"transit":false,"is_transit":false,"station_name":"Pasar Minggu","i_lat":-6.2842400000000005,"distance":2380,"i_long":106.843999,"time":2},{"distance":2820,"station_id":"TNT","transit":false,"i_lat":-6.3080680000000005,"i_long":106.838896,"time":4,"is_transit":false,"station_name":"Tanjung Barat","line":2},{"transit":false,"station_name":"Lenteng Agung","is_transit":false,"time":3,"distance":2671,"i_lat":-6.330363,"i_long":106.832616,"line":2,"station_id":"LNA"},{"distance":1029,"i_long":106.834175,"station_id":"UP","time":2,"line":2,"station_name":"Univ. Pancasila","i_lat":-6.339291,"is_transit":false,"transit":false},{"station_id":"UI","time":3,"station_name":"Univ. Indonesia","i_lat":-6.360749,"distance":2264,"line":2,"transit":false,"i_long":106.831474,"is_transit":false},{"line":2,"i_lat":-6.369073,"station_name":"Pondok Cina","i_long":106.831114,"time":2,"transit":false,"is_transit":false,"distance":1109,"station_id":"POC"},{"i_lat":-6.391065,"line":2,"i_long":106.819451,"station_name":"Depokbaru","is_transit":false,"distance":2727,"time":4,"transit":false,"station_id":"DPB"},{"station_name":"Depok","time":3,"station_id":"DP","line":2,"i_lat":-6.405256,"is_transit":false,"i_long":106.816926,"transit":false,"distance":1584},{"transit":true,"station_name":"Citayam","i_long":106.800298,"distance":5084,"line":2,"station_id":"CTA","time":6,"is_transit":true,"i_lat":-6.448811},{"is_transit":false,"i_long":106.824374,"line":21,"time":0,"station_id":"PDRG","transit":false,"station_name":"Pondok Rajeg","i_lat":-6.460735,"distance":0}],[{"transit":false,"is_transit":false,"station_id":"KPB","station_name":"Kampung Bandan","i_long":106.826365,"line":4,"distance":0,"i_lat":-6.132549,"time":0},{"i_long":106.812439,"is_transit":true,"time":3,"station_id":"JAKK","line":2,"station_name":"Jakarta Kota","distance":1364,"transit":true,"i_lat":-6.137569},{"is_transit":false,"i_long":106.820901,"station_id":"JAY","time":4,"transit":false,"line":2,"i_lat":-6.141205,"station_name":"Jayakarta","distance":1264},{"station_id":"MGB","line":2,"is_transit":false,"distance":1080,"i_lat":-6.149769,"i_long":106.82482,"time":2,"station_name":"Manggabesar","transit":false},{"distance":906,"line":2,"transit":false,"is_transit":false,"time":2,"station_name":"Sawah Besar","station_id":"SW","i_lat":-6.160725,"i_long":106.827103},{"i_long":106.828284,"transit":false,"is_transit":false,"time":2,"distance":1149,"station_id":"JUA","i_lat":-6.166716,"line":2,"station_name":"Juanda"},{"i_lat":-6.186295,"station_name":"Gondangdia","transit":false,"line":2,"distance":2015,"is_transit":false,"i_long":106.832183,"time":4,"station_id":"GDD"},{"transit":false,"distance":1750,"i_long":106.840169,"station_id":"CKI","is_transit":false,"station_name":"Cikini","time":3,"i_lat":-6.198556,"line":2},{"distance":1590,"transit":false,"i_lat":-6.209883,"is_transit":false,"station_name":"Manggarai","station_id":"MRI","i_long":106.84912,"line":2,"time":4},{"transit":false,"is_transit":false,"i_lat":-6.226659,"line":2,"station_name":"Tebet","station_id":"TEB","distance":2610,"i_long":106.857948,"time":4},{"transit":false,"i_long":106.856607,"is_transit":false,"distance":1230,"station_id":"CW","line":2,"time":2,"station_name":"Cawang","i_lat":-6.242512},{"station_name":"Duren Kalibata","distance":1546,"station_id":"DRN","is_transit":false,"time":3,"i_lat":-6.255332,"i_long":106.85449,"line":2,"transit":false},{"transit":false,"time":2,"i_long":106.851577,"distance":824,"line":2,"station_id":"PSMB","is_transit":false,"i_lat":-6.263214,"station_name":"Pasar Minggu Baru"},{"distance":2380,"is_transit":false,"i_lat":-6.2842400000000005,"transit":false,"i_long":106.843999,"station_name":"Pasar Minggu","line":2,"station_id":"PSM","time":2},{"line":2,"time":4,"is_transit":false,"distance":2820,"station_id":"TNT","station_name":"Tanjung Barat","transit":false,"i_long":106.838896,"i_lat":-6.3080680000000005},{"line":2,"station_id":"LNA","time":3,"distance":2671,"is_transit":false,"station_name":"Lenteng Agung","i_lat":-6.330363,"i_long":106.832616,"transit":false},{"i_lat":-6.339291,"station_name":"Univ. Pancasila","time":2,"distance":1029,"is_transit":false,"station_id":"UP","line":2,"i_long":106.834175,"transit":false},{"transit":false,"station_name":"Univ. Indonesia","distance":2264,"station_id":"UI","i_lat":-6.360749,"line":2,"is_transit":false,"time":3,"i_long":106.831474},{"i_long":106.831114,"is_transit":false,"i_lat":-6.369073,"station_name":"Pondok Cina","time":2,"transit":false,"distance":1109,"station_id":"POC","line":2},{"i_lat":-6.391065,"distance":2727,"line":2,"station_id":"DPB","is_transit":false,"i_long":106.819451,"transit":false,"station_name":"Depokbaru","time":4},{"distance":1584,"is_transit":false,"transit":false,"time":3,"station_name":"Depok","station_id":"DP","i_lat":-6.405256,"line":2,"i_long":106.816926},{"station_id":"CTA","i_lat":-6.448811,"i_long":106.800298,"transit":true,"time":6,"distance":5084,"station_name":"Citayam","line":2,"is_transit":true},{"station_id":"PDRG","is_transit":false,"i_lat":-6.460735,"line":21,"transit":false,"station_name":"Pondok Rajeg","i_long":106.824374,"time":0,"distance":0}],[{"distance":0,"station_id":"KPB","line":4,"transit":false,"i_long":106.826365,"is_transit":false,"i_lat":-6.132549,"station_name":"Kampung Bandan","time":0},{"is_transit":false,"station_id":"RJW","station_name":"Rajawali","i_long":106.836569,"i_lat":-6.14505,"distance":1444,"line":11,"time":3,"transit":false},{"is_transit":false,"station_name":"Kemayoran","transit":false,"station_id":"KMO","i_lat":-6.161728,"line":11,"i_long":106.839204,"distance":1901,"time":5},{"i_lat":-6.174784,"station_id":"PSE","i_long":106.84368,"transit":false,"line":11,"station_name":"Pasar Senen","time":4,"distance":1436,"is_transit":false},{"line":11,"distance":1567,"i_lat":-6.185975,"station_id":"GST","time":8,"transit":false,"is_transit":false,"i_long":106.850107,"station_name":"Gang Sentiong"},{"time":1,"is_transit":false,"distance":973,"station_name":"Kramat","line":11,"i_long":106.855437,"station_id":"KMT","transit":false,"i_lat":-6.193792},{"station_id":"POK","i_long":106.861737,"distance":1829,"time":2,"line":11,"i_lat":-6.209188,"is_transit":false,"transit":false,"station_name":"Pondok Jati"},{"line":1,"is_transit":true,"station_name":"Jatinegara","station_id":"JNG","i_lat":-6.215091,"transit":true,"i_long":106.86807400000001,"time":9,"distance":1236},{"station_name":"Matraman","distance":1377,"is_transit":false,"i_long":106.858896,"line":1,"time":2,"transit":false,"i_lat":-6.212485,"station_id":"MTR"},{"station_name":"Manggarai","distance":1275,"i_long":106.84912,"is_transit":true,"i_lat":-6.209883,"time":2,"line":2,"station_id":"MRI","transit":true},{"station_name":"Tebet","i_lat":-6.226659,"i_long":106.857948,"time":4,"is_transit":false,"transit":false,"distance":2610,"station_id":"TEB","line":2},{"transit":false,"i_lat":-6.242512,"station_id":"CW","line":2,"is_transit":false,"distance":1230,"i_long":106.856607,"time":2,"station_name":"Cawang"},{"time":3,"line":2,"is_transit":false,"i_lat":-6.255332,"station_id":"DRN","station_name":"Duren Kalibata","i_long":106.85449,"transit":false,"distance":1546},{"station_id":"PSMB","transit":false,"i_lat":-6.263214,"time":2,"station_name":"Pasar Minggu Baru","i_long":106.851577,"distance":824,"is_transit":false,"line":2},{"i_long":106.843999,"transit":false,"station_name":"Pasar Minggu","time":2,"distance":2380,"i_lat":-6.2842400000000005,"station_id":"PSM","is_transit":false,"line":2},{"station_name":"Tanjung Barat","i_lat":-6.3080680000000005,"station_id":"TNT","time":4,"distance":2820,"transit":false,"i_long":106.838896,"line":2,"is_transit":false},{"transit":false,"i_long":106.832616,"line":2,"is_transit":false,"station_name":"Lenteng Agung","i_lat":-6.330363,"station_id":"LNA","time":3,"distance":2671},{"distance":1029,"station_id":"UP","i_long":106.834175,"transit":false,"i_lat":-6.339291,"is_transit":false,"line":2,"station_name":"Univ. Pancasila","time":2},{"station_name":"Univ. Indonesia","station_id":"UI","distance":2264,"line":2,"i_long":106.831474,"is_transit":false,"transit":false,"i_lat":-6.360749,"time":3},{"line":2,"i_lat":-6.369073,"time":2,"transit":false,"distance":1109,"station_id":"POC","i_long":106.831114,"station_name":"Pondok Cina","is_transit":false},{"station_name":"Depokbaru","distance":2727,"i_long":106.819451,"line":2,"i_lat":-6.391065,"transit":false,"time":4,"station_id":"DPB","is_transit":false},{"is_transit":false,"station_name":"Depok","station_id":"DP","time":3,"line":2,"distance":1584,"i_long":106.816926,"transit":false,"i_lat":-6.405256},{"is_transit":true,"station_id":"CTA","transit":true,"station_name":"Citayam","time":6,"line":2,"i_long":106.800298,"distance":5084,"i_lat":-6.448811},{"i_long":106.824374,"time":0,"station_name":"Pondok Rajeg","is_transit":false,"transit":false,"station_id":"PDRG","line":21,"i_lat":-6.460735,"distance":0}]]}