{"data":[[{"i_long":106.826365,"is_transit":true,"i_lat":-6.132549,"station_name":"Kampung Bandan","station_id":"KPB","transit":false,"time":0,"distance":0,"line":0},{"i_lat":-6.137569,"transit":true,"line":0,"time":3,"station_name":"Jakarta Kota","station_id":"JAKK","distance":1364,"is_transit":true,"i_long":106.812439},{"distance":1264,"time":4,"i_lat":-6.141205,"is_transit":false,"transit":false,"station_id":"JAY","line":7,"station_name":"Jayakarta","i_long":106.820901},{"i_long":106.82482,"station_id":"MGB","time":2,"distance":1080,"station_name":"Manggabesar","i_lat":-6.149769,"is_transit":false,"transit":false,"line":2},{"station_id":"SW","is_transit":false,"line":2,"station_name":"Sawah Besar","i_long":106.827103,"distance":906,"transit":false,"time":2,"i_lat":-6.160725}],[{"transit":false,"station_name":"Kampung Bandan","i_lat":-6.132549,"i_long":106.826365,"distance":0,"time":0,"is_transit":true,"line":0,"station_id":"KPB"},{"station_id":"AK","time":9,"station_name":"Angke","distance":4102,"is_transit":false,"transit":false,"i_lat":-6.144674,"i_long":106.79867,"line":0},{"line":1,"transit":true,"is_transit":true,"i_long":106.800832,"time":4,"distance":1230,"station_id":"DU","i_lat":-6.155215,"station_name":"Duri"},{"distance":3632,"time":8,"transit":false,"station_name":"Tanah Abang","line":1,"is_transit":true,"station_id":"THB","i_lat":-6.185545,"i_long":106.811091},{"is_transit":false,"time":5,"distance":2029,"i_lat":-6.20132,"i_long":106.816351,"station_name":"Karet","station_id":"KAT","transit":false,"line":1},{"time":1,"is_transit":false,"station_id":"SUDB","line":1,"station_name":"Sudirman Baru","i_long":106.819881,"i_lat":-6.201433,"distance":471,"transit":false},{"is_transit":false,"i_lat":-6.202263,"station_id":"SUD","i_long":106.822649,"line":1,"time":1,"transit":false,"station_name":"Sudirman","distance":280},{"i_lat":-6.209883,"line":0,"i_long":106.84912,"station_id":"MRI","station_name":"Manggarai","distance":3186,"is_transit":true,"time":4,"transit":true},{"station_name":"Cikini","transit":false,"station_id":"CKI","is_transit":false,"i_long":106.840169,"line":0,"time":4,"i_lat":-6.198556,"distance":1590},{"i_lat":-6.186295,"station_id":"GDD","transit":false,"i_long":106.832183,"station_name":"Gondangdia","distance":1750,"time":3,"line":2,"is_transit":false},{"time":4,"transit":false,"station_name":"Juanda","station_id":"JUA","i_long":106.828284,"distance":2015,"i_lat":-6.166716,"line":2,"is_transit":false},{"station_name":"Sawah Besar","is_transit":false,"transit":false,"i_lat":-6.160725,"line":2,"time":2,"distance":1149,"station_id":"SW","i_long":106.827103}],[{"i_lat":-6.132549,"station_name":"Kampung Bandan","distance":0,"time":0,"i_long":106.826365,"is_transit":true,"station_id":"KPB","line":0,"transit":false},{"i_lat":-6.14505,"distance":1444,"transit":false,"i_long":106.836569,"station_name":"Rajawali","is_transit":false,"station_id":"RJW","line":11,"time":3},{"transit":false,"station_name":"Kemayoran","i_lat":-6.161728,"i_long":106.839204,"is_transit":false,"time":5,"station_id":"KMO","distance":1901,"line":11},{"line":11,"i_long":106.84368,"distance":1436,"time":4,"station_id":"PSE","i_lat":-6.174784,"station_name":"Pasar Senen","is_transit":false,"transit":false},{"station_name":"Gang Sentiong","distance":1567,"line":11,"time":8,"i_long":106.850107,"transit":false,"station_id":"GST","is_transit":false,"i_lat":-6.185975},{"time":1,"distance":973,"line":11,"i_lat":-6.193792,"transit":false,"station_id":"KMT","station_name":"Kramat","is_transit":false,"i_long":106.855437},{"station_name":"Pondok Jati","i_lat":-6.209188,"line":11,"is_transit":false,"distance":1829,"transit":false,"i_long":106.861737,"time":2,"station_id":"POK"},{"i_long":106.86807400000001,"line":0,"time":9,"station_id":"JNG","is_transit":true,"i_lat":-6.215091,"transit":true,"station_name":"Jatinegara","distance":1236},{"is_transit":false,"station_id":"MTR","distance":1377,"line":1,"transit":false,"station_name":"Matraman","time":2,"i_lat":-6.212485,"i_long":106.858896},{"is_transit":true,"distance":1275,"station_name":"Manggarai","i_long":106.84912,"i_lat":-6.209883,"time":2,"transit":true,"line":0,"station_id":"MRI"},{"is_transit":false,"transit":false,"station_id":"CKI","distance":1590,"i_lat":-6.198556,"line":0,"i_long":106.840169,"station_name":"Cikini","time":4},{"time":3,"i_lat":-6.186295,"i_long":106.832183,"station_name":"Gondangdia","line":2,"is_transit":false,"transit":false,"distance":1750,"station_id":"GDD"},{"i_long":106.828284,"station_id":"JUA","station_name":"Juanda","i_lat":-6.166716,"is_transit":false,"time":4,"line":2,"transit":false,"distance":2015},{"line":2,"station_name":"Sawah Besar","station_id":"SW","distance":1149,"i_lat":-6.160725,"i_long":106.827103,"time":2,"transit":false,"is_transit":false}]]}