{"data":[[{"station_id":"KPB","station_name":"Kampung Bandan","time":0,"is_transit":false,"line":4,"i_long":106.826365,"distance":0,"transit":false,"i_lat":-6.132549},{"station_id":"AK","distance":4102,"transit":false,"time":9,"station_name":"Angke","is_transit":false,"i_lat":-6.144674,"i_long":106.79867,"line":1},{"i_long":106.800832,"line":1,"is_transit":false,"station_name":"Duri","time":4,"transit":false,"station_id":"DU","i_lat":-6.155215,"distance":1230},{"station_name":"Tanah Abang","station_id":"THB","transit":false,"is_transit":false,"i_lat":-6.185545,"distance":3632,"time":8,"line":1,"i_long":106.811091},{"time":5,"distance":2029,"is_transit":false,"i_lat":-6.20132,"line":1,"station_name":"Karet","i_long":106.816351,"station_id":"KAT","transit":false},{"time":1,"station_name":"Sudirman Baru","i_lat":-6.201433,"is_transit":false,"i_long":106.819881,"line":1,"station_id":"SUDB","transit":false,"distance":471},{"station_id":"SUD","time":1,"station_name":"Sudirman","i_long":106.822649,"transit":false,"distance":280,"line":1,"i_lat":-6.202263,"is_transit":false}],[{"station_id":"KPB","i_long":106.826365,"distance":0,"is_transit":false,"i_lat":-6.132549,"time":0,"transit":false,"station_name":"Kampung Bandan","line":4},{"i_lat":-6.137569,"line":2,"station_id":"JAKK","transit":true,"station_name":"Jakarta Kota","time":3,"distance":1364,"i_long":106.812439,"is_transit":true},{"distance":1264,"i_long":106.820901,"i_lat":-6.141205,"transit":false,"is_transit":false,"time":4,"station_name":"Jayakarta","line":2,"station_id":"JAY"},{"station_name":"Manggabesar","line":2,"station_id":"MGB","i_long":106.82482,"distance":1080,"is_transit":false,"time":2,"transit":false,"i_lat":-6.149769},{"station_name":"Sawah Besar","i_lat":-6.160725,"line":2,"time":2,"i_long":106.827103,"station_id":"SW","transit":false,"is_transit":false,"distance":906},{"distance":1149,"i_lat":-6.166716,"line":2,"transit":false,"i_long":106.828284,"is_transit":false,"time":2,"station_name":"Juanda","station_id":"JUA"},{"line":2,"station_name":"Gondangdia","transit":false,"time":4,"distance":2015,"is_transit":false,"i_long":106.832183,"station_id":"GDD","i_lat":-6.186295},{"time":3,"is_transit":false,"line":2,"i_lat":-6.198556,"distance":1750,"station_id":"CKI","transit":false,"i_long":106.840169,"station_name":"Cikini"},{"is_transit":true,"line":2,"transit":true,"i_long":106.84912,"i_lat":-6.209883,"distance":1590,"station_name":"Manggarai","station_id":"MRI","time":4},{"time":4,"station_id":"SUD","distance":3186,"i_lat":-6.202263,"i_long":106.822649,"transit":false,"is_transit":false,"line":1,"station_name":"Sudirman"}],[{"distance":0,"station_id":"KPB","station_name":"Kampung Bandan","i_long":106.826365,"line":4,"time":0,"transit":false,"is_transit":false,"i_lat":-6.132549},{"time":3,"station_name":"Rajawali","station_id":"RJW","is_transit":false,"transit":false,"i_long":106.836569,"line":11,"distance":1444,"i_lat":-6.14505},{"distance":1901,"i_long":106.839204,"i_lat":-6.161728,"transit":false,"station_id":"KMO","line":11,"station_name":"Kemayoran","is_transit":false,"time":5},{"i_long":106.84368,"line":11,"distance":1436,"transit":false,"station_name":"Pasar Senen","is_transit":false,"station_id":"PSE","time":4,"i_lat":-6.174784},{"i_lat":-6.185975,"line":11,"station_id":"GST","i_long":106.850107,"transit":false,"time":8,"station_name":"Gang Sentiong","distance":1567,"is_transit":false},{"i_lat":-6.193792,"time":1,"line":11,"station_id":"KMT","distance":973,"is_transit":false,"station_name":"Kramat","transit":false,"i_long":106.855437},{"station_id":"POK","distance":1829,"station_name":"Pondok Jati","i_long":106.861737,"transit":false,"is_transit":false,"line":11,"time":2,"i_lat":-6.209188},{"distance":1236,"station_name":"Jatinegara","station_id":"JNG","is_transit":true,"i_lat":-6.215091,"i_long":106.86807400000001,"line":1,"time":9,"transit":true},{"station_name":"Matraman","time":2,"i_long":106.858896,"distance":1377,"line":1,"transit":false,"station_id":"MTR","i_lat":-6.212485,"is_transit":false},{"station_name":"Manggarai","line":2,"station_id":"MRI","distance":1275,"is_transit":false,"i_lat":-6.209883,"transit":false,"i_long":106.84912,"time":2},{"station_name":"Sudirman","i_long":106.822649,"time":4,"is_transit":false,"distance":3186,"i_lat":-6.202263,"line":1,"transit":false,"station_id":"SUD"}]]}