{"data":[[{"is_transit":false,"i_long":106.826365,"station_id":"KPB","transit":false,"station_name":"Kampung Bandan","i_lat":-6.132549,"time":0,"line":4,"distance":0},{"i_long":106.836569,"transit":false,"time":3,"distance":1444,"is_transit":false,"station_id":"RJW","station_name":"Rajawali","line":11,"i_lat":-6.14505},{"distance":1901,"transit":false,"station_id":"KMO","time":5,"station_name":"Kemayoran","i_long":106.839204,"is_transit":false,"line":11,"i_lat":-6.161728},{"is_transit":false,"transit":false,"i_lat":-6.174784,"line":11,"i_long":106.84368,"distance":1436,"station_name":"Pasar Senen","time":4,"station_id":"PSE"},{"is_transit":false,"distance":1567,"station_id":"GST","line":11,"time":8,"i_lat":-6.185975,"i_long":106.850107,"transit":false,"station_name":"Gang Sentiong"},{"station_id":"KMT","i_lat":-6.193792,"distance":973,"is_transit":false,"transit":false,"time":1,"i_long":106.855437,"station_name":"Kramat","line":11},{"station_name":"Pondok Jati","time":2,"line":11,"station_id":"POK","is_transit":false,"i_lat":-6.209188,"i_long":106.861737,"transit":false,"distance":1829},{"i_lat":-6.215091,"transit":true,"is_transit":true,"line":1,"distance":1236,"i_long":106.86807400000001,"station_id":"JNG","station_name":"Jatinegara","time":9},{"station_name":"Klender","line":1,"time":3,"is_transit":false,"station_id":"KLD","transit":false,"distance":3395,"i_lat":-6.2135,"i_long":106.899548},{"station_name":"Buaran","time":2,"is_transit":false,"distance":3100,"i_long":106.922662,"transit":false,"i_lat":-6.215568,"station_id":"BUA","line":1},{"transit":false,"time":1,"i_long":106.939679,"line":1,"is_transit":false,"i_lat":-6.217455,"distance":1305,"station_id":"KLDB","station_name":"Klenderbaru"}],[{"station_id":"KPB","station_name":"Kampung Bandan","time":0,"distance":0,"transit":false,"i_long":106.826365,"line":4,"is_transit":false,"i_lat":-6.132549},{"transit":false,"distance":4102,"station_id":"AK","is_transit":false,"i_long":106.79867,"time":9,"i_lat":-6.144674,"line":1,"station_name":"Angke"},{"distance":1230,"station_id":"DU","station_name":"Duri","time":4,"is_transit":false,"i_long":106.800832,"line":1,"transit":false,"i_lat":-6.155215},{"i_lat":-6.185545,"line":1,"station_id":"THB","is_transit":false,"time":8,"distance":3632,"i_long":106.811091,"transit":false,"station_name":"Tanah Abang"},{"time":5,"is_transit":false,"distance":2029,"i_lat":-6.20132,"station_name":"Karet","station_id":"KAT","line":1,"i_long":106.816351,"transit":false},{"i_long":106.819881,"station_name":"Sudirman Baru","transit":false,"station_id":"SUDB","is_transit":false,"line":1,"distance":471,"i_lat":-6.201433,"time":1},{"is_transit":false,"transit":false,"station_name":"Sudirman","station_id":"SUD","i_lat":-6.202263,"i_long":106.822649,"line":1,"time":1,"distance":280},{"is_transit":false,"time":4,"distance":3186,"i_long":106.84912,"station_id":"MRI","i_lat":-6.209883,"line":2,"transit":false,"station_name":"Manggarai"},{"i_lat":-6.212485,"line":1,"station_name":"Matraman","time":2,"distance":1275,"is_transit":false,"transit":false,"station_id":"MTR","i_long":106.858896},{"time":8,"i_lat":-6.215091,"station_name":"Jatinegara","station_id":"JNG","is_transit":false,"line":1,"distance":1377,"i_long":106.86807400000001,"transit":false},{"is_transit":false,"i_long":106.899548,"station_name":"Klender","transit":false,"time":3,"station_id":"KLD","i_lat":-6.2135,"line":1,"distance":3395},{"distance":3100,"i_long":106.922662,"i_lat":-6.215568,"time":2,"station_name":"Buaran","station_id":"BUA","is_transit":false,"transit":false,"line":1},{"i_lat":-6.217455,"station_name":"Klenderbaru","distance":1305,"station_id":"KLDB","time":1,"line":1,"transit":false,"is_transit":false,"i_long":106.939679}],[{"i_lat":-6.132549,"line":4,"station_name":"Kampung Bandan","station_id":"KPB","is_transit":false,"transit":false,"time":0,"i_long":106.826365,"distance":0},{"time":3,"i_lat":-6.137569,"station_name":"Jakarta Kota","transit":true,"distance":1364,"station_id":"JAKK","i_long":106.812439,"is_transit":true,"line":2},{"time":4,"is_transit":false,"line":2,"station_id":"JAY","station_name":"Jayakarta","transit":false,"distance":1264,"i_lat":-6.141205,"i_long":106.820901},{"distance":1080,"time":2,"i_long":106.82482,"station_id":"MGB","line":2,"i_lat":-6.149769,"transit":false,"station_name":"Manggabesar","is_transit":false},{"distance":906,"i_long":106.827103,"station_name":"Sawah Besar","transit":false,"station_id":"SW","is_transit":false,"i_lat":-6.160725,"time":2,"line":2},{"is_transit":false,"transit":false,"line":2,"station_name":"Juanda","station_id":"JUA","i_lat":-6.166716,"i_long":106.828284,"time":2,"distance":1149},{"is_transit":false,"station_name":"Gondangdia","i_long":106.832183,"station_id":"GDD","time":4,"distance":2015,"i_lat":-6.186295,"line":2,"transit":false},{"line":2,"station_name":"Cikini","station_id":"CKI","time":3,"is_transit":false,"i_long":106.840169,"distance":1750,"transit":false,"i_lat":-6.198556},{"i_long":106.84912,"time":4,"distance":1590,"station_name":"Manggarai","station_id":"MRI","line":2,"i_lat":-6.209883,"is_transit":true,"transit":true},{"i_long":106.858896,"distance":1275,"station_id":"MTR","is_transit":false,"station_name":"Matraman","transit":false,"time":2,"i_lat":-6.212485,"line":1},{"station_id":"JNG","i_long":106.86807400000001,"is_transit":false,"line":1,"distance":1377,"station_name":"Jatinegara","i_lat":-6.215091,"transit":false,"time":8},{"time":3,"is_transit":false,"i_long":106.899548,"distance":3395,"line":1,"station_name":"Klender","i_lat":-6.2135,"transit":false,"station_id":"KLD"},{"i_lat":-6.215568,"transit":false,"station_id":"BUA","line":1,"distance":3100,"time":2,"station_name":"Buaran","i_long":106.922662,"is_transit":false},{"i_lat":-6.217455,"transit":false,"time":1,"station_id":"KLDB","distance":1305,"line":1,"station_name":"Klenderbaru","is_transit":false,"i_long":106.939679}]]}