{"data":[[{"is_transit":false,"station_id":"KPB","distance":0,"station_name":"Kampung Bandan","line":4,"transit":false,"time":0,"i_long":106.826365,"i_lat":-6.132549},{"i_long":106.836569,"station_name":"Rajawali","time":3,"line":11,"distance":1444,"is_transit":false,"station_id":"RJW","i_lat":-6.14505,"transit":false},{"distance":1901,"i_long":106.839204,"station_name":"Kemayoran","line":11,"is_transit":false,"i_lat":-6.161728,"transit":false,"station_id":"KMO","time":5},{"i_long":106.84368,"line":11,"station_name":"Pasar Senen","station_id":"PSE","is_transit":false,"time":4,"distance":1436,"i_lat":-6.174784,"transit":false},{"transit":false,"is_transit":false,"distance":1567,"i_lat":-6.185975,"line":11,"station_name":"Gang Sentiong","i_long":106.850107,"time":8,"station_id":"GST"},{"i_lat":-6.193792,"is_transit":false,"transit":false,"i_long":106.855437,"station_name":"Kramat","line":11,"distance":973,"time":1,"station_id":"KMT"},{"transit":false,"line":11,"time":2,"station_id":"POK","station_name":"Pondok Jati","is_transit":false,"distance":1829,"i_lat":-6.209188,"i_long":106.861737},{"is_transit":true,"station_id":"JNG","time":9,"i_long":106.86807400000001,"i_lat":-6.215091,"line":1,"distance":1236,"transit":true,"station_name":"Jatinegara"},{"is_transit":false,"distance":3395,"i_lat":-6.2135,"i_long":106.899548,"time":3,"station_name":"Klender","transit":false,"line":1,"station_id":"KLD"},{"i_long":106.922662,"transit":false,"time":2,"i_lat":-6.215568,"line":1,"station_name":"Buaran","station_id":"BUA","distance":3100,"is_transit":false},{"line":1,"is_transit":false,"transit":false,"i_long":106.939679,"distance":1305,"station_id":"KLDB","station_name":"Klenderbaru","i_lat":-6.217455,"time":1},{"line":1,"transit":false,"is_transit":false,"time":8,"station_name":"Cakung","distance":1385,"i_lat":-6.219053,"station_id":"CUK","i_long":106.951283},{"distance":3097,"transit":false,"station_name":"Kranji","is_transit":false,"time":3,"i_lat":-6.224515,"i_long":106.977657,"line":1,"station_id":"KRI"},{"is_transit":false,"time":4,"distance":2520,"i_lat":-6.236616,"i_long":106.997013,"line":1,"transit":false,"station_name":"Bekasi","station_id":"BKS"},{"time":2,"transit":false,"is_transit":false,"station_name":"Bekasi Timur","station_id":"BKST","i_lat":-6.248029,"i_long":107.016735,"distance":2368,"line":1},{"is_transit":false,"distance":4460,"time":7,"station_name":"Tambun","transit":false,"station_id":"TB","i_lat":-6.258864,"i_long":107.055722,"line":1},{"is_transit":false,"transit":false,"time":3,"station_id":"CIT","distance":3420,"station_name":"Cibitung","i_long":107.083084,"i_lat":-6.261877,"line":1},{"station_id":"TLM","line":1,"distance":2800,"time":2,"transit":false,"i_long":107.093313,"station_name":"Metland Telaga Murni","i_lat":-6.262938,"is_transit":false}],[{"time":0,"i_long":106.826365,"i_lat":-6.132549,"transit":false,"line":4,"station_name":"Kampung Bandan","distance":0,"station_id":"KPB","is_transit":false},{"i_long":106.79867,"time":9,"i_lat":-6.144674,"transit":false,"is_transit":false,"distance":4102,"line":1,"station_name":"Angke","station_id":"AK"},{"i_long":106.800832,"i_lat":-6.155215,"station_id":"DU","transit":false,"line":1,"station_name":"Duri","distance":1230,"time":4,"is_transit":false},{"time":8,"is_transit":false,"station_id":"THB","distance":3632,"i_lat":-6.185545,"line":1,"i_long":106.811091,"station_name":"Tanah Abang","transit":false},{"line":1,"transit":false,"time":5,"distance":2029,"i_lat":-6.20132,"i_long":106.816351,"station_name":"Karet","station_id":"KAT","is_transit":false},{"station_id":"SUDB","station_name":"Sudirman Baru","i_long":106.819881,"transit":false,"distance":471,"is_transit":false,"i_lat":-6.201433,"line":1,"time":1},{"station_id":"SUD","station_name":"Sudirman","i_lat":-6.202263,"transit":false,"is_transit":false,"i_long":106.822649,"distance":280,"time":1,"line":1},{"i_long":106.84912,"transit":false,"station_name":"Manggarai","i_lat":-6.209883,"time":4,"station_id":"MRI","distance":3186,"line":2,"is_transit":false},{"i_lat":-6.212485,"i_long":106.858896,"is_transit":false,"station_name":"Matraman","transit":false,"time":2,"line":1,"distance":1275,"station_id":"MTR"},{"distance":1377,"station_name":"Jatinegara","transit":false,"i_lat":-6.215091,"is_transit":false,"station_id":"JNG","line":1,"i_long":106.86807400000001,"time":8},{"line":1,"i_lat":-6.2135,"station_id":"KLD","time":3,"transit":false,"distance":3395,"i_long":106.899548,"station_name":"Klender","is_transit":false},{"station_name":"Buaran","station_id":"BUA","transit":false,"is_transit":false,"i_lat":-6.215568,"distance":3100,"line":1,"i_long":106.922662,"time":2},{"transit":false,"time":1,"station_id":"KLDB","is_transit":false,"distance":1305,"i_long":106.939679,"i_lat":-6.217455,"line":1,"station_name":"Klenderbaru"},{"line":1,"is_transit":false,"i_lat":-6.219053,"time":8,"distance":1385,"i_long":106.951283,"station_id":"CUK","transit":false,"station_name":"Cakung"},{"time":3,"station_id":"KRI","line":1,"is_transit":false,"transit":false,"distance":3097,"i_long":106.977657,"i_lat":-6.224515,"station_name":"Kranji"},{"transit":false,"distance":2520,"station_id":"BKS","time":4,"line":1,"i_long":106.997013,"is_transit":false,"station_name":"Bekasi","i_lat":-6.236616},{"station_id":"BKST","is_transit":false,"time":2,"line":1,"i_lat":-6.248029,"distance":2368,"transit":false,"i_long":107.016735,"station_name":"Bekasi Timur"},{"transit":false,"station_name":"Tambun","line":1,"is_transit":false,"time":7,"i_long":107.055722,"distance":4460,"station_id":"TB","i_lat":-6.258864},{"distance":3420,"line":1,"station_name":"Cibitung","time":3,"transit":false,"i_lat":-6.261877,"i_long":107.083084,"station_id":"CIT","is_transit":false},{"transit":false,"distance":2800,"station_name":"Metland Telaga Murni","is_transit":false,"time":2,"i_lat":-6.262938,"i_long":107.093313,"station_id":"TLM","line":1}],[{"time":0,"i_long":106.826365,"station_id":"KPB","i_lat":-6.132549,"transit":false,"line":4,"station_name":"Kampung Bandan","distance":0,"is_transit":false},{"station_name":"Jakarta Kota","i_lat":-6.137569,"line":2,"station_id":"JAKK","is_transit":true,"distance":1364,"transit":true,"time":3,"i_long":106.812439},{"transit":false,"distance":1264,"station_name":"Jayakarta","station_id":"JAY","i_long":106.820901,"i_lat":-6.141205,"line":2,"is_transit":false,"time":4},{"station_name":"Manggabesar","distance":1080,"station_id":"MGB","i_long":106.82482,"is_transit":false,"i_lat":-6.149769,"line":2,"transit":false,"time":2},{"station_name":"Sawah Besar","station_id":"SW","line":2,"transit":false,"is_transit":false,"time":2,"i_long":106.827103,"i_lat":-6.160725,"distance":906},{"station_name":"Juanda","station_id":"JUA","i_lat":-6.166716,"line":2,"is_transit":false,"time":2,"distance":1149,"i_long":106.828284,"transit":false},{"time":4,"line":2,"transit":false,"i_long":106.832183,"station_id":"GDD","distance":2015,"station_name":"Gondangdia","is_transit":false,"i_lat":-6.186295},{"i_lat":-6.198556,"station_id":"CKI","transit":false,"is_transit":false,"time":3,"station_name":"Cikini","i_long":106.840169,"distance":1750,"line":2},{"distance":1590,"line":2,"station_name":"Manggarai","station_id":"MRI","i_lat":-6.209883,"transit":true,"time":4,"i_long":106.84912,"is_transit":true},{"time":2,"is_transit":false,"line":1,"station_name":"Matraman","distance":1275,"i_lat":-6.212485,"i_long":106.858896,"transit":false,"station_id":"MTR"},{"time":8,"distance":1377,"line":1,"station_name":"Jatinegara","i_lat":-6.215091,"i_long":106.86807400000001,"station_id":"JNG","transit":false,"is_transit":false},{"i_long":106.899548,"time":3,"transit":false,"distance":3395,"station_id":"KLD","station_name":"Klender","line":1,"is_transit":false,"i_lat":-6.2135},{"i_lat":-6.215568,"station_name":"Buaran","i_long":106.922662,"is_transit":false,"distance":3100,"transit":false,"station_id":"BUA","line":1,"time":2},{"transit":false,"is_transit":false,"time":1,"i_lat":-6.217455,"i_long":106.939679,"line":1,"station_id":"KLDB","station_name":"Klenderbaru","distance":1305},{"station_id":"CUK","line":1,"transit":false,"distance":1385,"is_transit":false,"i_lat":-6.219053,"time":8,"i_long":106.951283,"station_name":"Cakung"},{"is_transit":false,"i_lat":-6.224515,"distance":3097,"i_long":106.977657,"line":1,"station_name":"Kranji","transit":false,"time":3,"station_id":"KRI"},{"i_lat":-6.236616,"line":1,"is_transit":false,"i_long":106.997013,"station_name":"Bekasi","transit":false,"time":4,"station_id":"BKS","distance":2520},{"transit":false,"time":2,"station_id":"BKST","station_name":"Bekasi Timur","distance":2368,"i_long":107.016735,"line":1,"is_transit":false,"i_lat":-6.248029},{"distance":4460,"line":1,"time":7,"station_name":"Tambun","station_id":"TB","i_lat":-6.258864,"is_transit":false,"i_long":107.055722,"transit":false},{"station_name":"Cibitung","line":1,"i_lat":-6.261877,"i_long":107.083084,"station_id":"CIT","transit":false,"time":3,"distance":3420,"is_transit":false},{"i_long":107.093313,"distance":2800,"is_transit":false,"line":1,"station_name":"Metland Telaga Murni","time":2,"i_lat":-6.262938,"transit":false,"station_id":"TLM"}]]}