{"data":[[{"station_id":"KPB","station_name":"Kampung Bandan","i_lat":-6.132549,"is_transit":false,"line":4,"time":0,"distance":0,"i_long":106.826365,"transit":false},{"line":11,"station_id":"RJW","transit":false,"distance":1444,"station_name":"Rajawali","time":3,"is_transit":false,"i_lat":-6.14505,"i_long":106.836569},{"time":5,"distance":1901,"is_transit":false,"i_lat":-6.161728,"transit":false,"line":11,"station_id":"KMO","i_long":106.839204,"station_name":"Kemayoran"},{"station_name":"Pasar Senen","i_lat":-6.174784,"distance":1436,"time":4,"is_transit":false,"line":11,"station_id":"PSE","transit":false,"i_long":106.84368},{"distance":1567,"station_name":"Gang Sentiong","is_transit":false,"transit":false,"i_lat":-6.185975,"station_id":"GST","time":8,"i_long":106.850107,"line":11},{"station_name":"Kramat","line":11,"transit":false,"i_long":106.855437,"i_lat":-6.193792,"time":1,"station_id":"KMT","distance":973,"is_transit":false},{"i_lat":-6.209188,"time":2,"transit":false,"line":11,"station_name":"Pondok Jati","station_id":"POK","distance":1829,"i_long":106.861737,"is_transit":false},{"line":1,"i_long":106.86807400000001,"station_id":"JNG","time":9,"transit":true,"distance":1236,"station_name":"Jatinegara","is_transit":true,"i_lat":-6.215091},{"transit":false,"line":1,"i_lat":-6.2135,"distance":3395,"station_name":"Klender","time":3,"i_long":106.899548,"is_transit":false,"station_id":"KLD"},{"transit":false,"i_long":106.922662,"i_lat":-6.215568,"time":2,"line":1,"station_name":"Buaran","distance":3100,"is_transit":false,"station_id":"BUA"},{"station_id":"KLDB","is_transit":false,"line":1,"distance":1305,"station_name":"Klenderbaru","i_long":106.939679,"i_lat":-6.217455,"transit":false,"time":1},{"station_id":"CUK","distance":1385,"transit":false,"time":8,"is_transit":false,"station_name":"Cakung","i_lat":-6.219053,"i_long":106.951283,"line":1}],[{"station_name":"Kampung Bandan","line":4,"time":0,"station_id":"KPB","distance":0,"is_transit":false,"transit":false,"i_long":106.826365,"i_lat":-6.132549},{"station_name":"Angke","transit":false,"distance":4102,"time":9,"is_transit":false,"i_lat":-6.144674,"i_long":106.79867,"line":1,"station_id":"AK"},{"i_long":106.800832,"distance":1230,"station_name":"Duri","line":1,"is_transit":false,"transit":false,"i_lat":-6.155215,"station_id":"DU","time":4},{"line":1,"station_name":"Tanah Abang","time":8,"distance":3632,"is_transit":false,"transit":false,"i_lat":-6.185545,"station_id":"THB","i_long":106.811091},{"station_id":"KAT","line":1,"distance":2029,"time":5,"is_transit":false,"i_lat":-6.20132,"station_name":"Karet","i_long":106.816351,"transit":false},{"distance":471,"station_id":"SUDB","transit":false,"i_long":106.819881,"station_name":"Sudirman Baru","is_transit":false,"time":1,"i_lat":-6.201433,"line":1},{"station_name":"Sudirman","i_lat":-6.202263,"i_long":106.822649,"is_transit":false,"station_id":"SUD","line":1,"transit":false,"distance":280,"time":1},{"station_id":"MRI","distance":3186,"is_transit":false,"station_name":"Manggarai","i_lat":-6.209883,"time":4,"line":2,"i_long":106.84912,"transit":false},{"distance":1275,"i_long":106.858896,"is_transit":false,"i_lat":-6.212485,"transit":false,"station_name":"Matraman","line":1,"time":2,"station_id":"MTR"},{"is_transit":false,"station_name":"Jatinegara","i_long":106.86807400000001,"line":1,"time":8,"station_id":"JNG","transit":false,"distance":1377,"i_lat":-6.215091},{"line":1,"station_name":"Klender","i_lat":-6.2135,"transit":false,"distance":3395,"station_id":"KLD","i_long":106.899548,"time":3,"is_transit":false},{"line":1,"station_name":"Buaran","distance":3100,"is_transit":false,"transit":false,"i_lat":-6.215568,"i_long":106.922662,"station_id":"BUA","time":2},{"distance":1305,"line":1,"time":1,"i_long":106.939679,"station_id":"KLDB","station_name":"Klenderbaru","i_lat":-6.217455,"transit":false,"is_transit":false},{"line":1,"transit":false,"is_transit":false,"station_name":"Cakung","i_lat":-6.219053,"i_long":106.951283,"time":8,"station_id":"CUK","distance":1385}],[{"station_name":"Kampung Bandan","time":0,"i_lat":-6.132549,"line":4,"is_transit":false,"distance":0,"transit":false,"i_long":106.826365,"station_id":"KPB"},{"transit":true,"time":3,"distance":1364,"station_name":"Jakarta Kota","station_id":"JAKK","i_lat":-6.137569,"i_long":106.812439,"line":2,"is_transit":true},{"line":2,"i_lat":-6.141205,"time":4,"station_id":"JAY","distance":1264,"is_transit":false,"station_name":"Jayakarta","transit":false,"i_long":106.820901},{"i_lat":-6.149769,"station_id":"MGB","distance":1080,"transit":false,"station_name":"Manggabesar","time":2,"is_transit":false,"i_long":106.82482,"line":2},{"station_name":"Sawah Besar","i_lat":-6.160725,"line":2,"distance":906,"i_long":106.827103,"time":2,"station_id":"SW","transit":false,"is_transit":false},{"station_id":"JUA","time":2,"distance":1149,"i_lat":-6.166716,"transit":false,"i_long":106.828284,"line":2,"is_transit":false,"station_name":"Juanda"},{"line":2,"is_transit":false,"station_name":"Gondangdia","station_id":"GDD","i_long":106.832183,"i_lat":-6.186295,"transit":false,"distance":2015,"time":4},{"transit":false,"i_long":106.840169,"distance":1750,"is_transit":false,"i_lat":-6.198556,"station_name":"Cikini","line":2,"station_id":"CKI","time":3},{"distance":1590,"i_lat":-6.209883,"i_long":106.84912,"is_transit":true,"transit":true,"station_id":"MRI","line":2,"time":4,"station_name":"Manggarai"},{"distance":1275,"station_name":"Matraman","time":2,"station_id":"MTR","is_transit":false,"i_long":106.858896,"i_lat":-6.212485,"line":1,"transit":false},{"station_id":"JNG","distance":1377,"is_transit":false,"time":8,"transit":false,"line":1,"i_long":106.86807400000001,"station_name":"Jatinegara","i_lat":-6.215091},{"is_transit":false,"time":3,"distance":3395,"line":1,"i_long":106.899548,"station_name":"Klender","station_id":"KLD","transit":false,"i_lat":-6.2135},{"transit":false,"distance":3100,"time":2,"i_lat":-6.215568,"i_long":106.922662,"line":1,"station_id":"BUA","station_name":"Buaran","is_transit":false},{"is_transit":false,"station_id":"KLDB","station_name":"Klenderbaru","line":1,"i_lat":-6.217455,"time":1,"distance":1305,"i_long":106.939679,"transit":false},{"time":8,"is_transit":false,"line":1,"i_long":106.951283,"i_lat":-6.219053,"transit":false,"station_id":"CUK","station_name":"Cakung","distance":1385}]]}