{"data":[[{"station_id":"KPB","is_transit":false,"i_lat":-6.132549,"station_name":"Kampung Bandan","transit":false,"line":4,"i_long":106.826365,"time":0,"distance":0},{"i_lat":-6.144674,"line":1,"time":9,"station_name":"Angke","transit":false,"station_id":"AK","is_transit":false,"distance":4102,"i_long":106.79867},{"line":1,"is_transit":false,"transit":false,"station_id":"DU","distance":1230,"station_name":"Duri","i_lat":-6.155215,"i_long":106.800832,"time":4},{"is_transit":true,"i_long":106.811091,"time":8,"station_name":"Tanah Abang","transit":true,"station_id":"THB","i_lat":-6.185545,"line":1,"distance":3632},{"i_long":106.79689,"transit":false,"line":6,"station_name":"Palmerah","station_id":"PLM","i_lat":-6.207404,"distance":3191,"time":6,"is_transit":false},{"line":6,"transit":false,"is_transit":false,"distance":3737,"time":7,"station_id":"KBY","i_lat":-6.237242,"station_name":"Kebayoran","i_long":106.780334},{"i_lat":-6.276362,"station_name":"Pondokranji","is_transit":false,"line":6,"station_id":"PDJ","transit":false,"i_long":106.74273,"distance":6218,"time":8},{"i_long":106.728916,"station_name":"Jurangmangu","is_transit":false,"distance":2179,"transit":false,"station_id":"JMU","line":6,"time":3,"i_lat":-6.288927},{"i_lat":-6.296963,"transit":false,"time":4,"distance":1994,"station_id":"SDM","line":6,"i_long":106.712277,"is_transit":false,"station_name":"Sudimara"}],[{"i_long":106.826365,"line":4,"is_transit":false,"transit":false,"station_id":"KPB","distance":0,"i_lat":-6.132549,"station_name":"Kampung Bandan","time":0},{"station_id":"JAKK","station_name":"Jakarta Kota","distance":1364,"transit":true,"i_lat":-6.137569,"i_long":106.812439,"line":2,"time":3,"is_transit":true},{"station_name":"Jayakarta","i_long":106.820901,"station_id":"JAY","is_transit":false,"i_lat":-6.141205,"distance":1264,"transit":false,"time":4,"line":2},{"station_name":"Manggabesar","time":2,"distance":1080,"station_id":"MGB","i_lat":-6.149769,"is_transit":false,"i_long":106.82482,"line":2,"transit":false},{"is_transit":false,"i_lat":-6.160725,"station_name":"Sawah Besar","line":2,"transit":false,"i_long":106.827103,"distance":906,"time":2,"station_id":"SW"},{"transit":false,"is_transit":false,"time":2,"i_long":106.828284,"line":2,"station_id":"JUA","i_lat":-6.166716,"station_name":"Juanda","distance":1149},{"station_name":"Gondangdia","i_lat":-6.186295,"i_long":106.832183,"line":2,"is_transit":false,"transit":false,"distance":2015,"station_id":"GDD","time":4},{"is_transit":false,"station_id":"CKI","i_long":106.840169,"line":2,"transit":false,"distance":1750,"station_name":"Cikini","time":3,"i_lat":-6.198556},{"distance":1590,"is_transit":true,"station_name":"Manggarai","station_id":"MRI","i_lat":-6.209883,"transit":true,"time":4,"i_long":106.84912,"line":2},{"time":4,"i_lat":-6.202263,"is_transit":false,"distance":3186,"station_id":"SUD","i_long":106.822649,"transit":false,"line":1,"station_name":"Sudirman"},{"station_id":"SUDB","station_name":"Sudirman Baru","distance":280,"i_long":106.819881,"transit":false,"is_transit":false,"line":1,"time":1,"i_lat":-6.201433},{"i_lat":-6.20132,"transit":false,"station_name":"Karet","is_transit":false,"time":1,"station_id":"KAT","distance":471,"i_long":106.816351,"line":1},{"distance":2029,"station_id":"THB","i_long":106.811091,"line":1,"transit":true,"i_lat":-6.185545,"station_name":"Tanah Abang","time":5,"is_transit":true},{"station_name":"Palmerah","time":6,"line":6,"i_lat":-6.207404,"station_id":"PLM","transit":false,"distance":3191,"i_long":106.79689,"is_transit":false},{"i_long":106.780334,"transit":false,"time":7,"i_lat":-6.237242,"is_transit":false,"station_id":"KBY","distance":3737,"station_name":"Kebayoran","line":6},{"is_transit":false,"transit":false,"i_long":106.74273,"line":6,"i_lat":-6.276362,"station_name":"Pondokranji","station_id":"PDJ","time":8,"distance":6218},{"transit":false,"i_long":106.728916,"station_name":"Jurangmangu","time":3,"line":6,"distance":2179,"station_id":"JMU","i_lat":-6.288927,"is_transit":false},{"is_transit":false,"distance":1994,"i_lat":-6.296963,"station_id":"SDM","i_long":106.712277,"line":6,"transit":false,"station_name":"Sudimara","time":4}],[{"station_name":"Kampung Bandan","transit":false,"i_lat":-6.132549,"is_transit":false,"i_long":106.826365,"time":0,"distance":0,"station_id":"KPB","line":4},{"time":3,"is_transit":false,"transit":false,"station_id":"RJW","i_lat":-6.14505,"line":11,"station_name":"Rajawali","i_long":106.836569,"distance":1444},{"station_name":"Kemayoran","distance":1901,"i_lat":-6.161728,"i_long":106.839204,"line":11,"time":5,"transit":false,"is_transit":false,"station_id":"KMO"},{"line":11,"is_transit":false,"station_id":"PSE","transit":false,"i_lat":-6.174784,"time":4,"i_long":106.84368,"distance":1436,"station_name":"Pasar Senen"},{"distance":1567,"transit":false,"station_name":"Gang Sentiong","is_transit":false,"time":8,"station_id":"GST","i_lat":-6.185975,"i_long":106.850107,"line":11},{"distance":973,"i_lat":-6.193792,"time":1,"transit":false,"station_name":"Kramat","station_id":"KMT","is_transit":false,"line":11,"i_long":106.855437},{"transit":false,"i_long":106.861737,"line":11,"time":2,"is_transit":false,"station_name":"Pondok Jati","station_id":"POK","i_lat":-6.209188,"distance":1829},{"i_lat":-6.215091,"station_name":"Jatinegara","time":9,"transit":true,"is_transit":true,"distance":1236,"i_long":106.86807400000001,"line":1,"station_id":"JNG"},{"station_id":"MTR","line":1,"time":2,"transit":false,"distance":1377,"i_lat":-6.212485,"i_long":106.858896,"is_transit":false,"station_name":"Matraman"},{"distance":1275,"station_id":"MRI","transit":false,"station_name":"Manggarai","time":2,"i_long":106.84912,"i_lat":-6.209883,"line":2,"is_transit":false},{"station_id":"SUD","station_name":"Sudirman","time":4,"distance":3186,"is_transit":false,"i_long":106.822649,"transit":false,"i_lat":-6.202263,"line":1},{"distance":280,"line":1,"station_id":"SUDB","transit":false,"station_name":"Sudirman Baru","time":1,"i_lat":-6.201433,"is_transit":false,"i_long":106.819881},{"station_id":"KAT","transit":false,"i_lat":-6.20132,"i_long":106.816351,"station_name":"Karet","line":1,"is_transit":false,"distance":471,"time":1},{"station_name":"Tanah Abang","transit":true,"station_id":"THB","time":5,"i_lat":-6.185545,"i_long":106.811091,"line":1,"is_transit":true,"distance":2029},{"i_lat":-6.207404,"i_long":106.79689,"distance":3191,"transit":false,"line":6,"is_transit":false,"station_id":"PLM","station_name":"Palmerah","time":6},{"distance":3737,"i_lat":-6.237242,"is_transit":false,"station_name":"Kebayoran","i_long":106.780334,"time":7,"line":6,"transit":false,"station_id":"KBY"},{"station_id":"PDJ","transit":false,"line":6,"time":8,"is_transit":false,"i_lat":-6.276362,"i_long":106.74273,"distance":6218,"station_name":"Pondokranji"},{"line":6,"transit":false,"is_transit":false,"time":3,"station_id":"JMU","distance":2179,"i_lat":-6.288927,"station_name":"Jurangmangu","i_long":106.728916},{"time":4,"station_name":"Sudimara","station_id":"SDM","i_long":106.712277,"line":6,"distance":1994,"i_lat":-6.296963,"is_transit":false,"transit":false}]]}