{"data":[[{"distance":0,"station_id":"KPB","line":0,"transit":false,"is_transit":true,"i_lat":-6.132549,"i_long":106.826365,"station_name":"Kampung Bandan","time":0},{"i_long":106.836569,"station_name":"Rajawali","distance":1444,"line":11,"is_transit":false,"transit":false,"time":3,"station_id":"RJW","i_lat":-6.14505},{"transit":false,"line":11,"i_long":106.839204,"i_lat":-6.161728,"station_name":"Kemayoran","is_transit":false,"time":5,"distance":1901,"station_id":"KMO"},{"i_lat":-6.174784,"line":11,"is_transit":false,"transit":false,"time":4,"i_long":106.84368,"distance":1436,"station_name":"Pasar Senen","station_id":"PSE"},{"station_name":"Gang Sentiong","distance":1567,"transit":false,"i_lat":-6.185975,"time":8,"station_id":"GST","is_transit":false,"i_long":106.850107,"line":11},{"transit":false,"i_lat":-6.193792,"i_long":106.855437,"station_name":"Kramat","station_id":"KMT","is_transit":false,"line":11,"time":1,"distance":973},{"transit":false,"station_name":"Pondok Jati","time":2,"i_lat":-6.209188,"line":11,"distance":1829,"station_id":"POK","i_long":106.861737,"is_transit":false},{"transit":true,"station_name":"Jatinegara","distance":1236,"i_long":106.86807400000001,"is_transit":true,"i_lat":-6.215091,"line":0,"time":9,"station_id":"JNG"},{"i_lat":-6.2135,"transit":false,"distance":3395,"time":3,"station_id":"KLD","station_name":"Klender","i_long":106.899548,"is_transit":false,"line":1},{"station_id":"BUA","line":0,"i_lat":-6.215568,"i_long":106.922662,"is_transit":false,"transit":false,"station_name":"Buaran","time":2,"distance":3100},{"distance":1305,"line":1,"i_lat":-6.217455,"i_long":106.939679,"station_id":"KLDB","station_name":"Klenderbaru","is_transit":false,"time":1,"transit":false},{"is_transit":false,"i_lat":-6.219053,"i_long":106.951283,"station_name":"Cakung","time":8,"distance":1385,"station_id":"CUK","transit":false,"line":0}],[{"line":0,"time":0,"station_id":"KPB","i_long":106.826365,"is_transit":true,"transit":false,"i_lat":-6.132549,"station_name":"Kampung Bandan","distance":0},{"is_transit":false,"station_id":"AK","i_long":106.79867,"line":0,"time":9,"station_name":"Angke","transit":false,"distance":4102,"i_lat":-6.144674},{"transit":true,"i_lat":-6.155215,"station_name":"Duri","i_long":106.800832,"station_id":"DU","time":4,"line":1,"distance":1230,"is_transit":true},{"transit":false,"time":8,"station_name":"Tanah Abang","is_transit":true,"i_long":106.811091,"station_id":"THB","distance":3632,"i_lat":-6.185545,"line":1},{"distance":2029,"i_lat":-6.20132,"station_id":"KAT","is_transit":false,"transit":false,"time":5,"station_name":"Karet","line":1,"i_long":106.816351},{"i_long":106.819881,"station_id":"SUDB","station_name":"Sudirman Baru","transit":false,"distance":471,"line":1,"i_lat":-6.201433,"time":1,"is_transit":false},{"i_lat":-6.202263,"distance":280,"transit":false,"is_transit":false,"i_long":106.822649,"station_name":"Sudirman","time":1,"line":1,"station_id":"SUD"},{"station_id":"MRI","distance":3186,"transit":false,"station_name":"Manggarai","is_transit":true,"i_long":106.84912,"i_lat":-6.209883,"time":4,"line":0},{"distance":1275,"i_long":106.858896,"is_transit":false,"station_name":"Matraman","time":2,"station_id":"MTR","line":1,"transit":false,"i_lat":-6.212485},{"is_transit":true,"time":8,"line":0,"station_name":"Jatinegara","distance":1377,"i_lat":-6.215091,"station_id":"JNG","transit":false,"i_long":106.86807400000001},{"i_lat":-6.2135,"time":3,"line":1,"station_name":"Klender","is_transit":false,"distance":3395,"i_long":106.899548,"transit":false,"station_id":"KLD"},{"i_long":106.922662,"line":0,"station_id":"BUA","transit":false,"i_lat":-6.215568,"distance":3100,"is_transit":false,"station_name":"Buaran","time":2},{"station_name":"Klenderbaru","is_transit":false,"transit":false,"i_lat":-6.217455,"line":1,"time":1,"distance":1305,"station_id":"KLDB","i_long":106.939679},{"i_lat":-6.219053,"line":0,"station_id":"CUK","is_transit":false,"station_name":"Cakung","i_long":106.951283,"distance":1385,"time":8,"transit":false}],[{"is_transit":true,"time":0,"station_id":"KPB","station_name":"Kampung Bandan","transit":false,"distance":0,"i_lat":-6.132549,"i_long":106.826365,"line":0},{"line":0,"station_name":"Jakarta Kota","time":3,"i_lat":-6.137569,"distance":1364,"transit":true,"i_long":106.812439,"is_transit":true,"station_id":"JAKK"},{"i_long":106.820901,"is_transit":false,"station_id":"JAY","transit":false,"station_name":"Jayakarta","line":7,"time":4,"distance":1264,"i_lat":-6.141205},{"station_name":"Manggabesar","time":2,"i_long":106.82482,"transit":false,"distance":1080,"line":2,"is_transit":false,"i_lat":-6.149769,"station_id":"MGB"},{"station_name":"Sawah Besar","time":2,"is_transit":false,"transit":false,"line":2,"i_lat":-6.160725,"distance":906,"i_long":106.827103,"station_id":"SW"},{"distance":1149,"i_lat":-6.166716,"is_transit":false,"station_id":"JUA","station_name":"Juanda","transit":false,"i_long":106.828284,"time":2,"line":2},{"transit":false,"time":4,"i_long":106.832183,"station_name":"Gondangdia","line":2,"i_lat":-6.186295,"is_transit":false,"distance":2015,"station_id":"GDD"},{"time":3,"transit":false,"i_long":106.840169,"line":0,"is_transit":false,"i_lat":-6.198556,"station_id":"CKI","station_name":"Cikini","distance":1750},{"i_long":106.84912,"station_name":"Manggarai","transit":true,"station_id":"MRI","i_lat":-6.209883,"line":0,"distance":1590,"time":4,"is_transit":true},{"station_name":"Matraman","is_transit":false,"time":2,"station_id":"MTR","transit":false,"line":1,"distance":1275,"i_lat":-6.212485,"i_long":106.858896},{"is_transit":true,"time":8,"i_long":106.86807400000001,"line":0,"transit":false,"distance":1377,"station_name":"Jatinegara","i_lat":-6.215091,"station_id":"JNG"},{"station_id":"KLD","i_long":106.899548,"time":3,"station_name":"Klender","is_transit":false,"transit":false,"i_lat":-6.2135,"line":1,"distance":3395},{"i_lat":-6.215568,"i_long":106.922662,"line":0,"station_name":"Buaran","is_transit":false,"distance":3100,"station_id":"BUA","time":2,"transit":false},{"transit":false,"line":1,"i_lat":-6.217455,"distance":1305,"is_transit":false,"station_name":"Klenderbaru","i_long":106.939679,"time":1,"station_id":"KLDB"},{"station_name":"Cakung","distance":1385,"is_transit":false,"station_id":"CUK","transit":false,"line":0,"time":8,"i_lat":-6.219053,"i_long":106.951283}]]}