{"data":[[{"is_transit":false,"station_name":"Kampung Bandan","time":0,"line":4,"i_lat":-6.132549,"station_id":"KPB","i_long":106.826365,"transit":false,"distance":0},{"transit":false,"is_transit":false,"i_long":106.836569,"i_lat":-6.14505,"distance":1444,"line":11,"station_id":"RJW","time":3,"station_name":"Rajawali"},{"station_id":"KMO","transit":false,"is_transit":false,"time":5,"station_name":"Kemayoran","i_lat":-6.161728,"i_long":106.839204,"line":11,"distance":1901},{"distance":1436,"line":11,"transit":false,"station_name":"Pasar Senen","i_long":106.84368,"is_transit":false,"station_id":"PSE","time":4,"i_lat":-6.174784},{"distance":1567,"station_name":"Gang Sentiong","station_id":"GST","i_lat":-6.185975,"transit":false,"line":11,"is_transit":false,"time":8,"i_long":106.850107},{"distance":973,"transit":false,"time":1,"i_lat":-6.193792,"is_transit":false,"station_id":"KMT","line":11,"station_name":"Kramat","i_long":106.855437},{"station_name":"Pondok Jati","i_lat":-6.209188,"line":11,"is_transit":false,"station_id":"POK","distance":1829,"i_long":106.861737,"transit":false,"time":2},{"distance":1236,"time":9,"station_id":"JNG","i_lat":-6.215091,"line":1,"transit":true,"i_long":106.86807400000001,"station_name":"Jatinegara","is_transit":true},{"station_id":"KLD","i_long":106.899548,"is_transit":false,"distance":3395,"line":1,"station_name":"Klender","i_lat":-6.2135,"time":3,"transit":false},{"distance":3100,"station_name":"Buaran","transit":false,"i_lat":-6.215568,"time":2,"i_long":106.922662,"station_id":"BUA","is_transit":false,"line":1},{"i_lat":-6.217455,"i_long":106.939679,"station_id":"KLDB","is_transit":false,"station_name":"Klenderbaru","time":1,"transit":false,"distance":1305,"line":1},{"transit":false,"i_lat":-6.219053,"time":8,"is_transit":false,"station_name":"Cakung","line":1,"i_long":106.951283,"distance":1385,"station_id":"CUK"},{"time":3,"i_long":106.977657,"station_name":"Kranji","distance":3097,"transit":false,"station_id":"KRI","i_lat":-6.224515,"line":1,"is_transit":false},{"station_id":"BKS","i_lat":-6.236616,"is_transit":false,"time":4,"i_long":106.997013,"line":1,"transit":false,"station_name":"Bekasi","distance":2520},{"i_long":107.016735,"line":1,"is_transit":false,"station_name":"Bekasi Timur","station_id":"BKST","time":2,"distance":2368,"i_lat":-6.248029,"transit":false},{"distance":4460,"line":1,"time":7,"i_long":107.055722,"station_id":"TB","is_transit":false,"station_name":"Tambun","i_lat":-6.258864,"transit":false}],[{"station_name":"Kampung Bandan","is_transit":false,"i_lat":-6.132549,"time":0,"transit":false,"distance":0,"station_id":"KPB","i_long":106.826365,"line":4},{"i_lat":-6.144674,"i_long":106.79867,"station_id":"AK","station_name":"Angke","transit":false,"line":1,"time":9,"distance":4102,"is_transit":false},{"transit":false,"station_name":"Duri","station_id":"DU","i_lat":-6.155215,"time":4,"distance":1230,"i_long":106.800832,"line":1,"is_transit":false},{"transit":false,"time":8,"station_name":"Tanah Abang","distance":3632,"is_transit":false,"station_id":"THB","i_lat":-6.185545,"i_long":106.811091,"line":1},{"is_transit":false,"i_long":106.816351,"station_id":"KAT","transit":false,"time":5,"distance":2029,"i_lat":-6.20132,"line":1,"station_name":"Karet"},{"transit":false,"is_transit":false,"i_lat":-6.201433,"line":1,"i_long":106.819881,"station_id":"SUDB","station_name":"Sudirman Baru","time":1,"distance":471},{"is_transit":false,"station_name":"Sudirman","i_long":106.822649,"line":1,"transit":false,"i_lat":-6.202263,"station_id":"SUD","distance":280,"time":1},{"station_id":"MRI","transit":false,"i_lat":-6.209883,"is_transit":false,"line":2,"distance":3186,"time":4,"i_long":106.84912,"station_name":"Manggarai"},{"transit":false,"station_id":"MTR","i_lat":-6.212485,"time":2,"i_long":106.858896,"line":1,"station_name":"Matraman","distance":1275,"is_transit":false},{"distance":1377,"station_name":"Jatinegara","line":1,"station_id":"JNG","i_lat":-6.215091,"time":8,"transit":false,"i_long":106.86807400000001,"is_transit":false},{"station_name":"Klender","transit":false,"distance":3395,"is_transit":false,"station_id":"KLD","time":3,"line":1,"i_long":106.899548,"i_lat":-6.2135},{"line":1,"is_transit":false,"transit":false,"distance":3100,"station_id":"BUA","i_lat":-6.215568,"time":2,"station_name":"Buaran","i_long":106.922662},{"station_id":"KLDB","is_transit":false,"distance":1305,"time":1,"transit":false,"i_lat":-6.217455,"line":1,"i_long":106.939679,"station_name":"Klenderbaru"},{"i_long":106.951283,"transit":false,"station_id":"CUK","distance":1385,"station_name":"Cakung","i_lat":-6.219053,"is_transit":false,"line":1,"time":8},{"distance":3097,"transit":false,"i_long":106.977657,"is_transit":false,"i_lat":-6.224515,"line":1,"station_id":"KRI","time":3,"station_name":"Kranji"},{"i_long":106.997013,"station_id":"BKS","line":1,"station_name":"Bekasi","is_transit":false,"distance":2520,"transit":false,"time":4,"i_lat":-6.236616},{"i_lat":-6.248029,"i_long":107.016735,"station_name":"Bekasi Timur","time":2,"transit":false,"station_id":"BKST","line":1,"is_transit":false,"distance":2368},{"is_transit":false,"line":1,"time":7,"distance":4460,"station_name":"Tambun","station_id":"TB","i_lat":-6.258864,"i_long":107.055722,"transit":false}],[{"time":0,"station_id":"KPB","i_lat":-6.132549,"is_transit":false,"line":4,"distance":0,"transit":false,"station_name":"Kampung Bandan","i_long":106.826365},{"time":3,"is_transit":true,"station_id":"JAKK","distance":1364,"station_name":"Jakarta Kota","transit":true,"line":2,"i_lat":-6.137569,"i_long":106.812439},{"time":4,"i_long":106.820901,"i_lat":-6.141205,"line":2,"distance":1264,"transit":false,"is_transit":false,"station_name":"Jayakarta","station_id":"JAY"},{"distance":1080,"line":2,"time":2,"transit":false,"is_transit":false,"station_id":"MGB","i_lat":-6.149769,"i_long":106.82482,"station_name":"Manggabesar"},{"i_lat":-6.160725,"time":2,"distance":906,"line":2,"station_name":"Sawah Besar","is_transit":false,"station_id":"SW","i_long":106.827103,"transit":false},{"line":2,"station_name":"Juanda","transit":false,"i_lat":-6.166716,"distance":1149,"is_transit":false,"station_id":"JUA","i_long":106.828284,"time":2},{"is_transit":false,"station_name":"Gondangdia","i_lat":-6.186295,"transit":false,"distance":2015,"line":2,"time":4,"station_id":"GDD","i_long":106.832183},{"station_name":"Cikini","i_long":106.840169,"i_lat":-6.198556,"is_transit":false,"transit":false,"time":3,"distance":1750,"station_id":"CKI","line":2},{"line":2,"is_transit":true,"station_name":"Manggarai","i_long":106.84912,"station_id":"MRI","time":4,"transit":true,"distance":1590,"i_lat":-6.209883},{"is_transit":false,"i_long":106.858896,"distance":1275,"transit":false,"i_lat":-6.212485,"station_id":"MTR","time":2,"station_name":"Matraman","line":1},{"line":1,"is_transit":false,"station_id":"JNG","i_lat":-6.215091,"time":8,"distance":1377,"transit":false,"station_name":"Jatinegara","i_long":106.86807400000001},{"line":1,"transit":false,"station_id":"KLD","time":3,"i_long":106.899548,"is_transit":false,"distance":3395,"station_name":"Klender","i_lat":-6.2135},{"time":2,"is_transit":false,"i_long":106.922662,"transit":false,"station_name":"Buaran","station_id":"BUA","distance":3100,"i_lat":-6.215568,"line":1},{"is_transit":false,"i_lat":-6.217455,"transit":false,"station_name":"Klenderbaru","station_id":"KLDB","i_long":106.939679,"distance":1305,"line":1,"time":1},{"station_id":"CUK","i_lat":-6.219053,"time":8,"distance":1385,"line":1,"is_transit":false,"transit":false,"station_name":"Cakung","i_long":106.951283},{"distance":3097,"is_transit":false,"i_lat":-6.224515,"line":1,"i_long":106.977657,"transit":false,"station_id":"KRI","time":3,"station_name":"Kranji"},{"line":1,"i_long":106.997013,"is_transit":false,"distance":2520,"transit":false,"station_id":"BKS","station_name":"Bekasi","i_lat":-6.236616,"time":4},{"distance":2368,"transit":false,"is_transit":false,"station_name":"Bekasi Timur","i_lat":-6.248029,"i_long":107.016735,"station_id":"BKST","time":2,"line":1},{"transit":false,"distance":4460,"i_long":107.055722,"station_id":"TB","line":1,"i_lat":-6.258864,"time":7,"station_name":"Tambun","is_transit":false}]]}