{"data":[[{"station_name":"Kampung Bandan","transit":false,"time":0,"i_lat":-6.132549,"distance":0,"station_id":"KPB","line":4,"is_transit":false,"i_long":106.826365},{"station_id":"AK","distance":4102,"i_lat":-6.144674,"i_long":106.79867,"transit":false,"station_name":"Angke","line":1,"is_transit":false,"time":9},{"i_lat":-6.155215,"i_long":106.800832,"is_transit":false,"time":4,"transit":false,"station_name":"Duri","distance":1230,"line":1,"station_id":"DU"},{"station_name":"Tanah Abang","i_lat":-6.185545,"is_transit":true,"transit":true,"distance":3632,"line":1,"station_id":"THB","time":8,"i_long":106.811091},{"station_name":"Palmerah","i_long":106.79689,"is_transit":false,"station_id":"PLM","i_lat":-6.207404,"distance":3191,"line":6,"transit":false,"time":6},{"is_transit":false,"distance":3737,"station_id":"KBY","station_name":"Kebayoran","i_lat":-6.237242,"time":7,"i_long":106.780334,"transit":false,"line":6},{"transit":false,"i_long":106.74273,"station_name":"Pondokranji","time":8,"is_transit":false,"i_lat":-6.276362,"line":6,"station_id":"PDJ","distance":6218},{"station_id":"JMU","i_long":106.728916,"time":3,"is_transit":false,"distance":2179,"transit":false,"i_lat":-6.288927,"station_name":"Jurangmangu","line":6},{"transit":false,"station_name":"Sudimara","distance":1994,"time":4,"i_long":106.712277,"line":6,"is_transit":false,"station_id":"SDM","i_lat":-6.296963}],[{"i_lat":-6.132549,"is_transit":false,"station_name":"Kampung Bandan","i_long":106.826365,"transit":false,"line":4,"time":0,"distance":0,"station_id":"KPB"},{"transit":true,"line":2,"is_transit":true,"time":3,"station_name":"Jakarta Kota","i_lat":-6.137569,"i_long":106.812439,"station_id":"JAKK","distance":1364},{"is_transit":false,"distance":1264,"station_name":"Jayakarta","i_long":106.820901,"time":4,"station_id":"JAY","transit":false,"i_lat":-6.141205,"line":2},{"is_transit":false,"station_name":"Manggabesar","line":2,"time":2,"i_long":106.82482,"transit":false,"distance":1080,"station_id":"MGB","i_lat":-6.149769},{"line":2,"station_id":"SW","transit":false,"i_lat":-6.160725,"i_long":106.827103,"is_transit":false,"distance":906,"time":2,"station_name":"Sawah Besar"},{"distance":1149,"transit":false,"station_name":"Juanda","station_id":"JUA","i_lat":-6.166716,"is_transit":false,"i_long":106.828284,"line":2,"time":2},{"distance":2015,"station_id":"GDD","time":4,"i_lat":-6.186295,"line":2,"station_name":"Gondangdia","i_long":106.832183,"is_transit":false,"transit":false},{"station_id":"CKI","i_long":106.840169,"line":2,"time":3,"station_name":"Cikini","distance":1750,"i_lat":-6.198556,"is_transit":false,"transit":false},{"line":2,"station_name":"Manggarai","is_transit":true,"distance":1590,"transit":true,"station_id":"MRI","i_long":106.84912,"i_lat":-6.209883,"time":4},{"i_lat":-6.202263,"transit":false,"time":4,"i_long":106.822649,"station_name":"Sudirman","is_transit":false,"distance":3186,"line":1,"station_id":"SUD"},{"transit":false,"time":1,"station_id":"SUDB","line":1,"is_transit":false,"i_long":106.819881,"station_name":"Sudirman Baru","distance":280,"i_lat":-6.201433},{"is_transit":false,"line":1,"i_long":106.816351,"station_name":"Karet","transit":false,"station_id":"KAT","distance":471,"time":1,"i_lat":-6.20132},{"station_name":"Tanah Abang","station_id":"THB","i_long":106.811091,"line":1,"is_transit":true,"i_lat":-6.185545,"distance":2029,"time":5,"transit":true},{"line":6,"distance":3191,"transit":false,"i_long":106.79689,"i_lat":-6.207404,"station_name":"Palmerah","time":6,"station_id":"PLM","is_transit":false},{"i_long":106.780334,"i_lat":-6.237242,"station_name":"Kebayoran","is_transit":false,"time":7,"distance":3737,"transit":false,"station_id":"KBY","line":6},{"transit":false,"distance":6218,"i_lat":-6.276362,"i_long":106.74273,"is_transit":false,"line":6,"station_name":"Pondokranji","station_id":"PDJ","time":8},{"station_id":"JMU","i_lat":-6.288927,"i_long":106.728916,"station_name":"Jurangmangu","transit":false,"line":6,"time":3,"distance":2179,"is_transit":false},{"i_lat":-6.296963,"i_long":106.712277,"station_name":"Sudimara","line":6,"distance":1994,"transit":false,"is_transit":false,"time":4,"station_id":"SDM"}],[{"transit":false,"is_transit":false,"time":0,"station_name":"Kampung Bandan","line":4,"i_long":106.826365,"station_id":"KPB","distance":0,"i_lat":-6.132549},{"i_lat":-6.14505,"transit":false,"station_id":"RJW","line":11,"distance":1444,"is_transit":false,"i_long":106.836569,"time":3,"station_name":"Rajawali"},{"station_id":"KMO","station_name":"Kemayoran","is_transit":false,"transit":false,"distance":1901,"line":11,"i_lat":-6.161728,"i_long":106.839204,"time":5},{"transit":false,"distance":1436,"station_name":"Pasar Senen","time":4,"station_id":"PSE","i_lat":-6.174784,"is_transit":false,"i_long":106.84368,"line":11},{"distance":1567,"is_transit":false,"station_id":"GST","time":8,"transit":false,"i_lat":-6.185975,"line":11,"i_long":106.850107,"station_name":"Gang Sentiong"},{"distance":973,"i_long":106.855437,"is_transit":false,"transit":false,"station_name":"Kramat","line":11,"time":1,"station_id":"KMT","i_lat":-6.193792},{"station_id":"POK","station_name":"Pondok Jati","is_transit":false,"transit":false,"i_lat":-6.209188,"i_long":106.861737,"distance":1829,"line":11,"time":2},{"line":1,"time":9,"station_id":"JNG","distance":1236,"i_long":106.86807400000001,"station_name":"Jatinegara","transit":true,"is_transit":true,"i_lat":-6.215091},{"distance":1377,"transit":false,"station_id":"MTR","station_name":"Matraman","is_transit":false,"i_long":106.858896,"i_lat":-6.212485,"time":2,"line":1},{"line":2,"transit":false,"is_transit":false,"station_id":"MRI","station_name":"Manggarai","distance":1275,"i_lat":-6.209883,"i_long":106.84912,"time":2},{"i_lat":-6.202263,"line":1,"i_long":106.822649,"time":4,"station_id":"SUD","is_transit":false,"transit":false,"station_name":"Sudirman","distance":3186},{"transit":false,"is_transit":false,"time":1,"line":1,"station_name":"Sudirman Baru","i_lat":-6.201433,"i_long":106.819881,"station_id":"SUDB","distance":280},{"i_long":106.816351,"station_id":"KAT","time":1,"station_name":"Karet","is_transit":false,"transit":false,"line":1,"distance":471,"i_lat":-6.20132},{"distance":2029,"is_transit":true,"line":1,"transit":true,"station_id":"THB","i_lat":-6.185545,"i_long":106.811091,"station_name":"Tanah Abang","time":5},{"i_long":106.79689,"line":6,"is_transit":false,"i_lat":-6.207404,"transit":false,"time":6,"station_name":"Palmerah","station_id":"PLM","distance":3191},{"station_name":"Kebayoran","i_long":106.780334,"station_id":"KBY","line":6,"is_transit":false,"time":7,"distance":3737,"transit":false,"i_lat":-6.237242},{"is_transit":false,"transit":false,"time":8,"line":6,"station_name":"Pondokranji","station_id":"PDJ","distance":6218,"i_lat":-6.276362,"i_long":106.74273},{"distance":2179,"i_long":106.728916,"station_name":"Jurangmangu","transit":false,"is_transit":false,"line":6,"i_lat":-6.288927,"station_id":"JMU","time":3},{"distance":1994,"transit":false,"i_long":106.712277,"line":6,"is_transit":false,"time":4,"i_lat":-6.296963,"station_id":"SDM","station_name":"Sudimara"}]]}