{"data":[[{"distance":0,"station_id":"KPB","station_name":"Kampung Bandan","time":0,"i_lat":-6.132549,"i_long":106.826365,"is_transit":true,"transit":false,"line":0},{"station_name":"Rajawali","station_id":"RJW","transit":false,"is_transit":false,"distance":1444,"i_lat":-6.14505,"time":3,"i_long":106.836569,"line":11},{"line":11,"distance":1901,"i_long":106.839204,"station_name":"Kemayoran","is_transit":false,"transit":false,"station_id":"KMO","time":5,"i_lat":-6.161728},{"transit":false,"is_transit":false,"station_name":"Pasar Senen","distance":1436,"station_id":"PSE","i_lat":-6.174784,"line":11,"time":4,"i_long":106.84368},{"line":11,"transit":false,"i_long":106.850107,"station_id":"GST","time":8,"i_lat":-6.185975,"is_transit":false,"station_name":"Gang Sentiong","distance":1567},{"time":1,"is_transit":false,"station_name":"Kramat","transit":false,"distance":973,"i_lat":-6.193792,"line":11,"i_long":106.855437,"station_id":"KMT"},{"distance":1829,"line":11,"transit":false,"is_transit":false,"i_lat":-6.209188,"station_name":"Pondok Jati","station_id":"POK","i_long":106.861737,"time":2},{"i_long":106.86807400000001,"station_id":"JNG","distance":1236,"transit":true,"i_lat":-6.215091,"station_name":"Jatinegara","time":9,"line":0,"is_transit":true},{"i_long":106.899548,"station_id":"KLD","distance":3395,"time":3,"line":1,"i_lat":-6.2135,"station_name":"Klender","transit":false,"is_transit":false},{"transit":false,"station_id":"BUA","station_name":"Buaran","is_transit":false,"time":2,"line":0,"i_lat":-6.215568,"distance":3100,"i_long":106.922662},{"time":1,"station_name":"Klenderbaru","i_long":106.939679,"line":1,"i_lat":-6.217455,"transit":false,"is_transit":false,"distance":1305,"station_id":"KLDB"},{"station_name":"Cakung","i_lat":-6.219053,"line":0,"distance":1385,"station_id":"CUK","i_long":106.951283,"time":8,"is_transit":false,"transit":false},{"transit":false,"time":3,"station_id":"KRI","i_long":106.977657,"station_name":"Kranji","distance":3097,"is_transit":false,"i_lat":-6.224515,"line":1},{"station_id":"BKS","is_transit":false,"station_name":"Bekasi","distance":2520,"transit":false,"time":4,"i_lat":-6.236616,"line":0,"i_long":106.997013},{"station_name":"Bekasi Timur","i_long":107.016735,"line":0,"station_id":"BKST","time":2,"is_transit":false,"distance":2368,"transit":false,"i_lat":-6.248029},{"i_lat":-6.258864,"station_id":"TB","line":1,"distance":4460,"i_long":107.055722,"station_name":"Tambun","transit":false,"time":7,"is_transit":false},{"distance":3420,"i_long":107.083084,"station_name":"Cibitung","line":0,"station_id":"CIT","time":3,"i_lat":-6.261877,"transit":false,"is_transit":false}],[{"line":0,"is_transit":true,"distance":0,"transit":false,"station_id":"KPB","i_lat":-6.132549,"i_long":106.826365,"station_name":"Kampung Bandan","time":0},{"time":9,"distance":4102,"i_lat":-6.144674,"transit":false,"line":0,"is_transit":false,"station_id":"AK","i_long":106.79867,"station_name":"Angke"},{"i_long":106.800832,"station_name":"Duri","time":4,"line":1,"is_transit":true,"transit":true,"distance":1230,"station_id":"DU","i_lat":-6.155215},{"i_lat":-6.185545,"transit":false,"station_id":"THB","station_name":"Tanah Abang","distance":3632,"time":8,"i_long":106.811091,"line":1,"is_transit":true},{"transit":false,"is_transit":false,"i_long":106.816351,"station_id":"KAT","station_name":"Karet","i_lat":-6.20132,"line":1,"distance":2029,"time":5},{"time":1,"station_id":"SUDB","station_name":"Sudirman Baru","transit":false,"distance":471,"is_transit":false,"i_lat":-6.201433,"i_long":106.819881,"line":1},{"transit":false,"is_transit":false,"i_long":106.822649,"distance":280,"time":1,"station_id":"SUD","line":1,"station_name":"Sudirman","i_lat":-6.202263},{"line":0,"distance":3186,"station_name":"Manggarai","transit":false,"station_id":"MRI","i_long":106.84912,"time":4,"i_lat":-6.209883,"is_transit":true},{"station_id":"MTR","time":2,"station_name":"Matraman","line":1,"distance":1275,"is_transit":false,"transit":false,"i_lat":-6.212485,"i_long":106.858896},{"station_id":"JNG","transit":false,"is_transit":true,"distance":1377,"time":8,"station_name":"Jatinegara","line":0,"i_long":106.86807400000001,"i_lat":-6.215091},{"line":1,"i_long":106.899548,"transit":false,"station_id":"KLD","i_lat":-6.2135,"station_name":"Klender","distance":3395,"time":3,"is_transit":false},{"i_long":106.922662,"line":0,"station_name":"Buaran","transit":false,"station_id":"BUA","i_lat":-6.215568,"distance":3100,"is_transit":false,"time":2},{"distance":1305,"station_id":"KLDB","transit":false,"time":1,"station_name":"Klenderbaru","line":1,"is_transit":false,"i_lat":-6.217455,"i_long":106.939679},{"transit":false,"line":0,"i_long":106.951283,"station_name":"Cakung","station_id":"CUK","i_lat":-6.219053,"distance":1385,"time":8,"is_transit":false},{"station_id":"KRI","distance":3097,"station_name":"Kranji","i_lat":-6.224515,"transit":false,"time":3,"is_transit":false,"i_long":106.977657,"line":1},{"transit":false,"station_name":"Bekasi","i_lat":-6.236616,"line":0,"is_transit":false,"time":4,"i_long":106.997013,"station_id":"BKS","distance":2520},{"i_lat":-6.248029,"station_id":"BKST","i_long":107.016735,"is_transit":false,"transit":false,"line":0,"station_name":"Bekasi Timur","distance":2368,"time":2},{"is_transit":false,"i_long":107.055722,"transit":false,"distance":4460,"line":1,"time":7,"i_lat":-6.258864,"station_name":"Tambun","station_id":"TB"},{"i_lat":-6.261877,"station_id":"CIT","time":3,"line":0,"i_long":107.083084,"transit":false,"distance":3420,"station_name":"Cibitung","is_transit":false}],[{"is_transit":true,"i_lat":-6.132549,"line":0,"time":0,"transit":false,"station_id":"KPB","distance":0,"station_name":"Kampung Bandan","i_long":106.826365},{"distance":1364,"i_long":106.812439,"station_id":"JAKK","transit":true,"time":3,"station_name":"Jakarta Kota","i_lat":-6.137569,"line":0,"is_transit":true},{"time":4,"is_transit":false,"station_name":"Jayakarta","i_lat":-6.141205,"i_long":106.820901,"line":7,"station_id":"JAY","transit":false,"distance":1264},{"station_id":"MGB","time":2,"line":2,"distance":1080,"is_transit":false,"i_long":106.82482,"i_lat":-6.149769,"station_name":"Manggabesar","transit":false},{"is_transit":false,"station_name":"Sawah Besar","transit":false,"i_long":106.827103,"time":2,"distance":906,"i_lat":-6.160725,"station_id":"SW","line":2},{"is_transit":false,"distance":1149,"i_lat":-6.166716,"transit":false,"time":2,"line":2,"station_name":"Juanda","station_id":"JUA","i_long":106.828284},{"is_transit":false,"transit":false,"i_long":106.832183,"station_id":"GDD","i_lat":-6.186295,"line":2,"distance":2015,"station_name":"Gondangdia","time":4},{"line":0,"station_name":"Cikini","is_transit":false,"distance":1750,"i_long":106.840169,"station_id":"CKI","i_lat":-6.198556,"transit":false,"time":3},{"transit":true,"line":0,"is_transit":true,"i_long":106.84912,"station_id":"MRI","i_lat":-6.209883,"station_name":"Manggarai","distance":1590,"time":4},{"distance":1275,"i_lat":-6.212485,"line":1,"transit":false,"i_long":106.858896,"station_name":"Matraman","station_id":"MTR","time":2,"is_transit":false},{"i_long":106.86807400000001,"line":0,"distance":1377,"time":8,"i_lat":-6.215091,"station_id":"JNG","station_name":"Jatinegara","transit":false,"is_transit":true},{"i_lat":-6.2135,"line":1,"is_transit":false,"station_id":"KLD","distance":3395,"transit":false,"time":3,"i_long":106.899548,"station_name":"Klender"},{"is_transit":false,"i_lat":-6.215568,"transit":false,"line":0,"station_id":"BUA","time":2,"distance":3100,"station_name":"Buaran","i_long":106.922662},{"time":1,"station_id":"KLDB","station_name":"Klenderbaru","is_transit":false,"i_lat":-6.217455,"i_long":106.939679,"line":1,"distance":1305,"transit":false},{"station_name":"Cakung","distance":1385,"transit":false,"i_long":106.951283,"station_id":"CUK","line":0,"i_lat":-6.219053,"time":8,"is_transit":false},{"i_long":106.977657,"line":1,"i_lat":-6.224515,"station_id":"KRI","time":3,"distance":3097,"transit":false,"station_name":"Kranji","is_transit":false},{"i_long":106.997013,"transit":false,"time":4,"station_id":"BKS","distance":2520,"i_lat":-6.236616,"line":0,"is_transit":false,"station_name":"Bekasi"},{"is_transit":false,"i_lat":-6.248029,"line":0,"distance":2368,"station_id":"BKST","transit":false,"station_name":"Bekasi Timur","time":2,"i_long":107.016735},{"i_lat":-6.258864,"transit":false,"time":7,"is_transit":false,"i_long":107.055722,"station_id":"TB","distance":4460,"line":1,"station_name":"Tambun"},{"line":0,"distance":3420,"i_long":107.083084,"station_id":"CIT","i_lat":-6.261877,"transit":false,"station_name":"Cibitung","time":3,"is_transit":false}]]}