{"data":[[{"is_transit":true,"transit":false,"station_name":"Kampung Bandan","i_lat":-6.132549,"time":0,"distance":0,"i_long":106.826365,"line":0,"station_id":"KPB"},{"line":0,"transit":false,"distance":4102,"station_id":"AK","time":9,"station_name":"Angke","is_transit":false,"i_lat":-6.144674,"i_long":106.79867},{"transit":true,"is_transit":true,"distance":1230,"i_lat":-6.155215,"line":1,"station_id":"DU","i_long":106.800832,"time":4,"station_name":"Duri"},{"distance":3632,"time":8,"transit":false,"station_id":"THB","is_transit":true,"i_lat":-6.185545,"line":1,"station_name":"Tanah Abang","i_long":106.811091},{"transit":false,"time":5,"station_name":"Karet","is_transit":false,"i_lat":-6.20132,"line":1,"distance":2029,"i_long":106.816351,"station_id":"KAT"},{"transit":false,"i_lat":-6.201433,"i_long":106.819881,"line":1,"is_transit":false,"distance":471,"station_name":"Sudirman Baru","time":1,"station_id":"SUDB"},{"distance":280,"time":1,"station_name":"Sudirman","is_transit":false,"station_id":"SUD","i_lat":-6.202263,"transit":false,"i_long":106.822649,"line":1},{"time":4,"is_transit":true,"station_name":"Manggarai","i_lat":-6.209883,"i_long":106.84912,"line":0,"transit":true,"distance":3186,"station_id":"MRI"},{"transit":false,"distance":2610,"i_long":106.857948,"is_transit":false,"time":4,"i_lat":-6.226659,"line":2,"station_name":"Tebet","station_id":"TEB"},{"time":2,"transit":false,"station_name":"Cawang","distance":1230,"i_long":106.856607,"station_id":"CW","is_transit":false,"line":0,"i_lat":-6.242512}],[{"transit":false,"time":0,"distance":0,"i_long":106.826365,"line":0,"station_name":"Kampung Bandan","is_transit":true,"station_id":"KPB","i_lat":-6.132549},{"is_transit":true,"time":3,"station_name":"Jakarta Kota","transit":true,"i_long":106.812439,"line":0,"distance":1364,"i_lat":-6.137569,"station_id":"JAKK"},{"station_id":"JAY","station_name":"Jayakarta","transit":false,"is_transit":false,"i_lat":-6.141205,"time":4,"i_long":106.820901,"line":7,"distance":1264},{"i_long":106.82482,"distance":1080,"line":2,"station_name":"Manggabesar","is_transit":false,"i_lat":-6.149769,"time":2,"station_id":"MGB","transit":false},{"i_lat":-6.160725,"distance":906,"station_name":"Sawah Besar","is_transit":false,"i_long":106.827103,"transit":false,"time":2,"station_id":"SW","line":2},{"station_id":"JUA","time":2,"is_transit":false,"i_lat":-6.166716,"i_long":106.828284,"transit":false,"line":2,"distance":1149,"station_name":"Juanda"},{"transit":false,"station_id":"GDD","i_lat":-6.186295,"time":4,"is_transit":false,"station_name":"Gondangdia","distance":2015,"line":2,"i_long":106.832183},{"time":3,"station_id":"CKI","station_name":"Cikini","line":0,"i_lat":-6.198556,"i_long":106.840169,"distance":1750,"transit":false,"is_transit":false},{"transit":true,"time":4,"i_long":106.84912,"station_name":"Manggarai","distance":1590,"line":0,"i_lat":-6.209883,"station_id":"MRI","is_transit":true},{"time":4,"station_name":"Tebet","i_long":106.857948,"station_id":"TEB","line":2,"transit":false,"distance":2610,"i_lat":-6.226659,"is_transit":false},{"is_transit":false,"transit":false,"i_lat":-6.242512,"line":0,"station_name":"Cawang","time":2,"i_long":106.856607,"distance":1230,"station_id":"CW"}],[{"line":0,"transit":false,"time":0,"distance":0,"is_transit":true,"i_lat":-6.132549,"station_id":"KPB","station_name":"Kampung Bandan","i_long":106.826365},{"time":3,"line":11,"distance":1444,"is_transit":false,"i_long":106.836569,"i_lat":-6.14505,"station_name":"Rajawali","station_id":"RJW","transit":false},{"line":11,"time":5,"distance":1901,"is_transit":false,"station_name":"Kemayoran","i_lat":-6.161728,"transit":false,"i_long":106.839204,"station_id":"KMO"},{"transit":false,"i_lat":-6.174784,"is_transit":false,"station_id":"PSE","station_name":"Pasar Senen","time":4,"distance":1436,"i_long":106.84368,"line":11},{"time":8,"is_transit":false,"line":11,"station_id":"GST","transit":false,"i_lat":-6.185975,"distance":1567,"i_long":106.850107,"station_name":"Gang Sentiong"},{"distance":973,"i_long":106.855437,"line":11,"transit":false,"i_lat":-6.193792,"station_name":"Kramat","is_transit":false,"station_id":"KMT","time":1},{"station_name":"Pondok Jati","time":2,"i_lat":-6.209188,"station_id":"POK","distance":1829,"i_long":106.861737,"line":11,"is_transit":false,"transit":false},{"time":9,"station_name":"Jatinegara","line":0,"distance":1236,"station_id":"JNG","is_transit":true,"transit":true,"i_lat":-6.215091,"i_long":106.86807400000001},{"i_long":106.858896,"station_name":"Matraman","time":2,"transit":false,"distance":1377,"i_lat":-6.212485,"line":1,"station_id":"MTR","is_transit":false},{"time":2,"distance":1275,"station_name":"Manggarai","station_id":"MRI","is_transit":true,"transit":true,"i_lat":-6.209883,"i_long":106.84912,"line":0},{"line":2,"station_id":"TEB","i_lat":-6.226659,"station_name":"Tebet","is_transit":false,"transit":false,"distance":2610,"i_long":106.857948,"time":4},{"i_long":106.856607,"station_id":"CW","station_name":"Cawang","time":2,"i_lat":-6.242512,"is_transit":false,"line":0,"transit":false,"distance":1230}]]}