{"data":[[{"time":0,"line":4,"is_transit":false,"station_name":"Kampung Bandan","i_lat":-6.132549,"transit":false,"station_id":"KPB","i_long":106.826365,"distance":0},{"station_name":"Angke","line":1,"time":9,"i_lat":-6.144674,"i_long":106.79867,"station_id":"AK","transit":false,"distance":4102,"is_transit":false},{"distance":1230,"station_name":"Duri","i_lat":-6.155215,"transit":false,"line":1,"time":4,"i_long":106.800832,"is_transit":false,"station_id":"DU"},{"is_transit":true,"station_id":"THB","distance":3632,"i_long":106.811091,"station_name":"Tanah Abang","i_lat":-6.185545,"time":8,"transit":true,"line":1},{"station_name":"Palmerah","station_id":"PLM","distance":3191,"is_transit":false,"i_lat":-6.207404,"time":6,"transit":false,"i_long":106.79689,"line":6},{"is_transit":false,"line":6,"transit":false,"time":7,"distance":3737,"station_name":"Kebayoran","i_long":106.780334,"station_id":"KBY","i_lat":-6.237242},{"is_transit":false,"station_id":"PDJ","distance":6218,"i_lat":-6.276362,"transit":false,"line":6,"i_long":106.74273,"station_name":"Pondokranji","time":8},{"transit":false,"time":3,"distance":2179,"station_name":"Jurangmangu","station_id":"JMU","i_long":106.728916,"line":6,"is_transit":false,"i_lat":-6.288927}],[{"time":0,"station_id":"KPB","line":4,"i_lat":-6.132549,"station_name":"Kampung Bandan","is_transit":false,"i_long":106.826365,"distance":0,"transit":false},{"line":2,"is_transit":true,"i_lat":-6.137569,"distance":1364,"i_long":106.812439,"station_name":"Jakarta Kota","transit":true,"station_id":"JAKK","time":3},{"station_name":"Jayakarta","line":2,"i_lat":-6.141205,"distance":1264,"transit":false,"station_id":"JAY","is_transit":false,"time":4,"i_long":106.820901},{"transit":false,"station_name":"Manggabesar","i_lat":-6.149769,"time":2,"distance":1080,"is_transit":false,"station_id":"MGB","i_long":106.82482,"line":2},{"i_long":106.827103,"station_name":"Sawah Besar","station_id":"SW","distance":906,"i_lat":-6.160725,"time":2,"transit":false,"line":2,"is_transit":false},{"i_long":106.828284,"station_name":"Juanda","is_transit":false,"time":2,"i_lat":-6.166716,"distance":1149,"line":2,"station_id":"JUA","transit":false},{"station_id":"GDD","i_long":106.832183,"i_lat":-6.186295,"station_name":"Gondangdia","transit":false,"distance":2015,"is_transit":false,"time":4,"line":2},{"i_long":106.840169,"i_lat":-6.198556,"time":3,"station_id":"CKI","is_transit":false,"distance":1750,"transit":false,"station_name":"Cikini","line":2},{"station_id":"MRI","i_long":106.84912,"is_transit":true,"transit":true,"distance":1590,"line":2,"station_name":"Manggarai","i_lat":-6.209883,"time":4},{"is_transit":false,"distance":3186,"transit":false,"station_name":"Sudirman","time":4,"i_long":106.822649,"line":1,"i_lat":-6.202263,"station_id":"SUD"},{"time":1,"i_lat":-6.201433,"station_id":"SUDB","station_name":"Sudirman Baru","transit":false,"i_long":106.819881,"is_transit":false,"line":1,"distance":280},{"is_transit":false,"line":1,"station_name":"Karet","transit":false,"distance":471,"i_lat":-6.20132,"station_id":"KAT","time":1,"i_long":106.816351},{"time":5,"distance":2029,"station_name":"Tanah Abang","i_long":106.811091,"station_id":"THB","line":1,"is_transit":true,"i_lat":-6.185545,"transit":true},{"station_name":"Palmerah","station_id":"PLM","i_long":106.79689,"distance":3191,"is_transit":false,"i_lat":-6.207404,"time":6,"line":6,"transit":false},{"transit":false,"station_name":"Kebayoran","station_id":"KBY","distance":3737,"i_long":106.780334,"line":6,"is_transit":false,"time":7,"i_lat":-6.237242},{"i_lat":-6.276362,"station_id":"PDJ","i_long":106.74273,"is_transit":false,"station_name":"Pondokranji","transit":false,"line":6,"distance":6218,"time":8},{"station_name":"Jurangmangu","station_id":"JMU","i_long":106.728916,"transit":false,"time":3,"distance":2179,"i_lat":-6.288927,"line":6,"is_transit":false}],[{"time":0,"i_long":106.826365,"transit":false,"station_name":"Kampung Bandan","station_id":"KPB","is_transit":false,"distance":0,"line":4,"i_lat":-6.132549},{"distance":1444,"i_lat":-6.14505,"station_id":"RJW","station_name":"Rajawali","i_long":106.836569,"line":11,"is_transit":false,"transit":false,"time":3},{"line":11,"is_transit":false,"station_id":"KMO","distance":1901,"station_name":"Kemayoran","time":5,"i_long":106.839204,"transit":false,"i_lat":-6.161728},{"time":4,"is_transit":false,"i_lat":-6.174784,"station_id":"PSE","i_long":106.84368,"station_name":"Pasar Senen","transit":false,"distance":1436,"line":11},{"is_transit":false,"i_long":106.850107,"line":11,"i_lat":-6.185975,"station_id":"GST","station_name":"Gang Sentiong","time":8,"transit":false,"distance":1567},{"station_name":"Kramat","transit":false,"i_lat":-6.193792,"station_id":"KMT","line":11,"time":1,"is_transit":false,"i_long":106.855437,"distance":973},{"station_id":"POK","time":2,"i_lat":-6.209188,"transit":false,"station_name":"Pondok Jati","is_transit":false,"i_long":106.861737,"distance":1829,"line":11},{"i_lat":-6.215091,"distance":1236,"line":1,"transit":true,"is_transit":true,"time":9,"station_id":"JNG","station_name":"Jatinegara","i_long":106.86807400000001},{"station_name":"Matraman","i_long":106.858896,"is_transit":false,"transit":false,"station_id":"MTR","time":2,"line":1,"distance":1377,"i_lat":-6.212485},{"line":2,"i_long":106.84912,"station_id":"MRI","is_transit":false,"time":2,"distance":1275,"transit":false,"station_name":"Manggarai","i_lat":-6.209883},{"line":1,"is_transit":false,"station_id":"SUD","station_name":"Sudirman","time":4,"i_lat":-6.202263,"i_long":106.822649,"transit":false,"distance":3186},{"station_name":"Sudirman Baru","station_id":"SUDB","distance":280,"line":1,"i_long":106.819881,"time":1,"i_lat":-6.201433,"transit":false,"is_transit":false},{"time":1,"station_id":"KAT","station_name":"Karet","distance":471,"is_transit":false,"transit":false,"i_lat":-6.20132,"i_long":106.816351,"line":1},{"is_transit":true,"station_name":"Tanah Abang","station_id":"THB","transit":true,"time":5,"i_long":106.811091,"line":1,"distance":2029,"i_lat":-6.185545},{"distance":3191,"is_transit":false,"i_lat":-6.207404,"transit":false,"station_name":"Palmerah","line":6,"time":6,"station_id":"PLM","i_long":106.79689},{"i_lat":-6.237242,"station_id":"KBY","i_long":106.780334,"station_name":"Kebayoran","transit":false,"time":7,"is_transit":false,"distance":3737,"line":6},{"is_transit":false,"station_name":"Pondokranji","distance":6218,"i_lat":-6.276362,"line":6,"time":8,"i_long":106.74273,"transit":false,"station_id":"PDJ"},{"i_lat":-6.288927,"line":6,"i_long":106.728916,"transit":false,"station_name":"Jurangmangu","is_transit":false,"station_id":"JMU","time":3,"distance":2179}]]}