{"data":[[{"is_transit":true,"i_long":106.826365,"time":0,"transit":false,"i_lat":-6.132549,"station_id":"KPB","station_name":"Kampung Bandan","distance":0,"line":0},{"line":11,"time":3,"station_name":"Rajawali","i_lat":-6.14505,"i_long":106.836569,"is_transit":false,"distance":1444,"transit":false,"station_id":"RJW"},{"is_transit":false,"distance":1901,"transit":false,"station_name":"Kemayoran","line":11,"station_id":"KMO","time":5,"i_lat":-6.161728,"i_long":106.839204},{"station_id":"PSE","distance":1436,"transit":false,"station_name":"Pasar Senen","time":4,"is_transit":false,"i_long":106.84368,"i_lat":-6.174784,"line":11},{"i_long":106.850107,"station_id":"GST","time":8,"is_transit":false,"i_lat":-6.185975,"line":11,"transit":false,"distance":1567,"station_name":"Gang Sentiong"},{"i_long":106.855437,"distance":973,"time":1,"transit":false,"station_id":"KMT","station_name":"Kramat","is_transit":false,"i_lat":-6.193792,"line":11},{"station_id":"POK","i_long":106.861737,"distance":1829,"is_transit":false,"time":2,"i_lat":-6.209188,"line":11,"transit":false,"station_name":"Pondok Jati"},{"station_name":"Jatinegara","is_transit":true,"distance":1236,"i_long":106.86807400000001,"time":9,"transit":true,"line":0,"station_id":"JNG","i_lat":-6.215091},{"station_id":"KLD","transit":false,"is_transit":false,"time":3,"station_name":"Klender","i_lat":-6.2135,"line":1,"distance":3395,"i_long":106.899548},{"i_lat":-6.215568,"station_name":"Buaran","i_long":106.922662,"line":0,"is_transit":false,"transit":false,"time":2,"station_id":"BUA","distance":3100},{"is_transit":false,"line":1,"station_id":"KLDB","i_long":106.939679,"time":1,"transit":false,"station_name":"Klenderbaru","i_lat":-6.217455,"distance":1305},{"station_id":"CUK","station_name":"Cakung","time":8,"i_lat":-6.219053,"line":0,"distance":1385,"transit":false,"i_long":106.951283,"is_transit":false},{"line":1,"transit":false,"station_id":"KRI","distance":3097,"is_transit":false,"station_name":"Kranji","i_lat":-6.224515,"i_long":106.977657,"time":3},{"line":0,"time":4,"distance":2520,"i_long":106.997013,"is_transit":false,"transit":false,"station_name":"Bekasi","station_id":"BKS","i_lat":-6.236616},{"i_lat":-6.248029,"transit":false,"station_name":"Bekasi Timur","station_id":"BKST","i_long":107.016735,"is_transit":false,"time":2,"distance":2368,"line":0},{"transit":false,"station_id":"TB","station_name":"Tambun","i_lat":-6.258864,"distance":4460,"is_transit":false,"i_long":107.055722,"time":7,"line":1},{"transit":false,"time":3,"is_transit":false,"distance":3420,"line":0,"i_long":107.083084,"station_name":"Cibitung","i_lat":-6.261877,"station_id":"CIT"},{"transit":false,"station_name":"Metland Telaga Murni","time":2,"distance":2800,"i_long":107.093313,"line":1,"station_id":"TLM","is_transit":false,"i_lat":-6.262938}],[{"station_id":"KPB","station_name":"Kampung Bandan","line":0,"is_transit":true,"distance":0,"i_lat":-6.132549,"time":0,"transit":false,"i_long":106.826365},{"i_lat":-6.144674,"station_id":"AK","station_name":"Angke","time":9,"line":0,"transit":false,"distance":4102,"i_long":106.79867,"is_transit":false},{"distance":1230,"station_name":"Duri","is_transit":true,"transit":true,"station_id":"DU","i_lat":-6.155215,"time":4,"i_long":106.800832,"line":1},{"line":1,"station_name":"Tanah Abang","transit":false,"i_lat":-6.185545,"distance":3632,"is_transit":true,"station_id":"THB","time":8,"i_long":106.811091},{"station_name":"Karet","i_lat":-6.20132,"distance":2029,"station_id":"KAT","line":1,"is_transit":false,"i_long":106.816351,"transit":false,"time":5},{"distance":471,"station_name":"Sudirman Baru","i_long":106.819881,"transit":false,"time":1,"line":1,"i_lat":-6.201433,"station_id":"SUDB","is_transit":false},{"i_long":106.822649,"time":1,"station_name":"Sudirman","line":1,"distance":280,"is_transit":false,"station_id":"SUD","i_lat":-6.202263,"transit":false},{"station_name":"Manggarai","is_transit":true,"distance":3186,"transit":false,"time":4,"station_id":"MRI","i_long":106.84912,"i_lat":-6.209883,"line":0},{"i_lat":-6.212485,"is_transit":false,"transit":false,"line":1,"distance":1275,"time":2,"station_name":"Matraman","station_id":"MTR","i_long":106.858896},{"i_lat":-6.215091,"distance":1377,"line":0,"station_id":"JNG","transit":false,"i_long":106.86807400000001,"time":8,"is_transit":true,"station_name":"Jatinegara"},{"station_name":"Klender","time":3,"station_id":"KLD","distance":3395,"transit":false,"line":1,"i_long":106.899548,"i_lat":-6.2135,"is_transit":false},{"line":0,"distance":3100,"transit":false,"i_lat":-6.215568,"time":2,"station_name":"Buaran","i_long":106.922662,"station_id":"BUA","is_transit":false},{"station_name":"Klenderbaru","line":1,"station_id":"KLDB","transit":false,"is_transit":false,"time":1,"i_lat":-6.217455,"distance":1305,"i_long":106.939679},{"i_long":106.951283,"line":0,"time":8,"is_transit":false,"distance":1385,"i_lat":-6.219053,"station_id":"CUK","station_name":"Cakung","transit":false},{"station_name":"Kranji","i_lat":-6.224515,"line":1,"distance":3097,"station_id":"KRI","is_transit":false,"time":3,"transit":false,"i_long":106.977657},{"distance":2520,"transit":false,"i_long":106.997013,"line":0,"time":4,"station_name":"Bekasi","station_id":"BKS","is_transit":false,"i_lat":-6.236616},{"station_name":"Bekasi Timur","distance":2368,"i_lat":-6.248029,"transit":false,"is_transit":false,"station_id":"BKST","time":2,"line":0,"i_long":107.016735},{"distance":4460,"station_name":"Tambun","time":7,"station_id":"TB","transit":false,"is_transit":false,"i_lat":-6.258864,"line":1,"i_long":107.055722},{"is_transit":false,"time":3,"station_name":"Cibitung","i_long":107.083084,"line":0,"distance":3420,"station_id":"CIT","transit":false,"i_lat":-6.261877},{"i_lat":-6.262938,"station_name":"Metland Telaga Murni","line":1,"is_transit":false,"station_id":"TLM","distance":2800,"i_long":107.093313,"transit":false,"time":2}],[{"transit":false,"distance":0,"station_id":"KPB","time":0,"line":0,"station_name":"Kampung Bandan","is_transit":true,"i_lat":-6.132549,"i_long":106.826365},{"i_long":106.812439,"is_transit":true,"transit":true,"station_id":"JAKK","line":0,"time":3,"station_name":"Jakarta Kota","i_lat":-6.137569,"distance":1364},{"i_long":106.820901,"line":7,"is_transit":false,"transit":false,"i_lat":-6.141205,"station_name":"Jayakarta","time":4,"distance":1264,"station_id":"JAY"},{"time":2,"station_id":"MGB","distance":1080,"is_transit":false,"line":2,"transit":false,"station_name":"Manggabesar","i_lat":-6.149769,"i_long":106.82482},{"is_transit":false,"time":2,"distance":906,"transit":false,"i_lat":-6.160725,"line":2,"station_name":"Sawah Besar","station_id":"SW","i_long":106.827103},{"i_lat":-6.166716,"transit":false,"line":2,"time":2,"distance":1149,"is_transit":false,"station_name":"Juanda","station_id":"JUA","i_long":106.828284},{"distance":2015,"is_transit":false,"time":4,"i_lat":-6.186295,"line":2,"transit":false,"station_id":"GDD","i_long":106.832183,"station_name":"Gondangdia"},{"line":0,"station_name":"Cikini","i_lat":-6.198556,"time":3,"transit":false,"station_id":"CKI","distance":1750,"is_transit":false,"i_long":106.840169},{"i_lat":-6.209883,"transit":true,"i_long":106.84912,"time":4,"distance":1590,"station_id":"MRI","line":0,"station_name":"Manggarai","is_transit":true},{"i_long":106.858896,"is_transit":false,"station_name":"Matraman","line":1,"station_id":"MTR","time":2,"transit":false,"distance":1275,"i_lat":-6.212485},{"i_lat":-6.215091,"time":8,"distance":1377,"station_id":"JNG","is_transit":true,"station_name":"Jatinegara","line":0,"i_long":106.86807400000001,"transit":false},{"line":1,"station_name":"Klender","station_id":"KLD","distance":3395,"i_long":106.899548,"transit":false,"time":3,"is_transit":false,"i_lat":-6.2135},{"i_long":106.922662,"distance":3100,"i_lat":-6.215568,"transit":false,"station_name":"Buaran","station_id":"BUA","line":0,"time":2,"is_transit":false},{"transit":false,"i_lat":-6.217455,"station_id":"KLDB","time":1,"distance":1305,"i_long":106.939679,"line":1,"is_transit":false,"station_name":"Klenderbaru"},{"i_long":106.951283,"line":0,"transit":false,"station_name":"Cakung","is_transit":false,"station_id":"CUK","time":8,"distance":1385,"i_lat":-6.219053},{"is_transit":false,"line":1,"i_long":106.977657,"distance":3097,"station_name":"Kranji","transit":false,"i_lat":-6.224515,"time":3,"station_id":"KRI"},{"i_long":106.997013,"line":0,"transit":false,"is_transit":false,"station_name":"Bekasi","time":4,"station_id":"BKS","distance":2520,"i_lat":-6.236616},{"transit":false,"i_long":107.016735,"station_name":"Bekasi Timur","line":0,"distance":2368,"is_transit":false,"time":2,"i_lat":-6.248029,"station_id":"BKST"},{"i_long":107.055722,"i_lat":-6.258864,"time":7,"transit":false,"line":1,"station_name":"Tambun","station_id":"TB","is_transit":false,"distance":4460},{"station_id":"CIT","is_transit":false,"line":0,"i_lat":-6.261877,"time":3,"distance":3420,"transit":false,"station_name":"Cibitung","i_long":107.083084},{"station_id":"TLM","is_transit":false,"i_lat":-6.262938,"i_long":107.093313,"transit":false,"distance":2800,"line":1,"time":2,"station_name":"Metland Telaga Murni"}]]}