{"data":[[{"station_name":"Kampung Bandan","distance":0,"station_id":"KPB","is_transit":false,"transit":false,"i_lat":-6.132549,"line":4,"time":0,"i_long":106.826365},{"distance":4102,"time":9,"transit":false,"station_name":"Angke","i_lat":-6.144674,"station_id":"AK","is_transit":false,"i_long":106.79867,"line":1},{"distance":1230,"i_lat":-6.155215,"time":4,"i_long":106.800832,"is_transit":false,"station_name":"Duri","transit":false,"station_id":"DU","line":1},{"is_transit":true,"i_long":106.811091,"time":8,"distance":3632,"i_lat":-6.185545,"transit":true,"station_id":"THB","station_name":"Tanah Abang","line":1},{"i_long":106.79689,"line":6,"time":6,"i_lat":-6.207404,"is_transit":false,"station_name":"Palmerah","transit":false,"distance":3191,"station_id":"PLM"},{"transit":false,"station_name":"Kebayoran","i_long":106.780334,"distance":3737,"time":7,"line":6,"station_id":"KBY","is_transit":false,"i_lat":-6.237242},{"distance":6218,"station_id":"PDJ","transit":false,"i_long":106.74273,"i_lat":-6.276362,"line":6,"station_name":"Pondokranji","time":8,"is_transit":false},{"distance":2179,"station_name":"Jurangmangu","is_transit":false,"time":3,"transit":false,"i_lat":-6.288927,"i_long":106.728916,"line":6,"station_id":"JMU"},{"line":6,"station_id":"SDM","is_transit":false,"distance":1994,"transit":false,"station_name":"Sudimara","i_lat":-6.296963,"i_long":106.712277,"time":4},{"i_lat":-6.314823,"line":6,"station_name":"Rawa Buntu","i_long":106.675475,"is_transit":false,"station_id":"RU","distance":4566,"time":6,"transit":false},{"i_lat":-6.319871,"line":6,"is_transit":false,"distance":2413,"station_id":"SRP","i_long":106.66566,"station_name":"Serpong","transit":false,"time":4},{"line":3,"station_name":"Cisauk","is_transit":false,"i_lat":-6.32484,"transit":false,"distance":1784,"i_long":106.640411,"time":4,"station_id":"CSK"},{"station_name":"Cicayur","line":3,"station_id":"CC","transit":false,"i_long":106.617853,"time":4,"is_transit":false,"i_lat":-6.329547,"distance":2519},{"i_long":106.568863,"distance":5968,"is_transit":false,"line":6,"i_lat":-6.3441410000000005,"time":8,"station_id":"PRP","station_name":"Parung Panjang","transit":false},{"i_lat":-6.354349,"distance":7025,"transit":false,"is_transit":false,"i_long":106.508482,"time":9,"station_id":"CJT","station_name":"Cilejit","line":3},{"is_transit":false,"line":0,"station_name":"Daru","i_long":106.491338,"station_id":"DAR","i_lat":-6.338021,"transit":false,"time":6,"distance":2675},{"time":5,"is_transit":false,"i_long":106.460812,"station_id":"TEJ","transit":false,"distance":3902,"line":6,"i_lat":-6.327251,"station_name":"Tenjo"}],[{"is_transit":false,"time":0,"transit":false,"line":4,"i_long":106.826365,"station_name":"Kampung Bandan","station_id":"KPB","i_lat":-6.132549,"distance":0},{"line":2,"transit":true,"is_transit":true,"i_long":106.812439,"station_id":"JAKK","station_name":"Jakarta Kota","time":3,"i_lat":-6.137569,"distance":1364},{"transit":false,"is_transit":false,"i_lat":-6.141205,"line":2,"distance":1264,"station_name":"Jayakarta","station_id":"JAY","time":4,"i_long":106.820901},{"i_lat":-6.149769,"i_long":106.82482,"transit":false,"line":2,"distance":1080,"station_name":"Manggabesar","time":2,"is_transit":false,"station_id":"MGB"},{"station_name":"Sawah Besar","is_transit":false,"station_id":"SW","time":2,"i_lat":-6.160725,"i_long":106.827103,"distance":906,"transit":false,"line":2},{"is_transit":false,"line":2,"station_id":"JUA","i_long":106.828284,"distance":1149,"station_name":"Juanda","transit":false,"time":2,"i_lat":-6.166716},{"i_long":106.832183,"line":2,"distance":2015,"station_name":"Gondangdia","is_transit":false,"time":4,"station_id":"GDD","i_lat":-6.186295,"transit":false},{"station_name":"Cikini","time":3,"i_long":106.840169,"i_lat":-6.198556,"station_id":"CKI","distance":1750,"transit":false,"is_transit":false,"line":2},{"is_transit":true,"i_long":106.84912,"station_name":"Manggarai","distance":1590,"station_id":"MRI","line":2,"time":4,"transit":true,"i_lat":-6.209883},{"transit":false,"time":4,"is_transit":false,"distance":3186,"station_name":"Sudirman","line":1,"i_lat":-6.202263,"i_long":106.822649,"station_id":"SUD"},{"station_id":"SUDB","transit":false,"line":1,"distance":280,"i_lat":-6.201433,"is_transit":false,"time":1,"station_name":"Sudirman Baru","i_long":106.819881},{"transit":false,"distance":471,"station_name":"Karet","time":1,"i_lat":-6.20132,"line":1,"station_id":"KAT","i_long":106.816351,"is_transit":false},{"i_long":106.811091,"line":1,"transit":true,"is_transit":true,"i_lat":-6.185545,"time":5,"distance":2029,"station_name":"Tanah Abang","station_id":"THB"},{"transit":false,"station_name":"Palmerah","i_long":106.79689,"time":6,"line":6,"distance":3191,"is_transit":false,"i_lat":-6.207404,"station_id":"PLM"},{"time":7,"is_transit":false,"line":6,"i_lat":-6.237242,"station_name":"Kebayoran","station_id":"KBY","i_long":106.780334,"distance":3737,"transit":false},{"i_lat":-6.276362,"distance":6218,"is_transit":false,"line":6,"station_name":"Pondokranji","transit":false,"station_id":"PDJ","i_long":106.74273,"time":8},{"station_id":"JMU","station_name":"Jurangmangu","i_lat":-6.288927,"time":3,"distance":2179,"transit":false,"i_long":106.728916,"line":6,"is_transit":false},{"i_long":106.712277,"line":6,"i_lat":-6.296963,"time":4,"is_transit":false,"station_name":"Sudimara","transit":false,"distance":1994,"station_id":"SDM"},{"station_id":"RU","line":6,"time":6,"transit":false,"distance":4566,"is_transit":false,"i_long":106.675475,"i_lat":-6.314823,"station_name":"Rawa Buntu"},{"station_name":"Serpong","line":6,"transit":false,"is_transit":false,"station_id":"SRP","distance":2413,"i_lat":-6.319871,"time":4,"i_long":106.66566},{"station_id":"CSK","i_long":106.640411,"transit":false,"i_lat":-6.32484,"line":3,"station_name":"Cisauk","time":4,"distance":1784,"is_transit":false},{"line":3,"transit":false,"distance":2519,"time":4,"i_lat":-6.329547,"i_long":106.617853,"station_id":"CC","station_name":"Cicayur","is_transit":false},{"time":8,"transit":false,"station_id":"PRP","line":6,"is_transit":false,"i_lat":-6.3441410000000005,"distance":5968,"i_long":106.568863,"station_name":"Parung Panjang"},{"line":3,"station_name":"Cilejit","distance":7025,"i_long":106.508482,"time":9,"is_transit":false,"i_lat":-6.354349,"transit":false,"station_id":"CJT"},{"i_lat":-6.338021,"line":0,"i_long":106.491338,"station_name":"Daru","transit":false,"time":6,"distance":2675,"is_transit":false,"station_id":"DAR"},{"transit":false,"time":5,"is_transit":false,"i_lat":-6.327251,"station_name":"Tenjo","distance":3902,"i_long":106.460812,"line":6,"station_id":"TEJ"}],[{"line":4,"i_lat":-6.132549,"distance":0,"i_long":106.826365,"transit":false,"is_transit":false,"station_id":"KPB","time":0,"station_name":"Kampung Bandan"},{"time":3,"station_name":"Rajawali","transit":false,"i_long":106.836569,"is_transit":false,"station_id":"RJW","distance":1444,"line":11,"i_lat":-6.14505},{"line":11,"station_id":"KMO","distance":1901,"time":5,"i_lat":-6.161728,"i_long":106.839204,"is_transit":false,"station_name":"Kemayoran","transit":false},{"i_long":106.84368,"transit":false,"is_transit":false,"line":11,"station_name":"Pasar Senen","distance":1436,"station_id":"PSE","i_lat":-6.174784,"time":4},{"i_long":106.850107,"station_name":"Gang Sentiong","distance":1567,"station_id":"GST","time":8,"transit":false,"is_transit":false,"i_lat":-6.185975,"line":11},{"transit":false,"i_long":106.855437,"is_transit":false,"line":11,"i_lat":-6.193792,"distance":973,"station_name":"Kramat","station_id":"KMT","time":1},{"station_id":"POK","is_transit":false,"station_name":"Pondok Jati","distance":1829,"i_long":106.861737,"line":11,"i_lat":-6.209188,"time":2,"transit":false},{"station_name":"Jatinegara","distance":1236,"line":1,"transit":true,"station_id":"JNG","i_lat":-6.215091,"i_long":106.86807400000001,"time":9,"is_transit":true},{"station_id":"MTR","i_lat":-6.212485,"line":1,"time":2,"i_long":106.858896,"distance":1377,"station_name":"Matraman","is_transit":false,"transit":false},{"is_transit":false,"station_name":"Manggarai","i_long":106.84912,"station_id":"MRI","i_lat":-6.209883,"time":2,"transit":false,"distance":1275,"line":2},{"time":4,"distance":3186,"station_name":"Sudirman","transit":false,"is_transit":false,"i_lat":-6.202263,"i_long":106.822649,"station_id":"SUD","line":1},{"station_id":"SUDB","is_transit":false,"station_name":"Sudirman Baru","transit":false,"line":1,"time":1,"i_long":106.819881,"distance":280,"i_lat":-6.201433},{"is_transit":false,"distance":471,"transit":false,"station_id":"KAT","line":1,"i_lat":-6.20132,"time":1,"i_long":106.816351,"station_name":"Karet"},{"i_long":106.811091,"station_id":"THB","is_transit":true,"transit":true,"station_name":"Tanah Abang","distance":2029,"i_lat":-6.185545,"line":1,"time":5},{"is_transit":false,"transit":false,"line":6,"station_name":"Palmerah","time":6,"i_lat":-6.207404,"station_id":"PLM","i_long":106.79689,"distance":3191},{"station_name":"Kebayoran","station_id":"KBY","time":7,"line":6,"is_transit":false,"distance":3737,"transit":false,"i_lat":-6.237242,"i_long":106.780334},{"station_id":"PDJ","station_name":"Pondokranji","transit":false,"is_transit":false,"i_lat":-6.276362,"i_long":106.74273,"line":6,"time":8,"distance":6218},{"station_name":"Jurangmangu","transit":false,"is_transit":false,"time":3,"station_id":"JMU","i_long":106.728916,"i_lat":-6.288927,"line":6,"distance":2179},{"line":6,"transit":false,"is_transit":false,"distance":1994,"i_long":106.712277,"station_name":"Sudimara","i_lat":-6.296963,"station_id":"SDM","time":4},{"station_id":"RU","time":6,"is_transit":false,"i_lat":-6.314823,"i_long":106.675475,"line":6,"station_name":"Rawa Buntu","distance":4566,"transit":false},{"line":6,"transit":false,"time":4,"is_transit":false,"distance":2413,"station_id":"SRP","i_lat":-6.319871,"station_name":"Serpong","i_long":106.66566},{"i_lat":-6.32484,"station_id":"CSK","i_long":106.640411,"is_transit":false,"station_name":"Cisauk","time":4,"distance":1784,"transit":false,"line":3},{"station_name":"Cicayur","i_long":106.617853,"line":3,"distance":2519,"station_id":"CC","is_transit":false,"time":4,"transit":false,"i_lat":-6.329547},{"distance":5968,"time":8,"transit":false,"station_name":"Parung Panjang","is_transit":false,"line":6,"i_lat":-6.3441410000000005,"station_id":"PRP","i_long":106.568863},{"distance":7025,"station_name":"Cilejit","time":9,"line":3,"transit":false,"is_transit":false,"i_lat":-6.354349,"station_id":"CJT","i_long":106.508482},{"line":0,"distance":2675,"transit":false,"station_name":"Daru","i_lat":-6.338021,"i_long":106.491338,"time":6,"is_transit":false,"station_id":"DAR"},{"distance":3902,"time":5,"i_long":106.460812,"i_lat":-6.327251,"station_name":"Tenjo","station_id":"TEJ","transit":false,"is_transit":false,"line":6}]]}