{"data":[[{"time":0,"i_lat":-6.132549,"i_long":106.826365,"station_name":"Kampung Bandan","is_transit":true,"distance":0,"line":0,"station_id":"KPB","transit":false},{"station_id":"RJW","i_lat":-6.14505,"station_name":"Rajawali","time":3,"is_transit":false,"i_long":106.836569,"line":11,"distance":1444,"transit":false},{"transit":false,"is_transit":false,"station_name":"Kemayoran","i_lat":-6.161728,"line":11,"time":5,"i_long":106.839204,"distance":1901,"station_id":"KMO"},{"line":11,"i_long":106.84368,"station_id":"PSE","station_name":"Pasar Senen","distance":1436,"i_lat":-6.174784,"transit":false,"time":4,"is_transit":false},{"transit":false,"station_id":"GST","is_transit":false,"time":8,"station_name":"Gang Sentiong","i_lat":-6.185975,"distance":1567,"line":11,"i_long":106.850107},{"line":11,"station_id":"KMT","i_lat":-6.193792,"i_long":106.855437,"is_transit":false,"time":1,"distance":973,"transit":false,"station_name":"Kramat"},{"station_name":"Pondok Jati","time":2,"i_long":106.861737,"i_lat":-6.209188,"is_transit":false,"line":11,"distance":1829,"transit":false,"station_id":"POK"},{"time":9,"line":0,"is_transit":true,"station_name":"Jatinegara","transit":true,"distance":1236,"i_lat":-6.215091,"i_long":106.86807400000001,"station_id":"JNG"},{"transit":false,"station_name":"Klender","distance":3395,"i_long":106.899548,"time":3,"line":1,"i_lat":-6.2135,"station_id":"KLD","is_transit":false},{"line":0,"i_long":106.922662,"transit":false,"station_name":"Buaran","station_id":"BUA","distance":3100,"is_transit":false,"time":2,"i_lat":-6.215568},{"transit":false,"station_id":"KLDB","time":1,"station_name":"Klenderbaru","i_long":106.939679,"is_transit":false,"line":1,"distance":1305,"i_lat":-6.217455},{"i_long":106.951283,"time":8,"i_lat":-6.219053,"distance":1385,"line":0,"transit":false,"station_name":"Cakung","station_id":"CUK","is_transit":false},{"distance":3097,"station_name":"Kranji","i_long":106.977657,"line":1,"station_id":"KRI","is_transit":false,"time":3,"i_lat":-6.224515,"transit":false},{"distance":2520,"i_long":106.997013,"is_transit":false,"transit":false,"i_lat":-6.236616,"time":4,"line":0,"station_name":"Bekasi","station_id":"BKS"},{"i_lat":-6.248029,"distance":2368,"transit":false,"station_id":"BKST","station_name":"Bekasi Timur","i_long":107.016735,"line":0,"time":2,"is_transit":false},{"transit":false,"distance":4460,"is_transit":false,"time":7,"i_long":107.055722,"i_lat":-6.258864,"station_name":"Tambun","line":1,"station_id":"TB"},{"i_lat":-6.261877,"transit":false,"is_transit":false,"line":0,"i_long":107.083084,"time":3,"distance":3420,"station_name":"Cibitung","station_id":"CIT"},{"is_transit":false,"distance":2800,"i_lat":-6.262938,"station_id":"TLM","transit":false,"station_name":"Metland Telaga Murni","i_long":107.093313,"time":2,"line":1},{"i_lat":-6.2553149999999995,"line":0,"station_id":"CKR","time":4,"station_name":"Cikarang","is_transit":false,"distance":3689,"i_long":107.144613,"transit":false}],[{"line":0,"transit":false,"time":0,"station_id":"KPB","distance":0,"i_lat":-6.132549,"is_transit":true,"station_name":"Kampung Bandan","i_long":106.826365},{"time":9,"station_id":"AK","transit":false,"is_transit":false,"i_long":106.79867,"i_lat":-6.144674,"line":0,"distance":4102,"station_name":"Angke"},{"transit":true,"i_lat":-6.155215,"station_id":"DU","distance":1230,"time":4,"line":1,"i_long":106.800832,"station_name":"Duri","is_transit":true},{"time":8,"is_transit":true,"i_lat":-6.185545,"transit":false,"i_long":106.811091,"line":1,"distance":3632,"station_name":"Tanah Abang","station_id":"THB"},{"station_name":"Karet","time":5,"is_transit":false,"i_lat":-6.20132,"line":1,"i_long":106.816351,"transit":false,"station_id":"KAT","distance":2029},{"time":1,"i_long":106.819881,"is_transit":false,"distance":471,"station_id":"SUDB","station_name":"Sudirman Baru","i_lat":-6.201433,"line":1,"transit":false},{"station_id":"SUD","i_long":106.822649,"line":1,"station_name":"Sudirman","is_transit":false,"distance":280,"time":1,"transit":false,"i_lat":-6.202263},{"i_lat":-6.209883,"distance":3186,"time":4,"station_id":"MRI","transit":false,"is_transit":true,"station_name":"Manggarai","i_long":106.84912,"line":0},{"i_long":106.858896,"distance":1275,"i_lat":-6.212485,"transit":false,"is_transit":false,"line":1,"station_id":"MTR","station_name":"Matraman","time":2},{"transit":false,"is_transit":true,"i_lat":-6.215091,"station_id":"JNG","line":0,"station_name":"Jatinegara","i_long":106.86807400000001,"time":8,"distance":1377},{"station_id":"KLD","distance":3395,"time":3,"line":1,"i_lat":-6.2135,"is_transit":false,"transit":false,"station_name":"Klender","i_long":106.899548},{"time":2,"i_long":106.922662,"i_lat":-6.215568,"distance":3100,"is_transit":false,"station_name":"Buaran","station_id":"BUA","line":0,"transit":false},{"time":1,"distance":1305,"i_long":106.939679,"is_transit":false,"station_name":"Klenderbaru","transit":false,"i_lat":-6.217455,"line":1,"station_id":"KLDB"},{"is_transit":false,"distance":1385,"time":8,"station_name":"Cakung","i_lat":-6.219053,"station_id":"CUK","line":0,"transit":false,"i_long":106.951283},{"line":1,"i_long":106.977657,"station_id":"KRI","transit":false,"distance":3097,"is_transit":false,"time":3,"i_lat":-6.224515,"station_name":"Kranji"},{"distance":2520,"is_transit":false,"station_name":"Bekasi","transit":false,"i_lat":-6.236616,"line":0,"station_id":"BKS","time":4,"i_long":106.997013},{"station_id":"BKST","distance":2368,"transit":false,"time":2,"is_transit":false,"station_name":"Bekasi Timur","i_lat":-6.248029,"i_long":107.016735,"line":0},{"station_id":"TB","i_long":107.055722,"i_lat":-6.258864,"line":1,"is_transit":false,"distance":4460,"time":7,"transit":false,"station_name":"Tambun"},{"line":0,"time":3,"i_long":107.083084,"transit":false,"distance":3420,"station_name":"Cibitung","station_id":"CIT","is_transit":false,"i_lat":-6.261877},{"i_long":107.093313,"is_transit":false,"distance":2800,"station_name":"Metland Telaga Murni","transit":false,"time":2,"line":1,"station_id":"TLM","i_lat":-6.262938},{"station_id":"CKR","i_lat":-6.2553149999999995,"i_long":107.144613,"station_name":"Cikarang","distance":3689,"time":4,"line":0,"is_transit":false,"transit":false}],[{"line":0,"time":0,"station_name":"Kampung Bandan","transit":false,"distance":0,"i_long":106.826365,"is_transit":true,"station_id":"KPB","i_lat":-6.132549},{"i_lat":-6.137569,"transit":true,"is_transit":true,"line":0,"station_id":"JAKK","i_long":106.812439,"time":3,"distance":1364,"station_name":"Jakarta Kota"},{"is_transit":false,"transit":false,"distance":1264,"time":4,"i_lat":-6.141205,"line":7,"station_name":"Jayakarta","station_id":"JAY","i_long":106.820901},{"station_id":"MGB","line":2,"station_name":"Manggabesar","i_long":106.82482,"time":2,"i_lat":-6.149769,"transit":false,"distance":1080,"is_transit":false},{"distance":906,"i_long":106.827103,"time":2,"station_id":"SW","station_name":"Sawah Besar","line":2,"transit":false,"is_transit":false,"i_lat":-6.160725},{"distance":1149,"is_transit":false,"station_name":"Juanda","i_lat":-6.166716,"time":2,"transit":false,"station_id":"JUA","i_long":106.828284,"line":2},{"transit":false,"i_lat":-6.186295,"is_transit":false,"time":4,"i_long":106.832183,"station_id":"GDD","distance":2015,"station_name":"Gondangdia","line":2},{"i_lat":-6.198556,"station_name":"Cikini","distance":1750,"time":3,"transit":false,"i_long":106.840169,"station_id":"CKI","is_transit":false,"line":0},{"line":0,"i_long":106.84912,"time":4,"station_id":"MRI","distance":1590,"station_name":"Manggarai","transit":true,"i_lat":-6.209883,"is_transit":true},{"transit":false,"station_name":"Matraman","time":2,"station_id":"MTR","distance":1275,"i_lat":-6.212485,"line":1,"i_long":106.858896,"is_transit":false},{"distance":1377,"transit":false,"i_lat":-6.215091,"i_long":106.86807400000001,"time":8,"station_name":"Jatinegara","station_id":"JNG","is_transit":true,"line":0},{"transit":false,"time":3,"station_name":"Klender","i_lat":-6.2135,"distance":3395,"i_long":106.899548,"line":1,"station_id":"KLD","is_transit":false},{"is_transit":false,"i_lat":-6.215568,"transit":false,"station_id":"BUA","distance":3100,"time":2,"line":0,"station_name":"Buaran","i_long":106.922662},{"station_name":"Klenderbaru","i_lat":-6.217455,"station_id":"KLDB","transit":false,"i_long":106.939679,"distance":1305,"is_transit":false,"time":1,"line":1},{"transit":false,"distance":1385,"station_id":"CUK","is_transit":false,"time":8,"station_name":"Cakung","i_lat":-6.219053,"i_long":106.951283,"line":0},{"station_id":"KRI","is_transit":false,"station_name":"Kranji","i_lat":-6.224515,"time":3,"i_long":106.977657,"line":1,"transit":false,"distance":3097},{"transit":false,"line":0,"i_lat":-6.236616,"is_transit":false,"station_name":"Bekasi","station_id":"BKS","distance":2520,"time":4,"i_long":106.997013},{"i_lat":-6.248029,"line":0,"time":2,"distance":2368,"is_transit":false,"i_long":107.016735,"transit":false,"station_name":"Bekasi Timur","station_id":"BKST"},{"station_id":"TB","distance":4460,"station_name":"Tambun","line":1,"transit":false,"time":7,"i_long":107.055722,"i_lat":-6.258864,"is_transit":false},{"time":3,"line":0,"i_long":107.083084,"station_name":"Cibitung","i_lat":-6.261877,"transit":false,"is_transit":false,"station_id":"CIT","distance":3420},{"is_transit":false,"time":2,"station_id":"TLM","distance":2800,"i_long":107.093313,"transit":false,"i_lat":-6.262938,"station_name":"Metland Telaga Murni","line":1},{"station_name":"Cikarang","station_id":"CKR","line":0,"is_transit":false,"time":4,"distance":3689,"transit":false,"i_lat":-6.2553149999999995,"i_long":107.144613}]]}