{"data":[[{"is_transit":false,"time":0,"distance":0,"station_id":"KPB","station_name":"Kampung Bandan","transit":false,"line":4,"i_lat":-6.132549,"i_long":106.826365},{"station_id":"AK","distance":4102,"transit":false,"i_long":106.79867,"line":1,"time":9,"i_lat":-6.144674,"is_transit":false,"station_name":"Angke"},{"station_name":"Duri","station_id":"DU","time":4,"i_long":106.800832,"distance":1230,"transit":true,"line":1,"i_lat":-6.155215,"is_transit":true},{"distance":1700,"transit":false,"line":5,"station_name":"Grogol","time":3,"station_id":"GGL","i_long":106.788277,"i_lat":-6.162021,"is_transit":false},{"time":2,"distance":2036,"transit":false,"station_id":"PSG","line":5,"i_long":106.771379,"is_transit":false,"station_name":"Pesing","i_lat":-6.161433},{"line":5,"time":2,"transit":false,"distance":1614,"station_id":"TKO","is_transit":false,"i_lat":-6.1587309999999995,"station_name":"Taman Kota","i_long":106.756522},{"is_transit":false,"time":2,"distance":2334,"i_lat":-6.159876,"transit":false,"i_long":106.737035,"line":5,"station_name":"Bojongindah","station_id":"BOI"},{"time":4,"station_name":"Rawa Buaya","distance":1152,"is_transit":false,"station_id":"RW","transit":false,"i_lat":-6.162758,"i_long":106.723064,"line":5},{"station_name":"Kalideres","station_id":"KDS","is_transit":false,"time":3,"transit":false,"i_lat":-6.166068,"i_long":106.701612,"line":5,"distance":2504},{"line":5,"time":3,"is_transit":false,"i_lat":-6.169933,"station_id":"PI","station_name":"Poris","transit":false,"distance":2548,"i_long":106.679458},{"i_long":106.665036,"station_name":"Batuceper","is_transit":false,"station_id":"BPR","distance":1834,"transit":false,"line":5,"time":3,"i_lat":-6.171811},{"time":3,"line":5,"transit":false,"is_transit":false,"station_name":"Tanah Tinggi","i_long":106.64657,"distance":2028,"i_lat":-6.17331,"station_id":"TTI"}],[{"station_id":"KPB","line":4,"transit":false,"is_transit":false,"distance":0,"time":0,"station_name":"Kampung Bandan","i_lat":-6.132549,"i_long":106.826365},{"distance":1364,"is_transit":true,"line":2,"station_id":"JAKK","time":3,"i_lat":-6.137569,"i_long":106.812439,"station_name":"Jakarta Kota","transit":true},{"line":2,"station_id":"JAY","is_transit":false,"station_name":"Jayakarta","time":4,"i_lat":-6.141205,"transit":false,"i_long":106.820901,"distance":1264},{"station_id":"MGB","line":2,"time":2,"is_transit":false,"station_name":"Manggabesar","i_lat":-6.149769,"transit":false,"i_long":106.82482,"distance":1080},{"is_transit":false,"station_id":"SW","distance":906,"transit":false,"i_lat":-6.160725,"i_long":106.827103,"line":2,"station_name":"Sawah Besar","time":2},{"is_transit":false,"station_name":"Juanda","time":2,"transit":false,"i_lat":-6.166716,"station_id":"JUA","i_long":106.828284,"line":2,"distance":1149},{"is_transit":false,"station_id":"GDD","time":4,"transit":false,"i_lat":-6.186295,"line":2,"station_name":"Gondangdia","distance":2015,"i_long":106.832183},{"line":2,"i_lat":-6.198556,"time":3,"is_transit":false,"distance":1750,"station_name":"Cikini","transit":false,"i_long":106.840169,"station_id":"CKI"},{"line":2,"time":4,"transit":true,"is_transit":true,"station_name":"Manggarai","i_lat":-6.209883,"station_id":"MRI","distance":1590,"i_long":106.84912},{"time":4,"transit":false,"station_id":"SUD","i_lat":-6.202263,"i_long":106.822649,"is_transit":false,"station_name":"Sudirman","distance":3186,"line":1},{"transit":false,"distance":280,"line":1,"i_lat":-6.201433,"is_transit":false,"station_id":"SUDB","i_long":106.819881,"station_name":"Sudirman Baru","time":1},{"i_lat":-6.20132,"station_id":"KAT","line":1,"time":1,"station_name":"Karet","is_transit":false,"transit":false,"i_long":106.816351,"distance":471},{"time":5,"i_lat":-6.185545,"line":1,"distance":2029,"transit":false,"is_transit":false,"i_long":106.811091,"station_name":"Tanah Abang","station_id":"THB"},{"station_id":"DU","line":1,"station_name":"Duri","distance":3632,"i_lat":-6.155215,"transit":true,"time":8,"i_long":106.800832,"is_transit":true},{"i_lat":-6.162021,"distance":1700,"station_name":"Grogol","line":5,"time":3,"station_id":"GGL","is_transit":false,"i_long":106.788277,"transit":false},{"i_lat":-6.161433,"i_long":106.771379,"is_transit":false,"station_name":"Pesing","time":2,"distance":2036,"station_id":"PSG","transit":false,"line":5},{"station_name":"Taman Kota","time":2,"i_long":106.756522,"line":5,"is_transit":false,"distance":1614,"transit":false,"i_lat":-6.1587309999999995,"station_id":"TKO"},{"transit":false,"is_transit":false,"line":5,"time":2,"station_id":"BOI","i_long":106.737035,"station_name":"Bojongindah","distance":2334,"i_lat":-6.159876},{"distance":1152,"station_name":"Rawa Buaya","is_transit":false,"station_id":"RW","time":4,"i_long":106.723064,"transit":false,"line":5,"i_lat":-6.162758},{"station_name":"Kalideres","line":5,"transit":false,"i_lat":-6.166068,"distance":2504,"is_transit":false,"time":3,"station_id":"KDS","i_long":106.701612},{"transit":false,"time":3,"i_long":106.679458,"station_id":"PI","distance":2548,"station_name":"Poris","is_transit":false,"line":5,"i_lat":-6.169933},{"station_name":"Batuceper","transit":false,"i_long":106.665036,"i_lat":-6.171811,"time":3,"is_transit":false,"station_id":"BPR","distance":1834,"line":5},{"i_lat":-6.17331,"distance":2028,"station_id":"TTI","is_transit":false,"i_long":106.64657,"station_name":"Tanah Tinggi","line":5,"time":3,"transit":false}],[{"station_id":"KPB","distance":0,"i_lat":-6.132549,"is_transit":false,"station_name":"Kampung Bandan","line":4,"i_long":106.826365,"time":0,"transit":false},{"time":3,"distance":1444,"station_name":"Rajawali","transit":false,"i_lat":-6.14505,"i_long":106.836569,"station_id":"RJW","line":11,"is_transit":false},{"is_transit":false,"time":5,"line":11,"station_name":"Kemayoran","station_id":"KMO","transit":false,"distance":1901,"i_lat":-6.161728,"i_long":106.839204},{"is_transit":false,"i_long":106.84368,"distance":1436,"i_lat":-6.174784,"transit":false,"station_id":"PSE","line":11,"time":4,"station_name":"Pasar Senen"},{"time":8,"station_name":"Gang Sentiong","transit":false,"is_transit":false,"distance":1567,"i_lat":-6.185975,"i_long":106.850107,"line":11,"station_id":"GST"},{"station_id":"KMT","station_name":"Kramat","distance":973,"line":11,"time":1,"transit":false,"is_transit":false,"i_lat":-6.193792,"i_long":106.855437},{"line":11,"i_long":106.861737,"is_transit":false,"distance":1829,"i_lat":-6.209188,"transit":false,"station_id":"POK","station_name":"Pondok Jati","time":2},{"i_lat":-6.215091,"i_long":106.86807400000001,"line":1,"time":9,"is_transit":true,"station_name":"Jatinegara","station_id":"JNG","distance":1236,"transit":true},{"i_long":106.858896,"station_id":"MTR","distance":1377,"station_name":"Matraman","transit":false,"is_transit":false,"line":1,"time":2,"i_lat":-6.212485},{"time":2,"is_transit":false,"station_name":"Manggarai","station_id":"MRI","distance":1275,"line":2,"transit":false,"i_lat":-6.209883,"i_long":106.84912},{"time":4,"is_transit":false,"transit":false,"i_lat":-6.202263,"line":1,"station_id":"SUD","distance":3186,"i_long":106.822649,"station_name":"Sudirman"},{"is_transit":false,"station_id":"SUDB","station_name":"Sudirman Baru","time":1,"transit":false,"i_lat":-6.201433,"line":1,"distance":280,"i_long":106.819881},{"is_transit":false,"i_long":106.816351,"time":1,"station_name":"Karet","line":1,"station_id":"KAT","distance":471,"transit":false,"i_lat":-6.20132},{"station_name":"Tanah Abang","line":1,"is_transit":false,"time":5,"i_lat":-6.185545,"distance":2029,"station_id":"THB","transit":false,"i_long":106.811091},{"line":1,"station_id":"DU","is_transit":true,"station_name":"Duri","i_lat":-6.155215,"i_long":106.800832,"distance":3632,"time":8,"transit":true},{"transit":false,"time":3,"i_lat":-6.162021,"station_id":"GGL","distance":1700,"i_long":106.788277,"is_transit":false,"station_name":"Grogol","line":5},{"distance":2036,"line":5,"time":2,"station_name":"Pesing","station_id":"PSG","i_long":106.771379,"is_transit":false,"transit":false,"i_lat":-6.161433},{"distance":1614,"i_long":106.756522,"time":2,"is_transit":false,"transit":false,"station_id":"TKO","i_lat":-6.1587309999999995,"line":5,"station_name":"Taman Kota"},{"time":2,"distance":2334,"i_lat":-6.159876,"is_transit":false,"line":5,"station_name":"Bojongindah","i_long":106.737035,"station_id":"BOI","transit":false},{"time":4,"distance":1152,"transit":false,"i_lat":-6.162758,"line":5,"i_long":106.723064,"is_transit":false,"station_id":"RW","station_name":"Rawa Buaya"},{"station_name":"Kalideres","line":5,"time":3,"is_transit":false,"i_lat":-6.166068,"i_long":106.701612,"station_id":"KDS","distance":2504,"transit":false},{"is_transit":false,"i_lat":-6.169933,"line":5,"distance":2548,"station_id":"PI","i_long":106.679458,"station_name":"Poris","time":3,"transit":false},{"line":5,"i_lat":-6.171811,"time":3,"station_id":"BPR","is_transit":false,"transit":false,"i_long":106.665036,"station_name":"Batuceper","distance":1834},{"line":5,"distance":2028,"is_transit":false,"station_id":"TTI","station_name":"Tanah Tinggi","transit":false,"i_lat":-6.17331,"i_long":106.64657,"time":3}]]}