{"data":[[{"line":4,"is_transit":false,"station_id":"KPB","distance":0,"i_long":106.826365,"time":0,"transit":false,"station_name":"Kampung Bandan","i_lat":-6.132549},{"station_name":"Rajawali","i_lat":-6.14505,"is_transit":false,"i_long":106.836569,"transit":false,"time":3,"line":11,"station_id":"RJW","distance":1444},{"i_long":106.839204,"time":5,"i_lat":-6.161728,"transit":false,"station_id":"KMO","station_name":"Kemayoran","line":11,"distance":1901,"is_transit":false},{"distance":1436,"i_lat":-6.174784,"is_transit":false,"i_long":106.84368,"station_name":"Pasar Senen","time":4,"transit":false,"station_id":"PSE","line":11},{"is_transit":false,"transit":false,"time":8,"i_lat":-6.185975,"line":11,"distance":1567,"station_name":"Gang Sentiong","station_id":"GST","i_long":106.850107},{"station_name":"Kramat","i_lat":-6.193792,"time":1,"i_long":106.855437,"transit":false,"distance":973,"station_id":"KMT","line":11,"is_transit":false},{"i_lat":-6.209188,"line":11,"station_id":"POK","station_name":"Pondok Jati","is_transit":false,"distance":1829,"i_long":106.861737,"transit":false,"time":2},{"transit":true,"time":9,"station_name":"Jatinegara","distance":1236,"line":1,"i_lat":-6.215091,"is_transit":true,"i_long":106.86807400000001,"station_id":"JNG"},{"is_transit":false,"station_name":"Klender","i_long":106.899548,"distance":3395,"time":3,"station_id":"KLD","transit":false,"i_lat":-6.2135,"line":1},{"is_transit":false,"time":2,"distance":3100,"i_long":106.922662,"station_name":"Buaran","line":1,"station_id":"BUA","transit":false,"i_lat":-6.215568},{"transit":false,"distance":1305,"i_lat":-6.217455,"time":1,"line":1,"station_id":"KLDB","is_transit":false,"i_long":106.939679,"station_name":"Klenderbaru"},{"line":1,"transit":false,"time":8,"station_id":"CUK","distance":1385,"i_long":106.951283,"i_lat":-6.219053,"station_name":"Cakung","is_transit":false},{"i_lat":-6.224515,"line":1,"transit":false,"is_transit":false,"time":3,"station_name":"Kranji","distance":3097,"station_id":"KRI","i_long":106.977657},{"station_id":"BKS","time":4,"is_transit":false,"station_name":"Bekasi","distance":2520,"transit":false,"i_long":106.997013,"line":1,"i_lat":-6.236616},{"is_transit":false,"station_name":"Bekasi Timur","station_id":"BKST","distance":2368,"i_long":107.016735,"time":2,"i_lat":-6.248029,"transit":false,"line":1},{"is_transit":false,"time":7,"distance":4460,"station_id":"TB","transit":false,"line":1,"station_name":"Tambun","i_lat":-6.258864,"i_long":107.055722},{"station_id":"CIT","i_lat":-6.261877,"time":3,"distance":3420,"transit":false,"is_transit":false,"line":1,"i_long":107.083084,"station_name":"Cibitung"},{"transit":false,"station_name":"Metland Telaga Murni","i_long":107.093313,"distance":2800,"is_transit":false,"line":1,"station_id":"TLM","time":2,"i_lat":-6.262938},{"line":1,"time":4,"transit":false,"station_id":"CKR","is_transit":false,"i_lat":-6.2553149999999995,"distance":3689,"station_name":"Cikarang","i_long":107.144613}],[{"station_name":"Kampung Bandan","i_lat":-6.132549,"time":0,"distance":0,"i_long":106.826365,"line":4,"transit":false,"is_transit":false,"station_id":"KPB"},{"line":1,"transit":false,"station_name":"Angke","i_long":106.79867,"station_id":"AK","time":9,"i_lat":-6.144674,"distance":4102,"is_transit":false},{"i_long":106.800832,"is_transit":false,"i_lat":-6.155215,"line":1,"station_name":"Duri","time":4,"transit":false,"distance":1230,"station_id":"DU"},{"i_long":106.811091,"transit":false,"is_transit":false,"time":8,"i_lat":-6.185545,"station_name":"Tanah Abang","line":1,"distance":3632,"station_id":"THB"},{"station_name":"Karet","is_transit":false,"station_id":"KAT","i_lat":-6.20132,"transit":false,"time":5,"i_long":106.816351,"distance":2029,"line":1},{"station_name":"Sudirman Baru","station_id":"SUDB","is_transit":false,"time":1,"i_lat":-6.201433,"transit":false,"distance":471,"i_long":106.819881,"line":1},{"transit":false,"distance":280,"i_lat":-6.202263,"is_transit":false,"time":1,"station_name":"Sudirman","line":1,"station_id":"SUD","i_long":106.822649},{"transit":false,"i_lat":-6.209883,"is_transit":false,"station_id":"MRI","time":4,"distance":3186,"i_long":106.84912,"station_name":"Manggarai","line":2},{"transit":false,"distance":1275,"station_id":"MTR","line":1,"is_transit":false,"i_lat":-6.212485,"i_long":106.858896,"time":2,"station_name":"Matraman"},{"is_transit":false,"station_id":"JNG","station_name":"Jatinegara","distance":1377,"i_long":106.86807400000001,"transit":false,"time":8,"i_lat":-6.215091,"line":1},{"transit":false,"distance":3395,"station_id":"KLD","i_long":106.899548,"is_transit":false,"station_name":"Klender","line":1,"i_lat":-6.2135,"time":3},{"i_lat":-6.215568,"i_long":106.922662,"is_transit":false,"station_name":"Buaran","transit":false,"line":1,"station_id":"BUA","distance":3100,"time":2},{"time":1,"is_transit":false,"i_long":106.939679,"line":1,"station_name":"Klenderbaru","distance":1305,"transit":false,"station_id":"KLDB","i_lat":-6.217455},{"station_id":"CUK","station_name":"Cakung","is_transit":false,"i_lat":-6.219053,"line":1,"distance":1385,"i_long":106.951283,"time":8,"transit":false},{"distance":3097,"i_lat":-6.224515,"station_name":"Kranji","time":3,"line":1,"is_transit":false,"transit":false,"station_id":"KRI","i_long":106.977657},{"station_id":"BKS","distance":2520,"i_lat":-6.236616,"line":1,"station_name":"Bekasi","transit":false,"is_transit":false,"i_long":106.997013,"time":4},{"line":1,"station_id":"BKST","transit":false,"i_long":107.016735,"distance":2368,"is_transit":false,"time":2,"station_name":"Bekasi Timur","i_lat":-6.248029},{"distance":4460,"station_id":"TB","transit":false,"time":7,"i_long":107.055722,"station_name":"Tambun","line":1,"i_lat":-6.258864,"is_transit":false},{"i_lat":-6.261877,"is_transit":false,"line":1,"time":3,"transit":false,"distance":3420,"station_name":"Cibitung","station_id":"CIT","i_long":107.083084},{"transit":false,"station_name":"Metland Telaga Murni","station_id":"TLM","i_lat":-6.262938,"distance":2800,"i_long":107.093313,"time":2,"line":1,"is_transit":false},{"i_long":107.144613,"station_id":"CKR","i_lat":-6.2553149999999995,"line":1,"is_transit":false,"station_name":"Cikarang","distance":3689,"transit":false,"time":4}],[{"time":0,"distance":0,"station_name":"Kampung Bandan","line":4,"i_long":106.826365,"is_transit":false,"i_lat":-6.132549,"station_id":"KPB","transit":false},{"station_id":"JAKK","distance":1364,"i_long":106.812439,"line":2,"station_name":"Jakarta Kota","i_lat":-6.137569,"is_transit":true,"transit":true,"time":3},{"i_long":106.820901,"station_name":"Jayakarta","station_id":"JAY","distance":1264,"is_transit":false,"i_lat":-6.141205,"transit":false,"line":2,"time":4},{"is_transit":false,"time":2,"distance":1080,"transit":false,"line":2,"station_name":"Manggabesar","i_long":106.82482,"i_lat":-6.149769,"station_id":"MGB"},{"station_name":"Sawah Besar","line":2,"transit":false,"distance":906,"is_transit":false,"i_long":106.827103,"i_lat":-6.160725,"station_id":"SW","time":2},{"i_lat":-6.166716,"line":2,"time":2,"station_name":"Juanda","is_transit":false,"station_id":"JUA","transit":false,"distance":1149,"i_long":106.828284},{"i_lat":-6.186295,"is_transit":false,"line":2,"time":4,"station_id":"GDD","distance":2015,"station_name":"Gondangdia","transit":false,"i_long":106.832183},{"i_lat":-6.198556,"station_name":"Cikini","is_transit":false,"distance":1750,"i_long":106.840169,"transit":false,"time":3,"line":2,"station_id":"CKI"},{"transit":true,"line":2,"distance":1590,"i_lat":-6.209883,"is_transit":true,"time":4,"station_name":"Manggarai","station_id":"MRI","i_long":106.84912},{"time":2,"i_long":106.858896,"station_name":"Matraman","distance":1275,"line":1,"is_transit":false,"transit":false,"station_id":"MTR","i_lat":-6.212485},{"line":1,"time":8,"i_lat":-6.215091,"station_id":"JNG","distance":1377,"is_transit":false,"station_name":"Jatinegara","i_long":106.86807400000001,"transit":false},{"time":3,"i_long":106.899548,"line":1,"distance":3395,"station_name":"Klender","i_lat":-6.2135,"transit":false,"is_transit":false,"station_id":"KLD"},{"station_id":"BUA","transit":false,"time":2,"is_transit":false,"distance":3100,"line":1,"station_name":"Buaran","i_lat":-6.215568,"i_long":106.922662},{"station_name":"Klenderbaru","is_transit":false,"transit":false,"i_lat":-6.217455,"i_long":106.939679,"line":1,"time":1,"distance":1305,"station_id":"KLDB"},{"line":1,"distance":1385,"station_id":"CUK","station_name":"Cakung","is_transit":false,"time":8,"transit":false,"i_lat":-6.219053,"i_long":106.951283},{"station_id":"KRI","distance":3097,"station_name":"Kranji","transit":false,"i_lat":-6.224515,"is_transit":false,"time":3,"line":1,"i_long":106.977657},{"is_transit":false,"distance":2520,"station_name":"Bekasi","i_lat":-6.236616,"line":1,"time":4,"station_id":"BKS","i_long":106.997013,"transit":false},{"i_lat":-6.248029,"line":1,"is_transit":false,"transit":false,"distance":2368,"i_long":107.016735,"station_name":"Bekasi Timur","time":2,"station_id":"BKST"},{"transit":false,"time":7,"station_id":"TB","station_name":"Tambun","i_lat":-6.258864,"is_transit":false,"line":1,"i_long":107.055722,"distance":4460},{"line":1,"transit":false,"time":3,"is_transit":false,"station_id":"CIT","station_name":"Cibitung","i_lat":-6.261877,"distance":3420,"i_long":107.083084},{"is_transit":false,"distance":2800,"i_lat":-6.262938,"i_long":107.093313,"line":1,"station_id":"TLM","transit":false,"time":2,"station_name":"Metland Telaga Murni"},{"time":4,"i_lat":-6.2553149999999995,"transit":false,"is_transit":false,"station_id":"CKR","line":1,"station_name":"Cikarang","i_long":107.144613,"distance":3689}]]}