{"data":[[{"i_long":106.826365,"station_name":"Kampung Bandan","i_lat":-6.132549,"station_id":"KPB","transit":false,"is_transit":true,"time":0,"distance":0,"line":0},{"station_name":"Angke","station_id":"AK","line":0,"time":9,"i_long":106.79867,"distance":4102,"i_lat":-6.144674,"is_transit":false,"transit":false},{"station_id":"DU","transit":true,"i_long":106.800832,"station_name":"Duri","time":4,"distance":1230,"is_transit":true,"line":1,"i_lat":-6.155215},{"i_long":106.788277,"distance":1700,"station_name":"Grogol","station_id":"GGL","i_lat":-6.162021,"line":5,"time":3,"transit":false,"is_transit":false},{"i_long":106.771379,"i_lat":-6.161433,"time":2,"station_name":"Pesing","is_transit":false,"transit":false,"station_id":"PSG","distance":2036,"line":5},{"line":5,"is_transit":false,"distance":1614,"time":2,"station_name":"Taman Kota","transit":false,"i_lat":-6.1587309999999995,"station_id":"TKO","i_long":106.756522},{"distance":2334,"time":2,"is_transit":false,"station_name":"Bojongindah","transit":false,"i_lat":-6.159876,"i_long":106.737035,"line":0,"station_id":"BOI"},{"station_id":"RW","station_name":"Rawa Buaya","distance":1152,"is_transit":false,"i_lat":-6.162758,"i_long":106.723064,"line":5,"time":4,"transit":false},{"transit":false,"is_transit":false,"line":5,"i_long":106.701612,"station_id":"KDS","station_name":"Kalideres","distance":2504,"i_lat":-6.166068,"time":3},{"distance":2548,"i_long":106.679458,"station_id":"PI","is_transit":false,"line":5,"i_lat":-6.169933,"station_name":"Poris","time":3,"transit":false},{"station_name":"Batuceper","station_id":"BPR","time":3,"distance":1834,"transit":false,"i_lat":-6.171811,"is_transit":false,"i_long":106.665036,"line":0},{"i_lat":-6.17331,"transit":false,"is_transit":false,"i_long":106.64657,"distance":2028,"line":5,"station_id":"TTI","time":3,"station_name":"Tanah Tinggi"},{"station_id":"TNG","i_lat":-6.176583,"transit":false,"i_long":106.632761,"station_name":"Tangerang","is_transit":false,"time":3,"distance":1547,"line":5}],[{"i_long":106.826365,"transit":false,"line":0,"station_id":"KPB","is_transit":true,"station_name":"Kampung Bandan","time":0,"distance":0,"i_lat":-6.132549},{"station_id":"JAKK","station_name":"Jakarta Kota","distance":1364,"i_lat":-6.137569,"is_transit":true,"time":3,"transit":true,"i_long":106.812439,"line":0},{"distance":1264,"line":7,"i_lat":-6.141205,"is_transit":false,"transit":false,"i_long":106.820901,"station_id":"JAY","station_name":"Jayakarta","time":4},{"line":2,"is_transit":false,"station_id":"MGB","transit":false,"station_name":"Manggabesar","time":2,"distance":1080,"i_long":106.82482,"i_lat":-6.149769},{"station_id":"SW","i_lat":-6.160725,"i_long":106.827103,"line":2,"is_transit":false,"distance":906,"station_name":"Sawah Besar","time":2,"transit":false},{"i_long":106.828284,"transit":false,"line":2,"time":2,"station_id":"JUA","is_transit":false,"distance":1149,"station_name":"Juanda","i_lat":-6.166716},{"line":2,"station_id":"GDD","is_transit":false,"transit":false,"i_lat":-6.186295,"station_name":"Gondangdia","time":4,"distance":2015,"i_long":106.832183},{"time":3,"i_lat":-6.198556,"station_id":"CKI","i_long":106.840169,"station_name":"Cikini","distance":1750,"transit":false,"line":0,"is_transit":false},{"i_lat":-6.209883,"i_long":106.84912,"distance":1590,"is_transit":true,"time":4,"line":0,"station_name":"Manggarai","transit":true,"station_id":"MRI"},{"transit":false,"line":1,"distance":3186,"i_long":106.822649,"station_id":"SUD","station_name":"Sudirman","i_lat":-6.202263,"is_transit":false,"time":4},{"time":1,"station_id":"SUDB","transit":false,"station_name":"Sudirman Baru","i_lat":-6.201433,"distance":280,"i_long":106.819881,"is_transit":false,"line":1},{"station_id":"KAT","time":1,"station_name":"Karet","distance":471,"transit":false,"i_lat":-6.20132,"line":1,"is_transit":false,"i_long":106.816351},{"station_name":"Tanah Abang","time":5,"i_lat":-6.185545,"is_transit":true,"transit":false,"i_long":106.811091,"distance":2029,"line":1,"station_id":"THB"},{"line":1,"time":8,"i_long":106.800832,"station_id":"DU","station_name":"Duri","i_lat":-6.155215,"is_transit":true,"distance":3632,"transit":true},{"i_lat":-6.162021,"distance":1700,"station_name":"Grogol","i_long":106.788277,"station_id":"GGL","is_transit":false,"time":3,"transit":false,"line":5},{"i_long":106.771379,"time":2,"transit":false,"is_transit":false,"distance":2036,"station_id":"PSG","i_lat":-6.161433,"station_name":"Pesing","line":5},{"time":2,"station_name":"Taman Kota","i_lat":-6.1587309999999995,"line":5,"station_id":"TKO","distance":1614,"transit":false,"is_transit":false,"i_long":106.756522},{"line":0,"time":2,"distance":2334,"i_long":106.737035,"is_transit":false,"i_lat":-6.159876,"station_name":"Bojongindah","transit":false,"station_id":"BOI"},{"line":5,"distance":1152,"is_transit":false,"station_id":"RW","transit":false,"time":4,"i_lat":-6.162758,"station_name":"Rawa Buaya","i_long":106.723064},{"station_name":"Kalideres","distance":2504,"time":3,"transit":false,"line":5,"i_long":106.701612,"is_transit":false,"i_lat":-6.166068,"station_id":"KDS"},{"i_long":106.679458,"time":3,"i_lat":-6.169933,"line":5,"station_id":"PI","station_name":"Poris","distance":2548,"transit":false,"is_transit":false},{"i_long":106.665036,"distance":1834,"station_id":"BPR","station_name":"Batuceper","is_transit":false,"i_lat":-6.171811,"line":0,"time":3,"transit":false},{"i_lat":-6.17331,"station_name":"Tanah Tinggi","i_long":106.64657,"time":3,"distance":2028,"station_id":"TTI","transit":false,"line":5,"is_transit":false},{"transit":false,"is_transit":false,"distance":1547,"line":5,"time":3,"station_name":"Tangerang","i_long":106.632761,"i_lat":-6.176583,"station_id":"TNG"}],[{"i_long":106.826365,"transit":false,"station_id":"KPB","distance":0,"line":0,"station_name":"Kampung Bandan","is_transit":true,"i_lat":-6.132549,"time":0},{"i_lat":-6.14505,"distance":1444,"station_id":"RJW","time":3,"station_name":"Rajawali","i_long":106.836569,"line":11,"transit":false,"is_transit":false},{"time":5,"is_transit":false,"i_lat":-6.161728,"line":11,"i_long":106.839204,"station_name":"Kemayoran","station_id":"KMO","distance":1901,"transit":false},{"i_lat":-6.174784,"time":4,"distance":1436,"station_name":"Pasar Senen","transit":false,"line":11,"i_long":106.84368,"station_id":"PSE","is_transit":false},{"station_name":"Gang Sentiong","distance":1567,"i_long":106.850107,"is_transit":false,"station_id":"GST","time":8,"transit":false,"i_lat":-6.185975,"line":11},{"station_name":"Kramat","station_id":"KMT","is_transit":false,"i_lat":-6.193792,"distance":973,"line":11,"transit":false,"time":1,"i_long":106.855437},{"line":11,"i_long":106.861737,"time":2,"is_transit":false,"station_id":"POK","transit":false,"station_name":"Pondok Jati","distance":1829,"i_lat":-6.209188},{"is_transit":true,"i_long":106.86807400000001,"line":0,"transit":true,"station_id":"JNG","i_lat":-6.215091,"distance":1236,"time":9,"station_name":"Jatinegara"},{"i_lat":-6.212485,"i_long":106.858896,"time":2,"distance":1377,"is_transit":false,"line":1,"station_name":"Matraman","transit":false,"station_id":"MTR"},{"distance":1275,"is_transit":true,"transit":false,"line":0,"station_id":"MRI","i_long":106.84912,"station_name":"Manggarai","time":2,"i_lat":-6.209883},{"is_transit":false,"station_id":"SUD","station_name":"Sudirman","time":4,"transit":false,"line":1,"i_long":106.822649,"distance":3186,"i_lat":-6.202263},{"station_id":"SUDB","line":1,"is_transit":false,"distance":280,"transit":false,"i_long":106.819881,"station_name":"Sudirman Baru","time":1,"i_lat":-6.201433},{"time":1,"i_lat":-6.20132,"i_long":106.816351,"station_name":"Karet","transit":false,"line":1,"is_transit":false,"station_id":"KAT","distance":471},{"station_name":"Tanah Abang","distance":2029,"line":1,"i_lat":-6.185545,"station_id":"THB","time":5,"transit":false,"i_long":106.811091,"is_transit":true},{"transit":true,"is_transit":true,"time":8,"i_lat":-6.155215,"distance":3632,"station_id":"DU","station_name":"Duri","line":1,"i_long":106.800832},{"transit":false,"is_transit":false,"distance":1700,"i_lat":-6.162021,"i_long":106.788277,"time":3,"line":5,"station_id":"GGL","station_name":"Grogol"},{"station_name":"Pesing","i_long":106.771379,"is_transit":false,"time":2,"station_id":"PSG","distance":2036,"i_lat":-6.161433,"transit":false,"line":5},{"time":2,"i_lat":-6.1587309999999995,"i_long":106.756522,"transit":false,"is_transit":false,"station_name":"Taman Kota","line":5,"distance":1614,"station_id":"TKO"},{"i_lat":-6.159876,"is_transit":false,"distance":2334,"transit":false,"station_name":"Bojongindah","station_id":"BOI","time":2,"line":0,"i_long":106.737035},{"line":5,"i_long":106.723064,"station_id":"RW","distance":1152,"transit":false,"station_name":"Rawa Buaya","is_transit":false,"i_lat":-6.162758,"time":4},{"transit":false,"line":5,"distance":2504,"station_id":"KDS","time":3,"i_lat":-6.166068,"station_name":"Kalideres","is_transit":false,"i_long":106.701612},{"i_lat":-6.169933,"station_id":"PI","i_long":106.679458,"distance":2548,"station_name":"Poris","time":3,"transit":false,"is_transit":false,"line":5},{"time":3,"distance":1834,"station_id":"BPR","is_transit":false,"station_name":"Batuceper","transit":false,"line":0,"i_lat":-6.171811,"i_long":106.665036},{"transit":false,"is_transit":false,"line":5,"station_id":"TTI","i_long":106.64657,"i_lat":-6.17331,"station_name":"Tanah Tinggi","time":3,"distance":2028},{"station_id":"TNG","station_name":"Tangerang","i_long":106.632761,"line":5,"is_transit":false,"time":3,"distance":1547,"i_lat":-6.176583,"transit":false}]]}