{"data":[[{"time":0,"i_lat":-6.132549,"transit":false,"i_long":106.826365,"station_name":"Kampung Bandan","line":4,"distance":0,"station_id":"KPB","is_transit":false},{"is_transit":false,"transit":false,"station_name":"Rajawali","i_lat":-6.14505,"line":11,"i_long":106.836569,"distance":1444,"station_id":"RJW","time":3},{"time":5,"station_name":"Kemayoran","distance":1901,"is_transit":false,"i_long":106.839204,"i_lat":-6.161728,"station_id":"KMO","line":11,"transit":false},{"line":11,"time":4,"station_id":"PSE","station_name":"Pasar Senen","distance":1436,"i_lat":-6.174784,"transit":false,"i_long":106.84368,"is_transit":false},{"transit":false,"i_lat":-6.185975,"station_name":"Gang Sentiong","i_long":106.850107,"line":11,"distance":1567,"time":8,"is_transit":false,"station_id":"GST"},{"i_lat":-6.193792,"line":11,"is_transit":false,"time":1,"station_name":"Kramat","i_long":106.855437,"distance":973,"station_id":"KMT","transit":false},{"i_long":106.861737,"line":11,"time":2,"station_id":"POK","distance":1829,"station_name":"Pondok Jati","i_lat":-6.209188,"transit":false,"is_transit":false},{"distance":1236,"i_long":106.86807400000001,"line":1,"is_transit":true,"station_name":"Jatinegara","i_lat":-6.215091,"station_id":"JNG","time":9,"transit":true},{"i_lat":-6.2135,"station_name":"Klender","i_long":106.899548,"line":1,"station_id":"KLD","time":3,"transit":false,"is_transit":false,"distance":3395},{"transit":false,"i_lat":-6.215568,"distance":3100,"station_name":"Buaran","i_long":106.922662,"is_transit":false,"station_id":"BUA","line":1,"time":2},{"station_id":"KLDB","distance":1305,"station_name":"Klenderbaru","is_transit":false,"i_lat":-6.217455,"line":1,"time":1,"i_long":106.939679,"transit":false},{"i_lat":-6.219053,"i_long":106.951283,"time":8,"distance":1385,"transit":false,"station_name":"Cakung","line":1,"is_transit":false,"station_id":"CUK"},{"distance":3097,"time":3,"station_name":"Kranji","i_long":106.977657,"is_transit":false,"station_id":"KRI","transit":false,"i_lat":-6.224515,"line":1},{"i_lat":-6.236616,"station_name":"Bekasi","time":4,"station_id":"BKS","transit":false,"is_transit":false,"distance":2520,"i_long":106.997013,"line":1},{"station_id":"BKST","time":2,"station_name":"Bekasi Timur","i_lat":-6.248029,"is_transit":false,"distance":2368,"i_long":107.016735,"transit":false,"line":1},{"transit":false,"station_name":"Tambun","distance":4460,"station_id":"TB","i_long":107.055722,"is_transit":false,"time":7,"i_lat":-6.258864,"line":1},{"i_lat":-6.261877,"line":1,"distance":3420,"station_name":"Cibitung","transit":false,"i_long":107.083084,"time":3,"is_transit":false,"station_id":"CIT"}],[{"distance":0,"line":4,"i_lat":-6.132549,"transit":false,"time":0,"is_transit":false,"station_name":"Kampung Bandan","station_id":"KPB","i_long":106.826365},{"i_long":106.79867,"is_transit":false,"time":9,"distance":4102,"transit":false,"station_name":"Angke","station_id":"AK","line":1,"i_lat":-6.144674},{"i_long":106.800832,"time":4,"is_transit":false,"transit":false,"distance":1230,"station_name":"Duri","station_id":"DU","line":1,"i_lat":-6.155215},{"time":8,"is_transit":false,"i_long":106.811091,"transit":false,"distance":3632,"station_name":"Tanah Abang","station_id":"THB","line":1,"i_lat":-6.185545},{"time":5,"station_id":"KAT","i_long":106.816351,"i_lat":-6.20132,"is_transit":false,"station_name":"Karet","transit":false,"line":1,"distance":2029},{"distance":471,"i_long":106.819881,"station_id":"SUDB","station_name":"Sudirman Baru","line":1,"time":1,"transit":false,"is_transit":false,"i_lat":-6.201433},{"line":1,"distance":280,"i_lat":-6.202263,"time":1,"is_transit":false,"i_long":106.822649,"transit":false,"station_id":"SUD","station_name":"Sudirman"},{"i_lat":-6.209883,"i_long":106.84912,"station_id":"MRI","transit":false,"time":4,"line":2,"station_name":"Manggarai","distance":3186,"is_transit":false},{"is_transit":false,"i_lat":-6.212485,"station_name":"Matraman","line":1,"distance":1275,"i_long":106.858896,"time":2,"transit":false,"station_id":"MTR"},{"is_transit":false,"i_long":106.86807400000001,"time":8,"distance":1377,"station_id":"JNG","line":1,"transit":false,"station_name":"Jatinegara","i_lat":-6.215091},{"line":1,"time":3,"distance":3395,"station_id":"KLD","station_name":"Klender","i_lat":-6.2135,"i_long":106.899548,"is_transit":false,"transit":false},{"i_lat":-6.215568,"is_transit":false,"i_long":106.922662,"transit":false,"station_name":"Buaran","time":2,"distance":3100,"station_id":"BUA","line":1},{"i_long":106.939679,"i_lat":-6.217455,"transit":false,"distance":1305,"time":1,"is_transit":false,"station_id":"KLDB","line":1,"station_name":"Klenderbaru"},{"line":1,"time":8,"station_id":"CUK","is_transit":false,"station_name":"Cakung","distance":1385,"i_long":106.951283,"i_lat":-6.219053,"transit":false},{"i_lat":-6.224515,"line":1,"i_long":106.977657,"station_name":"Kranji","time":3,"transit":false,"distance":3097,"station_id":"KRI","is_transit":false},{"line":1,"transit":false,"is_transit":false,"i_long":106.997013,"station_id":"BKS","time":4,"distance":2520,"i_lat":-6.236616,"station_name":"Bekasi"},{"i_long":107.016735,"distance":2368,"station_id":"BKST","station_name":"Bekasi Timur","transit":false,"i_lat":-6.248029,"line":1,"is_transit":false,"time":2},{"line":1,"station_id":"TB","is_transit":false,"i_lat":-6.258864,"i_long":107.055722,"distance":4460,"time":7,"transit":false,"station_name":"Tambun"},{"line":1,"is_transit":false,"transit":false,"station_name":"Cibitung","distance":3420,"i_lat":-6.261877,"station_id":"CIT","time":3,"i_long":107.083084}],[{"line":4,"transit":false,"distance":0,"i_lat":-6.132549,"station_id":"KPB","station_name":"Kampung Bandan","time":0,"is_transit":false,"i_long":106.826365},{"station_id":"JAKK","i_lat":-6.137569,"station_name":"Jakarta Kota","distance":1364,"transit":true,"time":3,"i_long":106.812439,"is_transit":true,"line":2},{"station_id":"JAY","time":4,"distance":1264,"i_lat":-6.141205,"i_long":106.820901,"transit":false,"is_transit":false,"line":2,"station_name":"Jayakarta"},{"station_name":"Manggabesar","distance":1080,"time":2,"is_transit":false,"i_lat":-6.149769,"i_long":106.82482,"transit":false,"line":2,"station_id":"MGB"},{"transit":false,"station_id":"SW","time":2,"distance":906,"is_transit":false,"station_name":"Sawah Besar","i_long":106.827103,"line":2,"i_lat":-6.160725},{"time":2,"distance":1149,"i_long":106.828284,"i_lat":-6.166716,"is_transit":false,"station_id":"JUA","line":2,"transit":false,"station_name":"Juanda"},{"i_lat":-6.186295,"station_id":"GDD","station_name":"Gondangdia","i_long":106.832183,"line":2,"distance":2015,"time":4,"transit":false,"is_transit":false},{"station_id":"CKI","line":2,"i_lat":-6.198556,"transit":false,"time":3,"station_name":"Cikini","i_long":106.840169,"distance":1750,"is_transit":false},{"line":2,"i_long":106.84912,"station_id":"MRI","time":4,"station_name":"Manggarai","i_lat":-6.209883,"distance":1590,"transit":true,"is_transit":true},{"i_long":106.858896,"transit":false,"time":2,"i_lat":-6.212485,"line":1,"station_name":"Matraman","is_transit":false,"station_id":"MTR","distance":1275},{"station_name":"Jatinegara","distance":1377,"i_lat":-6.215091,"station_id":"JNG","transit":false,"line":1,"i_long":106.86807400000001,"time":8,"is_transit":false},{"line":1,"time":3,"transit":false,"station_id":"KLD","station_name":"Klender","is_transit":false,"i_lat":-6.2135,"i_long":106.899548,"distance":3395},{"i_lat":-6.215568,"time":2,"line":1,"station_id":"BUA","i_long":106.922662,"is_transit":false,"transit":false,"distance":3100,"station_name":"Buaran"},{"station_name":"Klenderbaru","i_lat":-6.217455,"distance":1305,"transit":false,"i_long":106.939679,"station_id":"KLDB","is_transit":false,"time":1,"line":1},{"station_name":"Cakung","i_lat":-6.219053,"i_long":106.951283,"station_id":"CUK","line":1,"transit":false,"is_transit":false,"time":8,"distance":1385},{"station_id":"KRI","time":3,"i_lat":-6.224515,"line":1,"distance":3097,"is_transit":false,"transit":false,"station_name":"Kranji","i_long":106.977657},{"i_long":106.997013,"line":1,"station_name":"Bekasi","station_id":"BKS","i_lat":-6.236616,"is_transit":false,"time":4,"transit":false,"distance":2520},{"time":2,"line":1,"i_long":107.016735,"station_id":"BKST","distance":2368,"i_lat":-6.248029,"is_transit":false,"transit":false,"station_name":"Bekasi Timur"},{"station_id":"TB","i_long":107.055722,"line":1,"i_lat":-6.258864,"transit":false,"time":7,"is_transit":false,"station_name":"Tambun","distance":4460},{"distance":3420,"transit":false,"station_id":"CIT","i_long":107.083084,"station_name":"Cibitung","time":3,"i_lat":-6.261877,"line":1,"is_transit":false}]]}