{"data":[[{"is_transit":false,"station_name":"Kampung Bandan","distance":0,"i_long":106.826365,"station_id":"KPB","time":0,"transit":false,"i_lat":-6.132549,"line":4},{"line":2,"station_id":"JAKK","transit":true,"i_long":106.812439,"is_transit":true,"distance":1364,"i_lat":-6.137569,"time":3,"station_name":"Jakarta Kota"},{"station_name":"Jayakarta","i_long":106.820901,"i_lat":-6.141205,"time":4,"transit":false,"is_transit":false,"distance":1264,"station_id":"JAY","line":2},{"station_id":"MGB","is_transit":false,"time":2,"distance":1080,"line":2,"i_long":106.82482,"i_lat":-6.149769,"transit":false,"station_name":"Manggabesar"},{"transit":false,"is_transit":false,"line":2,"i_lat":-6.160725,"time":2,"i_long":106.827103,"station_id":"SW","distance":906,"station_name":"Sawah Besar"},{"transit":false,"station_id":"JUA","station_name":"Juanda","i_long":106.828284,"is_transit":false,"time":2,"line":2,"i_lat":-6.166716,"distance":1149}],[{"station_id":"KPB","transit":false,"distance":0,"i_lat":-6.132549,"i_long":106.826365,"station_name":"Kampung Bandan","line":4,"time":0,"is_transit":false},{"station_name":"Angke","transit":false,"station_id":"AK","i_long":106.79867,"distance":4102,"i_lat":-6.144674,"is_transit":false,"time":9,"line":1},{"transit":false,"i_lat":-6.155215,"station_id":"DU","time":4,"is_transit":false,"i_long":106.800832,"line":1,"station_name":"Duri","distance":1230},{"time":8,"station_id":"THB","transit":false,"station_name":"Tanah Abang","is_transit":false,"distance":3632,"i_long":106.811091,"i_lat":-6.185545,"line":1},{"line":1,"transit":false,"is_transit":false,"i_lat":-6.20132,"station_id":"KAT","station_name":"Karet","time":5,"distance":2029,"i_long":106.816351},{"station_name":"Sudirman Baru","i_long":106.819881,"distance":471,"is_transit":false,"transit":false,"time":1,"station_id":"SUDB","line":1,"i_lat":-6.201433},{"distance":280,"line":1,"i_lat":-6.202263,"station_name":"Sudirman","transit":false,"station_id":"SUD","time":1,"is_transit":false,"i_long":106.822649},{"i_long":106.84912,"time":4,"i_lat":-6.209883,"transit":true,"station_name":"Manggarai","line":2,"distance":3186,"is_transit":true,"station_id":"MRI"},{"station_name":"Cikini","is_transit":false,"i_lat":-6.198556,"i_long":106.840169,"transit":false,"time":4,"station_id":"CKI","line":2,"distance":1590},{"is_transit":false,"line":2,"i_long":106.832183,"i_lat":-6.186295,"transit":false,"station_id":"GDD","time":3,"distance":1750,"station_name":"Gondangdia"},{"is_transit":false,"i_lat":-6.166716,"transit":false,"line":2,"station_id":"JUA","i_long":106.828284,"station_name":"Juanda","distance":2015,"time":4}],[{"station_id":"KPB","i_long":106.826365,"time":0,"distance":0,"line":4,"is_transit":false,"i_lat":-6.132549,"station_name":"Kampung Bandan","transit":false},{"time":3,"i_long":106.836569,"station_name":"Rajawali","transit":false,"i_lat":-6.14505,"distance":1444,"line":11,"is_transit":false,"station_id":"RJW"},{"time":5,"station_name":"Kemayoran","station_id":"KMO","line":11,"i_lat":-6.161728,"is_transit":false,"i_long":106.839204,"transit":false,"distance":1901},{"transit":false,"station_name":"Pasar Senen","time":4,"i_lat":-6.174784,"i_long":106.84368,"distance":1436,"line":11,"is_transit":false,"station_id":"PSE"},{"i_lat":-6.185975,"is_transit":false,"time":8,"transit":false,"station_id":"GST","line":11,"station_name":"Gang Sentiong","i_long":106.850107,"distance":1567},{"station_id":"KMT","is_transit":false,"station_name":"Kramat","distance":973,"line":11,"i_long":106.855437,"transit":false,"i_lat":-6.193792,"time":1},{"station_id":"POK","time":2,"station_name":"Pondok Jati","is_transit":false,"distance":1829,"i_lat":-6.209188,"i_long":106.861737,"transit":false,"line":11},{"distance":1236,"station_id":"JNG","line":1,"station_name":"Jatinegara","transit":true,"time":9,"i_long":106.86807400000001,"i_lat":-6.215091,"is_transit":true},{"distance":1377,"line":1,"station_name":"Matraman","is_transit":false,"time":2,"station_id":"MTR","transit":false,"i_long":106.858896,"i_lat":-6.212485},{"time":2,"i_lat":-6.209883,"station_id":"MRI","line":2,"station_name":"Manggarai","distance":1275,"i_long":106.84912,"is_transit":true,"transit":true},{"station_name":"Cikini","distance":1590,"i_long":106.840169,"time":4,"station_id":"CKI","is_transit":false,"transit":false,"i_lat":-6.198556,"line":2},{"transit":false,"station_name":"Gondangdia","distance":1750,"i_long":106.832183,"is_transit":false,"i_lat":-6.186295,"station_id":"GDD","line":2,"time":3},{"i_long":106.828284,"transit":false,"station_name":"Juanda","is_transit":false,"station_id":"JUA","distance":2015,"time":4,"i_lat":-6.166716,"line":2}]]}