{"data":[[{"transit":false,"station_id":"KPB","i_lat":-6.132549,"distance":0,"time":0,"i_long":106.826365,"station_name":"Kampung Bandan","is_transit":true,"line":0},{"transit":false,"station_name":"Angke","line":0,"time":9,"is_transit":false,"station_id":"AK","distance":4102,"i_lat":-6.144674,"i_long":106.79867},{"i_lat":-6.155215,"i_long":106.800832,"line":1,"is_transit":true,"distance":1230,"station_name":"Duri","station_id":"DU","transit":true,"time":4},{"time":8,"station_name":"Tanah Abang","transit":true,"station_id":"THB","i_lat":-6.185545,"line":1,"i_long":106.811091,"distance":3632,"is_transit":true},{"line":6,"time":6,"is_transit":false,"station_id":"PLM","station_name":"Palmerah","i_lat":-6.207404,"i_long":106.79689,"transit":false,"distance":3191},{"i_long":106.780334,"station_name":"Kebayoran","transit":false,"time":7,"station_id":"KBY","line":6,"distance":3737,"i_lat":-6.237242,"is_transit":false},{"transit":false,"is_transit":false,"i_lat":-6.276362,"i_long":106.74273,"station_id":"PDJ","distance":6218,"time":8,"line":6,"station_name":"Pondokranji"},{"time":3,"station_name":"Jurangmangu","i_long":106.728916,"line":6,"station_id":"JMU","is_transit":false,"distance":2179,"i_lat":-6.288927,"transit":false},{"station_id":"SDM","is_transit":false,"time":4,"transit":false,"i_lat":-6.296963,"station_name":"Sudimara","i_long":106.712277,"line":6,"distance":1994},{"line":6,"transit":false,"i_lat":-6.314823,"distance":4566,"station_id":"RU","is_transit":false,"station_name":"Rawa Buntu","i_long":106.675475,"time":6},{"line":6,"i_long":106.66566,"station_name":"Serpong","distance":2413,"station_id":"SRP","transit":false,"is_transit":false,"i_lat":-6.319871,"time":4},{"station_name":"Cisauk","transit":false,"is_transit":false,"i_long":106.640411,"station_id":"CSK","distance":1784,"time":4,"i_lat":-6.32484,"line":0}],[{"station_id":"KPB","transit":false,"station_name":"Kampung Bandan","time":0,"i_lat":-6.132549,"is_transit":true,"line":0,"i_long":106.826365,"distance":0},{"is_transit":true,"i_long":106.812439,"time":3,"i_lat":-6.137569,"station_id":"JAKK","transit":true,"distance":1364,"line":0,"station_name":"Jakarta Kota"},{"line":7,"station_name":"Jayakarta","i_long":106.820901,"is_transit":false,"distance":1264,"time":4,"i_lat":-6.141205,"station_id":"JAY","transit":false},{"is_transit":false,"time":2,"station_id":"MGB","distance":1080,"station_name":"Manggabesar","i_lat":-6.149769,"i_long":106.82482,"transit":false,"line":2},{"i_long":106.827103,"i_lat":-6.160725,"line":2,"transit":false,"distance":906,"station_id":"SW","time":2,"is_transit":false,"station_name":"Sawah Besar"},{"transit":false,"i_lat":-6.166716,"station_name":"Juanda","is_transit":false,"distance":1149,"time":2,"line":2,"station_id":"JUA","i_long":106.828284},{"time":4,"station_name":"Gondangdia","distance":2015,"i_lat":-6.186295,"i_long":106.832183,"station_id":"GDD","line":2,"transit":false,"is_transit":false},{"time":3,"station_name":"Cikini","is_transit":false,"i_long":106.840169,"distance":1750,"line":0,"station_id":"CKI","transit":false,"i_lat":-6.198556},{"line":0,"station_name":"Manggarai","is_transit":true,"station_id":"MRI","distance":1590,"time":4,"i_long":106.84912,"i_lat":-6.209883,"transit":true},{"is_transit":false,"i_long":106.822649,"station_id":"SUD","time":4,"i_lat":-6.202263,"line":1,"station_name":"Sudirman","transit":false,"distance":3186},{"time":1,"line":1,"is_transit":false,"transit":false,"station_name":"Sudirman Baru","station_id":"SUDB","distance":280,"i_lat":-6.201433,"i_long":106.819881},{"i_long":106.816351,"is_transit":false,"station_id":"KAT","station_name":"Karet","transit":false,"distance":471,"line":1,"time":1,"i_lat":-6.20132},{"station_name":"Tanah Abang","transit":true,"time":5,"i_lat":-6.185545,"line":1,"i_long":106.811091,"distance":2029,"station_id":"THB","is_transit":true},{"line":6,"distance":3191,"station_id":"PLM","time":6,"is_transit":false,"transit":false,"i_lat":-6.207404,"i_long":106.79689,"station_name":"Palmerah"},{"transit":false,"line":6,"station_id":"KBY","station_name":"Kebayoran","time":7,"i_long":106.780334,"i_lat":-6.237242,"is_transit":false,"distance":3737},{"transit":false,"station_name":"Pondokranji","time":8,"is_transit":false,"i_lat":-6.276362,"line":6,"i_long":106.74273,"distance":6218,"station_id":"PDJ"},{"transit":false,"station_id":"JMU","station_name":"Jurangmangu","distance":2179,"i_lat":-6.288927,"line":6,"is_transit":false,"time":3,"i_long":106.728916},{"i_long":106.712277,"line":6,"distance":1994,"time":4,"i_lat":-6.296963,"is_transit":false,"station_name":"Sudimara","station_id":"SDM","transit":false},{"station_name":"Rawa Buntu","i_long":106.675475,"line":6,"transit":false,"i_lat":-6.314823,"station_id":"RU","is_transit":false,"distance":4566,"time":6},{"transit":false,"line":6,"i_lat":-6.319871,"time":4,"station_name":"Serpong","is_transit":false,"i_long":106.66566,"station_id":"SRP","distance":2413},{"station_id":"CSK","i_long":106.640411,"transit":false,"time":4,"i_lat":-6.32484,"line":0,"distance":1784,"station_name":"Cisauk","is_transit":false}],[{"line":0,"is_transit":true,"time":0,"i_long":106.826365,"transit":false,"station_name":"Kampung Bandan","distance":0,"station_id":"KPB","i_lat":-6.132549},{"station_name":"Rajawali","transit":false,"time":3,"line":11,"is_transit":false,"station_id":"RJW","distance":1444,"i_long":106.836569,"i_lat":-6.14505},{"transit":false,"line":11,"time":5,"i_long":106.839204,"is_transit":false,"distance":1901,"station_id":"KMO","station_name":"Kemayoran","i_lat":-6.161728},{"line":11,"station_id":"PSE","transit":false,"time":4,"i_lat":-6.174784,"is_transit":false,"distance":1436,"station_name":"Pasar Senen","i_long":106.84368},{"line":11,"station_id":"GST","transit":false,"is_transit":false,"time":8,"i_lat":-6.185975,"station_name":"Gang Sentiong","distance":1567,"i_long":106.850107},{"transit":false,"time":1,"station_id":"KMT","i_lat":-6.193792,"is_transit":false,"station_name":"Kramat","distance":973,"line":11,"i_long":106.855437},{"i_lat":-6.209188,"i_long":106.861737,"line":11,"is_transit":false,"time":2,"station_id":"POK","station_name":"Pondok Jati","distance":1829,"transit":false},{"is_transit":true,"line":0,"distance":1236,"time":9,"transit":true,"station_id":"JNG","i_lat":-6.215091,"station_name":"Jatinegara","i_long":106.86807400000001},{"line":1,"time":2,"i_long":106.858896,"station_name":"Matraman","station_id":"MTR","distance":1377,"i_lat":-6.212485,"is_transit":false,"transit":false},{"is_transit":true,"station_name":"Manggarai","transit":false,"distance":1275,"line":0,"station_id":"MRI","time":2,"i_lat":-6.209883,"i_long":106.84912},{"station_name":"Sudirman","distance":3186,"line":1,"transit":false,"is_transit":false,"i_long":106.822649,"time":4,"i_lat":-6.202263,"station_id":"SUD"},{"time":1,"distance":280,"station_name":"Sudirman Baru","is_transit":false,"i_lat":-6.201433,"i_long":106.819881,"station_id":"SUDB","transit":false,"line":1},{"station_name":"Karet","is_transit":false,"line":1,"i_lat":-6.20132,"distance":471,"time":1,"transit":false,"station_id":"KAT","i_long":106.816351},{"i_long":106.811091,"station_id":"THB","time":5,"line":1,"transit":true,"station_name":"Tanah Abang","i_lat":-6.185545,"is_transit":true,"distance":2029},{"i_long":106.79689,"time":6,"i_lat":-6.207404,"line":6,"is_transit":false,"station_name":"Palmerah","station_id":"PLM","transit":false,"distance":3191},{"station_id":"KBY","i_long":106.780334,"line":6,"station_name":"Kebayoran","transit":false,"time":7,"i_lat":-6.237242,"distance":3737,"is_transit":false},{"i_long":106.74273,"line":6,"transit":false,"i_lat":-6.276362,"distance":6218,"is_transit":false,"station_name":"Pondokranji","time":8,"station_id":"PDJ"},{"distance":2179,"time":3,"i_lat":-6.288927,"station_name":"Jurangmangu","transit":false,"line":6,"i_long":106.728916,"is_transit":false,"station_id":"JMU"},{"line":6,"is_transit":false,"transit":false,"i_long":106.712277,"distance":1994,"time":4,"station_id":"SDM","station_name":"Sudimara","i_lat":-6.296963},{"station_id":"RU","transit":false,"station_name":"Rawa Buntu","is_transit":false,"time":6,"i_lat":-6.314823,"line":6,"i_long":106.675475,"distance":4566},{"i_lat":-6.319871,"distance":2413,"station_id":"SRP","station_name":"Serpong","i_long":106.66566,"line":6,"transit":false,"time":4,"is_transit":false},{"distance":1784,"station_name":"Cisauk","transit":false,"time":4,"i_lat":-6.32484,"station_id":"CSK","is_transit":false,"i_long":106.640411,"line":0}]]}