{"data":[[{"line":4,"station_id":"KPB","i_lat":-6.132549,"distance":0,"is_transit":false,"i_long":106.826365,"station_name":"Kampung Bandan","time":0,"transit":false},{"transit":false,"station_name":"Rajawali","is_transit":false,"line":11,"station_id":"RJW","i_lat":-6.14505,"time":3,"i_long":106.836569,"distance":1444},{"line":11,"is_transit":false,"station_name":"Kemayoran","time":5,"transit":false,"station_id":"KMO","i_lat":-6.161728,"distance":1901,"i_long":106.839204},{"time":4,"station_id":"PSE","transit":false,"station_name":"Pasar Senen","i_lat":-6.174784,"i_long":106.84368,"distance":1436,"line":11,"is_transit":false},{"is_transit":false,"line":11,"station_id":"GST","transit":false,"time":8,"distance":1567,"i_lat":-6.185975,"i_long":106.850107,"station_name":"Gang Sentiong"},{"distance":973,"transit":false,"station_id":"KMT","i_lat":-6.193792,"time":1,"i_long":106.855437,"is_transit":false,"station_name":"Kramat","line":11},{"transit":false,"time":2,"distance":1829,"station_name":"Pondok Jati","i_lat":-6.209188,"i_long":106.861737,"is_transit":false,"line":11,"station_id":"POK"},{"i_long":106.86807400000001,"station_id":"JNG","station_name":"Jatinegara","is_transit":true,"transit":true,"line":1,"time":9,"distance":1236,"i_lat":-6.215091},{"time":3,"distance":3395,"i_lat":-6.2135,"line":1,"station_name":"Klender","i_long":106.899548,"station_id":"KLD","is_transit":false,"transit":false},{"i_long":106.922662,"station_name":"Buaran","transit":false,"i_lat":-6.215568,"line":1,"time":2,"station_id":"BUA","is_transit":false,"distance":3100},{"i_lat":-6.217455,"line":1,"is_transit":false,"station_name":"Klenderbaru","distance":1305,"i_long":106.939679,"transit":false,"station_id":"KLDB","time":1},{"line":1,"i_long":106.951283,"station_name":"Cakung","transit":false,"time":8,"station_id":"CUK","distance":1385,"is_transit":false,"i_lat":-6.219053}],[{"distance":0,"line":4,"station_id":"KPB","station_name":"Kampung Bandan","transit":false,"is_transit":false,"time":0,"i_lat":-6.132549,"i_long":106.826365},{"station_id":"AK","i_long":106.79867,"time":9,"transit":false,"i_lat":-6.144674,"line":1,"distance":4102,"is_transit":false,"station_name":"Angke"},{"transit":false,"time":4,"station_name":"Duri","is_transit":false,"distance":1230,"i_lat":-6.155215,"i_long":106.800832,"line":1,"station_id":"DU"},{"transit":false,"station_id":"THB","station_name":"Tanah Abang","is_transit":false,"time":8,"distance":3632,"line":1,"i_long":106.811091,"i_lat":-6.185545},{"time":5,"distance":2029,"line":1,"transit":false,"station_name":"Karet","is_transit":false,"i_lat":-6.20132,"station_id":"KAT","i_long":106.816351},{"transit":false,"station_id":"SUDB","time":1,"distance":471,"i_long":106.819881,"is_transit":false,"line":1,"station_name":"Sudirman Baru","i_lat":-6.201433},{"transit":false,"time":1,"i_long":106.822649,"station_name":"Sudirman","distance":280,"i_lat":-6.202263,"line":1,"is_transit":false,"station_id":"SUD"},{"distance":3186,"is_transit":false,"time":4,"i_long":106.84912,"station_name":"Manggarai","line":2,"station_id":"MRI","i_lat":-6.209883,"transit":false},{"station_name":"Matraman","line":1,"transit":false,"station_id":"MTR","i_lat":-6.212485,"distance":1275,"i_long":106.858896,"is_transit":false,"time":2},{"line":1,"station_name":"Jatinegara","distance":1377,"is_transit":false,"station_id":"JNG","i_lat":-6.215091,"i_long":106.86807400000001,"transit":false,"time":8},{"i_lat":-6.2135,"station_name":"Klender","time":3,"line":1,"distance":3395,"is_transit":false,"station_id":"KLD","i_long":106.899548,"transit":false},{"transit":false,"is_transit":false,"i_long":106.922662,"line":1,"distance":3100,"station_id":"BUA","station_name":"Buaran","i_lat":-6.215568,"time":2},{"time":1,"i_long":106.939679,"is_transit":false,"i_lat":-6.217455,"distance":1305,"station_name":"Klenderbaru","line":1,"station_id":"KLDB","transit":false},{"station_id":"CUK","distance":1385,"time":8,"i_lat":-6.219053,"line":1,"i_long":106.951283,"transit":false,"station_name":"Cakung","is_transit":false}],[{"station_id":"KPB","time":0,"distance":0,"line":4,"is_transit":false,"station_name":"Kampung Bandan","transit":false,"i_lat":-6.132549,"i_long":106.826365},{"i_lat":-6.137569,"transit":true,"is_transit":true,"station_id":"JAKK","distance":1364,"time":3,"line":2,"station_name":"Jakarta Kota","i_long":106.812439},{"is_transit":false,"transit":false,"i_long":106.820901,"i_lat":-6.141205,"time":4,"line":2,"distance":1264,"station_name":"Jayakarta","station_id":"JAY"},{"line":2,"station_id":"MGB","station_name":"Manggabesar","is_transit":false,"i_lat":-6.149769,"i_long":106.82482,"transit":false,"time":2,"distance":1080},{"station_id":"SW","distance":906,"transit":false,"is_transit":false,"i_long":106.827103,"i_lat":-6.160725,"station_name":"Sawah Besar","line":2,"time":2},{"i_lat":-6.166716,"is_transit":false,"i_long":106.828284,"station_name":"Juanda","station_id":"JUA","line":2,"transit":false,"time":2,"distance":1149},{"station_name":"Gondangdia","is_transit":false,"distance":2015,"i_lat":-6.186295,"time":4,"i_long":106.832183,"line":2,"transit":false,"station_id":"GDD"},{"station_id":"CKI","time":3,"i_lat":-6.198556,"station_name":"Cikini","i_long":106.840169,"line":2,"is_transit":false,"distance":1750,"transit":false},{"transit":true,"station_name":"Manggarai","i_lat":-6.209883,"time":4,"i_long":106.84912,"station_id":"MRI","distance":1590,"line":2,"is_transit":true},{"i_long":106.858896,"time":2,"station_id":"MTR","station_name":"Matraman","distance":1275,"transit":false,"is_transit":false,"line":1,"i_lat":-6.212485},{"time":8,"i_long":106.86807400000001,"station_id":"JNG","distance":1377,"is_transit":false,"i_lat":-6.215091,"station_name":"Jatinegara","line":1,"transit":false},{"transit":false,"station_name":"Klender","is_transit":false,"i_lat":-6.2135,"station_id":"KLD","distance":3395,"time":3,"i_long":106.899548,"line":1},{"distance":3100,"time":2,"station_id":"BUA","i_lat":-6.215568,"i_long":106.922662,"is_transit":false,"line":1,"station_name":"Buaran","transit":false},{"station_name":"Klenderbaru","line":1,"station_id":"KLDB","distance":1305,"i_lat":-6.217455,"time":1,"i_long":106.939679,"transit":false,"is_transit":false},{"station_name":"Cakung","i_long":106.951283,"distance":1385,"station_id":"CUK","line":1,"time":8,"transit":false,"i_lat":-6.219053,"is_transit":false}]]}