{"data":[[{"is_transit":false,"station_id":"KPB","station_name":"Kampung Bandan","line":4,"i_lat":-6.132549,"time":0,"distance":0,"i_long":106.826365,"transit":false},{"distance":1444,"time":3,"line":11,"i_long":106.836569,"i_lat":-6.14505,"transit":false,"station_id":"RJW","station_name":"Rajawali","is_transit":false},{"time":5,"station_name":"Kemayoran","station_id":"KMO","i_lat":-6.161728,"i_long":106.839204,"line":11,"is_transit":false,"transit":false,"distance":1901},{"station_name":"Pasar Senen","station_id":"PSE","time":4,"i_lat":-6.174784,"i_long":106.84368,"line":11,"is_transit":false,"transit":false,"distance":1436}],[{"station_id":"KPB","line":4,"transit":false,"is_transit":false,"station_name":"Kampung Bandan","distance":0,"time":0,"i_long":106.826365,"i_lat":-6.132549},{"station_name":"Angke","distance":4102,"station_id":"AK","transit":false,"time":9,"i_lat":-6.144674,"line":1,"is_transit":false,"i_long":106.79867},{"station_id":"DU","time":4,"is_transit":false,"transit":false,"i_lat":-6.155215,"i_long":106.800832,"line":1,"station_name":"Duri","distance":1230},{"line":1,"time":8,"distance":3632,"transit":false,"station_name":"Tanah Abang","is_transit":false,"station_id":"THB","i_lat":-6.185545,"i_long":106.811091},{"station_name":"Karet","station_id":"KAT","i_long":106.816351,"i_lat":-6.20132,"transit":false,"line":1,"time":5,"is_transit":false,"distance":2029},{"is_transit":false,"i_lat":-6.201433,"line":1,"distance":471,"station_id":"SUDB","station_name":"Sudirman Baru","transit":false,"i_long":106.819881,"time":1},{"distance":280,"i_long":106.822649,"station_id":"SUD","is_transit":false,"transit":false,"i_lat":-6.202263,"line":1,"station_name":"Sudirman","time":1},{"time":4,"i_long":106.84912,"line":2,"station_name":"Manggarai","transit":false,"is_transit":false,"i_lat":-6.209883,"distance":3186,"station_id":"MRI"},{"i_lat":-6.212485,"station_id":"MTR","i_long":106.858896,"line":1,"time":2,"station_name":"Matraman","is_transit":false,"transit":false,"distance":1275},{"line":1,"station_name":"Jatinegara","i_lat":-6.215091,"distance":1377,"transit":true,"station_id":"JNG","time":8,"i_long":106.86807400000001,"is_transit":true},{"station_id":"POK","time":2,"is_transit":false,"station_name":"Pondok Jati","i_long":106.861737,"transit":false,"i_lat":-6.209188,"distance":1236,"line":11},{"distance":1829,"station_name":"Kramat","station_id":"KMT","transit":false,"i_long":106.855437,"i_lat":-6.193792,"is_transit":false,"time":2,"line":11},{"i_lat":-6.185975,"is_transit":false,"transit":false,"distance":973,"station_id":"GST","i_long":106.850107,"station_name":"Gang Sentiong","time":1,"line":11},{"i_long":106.84368,"line":11,"transit":false,"station_name":"Pasar Senen","station_id":"PSE","i_lat":-6.174784,"is_transit":false,"time":8,"distance":1567}],[{"i_long":106.826365,"line":4,"station_id":"KPB","distance":0,"i_lat":-6.132549,"time":0,"station_name":"Kampung Bandan","is_transit":false,"transit":false},{"i_long":106.812439,"is_transit":true,"station_name":"Jakarta Kota","i_lat":-6.137569,"distance":1364,"line":2,"station_id":"JAKK","time":3,"transit":true},{"time":4,"distance":1264,"station_name":"Jayakarta","is_transit":false,"i_lat":-6.141205,"i_long":106.820901,"station_id":"JAY","line":2,"transit":false},{"distance":1080,"transit":false,"line":2,"i_lat":-6.149769,"i_long":106.82482,"time":2,"is_transit":false,"station_id":"MGB","station_name":"Manggabesar"},{"is_transit":false,"transit":false,"time":2,"distance":906,"i_long":106.827103,"line":2,"i_lat":-6.160725,"station_name":"Sawah Besar","station_id":"SW"},{"station_name":"Juanda","i_lat":-6.166716,"time":2,"i_long":106.828284,"line":2,"transit":false,"distance":1149,"is_transit":false,"station_id":"JUA"},{"i_long":106.832183,"i_lat":-6.186295,"time":4,"station_id":"GDD","station_name":"Gondangdia","is_transit":false,"line":2,"transit":false,"distance":2015},{"time":3,"station_name":"Cikini","station_id":"CKI","transit":false,"line":2,"i_long":106.840169,"is_transit":false,"distance":1750,"i_lat":-6.198556},{"is_transit":true,"station_name":"Manggarai","line":2,"distance":1590,"i_lat":-6.209883,"station_id":"MRI","time":4,"transit":true,"i_long":106.84912},{"i_long":106.858896,"distance":1275,"station_id":"MTR","i_lat":-6.212485,"time":2,"transit":false,"is_transit":false,"station_name":"Matraman","line":1},{"transit":true,"i_long":106.86807400000001,"line":1,"station_name":"Jatinegara","i_lat":-6.215091,"time":8,"is_transit":true,"distance":1377,"station_id":"JNG"},{"station_id":"POK","is_transit":false,"distance":1236,"time":2,"i_long":106.861737,"line":11,"i_lat":-6.209188,"transit":false,"station_name":"Pondok Jati"},{"transit":false,"distance":1829,"i_long":106.855437,"time":2,"line":11,"is_transit":false,"i_lat":-6.193792,"station_name":"Kramat","station_id":"KMT"},{"transit":false,"station_id":"GST","i_long":106.850107,"station_name":"Gang Sentiong","is_transit":false,"distance":973,"time":1,"i_lat":-6.185975,"line":11},{"line":11,"i_long":106.84368,"transit":false,"station_id":"PSE","time":8,"is_transit":false,"station_name":"Pasar Senen","distance":1567,"i_lat":-6.174784}]]}