{"data":[[{"distance":0,"i_long":106.826365,"is_transit":false,"station_name":"Kampung Bandan","transit":false,"time":0,"line":4,"station_id":"KPB","i_lat":-6.132549},{"i_lat":-6.14505,"line":11,"distance":1444,"time":3,"i_long":106.836569,"is_transit":false,"transit":false,"station_id":"RJW","station_name":"Rajawali"},{"distance":1901,"station_id":"KMO","line":11,"station_name":"Kemayoran","is_transit":false,"transit":false,"i_lat":-6.161728,"i_long":106.839204,"time":5},{"transit":false,"i_long":106.84368,"station_name":"Pasar Senen","time":4,"station_id":"PSE","is_transit":false,"i_lat":-6.174784,"distance":1436,"line":11},{"station_name":"Gang Sentiong","is_transit":false,"i_lat":-6.185975,"line":11,"distance":1567,"i_long":106.850107,"time":8,"station_id":"GST","transit":false},{"station_id":"KMT","i_long":106.855437,"station_name":"Kramat","i_lat":-6.193792,"time":1,"distance":973,"is_transit":false,"line":11,"transit":false},{"station_id":"POK","station_name":"Pondok Jati","line":11,"is_transit":false,"i_lat":-6.209188,"distance":1829,"i_long":106.861737,"transit":false,"time":2},{"i_long":106.86807400000001,"distance":1236,"is_transit":true,"station_id":"JNG","time":9,"station_name":"Jatinegara","transit":true,"line":1,"i_lat":-6.215091},{"station_name":"Klender","station_id":"KLD","time":3,"line":1,"distance":3395,"i_lat":-6.2135,"i_long":106.899548,"transit":false,"is_transit":false},{"time":2,"station_name":"Buaran","i_lat":-6.215568,"transit":false,"is_transit":false,"line":1,"distance":3100,"station_id":"BUA","i_long":106.922662},{"transit":false,"distance":1305,"station_name":"Klenderbaru","i_lat":-6.217455,"is_transit":false,"i_long":106.939679,"station_id":"KLDB","time":1,"line":1},{"station_id":"CUK","distance":1385,"line":1,"station_name":"Cakung","transit":false,"is_transit":false,"i_lat":-6.219053,"i_long":106.951283,"time":8},{"station_id":"KRI","time":3,"is_transit":false,"station_name":"Kranji","transit":false,"i_lat":-6.224515,"i_long":106.977657,"line":1,"distance":3097},{"line":1,"is_transit":false,"distance":2520,"station_id":"BKS","transit":false,"i_long":106.997013,"i_lat":-6.236616,"time":4,"station_name":"Bekasi"},{"time":2,"i_long":107.016735,"i_lat":-6.248029,"station_id":"BKST","station_name":"Bekasi Timur","transit":false,"line":1,"is_transit":false,"distance":2368},{"i_lat":-6.258864,"is_transit":false,"station_id":"TB","station_name":"Tambun","i_long":107.055722,"time":7,"line":1,"distance":4460,"transit":false},{"distance":3420,"station_id":"CIT","is_transit":false,"i_lat":-6.261877,"line":1,"station_name":"Cibitung","transit":false,"i_long":107.083084,"time":3},{"transit":false,"time":2,"i_long":107.093313,"i_lat":-6.262938,"distance":2800,"station_name":"Metland Telaga Murni","station_id":"TLM","line":1,"is_transit":false}],[{"transit":false,"station_id":"KPB","is_transit":false,"station_name":"Kampung Bandan","distance":0,"i_lat":-6.132549,"i_long":106.826365,"time":0,"line":4},{"is_transit":false,"distance":4102,"transit":false,"station_name":"Angke","i_lat":-6.144674,"i_long":106.79867,"station_id":"AK","time":9,"line":1},{"i_long":106.800832,"station_id":"DU","transit":false,"i_lat":-6.155215,"line":1,"is_transit":false,"distance":1230,"time":4,"station_name":"Duri"},{"distance":3632,"transit":false,"i_lat":-6.185545,"is_transit":false,"station_id":"THB","i_long":106.811091,"time":8,"line":1,"station_name":"Tanah Abang"},{"distance":2029,"station_name":"Karet","i_long":106.816351,"is_transit":false,"line":1,"i_lat":-6.20132,"time":5,"transit":false,"station_id":"KAT"},{"is_transit":false,"line":1,"station_name":"Sudirman Baru","i_long":106.819881,"i_lat":-6.201433,"distance":471,"transit":false,"station_id":"SUDB","time":1},{"i_lat":-6.202263,"i_long":106.822649,"line":1,"station_name":"Sudirman","station_id":"SUD","distance":280,"time":1,"is_transit":false,"transit":false},{"station_name":"Manggarai","station_id":"MRI","time":4,"i_long":106.84912,"i_lat":-6.209883,"is_transit":false,"transit":false,"distance":3186,"line":2},{"station_name":"Matraman","i_lat":-6.212485,"is_transit":false,"i_long":106.858896,"line":1,"distance":1275,"station_id":"MTR","time":2,"transit":false},{"station_id":"JNG","station_name":"Jatinegara","time":8,"line":1,"transit":false,"i_lat":-6.215091,"distance":1377,"is_transit":false,"i_long":106.86807400000001},{"time":3,"distance":3395,"i_long":106.899548,"transit":false,"line":1,"station_id":"KLD","i_lat":-6.2135,"is_transit":false,"station_name":"Klender"},{"station_id":"BUA","transit":false,"distance":3100,"i_lat":-6.215568,"station_name":"Buaran","time":2,"is_transit":false,"i_long":106.922662,"line":1},{"transit":false,"station_id":"KLDB","i_lat":-6.217455,"distance":1305,"station_name":"Klenderbaru","line":1,"is_transit":false,"i_long":106.939679,"time":1},{"station_id":"CUK","i_long":106.951283,"is_transit":false,"time":8,"distance":1385,"transit":false,"station_name":"Cakung","i_lat":-6.219053,"line":1},{"line":1,"i_long":106.977657,"distance":3097,"is_transit":false,"transit":false,"station_id":"KRI","station_name":"Kranji","i_lat":-6.224515,"time":3},{"distance":2520,"transit":false,"station_name":"Bekasi","i_lat":-6.236616,"station_id":"BKS","time":4,"is_transit":false,"i_long":106.997013,"line":1},{"distance":2368,"transit":false,"i_long":107.016735,"station_id":"BKST","station_name":"Bekasi Timur","time":2,"is_transit":false,"line":1,"i_lat":-6.248029},{"distance":4460,"i_long":107.055722,"transit":false,"line":1,"time":7,"station_id":"TB","is_transit":false,"station_name":"Tambun","i_lat":-6.258864},{"line":1,"time":3,"i_lat":-6.261877,"i_long":107.083084,"station_id":"CIT","transit":false,"is_transit":false,"distance":3420,"station_name":"Cibitung"},{"i_lat":-6.262938,"is_transit":false,"station_name":"Metland Telaga Murni","line":1,"distance":2800,"i_long":107.093313,"time":2,"transit":false,"station_id":"TLM"}],[{"distance":0,"transit":false,"is_transit":false,"i_long":106.826365,"i_lat":-6.132549,"time":0,"station_name":"Kampung Bandan","line":4,"station_id":"KPB"},{"station_id":"JAKK","is_transit":true,"transit":true,"i_lat":-6.137569,"time":3,"i_long":106.812439,"station_name":"Jakarta Kota","distance":1364,"line":2},{"time":4,"station_name":"Jayakarta","line":2,"transit":false,"distance":1264,"i_long":106.820901,"i_lat":-6.141205,"is_transit":false,"station_id":"JAY"},{"time":2,"i_long":106.82482,"station_id":"MGB","i_lat":-6.149769,"line":2,"is_transit":false,"distance":1080,"station_name":"Manggabesar","transit":false},{"transit":false,"distance":906,"station_name":"Sawah Besar","i_lat":-6.160725,"station_id":"SW","line":2,"is_transit":false,"time":2,"i_long":106.827103},{"time":2,"i_long":106.828284,"transit":false,"is_transit":false,"distance":1149,"station_name":"Juanda","line":2,"station_id":"JUA","i_lat":-6.166716},{"time":4,"station_id":"GDD","station_name":"Gondangdia","transit":false,"i_lat":-6.186295,"distance":2015,"line":2,"is_transit":false,"i_long":106.832183},{"line":2,"station_name":"Cikini","i_lat":-6.198556,"station_id":"CKI","i_long":106.840169,"time":3,"is_transit":false,"transit":false,"distance":1750},{"station_name":"Manggarai","i_long":106.84912,"time":4,"distance":1590,"is_transit":true,"transit":true,"i_lat":-6.209883,"line":2,"station_id":"MRI"},{"time":2,"is_transit":false,"transit":false,"distance":1275,"station_name":"Matraman","station_id":"MTR","i_long":106.858896,"line":1,"i_lat":-6.212485},{"distance":1377,"station_id":"JNG","time":8,"is_transit":false,"line":1,"i_long":106.86807400000001,"station_name":"Jatinegara","transit":false,"i_lat":-6.215091},{"distance":3395,"transit":false,"station_id":"KLD","i_lat":-6.2135,"line":1,"time":3,"is_transit":false,"i_long":106.899548,"station_name":"Klender"},{"transit":false,"time":2,"station_name":"Buaran","station_id":"BUA","line":1,"is_transit":false,"distance":3100,"i_long":106.922662,"i_lat":-6.215568},{"station_id":"KLDB","is_transit":false,"distance":1305,"transit":false,"time":1,"station_name":"Klenderbaru","i_long":106.939679,"line":1,"i_lat":-6.217455},{"station_id":"CUK","station_name":"Cakung","i_long":106.951283,"transit":false,"is_transit":false,"distance":1385,"line":1,"time":8,"i_lat":-6.219053},{"transit":false,"i_long":106.977657,"station_id":"KRI","distance":3097,"is_transit":false,"time":3,"line":1,"station_name":"Kranji","i_lat":-6.224515},{"transit":false,"station_id":"BKS","station_name":"Bekasi","time":4,"i_lat":-6.236616,"line":1,"distance":2520,"is_transit":false,"i_long":106.997013},{"distance":2368,"line":1,"i_lat":-6.248029,"station_id":"BKST","i_long":107.016735,"is_transit":false,"station_name":"Bekasi Timur","transit":false,"time":2},{"transit":false,"distance":4460,"i_long":107.055722,"line":1,"station_id":"TB","station_name":"Tambun","is_transit":false,"i_lat":-6.258864,"time":7},{"station_id":"CIT","distance":3420,"i_lat":-6.261877,"line":1,"time":3,"i_long":107.083084,"station_name":"Cibitung","transit":false,"is_transit":false},{"time":2,"is_transit":false,"station_id":"TLM","transit":false,"station_name":"Metland Telaga Murni","i_lat":-6.262938,"distance":2800,"i_long":107.093313,"line":1}]]}