{"data":[[{"is_transit":false,"i_lat":-6.132549,"station_id":"KPB","time":0,"i_long":106.826365,"station_name":"Kampung Bandan","transit":false,"distance":0,"line":4},{"station_name":"Angke","time":9,"station_id":"AK","is_transit":false,"distance":4102,"i_lat":-6.144674,"i_long":106.79867,"line":1,"transit":false},{"station_name":"Duri","i_long":106.800832,"is_transit":true,"line":1,"distance":1230,"transit":true,"i_lat":-6.155215,"station_id":"DU","time":4},{"line":5,"time":3,"is_transit":false,"i_lat":-6.162021,"station_name":"Grogol","i_long":106.788277,"transit":false,"station_id":"GGL","distance":1700},{"time":2,"station_name":"Pesing","i_lat":-6.161433,"distance":2036,"station_id":"PSG","line":5,"i_long":106.771379,"transit":false,"is_transit":false},{"line":5,"distance":1614,"station_id":"TKO","transit":false,"time":2,"i_lat":-6.1587309999999995,"i_long":106.756522,"station_name":"Taman Kota","is_transit":false},{"station_name":"Bojongindah","time":2,"i_long":106.737035,"distance":2334,"is_transit":false,"line":5,"transit":false,"station_id":"BOI","i_lat":-6.159876},{"transit":false,"station_name":"Rawa Buaya","distance":1152,"line":5,"i_long":106.723064,"i_lat":-6.162758,"station_id":"RW","is_transit":false,"time":4},{"is_transit":false,"i_lat":-6.166068,"i_long":106.701612,"station_name":"Kalideres","distance":2504,"line":5,"station_id":"KDS","time":3,"transit":false},{"i_long":106.679458,"line":5,"is_transit":false,"time":3,"distance":2548,"station_name":"Poris","station_id":"PI","i_lat":-6.169933,"transit":false},{"station_id":"BPR","transit":false,"time":3,"i_lat":-6.171811,"line":5,"i_long":106.665036,"distance":1834,"is_transit":false,"station_name":"Batuceper"},{"is_transit":false,"station_name":"Tanah Tinggi","i_long":106.64657,"station_id":"TTI","distance":2028,"line":5,"time":3,"transit":false,"i_lat":-6.17331}],[{"transit":false,"station_id":"KPB","time":0,"i_lat":-6.132549,"line":4,"is_transit":false,"station_name":"Kampung Bandan","distance":0,"i_long":106.826365},{"i_long":106.812439,"is_transit":true,"transit":true,"time":3,"distance":1364,"station_name":"Jakarta Kota","station_id":"JAKK","line":2,"i_lat":-6.137569},{"line":2,"transit":false,"station_name":"Jayakarta","distance":1264,"station_id":"JAY","i_lat":-6.141205,"i_long":106.820901,"time":4,"is_transit":false},{"station_name":"Manggabesar","distance":1080,"time":2,"transit":false,"is_transit":false,"i_lat":-6.149769,"line":2,"i_long":106.82482,"station_id":"MGB"},{"station_name":"Sawah Besar","i_lat":-6.160725,"line":2,"station_id":"SW","transit":false,"i_long":106.827103,"time":2,"is_transit":false,"distance":906},{"time":2,"i_long":106.828284,"line":2,"station_name":"Juanda","i_lat":-6.166716,"station_id":"JUA","distance":1149,"transit":false,"is_transit":false},{"transit":false,"i_long":106.832183,"distance":2015,"i_lat":-6.186295,"time":4,"line":2,"station_name":"Gondangdia","station_id":"GDD","is_transit":false},{"station_name":"Cikini","i_long":106.840169,"station_id":"CKI","distance":1750,"i_lat":-6.198556,"transit":false,"line":2,"is_transit":false,"time":3},{"line":2,"is_transit":true,"transit":true,"time":4,"i_long":106.84912,"station_name":"Manggarai","distance":1590,"i_lat":-6.209883,"station_id":"MRI"},{"i_lat":-6.202263,"is_transit":false,"line":1,"transit":false,"station_name":"Sudirman","time":4,"distance":3186,"i_long":106.822649,"station_id":"SUD"},{"line":1,"transit":false,"time":1,"i_lat":-6.201433,"distance":280,"i_long":106.819881,"station_name":"Sudirman Baru","is_transit":false,"station_id":"SUDB"},{"distance":471,"i_lat":-6.20132,"station_id":"KAT","transit":false,"time":1,"i_long":106.816351,"line":1,"station_name":"Karet","is_transit":false},{"station_id":"THB","distance":2029,"is_transit":false,"i_long":106.811091,"i_lat":-6.185545,"station_name":"Tanah Abang","line":1,"time":5,"transit":false},{"is_transit":true,"time":8,"i_lat":-6.155215,"line":1,"distance":3632,"i_long":106.800832,"transit":true,"station_name":"Duri","station_id":"DU"},{"transit":false,"line":5,"is_transit":false,"time":3,"station_name":"Grogol","station_id":"GGL","i_lat":-6.162021,"i_long":106.788277,"distance":1700},{"station_id":"PSG","distance":2036,"line":5,"i_lat":-6.161433,"station_name":"Pesing","is_transit":false,"transit":false,"i_long":106.771379,"time":2},{"time":2,"station_name":"Taman Kota","is_transit":false,"distance":1614,"i_lat":-6.1587309999999995,"transit":false,"station_id":"TKO","i_long":106.756522,"line":5},{"transit":false,"i_lat":-6.159876,"distance":2334,"i_long":106.737035,"is_transit":false,"station_id":"BOI","time":2,"station_name":"Bojongindah","line":5},{"i_long":106.723064,"station_name":"Rawa Buaya","time":4,"is_transit":false,"station_id":"RW","i_lat":-6.162758,"line":5,"distance":1152,"transit":false},{"i_lat":-6.166068,"i_long":106.701612,"transit":false,"time":3,"is_transit":false,"line":5,"station_id":"KDS","distance":2504,"station_name":"Kalideres"},{"i_long":106.679458,"time":3,"line":5,"station_name":"Poris","is_transit":false,"station_id":"PI","distance":2548,"i_lat":-6.169933,"transit":false},{"transit":false,"line":5,"i_lat":-6.171811,"time":3,"station_name":"Batuceper","station_id":"BPR","i_long":106.665036,"distance":1834,"is_transit":false},{"station_id":"TTI","is_transit":false,"distance":2028,"time":3,"i_long":106.64657,"i_lat":-6.17331,"station_name":"Tanah Tinggi","line":5,"transit":false}],[{"distance":0,"i_long":106.826365,"station_name":"Kampung Bandan","line":4,"station_id":"KPB","is_transit":false,"time":0,"i_lat":-6.132549,"transit":false},{"i_long":106.836569,"station_name":"Rajawali","distance":1444,"i_lat":-6.14505,"is_transit":false,"transit":false,"line":11,"time":3,"station_id":"RJW"},{"i_lat":-6.161728,"i_long":106.839204,"distance":1901,"station_name":"Kemayoran","is_transit":false,"transit":false,"time":5,"station_id":"KMO","line":11},{"station_id":"PSE","transit":false,"line":11,"station_name":"Pasar Senen","is_transit":false,"i_lat":-6.174784,"time":4,"i_long":106.84368,"distance":1436},{"is_transit":false,"i_lat":-6.185975,"station_id":"GST","transit":false,"station_name":"Gang Sentiong","line":11,"distance":1567,"time":8,"i_long":106.850107},{"i_lat":-6.193792,"station_id":"KMT","time":1,"line":11,"distance":973,"transit":false,"is_transit":false,"i_long":106.855437,"station_name":"Kramat"},{"station_name":"Pondok Jati","transit":false,"station_id":"POK","line":11,"time":2,"is_transit":false,"i_long":106.861737,"distance":1829,"i_lat":-6.209188},{"distance":1236,"station_name":"Jatinegara","is_transit":true,"station_id":"JNG","time":9,"i_long":106.86807400000001,"i_lat":-6.215091,"transit":true,"line":1},{"station_id":"MTR","line":1,"distance":1377,"i_long":106.858896,"station_name":"Matraman","transit":false,"is_transit":false,"i_lat":-6.212485,"time":2},{"distance":1275,"line":2,"is_transit":false,"i_lat":-6.209883,"i_long":106.84912,"station_id":"MRI","transit":false,"station_name":"Manggarai","time":2},{"line":1,"distance":3186,"station_name":"Sudirman","is_transit":false,"transit":false,"time":4,"station_id":"SUD","i_lat":-6.202263,"i_long":106.822649},{"i_long":106.819881,"transit":false,"station_name":"Sudirman Baru","time":1,"distance":280,"is_transit":false,"line":1,"station_id":"SUDB","i_lat":-6.201433},{"station_name":"Karet","transit":false,"station_id":"KAT","time":1,"i_long":106.816351,"is_transit":false,"i_lat":-6.20132,"distance":471,"line":1},{"transit":false,"i_lat":-6.185545,"is_transit":false,"station_id":"THB","line":1,"time":5,"distance":2029,"station_name":"Tanah Abang","i_long":106.811091},{"station_name":"Duri","line":1,"distance":3632,"transit":true,"i_lat":-6.155215,"is_transit":true,"station_id":"DU","time":8,"i_long":106.800832},{"i_lat":-6.162021,"station_name":"Grogol","transit":false,"distance":1700,"line":5,"station_id":"GGL","time":3,"i_long":106.788277,"is_transit":false},{"station_id":"PSG","is_transit":false,"distance":2036,"i_long":106.771379,"transit":false,"line":5,"i_lat":-6.161433,"station_name":"Pesing","time":2},{"is_transit":false,"i_lat":-6.1587309999999995,"transit":false,"time":2,"distance":1614,"station_name":"Taman Kota","station_id":"TKO","i_long":106.756522,"line":5},{"is_transit":false,"i_long":106.737035,"station_name":"Bojongindah","transit":false,"time":2,"distance":2334,"i_lat":-6.159876,"line":5,"station_id":"BOI"},{"station_id":"RW","distance":1152,"transit":false,"i_lat":-6.162758,"is_transit":false,"time":4,"station_name":"Rawa Buaya","i_long":106.723064,"line":5},{"station_id":"KDS","distance":2504,"i_lat":-6.166068,"is_transit":false,"i_long":106.701612,"time":3,"line":5,"station_name":"Kalideres","transit":false},{"distance":2548,"i_long":106.679458,"time":3,"i_lat":-6.169933,"line":5,"is_transit":false,"station_name":"Poris","transit":false,"station_id":"PI"},{"distance":1834,"i_long":106.665036,"transit":false,"station_name":"Batuceper","station_id":"BPR","is_transit":false,"time":3,"i_lat":-6.171811,"line":5},{"transit":false,"time":3,"i_lat":-6.17331,"line":5,"station_id":"TTI","station_name":"Tanah Tinggi","is_transit":false,"i_long":106.64657,"distance":2028}]]}