{"data":[[{"station_name":"Kampung Bandan","time":0,"line":4,"transit":false,"is_transit":false,"distance":0,"station_id":"KPB","i_lat":-6.132549,"i_long":106.826365},{"i_lat":-6.144674,"is_transit":false,"station_id":"AK","i_long":106.79867,"distance":4102,"station_name":"Angke","line":1,"time":9,"transit":false},{"station_name":"Duri","station_id":"DU","distance":1230,"i_long":106.800832,"line":1,"time":4,"i_lat":-6.155215,"is_transit":false,"transit":false},{"i_lat":-6.185545,"line":1,"is_transit":false,"time":8,"transit":false,"station_id":"THB","station_name":"Tanah Abang","i_long":106.811091,"distance":3632},{"distance":2029,"time":5,"station_id":"KAT","i_lat":-6.20132,"station_name":"Karet","line":1,"i_long":106.816351,"transit":false,"is_transit":false},{"line":1,"station_id":"SUDB","distance":471,"i_lat":-6.201433,"i_long":106.819881,"transit":false,"time":1,"station_name":"Sudirman Baru","is_transit":false},{"i_lat":-6.202263,"line":1,"station_id":"SUD","is_transit":false,"station_name":"Sudirman","i_long":106.822649,"time":1,"transit":false,"distance":280},{"is_transit":true,"transit":true,"distance":3186,"i_long":106.84912,"line":2,"station_id":"MRI","time":4,"station_name":"Manggarai","i_lat":-6.209883},{"station_name":"Tebet","is_transit":false,"i_lat":-6.226659,"i_long":106.857948,"station_id":"TEB","transit":false,"distance":2610,"line":2,"time":4},{"line":2,"is_transit":false,"i_lat":-6.242512,"station_name":"Cawang","transit":false,"i_long":106.856607,"time":2,"station_id":"CW","distance":1230},{"i_long":106.85449,"i_lat":-6.255332,"station_id":"DRN","station_name":"Duren Kalibata","line":2,"is_transit":false,"distance":1546,"time":3,"transit":false},{"i_lat":-6.263214,"distance":824,"transit":false,"station_name":"Pasar Minggu Baru","line":2,"is_transit":false,"i_long":106.851577,"time":2,"station_id":"PSMB"},{"is_transit":false,"transit":false,"time":2,"i_lat":-6.2842400000000005,"station_id":"PSM","station_name":"Pasar Minggu","i_long":106.843999,"line":2,"distance":2380},{"time":4,"station_name":"Tanjung Barat","is_transit":false,"transit":false,"station_id":"TNT","distance":2820,"i_lat":-6.3080680000000005,"i_long":106.838896,"line":2},{"line":2,"time":3,"distance":2671,"i_lat":-6.330363,"station_name":"Lenteng Agung","station_id":"LNA","transit":false,"is_transit":false,"i_long":106.832616},{"distance":1029,"line":2,"station_name":"Univ. Pancasila","transit":false,"station_id":"UP","time":2,"i_long":106.834175,"i_lat":-6.339291,"is_transit":false},{"station_id":"UI","line":2,"is_transit":false,"transit":false,"i_long":106.831474,"time":3,"station_name":"Univ. Indonesia","i_lat":-6.360749,"distance":2264},{"distance":1109,"transit":false,"i_lat":-6.369073,"i_long":106.831114,"time":2,"station_name":"Pondok Cina","is_transit":false,"line":2,"station_id":"POC"},{"time":4,"i_long":106.819451,"i_lat":-6.391065,"transit":false,"station_name":"Depokbaru","line":2,"is_transit":false,"distance":2727,"station_id":"DPB"},{"line":2,"is_transit":false,"station_name":"Depok","station_id":"DP","distance":1584,"time":3,"i_lat":-6.405256,"i_long":106.816926,"transit":false},{"transit":true,"station_id":"CTA","i_long":106.800298,"time":6,"is_transit":true,"line":2,"station_name":"Citayam","distance":5084,"i_lat":-6.448811},{"station_name":"Pondok Rajeg","transit":false,"time":0,"is_transit":false,"distance":0,"i_long":106.824374,"line":21,"i_lat":-6.460735,"station_id":"PDRG"}],[{"station_name":"Kampung Bandan","i_lat":-6.132549,"is_transit":false,"i_long":106.826365,"line":4,"station_id":"KPB","transit":false,"time":0,"distance":0},{"i_long":106.812439,"is_transit":true,"transit":true,"station_id":"JAKK","distance":1364,"station_name":"Jakarta Kota","line":2,"time":3,"i_lat":-6.137569},{"time":4,"transit":false,"is_transit":false,"distance":1264,"station_id":"JAY","i_lat":-6.141205,"i_long":106.820901,"line":2,"station_name":"Jayakarta"},{"station_id":"MGB","i_lat":-6.149769,"distance":1080,"transit":false,"time":2,"line":2,"station_name":"Manggabesar","is_transit":false,"i_long":106.82482},{"distance":906,"station_id":"SW","i_lat":-6.160725,"line":2,"time":2,"is_transit":false,"i_long":106.827103,"station_name":"Sawah Besar","transit":false},{"time":2,"i_lat":-6.166716,"transit":false,"i_long":106.828284,"is_transit":false,"station_id":"JUA","distance":1149,"station_name":"Juanda","line":2},{"station_id":"GDD","distance":2015,"i_lat":-6.186295,"is_transit":false,"i_long":106.832183,"transit":false,"line":2,"station_name":"Gondangdia","time":4},{"station_id":"CKI","line":2,"i_lat":-6.198556,"transit":false,"distance":1750,"station_name":"Cikini","time":3,"is_transit":false,"i_long":106.840169},{"is_transit":false,"time":4,"station_id":"MRI","station_name":"Manggarai","i_lat":-6.209883,"line":2,"transit":false,"distance":1590,"i_long":106.84912},{"station_id":"TEB","i_lat":-6.226659,"is_transit":false,"station_name":"Tebet","time":4,"distance":2610,"transit":false,"i_long":106.857948,"line":2},{"i_long":106.856607,"transit":false,"station_name":"Cawang","is_transit":false,"i_lat":-6.242512,"distance":1230,"line":2,"station_id":"CW","time":2},{"i_lat":-6.255332,"station_name":"Duren Kalibata","i_long":106.85449,"distance":1546,"transit":false,"line":2,"time":3,"station_id":"DRN","is_transit":false},{"time":2,"i_long":106.851577,"line":2,"is_transit":false,"i_lat":-6.263214,"distance":824,"transit":false,"station_name":"Pasar Minggu Baru","station_id":"PSMB"},{"transit":false,"time":2,"i_lat":-6.2842400000000005,"station_id":"PSM","is_transit":false,"i_long":106.843999,"line":2,"distance":2380,"station_name":"Pasar Minggu"},{"station_id":"TNT","is_transit":false,"line":2,"station_name":"Tanjung Barat","time":4,"distance":2820,"i_lat":-6.3080680000000005,"transit":false,"i_long":106.838896},{"i_lat":-6.330363,"is_transit":false,"transit":false,"time":3,"station_name":"Lenteng Agung","line":2,"distance":2671,"i_long":106.832616,"station_id":"LNA"},{"i_lat":-6.339291,"line":2,"is_transit":false,"station_id":"UP","i_long":106.834175,"station_name":"Univ. Pancasila","distance":1029,"transit":false,"time":2},{"transit":false,"line":2,"time":3,"i_lat":-6.360749,"station_name":"Univ. Indonesia","is_transit":false,"station_id":"UI","i_long":106.831474,"distance":2264},{"time":2,"is_transit":false,"i_lat":-6.369073,"station_name":"Pondok Cina","transit":false,"distance":1109,"line":2,"i_long":106.831114,"station_id":"POC"},{"station_name":"Depokbaru","line":2,"distance":2727,"transit":false,"station_id":"DPB","time":4,"i_long":106.819451,"is_transit":false,"i_lat":-6.391065},{"distance":1584,"i_long":106.816926,"i_lat":-6.405256,"transit":false,"station_name":"Depok","is_transit":false,"line":2,"station_id":"DP","time":3},{"station_name":"Citayam","i_long":106.800298,"transit":true,"time":6,"distance":5084,"station_id":"CTA","is_transit":true,"line":2,"i_lat":-6.448811},{"station_id":"PDRG","station_name":"Pondok Rajeg","time":0,"line":21,"transit":false,"distance":0,"is_transit":false,"i_long":106.824374,"i_lat":-6.460735}],[{"is_transit":false,"station_id":"KPB","time":0,"transit":false,"distance":0,"i_lat":-6.132549,"station_name":"Kampung Bandan","line":4,"i_long":106.826365},{"line":11,"is_transit":false,"station_id":"RJW","station_name":"Rajawali","time":3,"distance":1444,"i_lat":-6.14505,"i_long":106.836569,"transit":false},{"station_id":"KMO","time":5,"distance":1901,"transit":false,"station_name":"Kemayoran","is_transit":false,"i_lat":-6.161728,"i_long":106.839204,"line":11},{"is_transit":false,"station_name":"Pasar Senen","station_id":"PSE","time":4,"distance":1436,"i_lat":-6.174784,"i_long":106.84368,"line":11,"transit":false},{"i_long":106.850107,"station_name":"Gang Sentiong","line":11,"is_transit":false,"station_id":"GST","distance":1567,"i_lat":-6.185975,"transit":false,"time":8},{"transit":false,"station_id":"KMT","is_transit":false,"time":1,"i_long":106.855437,"station_name":"Kramat","i_lat":-6.193792,"line":11,"distance":973},{"i_long":106.861737,"transit":false,"distance":1829,"line":11,"i_lat":-6.209188,"is_transit":false,"station_name":"Pondok Jati","station_id":"POK","time":2},{"distance":1236,"line":1,"is_transit":true,"station_id":"JNG","station_name":"Jatinegara","transit":true,"i_lat":-6.215091,"i_long":106.86807400000001,"time":9},{"station_name":"Matraman","station_id":"MTR","i_long":106.858896,"transit":false,"time":2,"line":1,"distance":1377,"is_transit":false,"i_lat":-6.212485},{"line":2,"station_name":"Manggarai","is_transit":true,"i_lat":-6.209883,"i_long":106.84912,"distance":1275,"time":2,"station_id":"MRI","transit":true},{"line":2,"time":4,"transit":false,"i_long":106.857948,"station_name":"Tebet","is_transit":false,"distance":2610,"i_lat":-6.226659,"station_id":"TEB"},{"line":2,"is_transit":false,"station_name":"Cawang","i_lat":-6.242512,"station_id":"CW","i_long":106.856607,"transit":false,"time":2,"distance":1230},{"station_id":"DRN","i_lat":-6.255332,"i_long":106.85449,"line":2,"station_name":"Duren Kalibata","distance":1546,"transit":false,"is_transit":false,"time":3},{"station_name":"Pasar Minggu Baru","time":2,"station_id":"PSMB","i_lat":-6.263214,"i_long":106.851577,"transit":false,"distance":824,"is_transit":false,"line":2},{"i_lat":-6.2842400000000005,"station_name":"Pasar Minggu","time":2,"distance":2380,"transit":false,"station_id":"PSM","is_transit":false,"i_long":106.843999,"line":2},{"distance":2820,"time":4,"is_transit":false,"transit":false,"station_name":"Tanjung Barat","i_lat":-6.3080680000000005,"station_id":"TNT","i_long":106.838896,"line":2},{"i_long":106.832616,"station_id":"LNA","is_transit":false,"distance":2671,"line":2,"time":3,"transit":false,"i_lat":-6.330363,"station_name":"Lenteng Agung"},{"i_lat":-6.339291,"line":2,"is_transit":false,"station_name":"Univ. Pancasila","distance":1029,"station_id":"UP","transit":false,"time":2,"i_long":106.834175},{"is_transit":false,"i_lat":-6.360749,"i_long":106.831474,"transit":false,"line":2,"station_name":"Univ. Indonesia","time":3,"distance":2264,"station_id":"UI"},{"is_transit":false,"station_name":"Pondok Cina","line":2,"station_id":"POC","i_long":106.831114,"i_lat":-6.369073,"transit":false,"time":2,"distance":1109},{"i_lat":-6.391065,"line":2,"distance":2727,"transit":false,"i_long":106.819451,"station_id":"DPB","station_name":"Depokbaru","is_transit":false,"time":4},{"i_long":106.816926,"time":3,"line":2,"distance":1584,"is_transit":false,"transit":false,"station_id":"DP","i_lat":-6.405256,"station_name":"Depok"},{"i_lat":-6.448811,"line":2,"distance":5084,"is_transit":true,"station_id":"CTA","transit":true,"station_name":"Citayam","i_long":106.800298,"time":6},{"is_transit":false,"station_id":"PDRG","time":0,"distance":0,"line":21,"transit":false,"station_name":"Pondok Rajeg","i_lat":-6.460735,"i_long":106.824374}]]}