{"data":[[{"distance":0,"i_lat":-6.132549,"station_name":"Kampung Bandan","station_id":"KPB","line":0,"is_transit":true,"time":0,"i_long":106.826365,"transit":false},{"station_id":"AK","time":9,"i_long":106.79867,"line":0,"is_transit":false,"transit":false,"i_lat":-6.144674,"distance":4102,"station_name":"Angke"},{"station_name":"Duri","time":4,"i_lat":-6.155215,"transit":true,"distance":1230,"i_long":106.800832,"station_id":"DU","is_transit":true,"line":1},{"i_lat":-6.185545,"station_name":"Tanah Abang","is_transit":true,"distance":3632,"line":1,"i_long":106.811091,"station_id":"THB","time":8,"transit":true},{"distance":3191,"station_id":"PLM","i_lat":-6.207404,"time":6,"line":6,"is_transit":false,"transit":false,"station_name":"Palmerah","i_long":106.79689},{"time":7,"i_long":106.780334,"transit":false,"distance":3737,"is_transit":false,"station_id":"KBY","station_name":"Kebayoran","i_lat":-6.237242,"line":6},{"station_name":"Pondokranji","time":8,"distance":6218,"line":6,"i_lat":-6.276362,"transit":false,"station_id":"PDJ","is_transit":false,"i_long":106.74273},{"i_long":106.728916,"i_lat":-6.288927,"is_transit":false,"time":3,"distance":2179,"line":6,"station_id":"JMU","transit":false,"station_name":"Jurangmangu"},{"station_name":"Sudimara","line":6,"is_transit":false,"station_id":"SDM","distance":1994,"transit":false,"i_lat":-6.296963,"time":4,"i_long":106.712277},{"transit":false,"i_long":106.675475,"is_transit":false,"i_lat":-6.314823,"station_id":"RU","time":6,"distance":4566,"station_name":"Rawa Buntu","line":6},{"transit":false,"i_lat":-6.319871,"station_id":"SRP","is_transit":false,"i_long":106.66566,"station_name":"Serpong","distance":2413,"line":6,"time":4},{"time":4,"i_lat":-6.32484,"transit":false,"is_transit":false,"distance":1784,"i_long":106.640411,"station_name":"Cisauk","station_id":"CSK","line":0},{"is_transit":false,"i_lat":-6.329547,"time":4,"station_id":"CC","transit":false,"i_long":106.617853,"line":0,"station_name":"Cicayur","distance":2519},{"station_id":"PRP","is_transit":false,"i_lat":-6.3441410000000005,"line":6,"station_name":"Parung Panjang","transit":false,"distance":5968,"i_long":106.568863,"time":8},{"station_id":"CJT","line":0,"i_long":106.508482,"transit":false,"i_lat":-6.354349,"station_name":"Cilejit","time":9,"is_transit":false,"distance":7025},{"distance":2675,"is_transit":false,"time":6,"i_lat":-6.338021,"i_long":106.491338,"station_name":"Daru","transit":false,"station_id":"DAR","line":0},{"line":6,"station_name":"Tenjo","station_id":"TEJ","time":5,"i_lat":-6.327251,"i_long":106.460812,"is_transit":false,"transit":false,"distance":3902},{"i_long":106.425991,"is_transit":false,"station_id":"TGS","station_name":"Tigaraksa","i_lat":-6.328533,"line":6,"transit":false,"distance":2974,"time":5},{"station_id":"CKY","i_lat":-6.33561,"distance":2651,"time":3,"transit":false,"i_long":106.411216,"is_transit":false,"line":0,"station_name":"Cikoya"}],[{"is_transit":true,"i_lat":-6.132549,"time":0,"line":0,"transit":false,"station_id":"KPB","station_name":"Kampung Bandan","distance":0,"i_long":106.826365},{"i_long":106.812439,"station_name":"Jakarta Kota","line":0,"is_transit":true,"distance":1364,"station_id":"JAKK","transit":true,"time":3,"i_lat":-6.137569},{"distance":1264,"time":4,"station_name":"Jayakarta","i_lat":-6.141205,"station_id":"JAY","line":7,"i_long":106.820901,"transit":false,"is_transit":false},{"station_name":"Manggabesar","i_long":106.82482,"distance":1080,"station_id":"MGB","i_lat":-6.149769,"transit":false,"time":2,"is_transit":false,"line":2},{"distance":906,"transit":false,"is_transit":false,"line":2,"station_name":"Sawah Besar","i_lat":-6.160725,"time":2,"station_id":"SW","i_long":106.827103},{"transit":false,"is_transit":false,"line":2,"station_name":"Juanda","distance":1149,"time":2,"i_long":106.828284,"station_id":"JUA","i_lat":-6.166716},{"i_lat":-6.186295,"line":2,"transit":false,"i_long":106.832183,"station_id":"GDD","time":4,"is_transit":false,"station_name":"Gondangdia","distance":2015},{"station_name":"Cikini","time":3,"station_id":"CKI","i_long":106.840169,"is_transit":false,"i_lat":-6.198556,"line":0,"distance":1750,"transit":false},{"line":0,"station_id":"MRI","i_long":106.84912,"distance":1590,"time":4,"transit":true,"is_transit":true,"station_name":"Manggarai","i_lat":-6.209883},{"i_lat":-6.202263,"station_id":"SUD","line":1,"transit":false,"is_transit":false,"i_long":106.822649,"time":4,"distance":3186,"station_name":"Sudirman"},{"station_id":"SUDB","time":1,"is_transit":false,"i_long":106.819881,"station_name":"Sudirman Baru","line":1,"transit":false,"distance":280,"i_lat":-6.201433},{"i_long":106.816351,"time":1,"station_id":"KAT","is_transit":false,"line":1,"i_lat":-6.20132,"distance":471,"station_name":"Karet","transit":false},{"line":1,"i_long":106.811091,"station_id":"THB","distance":2029,"transit":true,"is_transit":true,"time":5,"station_name":"Tanah Abang","i_lat":-6.185545},{"i_long":106.79689,"line":6,"station_id":"PLM","time":6,"distance":3191,"transit":false,"i_lat":-6.207404,"is_transit":false,"station_name":"Palmerah"},{"i_long":106.780334,"line":6,"distance":3737,"station_id":"KBY","time":7,"i_lat":-6.237242,"station_name":"Kebayoran","transit":false,"is_transit":false},{"station_name":"Pondokranji","time":8,"i_lat":-6.276362,"distance":6218,"transit":false,"is_transit":false,"i_long":106.74273,"line":6,"station_id":"PDJ"},{"transit":false,"station_name":"Jurangmangu","i_lat":-6.288927,"station_id":"JMU","line":6,"distance":2179,"i_long":106.728916,"is_transit":false,"time":3},{"transit":false,"line":6,"is_transit":false,"time":4,"station_name":"Sudimara","i_lat":-6.296963,"i_long":106.712277,"distance":1994,"station_id":"SDM"},{"station_name":"Rawa Buntu","station_id":"RU","time":6,"distance":4566,"is_transit":false,"i_lat":-6.314823,"i_long":106.675475,"line":6,"transit":false},{"station_name":"Serpong","is_transit":false,"distance":2413,"station_id":"SRP","transit":false,"i_lat":-6.319871,"time":4,"i_long":106.66566,"line":6},{"transit":false,"distance":1784,"line":0,"station_name":"Cisauk","i_long":106.640411,"station_id":"CSK","i_lat":-6.32484,"time":4,"is_transit":false},{"station_id":"CC","time":4,"transit":false,"distance":2519,"i_lat":-6.329547,"is_transit":false,"i_long":106.617853,"station_name":"Cicayur","line":0},{"station_name":"Parung Panjang","station_id":"PRP","distance":5968,"line":6,"is_transit":false,"i_long":106.568863,"transit":false,"i_lat":-6.3441410000000005,"time":8},{"time":9,"line":0,"distance":7025,"station_id":"CJT","i_lat":-6.354349,"station_name":"Cilejit","i_long":106.508482,"is_transit":false,"transit":false},{"i_long":106.491338,"station_name":"Daru","station_id":"DAR","distance":2675,"line":0,"time":6,"i_lat":-6.338021,"transit":false,"is_transit":false},{"transit":false,"i_long":106.460812,"distance":3902,"i_lat":-6.327251,"station_name":"Tenjo","station_id":"TEJ","time":5,"is_transit":false,"line":6},{"station_name":"Tigaraksa","time":5,"i_lat":-6.328533,"transit":false,"distance":2974,"i_long":106.425991,"line":6,"is_transit":false,"station_id":"TGS"},{"line":0,"station_name":"Cikoya","is_transit":false,"distance":2651,"station_id":"CKY","i_long":106.411216,"transit":false,"time":3,"i_lat":-6.33561}],[{"time":0,"is_transit":true,"i_lat":-6.132549,"i_long":106.826365,"station_name":"Kampung Bandan","transit":false,"distance":0,"line":0,"station_id":"KPB"},{"transit":false,"distance":1444,"i_lat":-6.14505,"station_name":"Rajawali","time":3,"is_transit":false,"line":11,"i_long":106.836569,"station_id":"RJW"},{"station_id":"KMO","station_name":"Kemayoran","transit":false,"time":5,"line":11,"is_transit":false,"distance":1901,"i_lat":-6.161728,"i_long":106.839204},{"station_name":"Pasar Senen","transit":false,"is_transit":false,"i_lat":-6.174784,"line":11,"i_long":106.84368,"station_id":"PSE","distance":1436,"time":4},{"station_name":"Gang Sentiong","station_id":"GST","distance":1567,"time":8,"i_long":106.850107,"line":11,"transit":false,"i_lat":-6.185975,"is_transit":false},{"i_long":106.855437,"i_lat":-6.193792,"is_transit":false,"line":11,"time":1,"station_name":"Kramat","station_id":"KMT","transit":false,"distance":973},{"station_name":"Pondok Jati","i_long":106.861737,"line":11,"distance":1829,"i_lat":-6.209188,"station_id":"POK","time":2,"is_transit":false,"transit":false},{"distance":1236,"line":0,"i_lat":-6.215091,"i_long":106.86807400000001,"station_id":"JNG","transit":true,"station_name":"Jatinegara","is_transit":true,"time":9},{"line":1,"transit":false,"time":2,"station_name":"Matraman","i_lat":-6.212485,"is_transit":false,"i_long":106.858896,"station_id":"MTR","distance":1377},{"transit":false,"i_long":106.84912,"time":2,"is_transit":true,"station_name":"Manggarai","distance":1275,"i_lat":-6.209883,"line":0,"station_id":"MRI"},{"time":4,"i_lat":-6.202263,"station_name":"Sudirman","transit":false,"i_long":106.822649,"distance":3186,"station_id":"SUD","line":1,"is_transit":false},{"i_lat":-6.201433,"line":1,"station_name":"Sudirman Baru","time":1,"transit":false,"i_long":106.819881,"is_transit":false,"station_id":"SUDB","distance":280},{"station_id":"KAT","transit":false,"is_transit":false,"i_lat":-6.20132,"station_name":"Karet","time":1,"distance":471,"i_long":106.816351,"line":1},{"is_transit":true,"i_lat":-6.185545,"i_long":106.811091,"transit":true,"time":5,"line":1,"station_id":"THB","distance":2029,"station_name":"Tanah Abang"},{"transit":false,"is_transit":false,"distance":3191,"line":6,"station_name":"Palmerah","i_lat":-6.207404,"station_id":"PLM","time":6,"i_long":106.79689},{"station_name":"Kebayoran","station_id":"KBY","transit":false,"is_transit":false,"i_long":106.780334,"time":7,"distance":3737,"i_lat":-6.237242,"line":6},{"station_id":"PDJ","is_transit":false,"i_lat":-6.276362,"i_long":106.74273,"line":6,"transit":false,"distance":6218,"station_name":"Pondokranji","time":8},{"station_name":"Jurangmangu","transit":false,"is_transit":false,"distance":2179,"station_id":"JMU","line":6,"i_lat":-6.288927,"i_long":106.728916,"time":3},{"i_lat":-6.296963,"transit":false,"time":4,"station_id":"SDM","station_name":"Sudimara","is_transit":false,"distance":1994,"line":6,"i_long":106.712277},{"station_id":"RU","i_long":106.675475,"distance":4566,"is_transit":false,"i_lat":-6.314823,"station_name":"Rawa Buntu","time":6,"line":6,"transit":false},{"station_id":"SRP","is_transit":false,"time":4,"i_long":106.66566,"i_lat":-6.319871,"line":6,"distance":2413,"transit":false,"station_name":"Serpong"},{"time":4,"i_long":106.640411,"line":0,"is_transit":false,"transit":false,"i_lat":-6.32484,"station_name":"Cisauk","distance":1784,"station_id":"CSK"},{"station_id":"CC","i_lat":-6.329547,"is_transit":false,"line":0,"time":4,"distance":2519,"station_name":"Cicayur","i_long":106.617853,"transit":false},{"transit":false,"i_lat":-6.3441410000000005,"i_long":106.568863,"line":6,"is_transit":false,"station_id":"PRP","time":8,"distance":5968,"station_name":"Parung Panjang"},{"i_long":106.508482,"station_name":"Cilejit","transit":false,"distance":7025,"line":0,"is_transit":false,"station_id":"CJT","time":9,"i_lat":-6.354349},{"i_long":106.491338,"station_name":"Daru","transit":false,"i_lat":-6.338021,"station_id":"DAR","is_transit":false,"time":6,"distance":2675,"line":0},{"station_name":"Tenjo","transit":false,"distance":3902,"is_transit":false,"i_lat":-6.327251,"line":6,"i_long":106.460812,"station_id":"TEJ","time":5},{"transit":false,"station_name":"Tigaraksa","station_id":"TGS","i_long":106.425991,"line":6,"is_transit":false,"time":5,"distance":2974,"i_lat":-6.328533},{"distance":2651,"i_long":106.411216,"station_id":"CKY","transit":false,"time":3,"is_transit":false,"i_lat":-6.33561,"line":0,"station_name":"Cikoya"}]]}