{"data":[[{"station_name":"Kampung Bandan","station_id":"KPB","time":0,"is_transit":false,"i_long":106.826365,"i_lat":-6.132549,"transit":false,"line":4,"distance":0},{"i_long":106.79867,"is_transit":false,"line":1,"station_id":"AK","time":9,"station_name":"Angke","distance":4102,"i_lat":-6.144674,"transit":false},{"is_transit":false,"i_long":106.800832,"transit":false,"time":4,"station_id":"DU","station_name":"Duri","line":1,"i_lat":-6.155215,"distance":1230},{"station_id":"THB","i_lat":-6.185545,"time":8,"i_long":106.811091,"line":1,"distance":3632,"station_name":"Tanah Abang","is_transit":false,"transit":false},{"i_long":106.816351,"time":5,"transit":false,"distance":2029,"station_name":"Karet","station_id":"KAT","i_lat":-6.20132,"line":1,"is_transit":false},{"station_name":"Sudirman Baru","transit":false,"i_lat":-6.201433,"line":1,"i_long":106.819881,"station_id":"SUDB","distance":471,"is_transit":false,"time":1},{"distance":280,"time":1,"is_transit":false,"transit":false,"station_name":"Sudirman","i_long":106.822649,"station_id":"SUD","i_lat":-6.202263,"line":1}],[{"i_long":106.826365,"i_lat":-6.132549,"station_name":"Kampung Bandan","distance":0,"time":0,"is_transit":false,"station_id":"KPB","line":4,"transit":false},{"is_transit":true,"line":2,"station_name":"Jakarta Kota","time":3,"station_id":"JAKK","transit":true,"distance":1364,"i_lat":-6.137569,"i_long":106.812439},{"time":4,"is_transit":false,"i_long":106.820901,"station_name":"Jayakarta","distance":1264,"i_lat":-6.141205,"line":2,"transit":false,"station_id":"JAY"},{"time":2,"i_lat":-6.149769,"station_name":"Manggabesar","transit":false,"distance":1080,"station_id":"MGB","line":2,"i_long":106.82482,"is_transit":false},{"station_id":"SW","i_lat":-6.160725,"line":2,"station_name":"Sawah Besar","is_transit":false,"transit":false,"i_long":106.827103,"time":2,"distance":906},{"time":2,"distance":1149,"station_name":"Juanda","line":2,"transit":false,"is_transit":false,"station_id":"JUA","i_lat":-6.166716,"i_long":106.828284},{"distance":2015,"station_id":"GDD","is_transit":false,"transit":false,"line":2,"time":4,"i_long":106.832183,"i_lat":-6.186295,"station_name":"Gondangdia"},{"station_id":"CKI","time":3,"station_name":"Cikini","i_long":106.840169,"is_transit":false,"i_lat":-6.198556,"line":2,"transit":false,"distance":1750},{"transit":true,"i_lat":-6.209883,"i_long":106.84912,"station_name":"Manggarai","is_transit":true,"line":2,"time":4,"distance":1590,"station_id":"MRI"},{"line":1,"is_transit":false,"distance":3186,"time":4,"transit":false,"station_id":"SUD","station_name":"Sudirman","i_long":106.822649,"i_lat":-6.202263}],[{"line":4,"transit":false,"i_lat":-6.132549,"distance":0,"time":0,"station_id":"KPB","is_transit":false,"station_name":"Kampung Bandan","i_long":106.826365},{"time":3,"i_long":106.836569,"line":11,"station_id":"RJW","station_name":"Rajawali","transit":false,"is_transit":false,"i_lat":-6.14505,"distance":1444},{"transit":false,"line":11,"i_lat":-6.161728,"time":5,"i_long":106.839204,"station_name":"Kemayoran","is_transit":false,"distance":1901,"station_id":"KMO"},{"distance":1436,"is_transit":false,"transit":false,"station_id":"PSE","i_lat":-6.174784,"i_long":106.84368,"line":11,"station_name":"Pasar Senen","time":4},{"i_lat":-6.185975,"is_transit":false,"line":11,"distance":1567,"time":8,"station_name":"Gang Sentiong","i_long":106.850107,"station_id":"GST","transit":false},{"i_lat":-6.193792,"distance":973,"i_long":106.855437,"transit":false,"line":11,"time":1,"station_id":"KMT","station_name":"Kramat","is_transit":false},{"time":2,"transit":false,"is_transit":false,"line":11,"distance":1829,"i_lat":-6.209188,"station_name":"Pondok Jati","i_long":106.861737,"station_id":"POK"},{"station_name":"Jatinegara","is_transit":true,"distance":1236,"time":9,"i_lat":-6.215091,"i_long":106.86807400000001,"station_id":"JNG","line":1,"transit":true},{"station_name":"Matraman","i_long":106.858896,"distance":1377,"is_transit":false,"i_lat":-6.212485,"line":1,"station_id":"MTR","time":2,"transit":false},{"time":2,"transit":false,"i_long":106.84912,"station_id":"MRI","station_name":"Manggarai","is_transit":false,"line":2,"distance":1275,"i_lat":-6.209883},{"time":4,"is_transit":false,"i_lat":-6.202263,"i_long":106.822649,"line":1,"distance":3186,"station_name":"Sudirman","station_id":"SUD","transit":false}]]}