{"data":[[{"station_name":"Kampung Bandan","is_transit":true,"line":0,"time":0,"transit":false,"i_long":106.826365,"station_id":"KPB","i_lat":-6.132549,"distance":0},{"transit":false,"i_lat":-6.14505,"station_name":"Rajawali","station_id":"RJW","distance":1444,"time":3,"is_transit":false,"i_long":106.836569,"line":11},{"station_id":"KMO","i_long":106.839204,"distance":1901,"i_lat":-6.161728,"is_transit":false,"station_name":"Kemayoran","time":5,"transit":false,"line":11},{"line":11,"station_name":"Pasar Senen","transit":false,"is_transit":false,"distance":1436,"i_lat":-6.174784,"i_long":106.84368,"time":4,"station_id":"PSE"},{"line":11,"is_transit":false,"transit":false,"time":8,"i_lat":-6.185975,"i_long":106.850107,"station_name":"Gang Sentiong","distance":1567,"station_id":"GST"},{"i_lat":-6.193792,"i_long":106.855437,"line":11,"station_name":"Kramat","station_id":"KMT","time":1,"distance":973,"transit":false,"is_transit":false},{"i_lat":-6.209188,"time":2,"transit":false,"is_transit":false,"station_name":"Pondok Jati","station_id":"POK","distance":1829,"line":11,"i_long":106.861737},{"station_id":"JNG","i_long":106.86807400000001,"line":0,"station_name":"Jatinegara","time":9,"distance":1236,"is_transit":true,"i_lat":-6.215091,"transit":true},{"transit":false,"is_transit":false,"distance":3395,"i_lat":-6.2135,"time":3,"station_name":"Klender","i_long":106.899548,"station_id":"KLD","line":1},{"i_lat":-6.215568,"transit":false,"distance":3100,"i_long":106.922662,"station_id":"BUA","time":2,"line":0,"station_name":"Buaran","is_transit":false},{"i_lat":-6.217455,"is_transit":false,"distance":1305,"station_name":"Klenderbaru","i_long":106.939679,"time":1,"transit":false,"line":1,"station_id":"KLDB"}],[{"time":0,"distance":0,"line":0,"is_transit":true,"transit":false,"station_id":"KPB","station_name":"Kampung Bandan","i_lat":-6.132549,"i_long":106.826365},{"i_long":106.79867,"line":0,"time":9,"station_name":"Angke","transit":false,"distance":4102,"station_id":"AK","is_transit":false,"i_lat":-6.144674},{"is_transit":true,"distance":1230,"i_lat":-6.155215,"i_long":106.800832,"time":4,"line":1,"station_name":"Duri","transit":true,"station_id":"DU"},{"station_id":"THB","distance":3632,"station_name":"Tanah Abang","i_long":106.811091,"transit":false,"line":1,"is_transit":true,"i_lat":-6.185545,"time":8},{"station_id":"KAT","line":1,"distance":2029,"i_lat":-6.20132,"time":5,"transit":false,"is_transit":false,"station_name":"Karet","i_long":106.816351},{"transit":false,"distance":471,"time":1,"i_long":106.819881,"station_id":"SUDB","is_transit":false,"line":1,"station_name":"Sudirman Baru","i_lat":-6.201433},{"time":1,"station_name":"Sudirman","i_long":106.822649,"i_lat":-6.202263,"is_transit":false,"distance":280,"transit":false,"station_id":"SUD","line":1},{"time":4,"i_lat":-6.209883,"line":0,"transit":false,"distance":3186,"station_name":"Manggarai","is_transit":true,"i_long":106.84912,"station_id":"MRI"},{"i_lat":-6.212485,"is_transit":false,"i_long":106.858896,"line":1,"station_name":"Matraman","distance":1275,"station_id":"MTR","time":2,"transit":false},{"station_id":"JNG","line":0,"i_long":106.86807400000001,"i_lat":-6.215091,"distance":1377,"station_name":"Jatinegara","is_transit":true,"time":8,"transit":false},{"transit":false,"line":1,"distance":3395,"is_transit":false,"i_long":106.899548,"station_id":"KLD","time":3,"i_lat":-6.2135,"station_name":"Klender"},{"station_name":"Buaran","is_transit":false,"time":2,"line":0,"i_long":106.922662,"i_lat":-6.215568,"station_id":"BUA","transit":false,"distance":3100},{"is_transit":false,"station_id":"KLDB","line":1,"distance":1305,"station_name":"Klenderbaru","i_lat":-6.217455,"i_long":106.939679,"transit":false,"time":1}],[{"transit":false,"i_long":106.826365,"i_lat":-6.132549,"line":0,"is_transit":true,"distance":0,"station_id":"KPB","station_name":"Kampung Bandan","time":0},{"station_name":"Jakarta Kota","station_id":"JAKK","transit":true,"i_long":106.812439,"distance":1364,"line":0,"time":3,"i_lat":-6.137569,"is_transit":true},{"distance":1264,"station_name":"Jayakarta","i_lat":-6.141205,"i_long":106.820901,"is_transit":false,"time":4,"station_id":"JAY","line":7,"transit":false},{"transit":false,"distance":1080,"i_lat":-6.149769,"i_long":106.82482,"line":2,"station_id":"MGB","station_name":"Manggabesar","is_transit":false,"time":2},{"is_transit":false,"station_id":"SW","station_name":"Sawah Besar","i_lat":-6.160725,"line":2,"i_long":106.827103,"distance":906,"time":2,"transit":false},{"station_id":"JUA","is_transit":false,"line":2,"station_name":"Juanda","transit":false,"i_lat":-6.166716,"distance":1149,"i_long":106.828284,"time":2},{"transit":false,"line":2,"station_id":"GDD","distance":2015,"station_name":"Gondangdia","i_long":106.832183,"time":4,"is_transit":false,"i_lat":-6.186295},{"transit":false,"station_name":"Cikini","is_transit":false,"i_lat":-6.198556,"station_id":"CKI","time":3,"distance":1750,"i_long":106.840169,"line":0},{"station_id":"MRI","transit":true,"i_long":106.84912,"station_name":"Manggarai","distance":1590,"line":0,"is_transit":true,"time":4,"i_lat":-6.209883},{"transit":false,"distance":1275,"station_id":"MTR","i_long":106.858896,"i_lat":-6.212485,"line":1,"is_transit":false,"time":2,"station_name":"Matraman"},{"station_name":"Jatinegara","distance":1377,"i_long":106.86807400000001,"line":0,"station_id":"JNG","transit":false,"is_transit":true,"i_lat":-6.215091,"time":8},{"i_long":106.899548,"station_id":"KLD","time":3,"transit":false,"station_name":"Klender","distance":3395,"line":1,"is_transit":false,"i_lat":-6.2135},{"line":0,"station_name":"Buaran","time":2,"i_long":106.922662,"is_transit":false,"station_id":"BUA","distance":3100,"i_lat":-6.215568,"transit":false},{"time":1,"i_long":106.939679,"transit":false,"line":1,"distance":1305,"station_id":"KLDB","station_name":"Klenderbaru","is_transit":false,"i_lat":-6.217455}]]}