{"data":[[{"station_id":"KPB","i_long":106.826365,"is_transit":false,"line":4,"station_name":"Kampung Bandan","time":0,"transit":false,"i_lat":-6.132549,"distance":0},{"is_transit":false,"transit":false,"i_lat":-6.14505,"i_long":106.836569,"line":11,"station_id":"RJW","time":3,"distance":1444,"station_name":"Rajawali"},{"is_transit":false,"i_long":106.839204,"station_name":"Kemayoran","station_id":"KMO","i_lat":-6.161728,"time":5,"distance":1901,"transit":false,"line":11},{"is_transit":false,"transit":false,"time":4,"line":11,"station_id":"PSE","i_lat":-6.174784,"station_name":"Pasar Senen","i_long":106.84368,"distance":1436},{"time":8,"i_lat":-6.185975,"station_name":"Gang Sentiong","distance":1567,"transit":false,"is_transit":false,"station_id":"GST","i_long":106.850107,"line":11},{"transit":false,"i_lat":-6.193792,"is_transit":false,"i_long":106.855437,"station_name":"Kramat","distance":973,"time":1,"station_id":"KMT","line":11},{"time":2,"station_id":"POK","line":11,"i_lat":-6.209188,"transit":false,"is_transit":false,"station_name":"Pondok Jati","distance":1829,"i_long":106.861737},{"station_name":"Jatinegara","i_lat":-6.215091,"distance":1236,"station_id":"JNG","transit":true,"is_transit":true,"line":1,"time":9,"i_long":106.86807400000001},{"time":3,"station_name":"Klender","transit":false,"i_lat":-6.2135,"is_transit":false,"distance":3395,"i_long":106.899548,"station_id":"KLD","line":1},{"line":1,"time":2,"is_transit":false,"station_id":"BUA","distance":3100,"i_lat":-6.215568,"transit":false,"station_name":"Buaran","i_long":106.922662},{"i_lat":-6.217455,"transit":false,"is_transit":false,"station_name":"Klenderbaru","time":1,"station_id":"KLDB","distance":1305,"i_long":106.939679,"line":1},{"is_transit":false,"time":8,"transit":false,"station_name":"Cakung","distance":1385,"i_long":106.951283,"i_lat":-6.219053,"line":1,"station_id":"CUK"},{"time":3,"station_name":"Kranji","i_long":106.977657,"transit":false,"station_id":"KRI","distance":3097,"i_lat":-6.224515,"line":1,"is_transit":false},{"station_name":"Bekasi","line":1,"transit":false,"i_lat":-6.236616,"is_transit":false,"time":4,"station_id":"BKS","i_long":106.997013,"distance":2520},{"distance":2368,"i_long":107.016735,"line":1,"station_id":"BKST","is_transit":false,"station_name":"Bekasi Timur","time":2,"i_lat":-6.248029,"transit":false},{"line":1,"station_name":"Tambun","station_id":"TB","distance":4460,"time":7,"i_long":107.055722,"is_transit":false,"i_lat":-6.258864,"transit":false},{"station_name":"Cibitung","line":1,"distance":3420,"i_lat":-6.261877,"i_long":107.083084,"time":3,"station_id":"CIT","is_transit":false,"transit":false},{"is_transit":false,"time":2,"transit":false,"line":1,"station_id":"TLM","i_lat":-6.262938,"station_name":"Metland Telaga Murni","distance":2800,"i_long":107.093313}],[{"distance":0,"transit":false,"station_id":"KPB","line":4,"i_long":106.826365,"is_transit":false,"i_lat":-6.132549,"time":0,"station_name":"Kampung Bandan"},{"line":1,"distance":4102,"station_id":"AK","i_long":106.79867,"transit":false,"station_name":"Angke","is_transit":false,"time":9,"i_lat":-6.144674},{"distance":1230,"transit":false,"i_long":106.800832,"is_transit":false,"station_name":"Duri","i_lat":-6.155215,"time":4,"line":1,"station_id":"DU"},{"distance":3632,"time":8,"is_transit":false,"i_lat":-6.185545,"station_id":"THB","i_long":106.811091,"line":1,"transit":false,"station_name":"Tanah Abang"},{"i_long":106.816351,"line":1,"distance":2029,"station_name":"Karet","i_lat":-6.20132,"time":5,"station_id":"KAT","transit":false,"is_transit":false},{"i_long":106.819881,"time":1,"station_id":"SUDB","transit":false,"is_transit":false,"station_name":"Sudirman Baru","i_lat":-6.201433,"distance":471,"line":1},{"i_long":106.822649,"station_id":"SUD","distance":280,"transit":false,"station_name":"Sudirman","line":1,"i_lat":-6.202263,"is_transit":false,"time":1},{"i_lat":-6.209883,"station_id":"MRI","i_long":106.84912,"time":4,"distance":3186,"line":2,"is_transit":false,"transit":false,"station_name":"Manggarai"},{"is_transit":false,"station_id":"MTR","line":1,"i_long":106.858896,"distance":1275,"i_lat":-6.212485,"transit":false,"station_name":"Matraman","time":2},{"distance":1377,"station_name":"Jatinegara","i_long":106.86807400000001,"line":1,"station_id":"JNG","time":8,"is_transit":false,"i_lat":-6.215091,"transit":false},{"time":3,"transit":false,"line":1,"i_long":106.899548,"station_name":"Klender","is_transit":false,"station_id":"KLD","distance":3395,"i_lat":-6.2135},{"station_id":"BUA","station_name":"Buaran","i_lat":-6.215568,"i_long":106.922662,"is_transit":false,"time":2,"line":1,"transit":false,"distance":3100},{"distance":1305,"transit":false,"station_id":"KLDB","line":1,"is_transit":false,"i_long":106.939679,"station_name":"Klenderbaru","i_lat":-6.217455,"time":1},{"transit":false,"i_long":106.951283,"is_transit":false,"station_name":"Cakung","distance":1385,"time":8,"i_lat":-6.219053,"line":1,"station_id":"CUK"},{"i_long":106.977657,"distance":3097,"time":3,"i_lat":-6.224515,"station_name":"Kranji","is_transit":false,"transit":false,"line":1,"station_id":"KRI"},{"time":4,"station_id":"BKS","line":1,"i_lat":-6.236616,"i_long":106.997013,"station_name":"Bekasi","is_transit":false,"distance":2520,"transit":false},{"i_long":107.016735,"station_name":"Bekasi Timur","distance":2368,"i_lat":-6.248029,"line":1,"is_transit":false,"time":2,"transit":false,"station_id":"BKST"},{"i_long":107.055722,"station_name":"Tambun","time":7,"is_transit":false,"line":1,"transit":false,"distance":4460,"i_lat":-6.258864,"station_id":"TB"},{"time":3,"station_id":"CIT","i_long":107.083084,"line":1,"is_transit":false,"i_lat":-6.261877,"distance":3420,"station_name":"Cibitung","transit":false},{"line":1,"station_name":"Metland Telaga Murni","i_lat":-6.262938,"i_long":107.093313,"time":2,"is_transit":false,"station_id":"TLM","distance":2800,"transit":false}],[{"line":4,"i_long":106.826365,"station_name":"Kampung Bandan","time":0,"is_transit":false,"transit":false,"distance":0,"i_lat":-6.132549,"station_id":"KPB"},{"station_id":"JAKK","line":2,"i_lat":-6.137569,"time":3,"station_name":"Jakarta Kota","distance":1364,"i_long":106.812439,"is_transit":true,"transit":true},{"distance":1264,"station_id":"JAY","is_transit":false,"time":4,"i_long":106.820901,"i_lat":-6.141205,"station_name":"Jayakarta","line":2,"transit":false},{"line":2,"is_transit":false,"time":2,"station_id":"MGB","station_name":"Manggabesar","distance":1080,"i_lat":-6.149769,"transit":false,"i_long":106.82482},{"transit":false,"i_lat":-6.160725,"line":2,"time":2,"station_name":"Sawah Besar","is_transit":false,"station_id":"SW","i_long":106.827103,"distance":906},{"transit":false,"station_id":"JUA","time":2,"i_lat":-6.166716,"is_transit":false,"station_name":"Juanda","distance":1149,"line":2,"i_long":106.828284},{"line":2,"station_id":"GDD","distance":2015,"i_lat":-6.186295,"transit":false,"i_long":106.832183,"is_transit":false,"time":4,"station_name":"Gondangdia"},{"station_id":"CKI","transit":false,"line":2,"distance":1750,"time":3,"i_lat":-6.198556,"i_long":106.840169,"is_transit":false,"station_name":"Cikini"},{"time":4,"is_transit":true,"i_lat":-6.209883,"i_long":106.84912,"line":2,"distance":1590,"station_name":"Manggarai","station_id":"MRI","transit":true},{"distance":1275,"i_lat":-6.212485,"line":1,"time":2,"is_transit":false,"transit":false,"station_name":"Matraman","station_id":"MTR","i_long":106.858896},{"i_lat":-6.215091,"line":1,"is_transit":false,"station_name":"Jatinegara","station_id":"JNG","distance":1377,"time":8,"transit":false,"i_long":106.86807400000001},{"i_long":106.899548,"line":1,"i_lat":-6.2135,"is_transit":false,"station_id":"KLD","distance":3395,"transit":false,"time":3,"station_name":"Klender"},{"is_transit":false,"transit":false,"station_name":"Buaran","distance":3100,"i_lat":-6.215568,"station_id":"BUA","time":2,"i_long":106.922662,"line":1},{"distance":1305,"station_name":"Klenderbaru","transit":false,"line":1,"time":1,"station_id":"KLDB","i_lat":-6.217455,"i_long":106.939679,"is_transit":false},{"distance":1385,"transit":false,"i_lat":-6.219053,"i_long":106.951283,"line":1,"time":8,"is_transit":false,"station_name":"Cakung","station_id":"CUK"},{"i_long":106.977657,"is_transit":false,"station_id":"KRI","i_lat":-6.224515,"transit":false,"time":3,"distance":3097,"station_name":"Kranji","line":1},{"line":1,"station_id":"BKS","distance":2520,"is_transit":false,"i_long":106.997013,"time":4,"transit":false,"station_name":"Bekasi","i_lat":-6.236616},{"i_long":107.016735,"line":1,"i_lat":-6.248029,"station_name":"Bekasi Timur","time":2,"transit":false,"station_id":"BKST","distance":2368,"is_transit":false},{"is_transit":false,"i_lat":-6.258864,"i_long":107.055722,"transit":false,"distance":4460,"line":1,"time":7,"station_id":"TB","station_name":"Tambun"},{"station_name":"Cibitung","time":3,"transit":false,"i_lat":-6.261877,"line":1,"distance":3420,"station_id":"CIT","i_long":107.083084,"is_transit":false},{"is_transit":false,"line":1,"station_id":"TLM","distance":2800,"station_name":"Metland Telaga Murni","time":2,"transit":false,"i_lat":-6.262938,"i_long":107.093313}]]}