{"data":[[{"i_lat":-6.132549,"transit":false,"line":4,"time":0,"is_transit":false,"i_long":106.826365,"distance":0,"station_id":"KPB","station_name":"Kampung Bandan"},{"distance":1364,"station_name":"Jakarta Kota","i_long":106.812439,"time":3,"is_transit":true,"transit":true,"i_lat":-6.137569,"line":2,"station_id":"JAKK"},{"transit":false,"line":2,"time":4,"distance":1264,"station_name":"Jayakarta","station_id":"JAY","is_transit":false,"i_lat":-6.141205,"i_long":106.820901},{"distance":1080,"is_transit":false,"station_id":"MGB","i_lat":-6.149769,"time":2,"line":2,"station_name":"Manggabesar","transit":false,"i_long":106.82482},{"station_name":"Sawah Besar","line":2,"time":2,"is_transit":false,"station_id":"SW","i_lat":-6.160725,"distance":906,"transit":false,"i_long":106.827103}],[{"station_id":"KPB","transit":false,"distance":0,"station_name":"Kampung Bandan","i_lat":-6.132549,"is_transit":false,"i_long":106.826365,"line":4,"time":0},{"is_transit":false,"time":9,"i_lat":-6.144674,"distance":4102,"station_name":"Angke","station_id":"AK","i_long":106.79867,"line":1,"transit":false},{"station_id":"DU","station_name":"Duri","distance":1230,"i_lat":-6.155215,"time":4,"is_transit":false,"i_long":106.800832,"line":1,"transit":false},{"line":1,"i_long":106.811091,"transit":false,"station_name":"Tanah Abang","station_id":"THB","i_lat":-6.185545,"time":8,"distance":3632,"is_transit":false},{"distance":2029,"transit":false,"is_transit":false,"i_long":106.816351,"station_id":"KAT","line":1,"i_lat":-6.20132,"station_name":"Karet","time":5},{"i_long":106.819881,"line":1,"station_name":"Sudirman Baru","distance":471,"transit":false,"station_id":"SUDB","time":1,"is_transit":false,"i_lat":-6.201433},{"time":1,"station_id":"SUD","is_transit":false,"distance":280,"i_lat":-6.202263,"i_long":106.822649,"transit":false,"line":1,"station_name":"Sudirman"},{"transit":true,"is_transit":true,"station_name":"Manggarai","time":4,"station_id":"MRI","line":2,"i_lat":-6.209883,"i_long":106.84912,"distance":3186},{"is_transit":false,"i_lat":-6.198556,"transit":false,"station_id":"CKI","i_long":106.840169,"time":4,"distance":1590,"line":2,"station_name":"Cikini"},{"transit":false,"station_name":"Gondangdia","i_long":106.832183,"station_id":"GDD","is_transit":false,"line":2,"time":3,"i_lat":-6.186295,"distance":1750},{"i_long":106.828284,"station_id":"JUA","transit":false,"is_transit":false,"i_lat":-6.166716,"distance":2015,"station_name":"Juanda","line":2,"time":4},{"time":2,"distance":1149,"transit":false,"i_long":106.827103,"i_lat":-6.160725,"line":2,"station_id":"SW","station_name":"Sawah Besar","is_transit":false}],[{"station_name":"Kampung Bandan","station_id":"KPB","distance":0,"time":0,"line":4,"i_lat":-6.132549,"transit":false,"i_long":106.826365,"is_transit":false},{"station_id":"RJW","time":3,"is_transit":false,"transit":false,"station_name":"Rajawali","i_long":106.836569,"line":11,"i_lat":-6.14505,"distance":1444},{"station_name":"Kemayoran","transit":false,"i_lat":-6.161728,"station_id":"KMO","distance":1901,"is_transit":false,"i_long":106.839204,"time":5,"line":11},{"distance":1436,"transit":false,"line":11,"is_transit":false,"time":4,"station_id":"PSE","i_long":106.84368,"i_lat":-6.174784,"station_name":"Pasar Senen"},{"i_lat":-6.185975,"i_long":106.850107,"time":8,"station_id":"GST","station_name":"Gang Sentiong","distance":1567,"is_transit":false,"line":11,"transit":false},{"station_name":"Kramat","transit":false,"distance":973,"i_long":106.855437,"line":11,"i_lat":-6.193792,"time":1,"is_transit":false,"station_id":"KMT"},{"is_transit":false,"transit":false,"station_name":"Pondok Jati","i_long":106.861737,"station_id":"POK","distance":1829,"time":2,"line":11,"i_lat":-6.209188},{"station_id":"JNG","i_long":106.86807400000001,"transit":true,"i_lat":-6.215091,"distance":1236,"station_name":"Jatinegara","is_transit":true,"time":9,"line":1},{"distance":1377,"station_id":"MTR","i_long":106.858896,"is_transit":false,"station_name":"Matraman","transit":false,"i_lat":-6.212485,"line":1,"time":2},{"is_transit":true,"i_lat":-6.209883,"line":2,"time":2,"station_id":"MRI","i_long":106.84912,"transit":true,"distance":1275,"station_name":"Manggarai"},{"is_transit":false,"transit":false,"station_name":"Cikini","distance":1590,"station_id":"CKI","i_lat":-6.198556,"i_long":106.840169,"time":4,"line":2},{"line":2,"station_id":"GDD","is_transit":false,"transit":false,"i_lat":-6.186295,"time":3,"station_name":"Gondangdia","i_long":106.832183,"distance":1750},{"line":2,"transit":false,"station_name":"Juanda","time":4,"i_lat":-6.166716,"is_transit":false,"station_id":"JUA","i_long":106.828284,"distance":2015},{"i_lat":-6.160725,"line":2,"i_long":106.827103,"is_transit":false,"distance":1149,"time":2,"station_name":"Sawah Besar","station_id":"SW","transit":false}]]}