{"data":[[{"station_name":"Kampung Bandan","time":0,"distance":0,"line":4,"i_long":106.826365,"station_id":"KPB","i_lat":-6.132549,"transit":false,"is_transit":false},{"distance":1444,"i_long":106.836569,"is_transit":false,"transit":false,"time":3,"line":11,"station_name":"Rajawali","i_lat":-6.14505,"station_id":"RJW"},{"is_transit":false,"distance":1901,"line":11,"transit":false,"i_lat":-6.161728,"station_name":"Kemayoran","i_long":106.839204,"time":5,"station_id":"KMO"},{"station_id":"PSE","transit":false,"i_lat":-6.174784,"is_transit":false,"time":4,"i_long":106.84368,"distance":1436,"station_name":"Pasar Senen","line":11},{"i_lat":-6.185975,"distance":1567,"i_long":106.850107,"transit":false,"station_name":"Gang Sentiong","is_transit":false,"time":8,"line":11,"station_id":"GST"},{"station_name":"Kramat","i_lat":-6.193792,"distance":973,"time":1,"i_long":106.855437,"station_id":"KMT","is_transit":false,"line":11,"transit":false},{"station_id":"POK","i_lat":-6.209188,"transit":false,"distance":1829,"i_long":106.861737,"is_transit":false,"station_name":"Pondok Jati","time":2,"line":11}],[{"line":4,"time":0,"i_long":106.826365,"station_id":"KPB","transit":false,"station_name":"Kampung Bandan","distance":0,"is_transit":false,"i_lat":-6.132549},{"line":1,"station_id":"AK","transit":false,"station_name":"Angke","i_long":106.79867,"i_lat":-6.144674,"is_transit":false,"time":9,"distance":4102},{"transit":false,"is_transit":false,"distance":1230,"station_name":"Duri","i_lat":-6.155215,"i_long":106.800832,"station_id":"DU","time":4,"line":1},{"distance":3632,"transit":false,"i_lat":-6.185545,"is_transit":false,"line":1,"time":8,"station_id":"THB","station_name":"Tanah Abang","i_long":106.811091},{"is_transit":false,"transit":false,"i_long":106.816351,"station_name":"Karet","time":5,"station_id":"KAT","distance":2029,"line":1,"i_lat":-6.20132},{"line":1,"i_long":106.819881,"distance":471,"transit":false,"is_transit":false,"time":1,"station_id":"SUDB","station_name":"Sudirman Baru","i_lat":-6.201433},{"station_name":"Sudirman","transit":false,"time":1,"station_id":"SUD","distance":280,"i_long":106.822649,"is_transit":false,"i_lat":-6.202263,"line":1},{"time":4,"distance":3186,"station_name":"Manggarai","is_transit":false,"transit":false,"station_id":"MRI","i_lat":-6.209883,"i_long":106.84912,"line":2},{"station_id":"MTR","station_name":"Matraman","i_lat":-6.212485,"i_long":106.858896,"is_transit":false,"distance":1275,"transit":false,"line":1,"time":2},{"distance":1377,"time":8,"i_lat":-6.215091,"i_long":106.86807400000001,"transit":true,"line":1,"is_transit":true,"station_name":"Jatinegara","station_id":"JNG"},{"i_long":106.861737,"station_id":"POK","transit":false,"distance":1236,"is_transit":false,"time":2,"i_lat":-6.209188,"line":11,"station_name":"Pondok Jati"}],[{"transit":false,"station_name":"Kampung Bandan","is_transit":false,"line":4,"time":0,"i_lat":-6.132549,"station_id":"KPB","i_long":106.826365,"distance":0},{"distance":1364,"transit":true,"time":3,"is_transit":true,"station_id":"JAKK","i_lat":-6.137569,"line":2,"i_long":106.812439,"station_name":"Jakarta Kota"},{"time":4,"i_long":106.820901,"is_transit":false,"station_name":"Jayakarta","line":2,"transit":false,"station_id":"JAY","i_lat":-6.141205,"distance":1264},{"i_long":106.82482,"i_lat":-6.149769,"transit":false,"station_name":"Manggabesar","time":2,"station_id":"MGB","line":2,"is_transit":false,"distance":1080},{"station_id":"SW","is_transit":false,"time":2,"i_lat":-6.160725,"distance":906,"station_name":"Sawah Besar","i_long":106.827103,"line":2,"transit":false},{"station_id":"JUA","time":2,"line":2,"i_long":106.828284,"is_transit":false,"transit":false,"distance":1149,"i_lat":-6.166716,"station_name":"Juanda"},{"station_name":"Gondangdia","distance":2015,"station_id":"GDD","i_long":106.832183,"is_transit":false,"line":2,"transit":false,"time":4,"i_lat":-6.186295},{"i_long":106.840169,"station_id":"CKI","is_transit":false,"distance":1750,"i_lat":-6.198556,"line":2,"station_name":"Cikini","transit":false,"time":3},{"distance":1590,"transit":true,"station_id":"MRI","line":2,"is_transit":true,"station_name":"Manggarai","i_lat":-6.209883,"i_long":106.84912,"time":4},{"distance":1275,"station_id":"MTR","time":2,"station_name":"Matraman","is_transit":false,"i_lat":-6.212485,"i_long":106.858896,"line":1,"transit":false},{"is_transit":true,"i_long":106.86807400000001,"transit":true,"station_id":"JNG","line":1,"i_lat":-6.215091,"station_name":"Jatinegara","time":8,"distance":1377},{"transit":false,"time":2,"station_id":"POK","i_long":106.861737,"i_lat":-6.209188,"is_transit":false,"distance":1236,"station_name":"Pondok Jati","line":11}]]}