{"data":[[{"is_transit":false,"time":0,"i_lat":-6.132549,"line":4,"station_name":"Kampung Bandan","transit":false,"station_id":"KPB","i_long":106.826365,"distance":0},{"transit":false,"i_lat":-6.144674,"station_name":"Angke","i_long":106.79867,"distance":4102,"station_id":"AK","line":1,"is_transit":false,"time":9},{"line":1,"station_name":"Duri","i_long":106.800832,"time":4,"transit":false,"station_id":"DU","is_transit":false,"i_lat":-6.155215,"distance":1230},{"transit":false,"i_long":106.811091,"station_name":"Tanah Abang","time":8,"distance":3632,"line":1,"i_lat":-6.185545,"station_id":"THB","is_transit":false},{"station_name":"Karet","line":1,"time":5,"station_id":"KAT","distance":2029,"i_long":106.816351,"transit":false,"is_transit":false,"i_lat":-6.20132},{"time":1,"transit":false,"line":1,"i_lat":-6.201433,"distance":471,"i_long":106.819881,"station_id":"SUDB","is_transit":false,"station_name":"Sudirman Baru"},{"distance":280,"time":1,"transit":false,"line":1,"station_name":"Sudirman","station_id":"SUD","is_transit":false,"i_lat":-6.202263,"i_long":106.822649},{"i_long":106.84912,"line":2,"station_name":"Manggarai","station_id":"MRI","transit":true,"time":4,"distance":3186,"is_transit":true,"i_lat":-6.209883},{"is_transit":false,"station_name":"Tebet","i_long":106.857948,"line":2,"time":4,"distance":2610,"station_id":"TEB","transit":false,"i_lat":-6.226659},{"station_id":"CW","time":2,"transit":false,"distance":1230,"i_lat":-6.242512,"line":2,"is_transit":false,"station_name":"Cawang","i_long":106.856607},{"i_lat":-6.255332,"distance":1546,"i_long":106.85449,"line":2,"transit":false,"time":3,"station_id":"DRN","is_transit":false,"station_name":"Duren Kalibata"},{"line":2,"i_long":106.851577,"station_name":"Pasar Minggu Baru","distance":824,"i_lat":-6.263214,"time":2,"station_id":"PSMB","transit":false,"is_transit":false},{"transit":false,"station_name":"Pasar Minggu","station_id":"PSM","distance":2380,"i_lat":-6.2842400000000005,"i_long":106.843999,"time":2,"is_transit":false,"line":2},{"transit":false,"time":4,"distance":2820,"i_long":106.838896,"station_name":"Tanjung Barat","station_id":"TNT","line":2,"i_lat":-6.3080680000000005,"is_transit":false},{"line":2,"station_name":"Lenteng Agung","station_id":"LNA","is_transit":false,"time":3,"transit":false,"i_lat":-6.330363,"i_long":106.832616,"distance":2671},{"time":2,"station_name":"Univ. Pancasila","station_id":"UP","i_long":106.834175,"distance":1029,"i_lat":-6.339291,"transit":false,"is_transit":false,"line":2},{"is_transit":false,"station_id":"UI","transit":false,"station_name":"Univ. Indonesia","i_lat":-6.360749,"line":2,"time":3,"distance":2264,"i_long":106.831474},{"time":2,"station_id":"POC","line":2,"i_lat":-6.369073,"i_long":106.831114,"transit":false,"is_transit":false,"station_name":"Pondok Cina","distance":1109},{"i_long":106.819451,"transit":false,"station_id":"DPB","is_transit":false,"i_lat":-6.391065,"line":2,"time":4,"station_name":"Depokbaru","distance":2727},{"station_id":"DP","is_transit":false,"transit":false,"i_lat":-6.405256,"i_long":106.816926,"time":3,"station_name":"Depok","distance":1584,"line":2},{"distance":5084,"time":6,"i_lat":-6.448811,"transit":true,"station_name":"Citayam","is_transit":true,"line":2,"station_id":"CTA","i_long":106.800298},{"transit":false,"station_id":"PDRG","is_transit":false,"i_long":106.824374,"line":21,"i_lat":-6.460735,"time":0,"station_name":"Pondok Rajeg","distance":0}],[{"time":0,"i_lat":-6.132549,"is_transit":false,"transit":false,"line":4,"distance":0,"i_long":106.826365,"station_name":"Kampung Bandan","station_id":"KPB"},{"distance":1364,"station_id":"JAKK","is_transit":true,"line":2,"station_name":"Jakarta Kota","time":3,"i_long":106.812439,"transit":true,"i_lat":-6.137569},{"transit":false,"is_transit":false,"i_lat":-6.141205,"station_id":"JAY","station_name":"Jayakarta","i_long":106.820901,"line":2,"time":4,"distance":1264},{"line":2,"transit":false,"station_name":"Manggabesar","distance":1080,"i_lat":-6.149769,"station_id":"MGB","is_transit":false,"time":2,"i_long":106.82482},{"i_lat":-6.160725,"transit":false,"station_id":"SW","i_long":106.827103,"is_transit":false,"station_name":"Sawah Besar","time":2,"distance":906,"line":2},{"i_lat":-6.166716,"is_transit":false,"time":2,"station_name":"Juanda","distance":1149,"i_long":106.828284,"transit":false,"line":2,"station_id":"JUA"},{"i_long":106.832183,"line":2,"distance":2015,"is_transit":false,"time":4,"i_lat":-6.186295,"station_id":"GDD","station_name":"Gondangdia","transit":false},{"is_transit":false,"station_id":"CKI","distance":1750,"station_name":"Cikini","i_lat":-6.198556,"time":3,"transit":false,"i_long":106.840169,"line":2},{"distance":1590,"i_lat":-6.209883,"transit":false,"station_name":"Manggarai","i_long":106.84912,"time":4,"station_id":"MRI","is_transit":false,"line":2},{"distance":2610,"transit":false,"is_transit":false,"station_id":"TEB","line":2,"station_name":"Tebet","i_lat":-6.226659,"time":4,"i_long":106.857948},{"i_long":106.856607,"time":2,"line":2,"transit":false,"is_transit":false,"station_name":"Cawang","station_id":"CW","distance":1230,"i_lat":-6.242512},{"time":3,"line":2,"distance":1546,"station_name":"Duren Kalibata","i_long":106.85449,"station_id":"DRN","i_lat":-6.255332,"transit":false,"is_transit":false},{"distance":824,"i_long":106.851577,"i_lat":-6.263214,"is_transit":false,"time":2,"station_name":"Pasar Minggu Baru","station_id":"PSMB","line":2,"transit":false},{"is_transit":false,"station_name":"Pasar Minggu","station_id":"PSM","line":2,"transit":false,"i_long":106.843999,"distance":2380,"i_lat":-6.2842400000000005,"time":2},{"distance":2820,"is_transit":false,"station_id":"TNT","i_long":106.838896,"transit":false,"station_name":"Tanjung Barat","i_lat":-6.3080680000000005,"line":2,"time":4},{"transit":false,"station_name":"Lenteng Agung","time":3,"is_transit":false,"distance":2671,"i_lat":-6.330363,"i_long":106.832616,"station_id":"LNA","line":2},{"is_transit":false,"station_name":"Univ. Pancasila","line":2,"time":2,"station_id":"UP","i_long":106.834175,"transit":false,"i_lat":-6.339291,"distance":1029},{"transit":false,"distance":2264,"time":3,"station_name":"Univ. Indonesia","i_long":106.831474,"line":2,"station_id":"UI","i_lat":-6.360749,"is_transit":false},{"distance":1109,"station_id":"POC","station_name":"Pondok Cina","time":2,"line":2,"transit":false,"is_transit":false,"i_long":106.831114,"i_lat":-6.369073},{"is_transit":false,"station_id":"DPB","distance":2727,"i_lat":-6.391065,"transit":false,"line":2,"station_name":"Depokbaru","i_long":106.819451,"time":4},{"time":3,"is_transit":false,"i_lat":-6.405256,"station_name":"Depok","i_long":106.816926,"transit":false,"distance":1584,"station_id":"DP","line":2},{"i_lat":-6.448811,"is_transit":true,"line":2,"transit":true,"distance":5084,"station_name":"Citayam","time":6,"i_long":106.800298,"station_id":"CTA"},{"is_transit":false,"distance":0,"i_long":106.824374,"station_id":"PDRG","time":0,"transit":false,"i_lat":-6.460735,"line":21,"station_name":"Pondok Rajeg"}],[{"line":4,"station_id":"KPB","is_transit":false,"time":0,"i_long":106.826365,"distance":0,"i_lat":-6.132549,"transit":false,"station_name":"Kampung Bandan"},{"time":3,"distance":1444,"station_id":"RJW","is_transit":false,"line":11,"transit":false,"i_lat":-6.14505,"i_long":106.836569,"station_name":"Rajawali"},{"i_lat":-6.161728,"is_transit":false,"transit":false,"station_name":"Kemayoran","time":5,"line":11,"i_long":106.839204,"station_id":"KMO","distance":1901},{"i_lat":-6.174784,"i_long":106.84368,"distance":1436,"transit":false,"time":4,"line":11,"station_id":"PSE","station_name":"Pasar Senen","is_transit":false},{"station_name":"Gang Sentiong","time":8,"i_lat":-6.185975,"station_id":"GST","line":11,"transit":false,"i_long":106.850107,"distance":1567,"is_transit":false},{"is_transit":false,"distance":973,"i_long":106.855437,"i_lat":-6.193792,"station_id":"KMT","station_name":"Kramat","time":1,"line":11,"transit":false},{"transit":false,"i_long":106.861737,"line":11,"time":2,"station_name":"Pondok Jati","i_lat":-6.209188,"station_id":"POK","is_transit":false,"distance":1829},{"i_lat":-6.215091,"station_name":"Jatinegara","transit":true,"i_long":106.86807400000001,"distance":1236,"station_id":"JNG","line":1,"is_transit":true,"time":9},{"line":1,"i_lat":-6.212485,"station_id":"MTR","is_transit":false,"time":2,"transit":false,"station_name":"Matraman","distance":1377,"i_long":106.858896},{"line":2,"transit":true,"time":2,"distance":1275,"station_name":"Manggarai","is_transit":true,"station_id":"MRI","i_lat":-6.209883,"i_long":106.84912},{"i_lat":-6.226659,"is_transit":false,"line":2,"station_id":"TEB","station_name":"Tebet","i_long":106.857948,"time":4,"distance":2610,"transit":false},{"line":2,"distance":1230,"station_id":"CW","transit":false,"time":2,"i_lat":-6.242512,"i_long":106.856607,"is_transit":false,"station_name":"Cawang"},{"distance":1546,"station_name":"Duren Kalibata","line":2,"i_lat":-6.255332,"transit":false,"station_id":"DRN","is_transit":false,"time":3,"i_long":106.85449},{"distance":824,"transit":false,"station_name":"Pasar Minggu Baru","station_id":"PSMB","time":2,"i_long":106.851577,"is_transit":false,"i_lat":-6.263214,"line":2},{"is_transit":false,"time":2,"distance":2380,"i_lat":-6.2842400000000005,"station_id":"PSM","i_long":106.843999,"transit":false,"station_name":"Pasar Minggu","line":2},{"is_transit":false,"distance":2820,"time":4,"i_lat":-6.3080680000000005,"line":2,"i_long":106.838896,"transit":false,"station_name":"Tanjung Barat","station_id":"TNT"},{"transit":false,"is_transit":false,"station_name":"Lenteng Agung","station_id":"LNA","i_lat":-6.330363,"distance":2671,"i_long":106.832616,"time":3,"line":2},{"i_lat":-6.339291,"transit":false,"station_name":"Univ. Pancasila","station_id":"UP","time":2,"is_transit":false,"distance":1029,"line":2,"i_long":106.834175},{"distance":2264,"station_name":"Univ. Indonesia","time":3,"line":2,"i_lat":-6.360749,"i_long":106.831474,"station_id":"UI","transit":false,"is_transit":false},{"line":2,"distance":1109,"station_id":"POC","transit":false,"i_long":106.831114,"i_lat":-6.369073,"station_name":"Pondok Cina","is_transit":false,"time":2},{"transit":false,"time":4,"station_id":"DPB","station_name":"Depokbaru","i_lat":-6.391065,"line":2,"distance":2727,"i_long":106.819451,"is_transit":false},{"station_name":"Depok","line":2,"is_transit":false,"station_id":"DP","distance":1584,"time":3,"i_lat":-6.405256,"transit":false,"i_long":106.816926},{"line":2,"distance":5084,"station_name":"Citayam","transit":true,"i_lat":-6.448811,"time":6,"station_id":"CTA","is_transit":true,"i_long":106.800298},{"distance":0,"line":21,"station_name":"Pondok Rajeg","transit":false,"is_transit":false,"time":0,"station_id":"PDRG","i_lat":-6.460735,"i_long":106.824374}]]}