{"data":[[{"i_lat":-6.132549,"station_id":"KPB","is_transit":false,"distance":0,"i_long":106.826365,"line":4,"transit":false,"time":0,"station_name":"Kampung Bandan"},{"time":9,"i_long":106.79867,"transit":false,"is_transit":false,"line":1,"station_id":"AK","station_name":"Angke","distance":4102,"i_lat":-6.144674},{"distance":1230,"i_long":106.800832,"station_id":"DU","line":1,"transit":false,"is_transit":false,"time":4,"station_name":"Duri","i_lat":-6.155215},{"i_lat":-6.185545,"distance":3632,"i_long":106.811091,"transit":true,"station_id":"THB","station_name":"Tanah Abang","is_transit":true,"time":8,"line":1},{"time":6,"line":6,"i_long":106.79689,"is_transit":false,"transit":false,"distance":3191,"i_lat":-6.207404,"station_name":"Palmerah","station_id":"PLM"},{"is_transit":false,"distance":3737,"i_long":106.780334,"time":7,"station_id":"KBY","station_name":"Kebayoran","transit":false,"i_lat":-6.237242,"line":6},{"i_long":106.74273,"is_transit":false,"time":8,"transit":false,"distance":6218,"station_id":"PDJ","station_name":"Pondokranji","i_lat":-6.276362,"line":6},{"line":6,"transit":false,"i_long":106.728916,"is_transit":false,"distance":2179,"station_name":"Jurangmangu","station_id":"JMU","time":3,"i_lat":-6.288927},{"transit":false,"time":4,"i_lat":-6.296963,"i_long":106.712277,"line":6,"station_id":"SDM","distance":1994,"station_name":"Sudimara","is_transit":false},{"distance":4566,"is_transit":false,"time":6,"station_name":"Rawa Buntu","station_id":"RU","transit":false,"i_lat":-6.314823,"i_long":106.675475,"line":6},{"station_name":"Serpong","is_transit":false,"transit":false,"i_lat":-6.319871,"distance":2413,"time":4,"line":6,"i_long":106.66566,"station_id":"SRP"},{"distance":1784,"transit":false,"station_id":"CSK","line":3,"is_transit":false,"i_lat":-6.32484,"i_long":106.640411,"time":4,"station_name":"Cisauk"},{"time":4,"i_lat":-6.329547,"station_name":"Cicayur","transit":false,"i_long":106.617853,"line":3,"station_id":"CC","distance":2519,"is_transit":false},{"transit":false,"distance":5968,"time":8,"is_transit":false,"i_long":106.568863,"line":6,"station_id":"PRP","i_lat":-6.3441410000000005,"station_name":"Parung Panjang"},{"station_id":"CJT","is_transit":false,"i_lat":-6.354349,"i_long":106.508482,"station_name":"Cilejit","time":9,"line":3,"transit":false,"distance":7025},{"is_transit":false,"transit":false,"line":0,"i_lat":-6.338021,"i_long":106.491338,"time":6,"station_name":"Daru","station_id":"DAR","distance":2675},{"i_long":106.460812,"time":5,"transit":false,"line":6,"is_transit":false,"i_lat":-6.327251,"station_name":"Tenjo","station_id":"TEJ","distance":3902},{"i_long":106.425991,"distance":2974,"line":6,"i_lat":-6.328533,"station_name":"Tigaraksa","is_transit":false,"transit":false,"time":5,"station_id":"TGS"},{"i_lat":-6.33561,"time":3,"line":3,"is_transit":false,"i_long":106.411216,"station_id":"CKY","station_name":"Cikoya","distance":2651,"transit":false},{"line":6,"station_id":"MJ","distance":1853,"i_long":106.394373,"is_transit":false,"transit":false,"i_lat":-6.332307,"time":4,"station_name":"Maja"},{"station_name":"Citeras","i_long":106.332092,"i_lat":-6.334892,"line":3,"transit":false,"time":10,"distance":7293,"is_transit":false,"station_id":"CTR"},{"station_name":"Rangkasbitung","distance":9847,"i_lat":-6.352675,"is_transit":false,"time":13,"i_long":106.250396,"line":3,"station_id":"RK","transit":false}],[{"time":0,"is_transit":false,"station_id":"KPB","station_name":"Kampung Bandan","i_long":106.826365,"line":4,"transit":false,"i_lat":-6.132549,"distance":0},{"line":2,"distance":1364,"station_id":"JAKK","time":3,"is_transit":true,"station_name":"Jakarta Kota","i_lat":-6.137569,"i_long":106.812439,"transit":true},{"line":2,"time":4,"i_long":106.820901,"station_name":"Jayakarta","is_transit":false,"station_id":"JAY","transit":false,"distance":1264,"i_lat":-6.141205},{"line":2,"transit":false,"is_transit":false,"distance":1080,"i_lat":-6.149769,"i_long":106.82482,"station_id":"MGB","time":2,"station_name":"Manggabesar"},{"line":2,"time":2,"station_name":"Sawah Besar","transit":false,"i_lat":-6.160725,"station_id":"SW","is_transit":false,"i_long":106.827103,"distance":906},{"station_id":"JUA","transit":false,"time":2,"i_long":106.828284,"station_name":"Juanda","i_lat":-6.166716,"is_transit":false,"distance":1149,"line":2},{"station_name":"Gondangdia","distance":2015,"transit":false,"station_id":"GDD","i_lat":-6.186295,"line":2,"is_transit":false,"i_long":106.832183,"time":4},{"station_id":"CKI","transit":false,"i_lat":-6.198556,"distance":1750,"line":2,"i_long":106.840169,"is_transit":false,"time":3,"station_name":"Cikini"},{"i_lat":-6.209883,"transit":true,"i_long":106.84912,"station_id":"MRI","station_name":"Manggarai","distance":1590,"time":4,"is_transit":true,"line":2},{"i_lat":-6.202263,"line":1,"is_transit":false,"time":4,"station_id":"SUD","i_long":106.822649,"distance":3186,"station_name":"Sudirman","transit":false},{"is_transit":false,"station_name":"Sudirman Baru","i_lat":-6.201433,"i_long":106.819881,"station_id":"SUDB","transit":false,"distance":280,"line":1,"time":1},{"transit":false,"station_name":"Karet","is_transit":false,"i_lat":-6.20132,"station_id":"KAT","distance":471,"time":1,"line":1,"i_long":106.816351},{"station_id":"THB","distance":2029,"i_lat":-6.185545,"time":5,"transit":true,"station_name":"Tanah Abang","is_transit":true,"line":1,"i_long":106.811091},{"transit":false,"station_id":"PLM","station_name":"Palmerah","time":6,"i_long":106.79689,"i_lat":-6.207404,"line":6,"is_transit":false,"distance":3191},{"i_lat":-6.237242,"i_long":106.780334,"time":7,"is_transit":false,"station_id":"KBY","station_name":"Kebayoran","distance":3737,"line":6,"transit":false},{"line":6,"is_transit":false,"i_lat":-6.276362,"time":8,"i_long":106.74273,"transit":false,"station_id":"PDJ","distance":6218,"station_name":"Pondokranji"},{"transit":false,"station_id":"JMU","station_name":"Jurangmangu","is_transit":false,"distance":2179,"i_long":106.728916,"line":6,"i_lat":-6.288927,"time":3},{"i_lat":-6.296963,"i_long":106.712277,"station_name":"Sudimara","transit":false,"station_id":"SDM","is_transit":false,"time":4,"line":6,"distance":1994},{"station_name":"Rawa Buntu","distance":4566,"is_transit":false,"line":6,"station_id":"RU","transit":false,"time":6,"i_lat":-6.314823,"i_long":106.675475},{"time":4,"i_long":106.66566,"station_name":"Serpong","line":6,"station_id":"SRP","distance":2413,"transit":false,"i_lat":-6.319871,"is_transit":false},{"distance":1784,"station_name":"Cisauk","transit":false,"time":4,"i_long":106.640411,"station_id":"CSK","line":3,"i_lat":-6.32484,"is_transit":false},{"is_transit":false,"distance":2519,"time":4,"i_lat":-6.329547,"i_long":106.617853,"station_name":"Cicayur","line":3,"station_id":"CC","transit":false},{"station_name":"Parung Panjang","transit":false,"is_transit":false,"distance":5968,"station_id":"PRP","i_lat":-6.3441410000000005,"i_long":106.568863,"line":6,"time":8},{"i_long":106.508482,"transit":false,"station_id":"CJT","i_lat":-6.354349,"is_transit":false,"distance":7025,"station_name":"Cilejit","time":9,"line":3},{"station_name":"Daru","distance":2675,"transit":false,"i_long":106.491338,"i_lat":-6.338021,"is_transit":false,"time":6,"line":0,"station_id":"DAR"},{"transit":false,"is_transit":false,"time":5,"i_lat":-6.327251,"line":6,"i_long":106.460812,"distance":3902,"station_name":"Tenjo","station_id":"TEJ"},{"time":5,"transit":false,"is_transit":false,"distance":2974,"i_lat":-6.328533,"station_name":"Tigaraksa","station_id":"TGS","line":6,"i_long":106.425991},{"distance":2651,"is_transit":false,"transit":false,"station_name":"Cikoya","line":3,"time":3,"station_id":"CKY","i_lat":-6.33561,"i_long":106.411216},{"is_transit":false,"transit":false,"i_long":106.394373,"distance":1853,"i_lat":-6.332307,"station_name":"Maja","line":6,"time":4,"station_id":"MJ"},{"i_lat":-6.334892,"station_name":"Citeras","station_id":"CTR","transit":false,"is_transit":false,"distance":7293,"i_long":106.332092,"line":3,"time":10},{"distance":9847,"i_long":106.250396,"is_transit":false,"transit":false,"station_name":"Rangkasbitung","line":3,"station_id":"RK","time":13,"i_lat":-6.352675}],[{"station_name":"Kampung Bandan","i_long":106.826365,"station_id":"KPB","distance":0,"i_lat":-6.132549,"line":4,"transit":false,"time":0,"is_transit":false},{"distance":1444,"i_long":106.836569,"station_name":"Rajawali","line":11,"station_id":"RJW","i_lat":-6.14505,"is_transit":false,"transit":false,"time":3},{"time":5,"line":11,"station_id":"KMO","transit":false,"station_name":"Kemayoran","distance":1901,"is_transit":false,"i_long":106.839204,"i_lat":-6.161728},{"transit":false,"line":11,"i_long":106.84368,"is_transit":false,"i_lat":-6.174784,"station_id":"PSE","station_name":"Pasar Senen","time":4,"distance":1436},{"is_transit":false,"transit":false,"i_lat":-6.185975,"line":11,"time":8,"station_name":"Gang Sentiong","i_long":106.850107,"station_id":"GST","distance":1567},{"distance":973,"station_id":"KMT","transit":false,"time":1,"station_name":"Kramat","i_lat":-6.193792,"i_long":106.855437,"line":11,"is_transit":false},{"i_long":106.861737,"station_id":"POK","is_transit":false,"transit":false,"distance":1829,"station_name":"Pondok Jati","time":2,"i_lat":-6.209188,"line":11},{"line":1,"distance":1236,"i_long":106.86807400000001,"i_lat":-6.215091,"transit":true,"station_name":"Jatinegara","station_id":"JNG","is_transit":true,"time":9},{"is_transit":false,"time":2,"line":1,"transit":false,"distance":1377,"i_long":106.858896,"i_lat":-6.212485,"station_id":"MTR","station_name":"Matraman"},{"is_transit":false,"station_id":"MRI","i_lat":-6.209883,"time":2,"line":2,"distance":1275,"transit":false,"i_long":106.84912,"station_name":"Manggarai"},{"line":1,"i_lat":-6.202263,"transit":false,"station_id":"SUD","time":4,"distance":3186,"is_transit":false,"i_long":106.822649,"station_name":"Sudirman"},{"distance":280,"line":1,"station_name":"Sudirman Baru","is_transit":false,"transit":false,"time":1,"i_lat":-6.201433,"station_id":"SUDB","i_long":106.819881},{"i_lat":-6.20132,"i_long":106.816351,"line":1,"time":1,"is_transit":false,"station_name":"Karet","station_id":"KAT","transit":false,"distance":471},{"transit":true,"is_transit":true,"distance":2029,"time":5,"line":1,"i_long":106.811091,"station_id":"THB","station_name":"Tanah Abang","i_lat":-6.185545},{"station_name":"Palmerah","distance":3191,"transit":false,"is_transit":false,"time":6,"line":6,"i_long":106.79689,"i_lat":-6.207404,"station_id":"PLM"},{"station_name":"Kebayoran","station_id":"KBY","transit":false,"line":6,"distance":3737,"i_lat":-6.237242,"is_transit":false,"i_long":106.780334,"time":7},{"station_id":"PDJ","i_lat":-6.276362,"is_transit":false,"transit":false,"station_name":"Pondokranji","i_long":106.74273,"line":6,"distance":6218,"time":8},{"i_long":106.728916,"time":3,"station_name":"Jurangmangu","i_lat":-6.288927,"station_id":"JMU","is_transit":false,"transit":false,"distance":2179,"line":6},{"distance":1994,"station_name":"Sudimara","time":4,"i_lat":-6.296963,"line":6,"station_id":"SDM","i_long":106.712277,"is_transit":false,"transit":false},{"distance":4566,"time":6,"station_name":"Rawa Buntu","line":6,"is_transit":false,"transit":false,"i_long":106.675475,"station_id":"RU","i_lat":-6.314823},{"line":6,"is_transit":false,"time":4,"station_name":"Serpong","distance":2413,"transit":false,"station_id":"SRP","i_lat":-6.319871,"i_long":106.66566},{"line":3,"station_id":"CSK","is_transit":false,"time":4,"station_name":"Cisauk","i_lat":-6.32484,"i_long":106.640411,"transit":false,"distance":1784},{"is_transit":false,"time":4,"i_lat":-6.329547,"transit":false,"i_long":106.617853,"station_id":"CC","distance":2519,"station_name":"Cicayur","line":3},{"time":8,"i_lat":-6.3441410000000005,"i_long":106.568863,"is_transit":false,"transit":false,"station_name":"Parung Panjang","station_id":"PRP","distance":5968,"line":6},{"transit":false,"line":3,"time":9,"station_id":"CJT","i_long":106.508482,"is_transit":false,"distance":7025,"station_name":"Cilejit","i_lat":-6.354349},{"i_long":106.491338,"station_id":"DAR","is_transit":false,"i_lat":-6.338021,"transit":false,"time":6,"station_name":"Daru","distance":2675,"line":0},{"time":5,"is_transit":false,"transit":false,"i_lat":-6.327251,"station_id":"TEJ","distance":3902,"i_long":106.460812,"line":6,"station_name":"Tenjo"},{"station_name":"Tigaraksa","is_transit":false,"station_id":"TGS","time":5,"transit":false,"i_lat":-6.328533,"distance":2974,"i_long":106.425991,"line":6},{"line":3,"distance":2651,"i_lat":-6.33561,"i_long":106.411216,"transit":false,"station_id":"CKY","is_transit":false,"time":3,"station_name":"Cikoya"},{"station_id":"MJ","transit":false,"station_name":"Maja","i_lat":-6.332307,"is_transit":false,"distance":1853,"time":4,"i_long":106.394373,"line":6},{"time":10,"station_name":"Citeras","is_transit":false,"distance":7293,"transit":false,"line":3,"station_id":"CTR","i_lat":-6.334892,"i_long":106.332092},{"i_long":106.250396,"i_lat":-6.352675,"line":3,"transit":false,"time":13,"is_transit":false,"station_id":"RK","station_name":"Rangkasbitung","distance":9847}]]}