{"data":[[{"station_name":"Kampung Bandan","transit":false,"station_id":"KPB","time":0,"i_lat":-6.132549,"i_long":106.826365,"is_transit":false,"line":4,"distance":0},{"time":3,"i_lat":-6.14505,"station_id":"RJW","i_long":106.836569,"transit":false,"distance":1444,"is_transit":false,"line":11,"station_name":"Rajawali"},{"station_name":"Kemayoran","distance":1901,"i_lat":-6.161728,"is_transit":false,"station_id":"KMO","time":5,"transit":false,"i_long":106.839204,"line":11},{"distance":1436,"time":4,"i_long":106.84368,"is_transit":false,"station_id":"PSE","station_name":"Pasar Senen","transit":false,"line":11,"i_lat":-6.174784},{"line":11,"station_name":"Gang Sentiong","distance":1567,"i_lat":-6.185975,"time":8,"is_transit":false,"station_id":"GST","i_long":106.850107,"transit":false},{"line":11,"transit":false,"station_name":"Kramat","is_transit":false,"station_id":"KMT","distance":973,"i_lat":-6.193792,"i_long":106.855437,"time":1},{"is_transit":false,"transit":false,"station_name":"Pondok Jati","i_long":106.861737,"station_id":"POK","line":11,"i_lat":-6.209188,"time":2,"distance":1829},{"station_id":"JNG","i_long":106.86807400000001,"line":1,"distance":1236,"time":9,"i_lat":-6.215091,"station_name":"Jatinegara","is_transit":true,"transit":true},{"i_lat":-6.2135,"time":3,"i_long":106.899548,"line":1,"is_transit":false,"station_id":"KLD","transit":false,"station_name":"Klender","distance":3395},{"i_lat":-6.215568,"line":1,"time":2,"transit":false,"i_long":106.922662,"is_transit":false,"distance":3100,"station_id":"BUA","station_name":"Buaran"},{"distance":1305,"transit":false,"i_long":106.939679,"i_lat":-6.217455,"is_transit":false,"time":1,"line":1,"station_id":"KLDB","station_name":"Klenderbaru"}],[{"distance":0,"station_id":"KPB","i_long":106.826365,"station_name":"Kampung Bandan","line":4,"transit":false,"i_lat":-6.132549,"is_transit":false,"time":0},{"station_name":"Angke","transit":false,"time":9,"i_lat":-6.144674,"i_long":106.79867,"distance":4102,"station_id":"AK","line":1,"is_transit":false},{"time":4,"i_long":106.800832,"is_transit":false,"station_id":"DU","distance":1230,"transit":false,"i_lat":-6.155215,"station_name":"Duri","line":1},{"distance":3632,"transit":false,"station_name":"Tanah Abang","i_lat":-6.185545,"is_transit":false,"i_long":106.811091,"station_id":"THB","time":8,"line":1},{"station_name":"Karet","time":5,"distance":2029,"i_lat":-6.20132,"i_long":106.816351,"transit":false,"station_id":"KAT","line":1,"is_transit":false},{"transit":false,"station_name":"Sudirman Baru","distance":471,"i_lat":-6.201433,"is_transit":false,"station_id":"SUDB","i_long":106.819881,"time":1,"line":1},{"station_id":"SUD","line":1,"transit":false,"i_long":106.822649,"time":1,"i_lat":-6.202263,"station_name":"Sudirman","distance":280,"is_transit":false},{"line":2,"i_lat":-6.209883,"is_transit":false,"transit":false,"station_id":"MRI","time":4,"i_long":106.84912,"distance":3186,"station_name":"Manggarai"},{"line":1,"i_long":106.858896,"station_id":"MTR","station_name":"Matraman","transit":false,"is_transit":false,"time":2,"distance":1275,"i_lat":-6.212485},{"i_lat":-6.215091,"station_id":"JNG","is_transit":false,"distance":1377,"i_long":106.86807400000001,"station_name":"Jatinegara","line":1,"time":8,"transit":false},{"time":3,"station_name":"Klender","transit":false,"distance":3395,"i_long":106.899548,"line":1,"is_transit":false,"station_id":"KLD","i_lat":-6.2135},{"distance":3100,"station_name":"Buaran","time":2,"line":1,"is_transit":false,"transit":false,"station_id":"BUA","i_lat":-6.215568,"i_long":106.922662},{"time":1,"station_id":"KLDB","i_lat":-6.217455,"line":1,"distance":1305,"station_name":"Klenderbaru","i_long":106.939679,"transit":false,"is_transit":false}],[{"line":4,"station_name":"Kampung Bandan","transit":false,"time":0,"i_lat":-6.132549,"distance":0,"i_long":106.826365,"station_id":"KPB","is_transit":false},{"station_name":"Jakarta Kota","is_transit":true,"transit":true,"i_long":106.812439,"time":3,"station_id":"JAKK","distance":1364,"i_lat":-6.137569,"line":2},{"distance":1264,"i_lat":-6.141205,"line":2,"transit":false,"time":4,"station_id":"JAY","i_long":106.820901,"is_transit":false,"station_name":"Jayakarta"},{"line":2,"station_id":"MGB","time":2,"i_lat":-6.149769,"distance":1080,"i_long":106.82482,"station_name":"Manggabesar","is_transit":false,"transit":false},{"distance":906,"line":2,"station_id":"SW","i_lat":-6.160725,"station_name":"Sawah Besar","i_long":106.827103,"transit":false,"time":2,"is_transit":false},{"time":2,"line":2,"distance":1149,"station_name":"Juanda","i_lat":-6.166716,"is_transit":false,"station_id":"JUA","transit":false,"i_long":106.828284},{"distance":2015,"line":2,"time":4,"transit":false,"i_lat":-6.186295,"i_long":106.832183,"station_id":"GDD","station_name":"Gondangdia","is_transit":false},{"is_transit":false,"station_name":"Cikini","distance":1750,"station_id":"CKI","time":3,"i_lat":-6.198556,"i_long":106.840169,"line":2,"transit":false},{"transit":true,"is_transit":true,"time":4,"distance":1590,"station_name":"Manggarai","line":2,"station_id":"MRI","i_lat":-6.209883,"i_long":106.84912},{"transit":false,"i_lat":-6.212485,"station_id":"MTR","is_transit":false,"i_long":106.858896,"line":1,"station_name":"Matraman","distance":1275,"time":2},{"station_id":"JNG","station_name":"Jatinegara","time":8,"transit":false,"i_lat":-6.215091,"distance":1377,"i_long":106.86807400000001,"is_transit":false,"line":1},{"distance":3395,"line":1,"time":3,"station_name":"Klender","transit":false,"is_transit":false,"i_lat":-6.2135,"i_long":106.899548,"station_id":"KLD"},{"station_name":"Buaran","station_id":"BUA","time":2,"is_transit":false,"transit":false,"i_long":106.922662,"line":1,"i_lat":-6.215568,"distance":3100},{"is_transit":false,"i_lat":-6.217455,"station_id":"KLDB","transit":false,"time":1,"distance":1305,"line":1,"station_name":"Klenderbaru","i_long":106.939679}]]}