{"data":[[{"i_long":106.826365,"station_id":"KPB","distance":0,"time":0,"transit":false,"is_transit":false,"station_name":"Kampung Bandan","i_lat":-6.132549,"line":4},{"is_transit":false,"i_lat":-6.144674,"line":1,"station_id":"AK","i_long":106.79867,"station_name":"Angke","transit":false,"time":9,"distance":4102},{"distance":1230,"time":4,"station_name":"Duri","is_transit":true,"transit":true,"station_id":"DU","i_lat":-6.155215,"i_long":106.800832,"line":1},{"station_id":"GGL","line":5,"distance":1700,"i_long":106.788277,"station_name":"Grogol","transit":false,"time":3,"i_lat":-6.162021,"is_transit":false},{"distance":2036,"is_transit":false,"line":5,"i_long":106.771379,"station_id":"PSG","time":2,"station_name":"Pesing","transit":false,"i_lat":-6.161433},{"distance":1614,"station_name":"Taman Kota","line":5,"time":2,"i_lat":-6.1587309999999995,"is_transit":false,"transit":false,"i_long":106.756522,"station_id":"TKO"},{"is_transit":false,"station_id":"BOI","distance":2334,"i_lat":-6.159876,"time":2,"station_name":"Bojongindah","line":5,"transit":false,"i_long":106.737035},{"distance":1152,"transit":false,"is_transit":false,"time":4,"station_id":"RW","station_name":"Rawa Buaya","line":5,"i_lat":-6.162758,"i_long":106.723064},{"transit":false,"i_lat":-6.166068,"distance":2504,"i_long":106.701612,"line":5,"time":3,"is_transit":false,"station_id":"KDS","station_name":"Kalideres"},{"station_id":"PI","line":5,"distance":2548,"time":3,"transit":false,"i_lat":-6.169933,"i_long":106.679458,"station_name":"Poris","is_transit":false},{"station_name":"Batuceper","distance":1834,"i_lat":-6.171811,"i_long":106.665036,"is_transit":false,"time":3,"line":5,"station_id":"BPR","transit":false},{"i_lat":-6.17331,"distance":2028,"i_long":106.64657,"transit":false,"line":5,"time":3,"station_id":"TTI","is_transit":false,"station_name":"Tanah Tinggi"}],[{"distance":0,"time":0,"station_id":"KPB","i_long":106.826365,"station_name":"Kampung Bandan","is_transit":false,"line":4,"i_lat":-6.132549,"transit":false},{"station_id":"JAKK","transit":true,"i_lat":-6.137569,"line":2,"time":3,"distance":1364,"station_name":"Jakarta Kota","i_long":106.812439,"is_transit":true},{"line":2,"station_id":"JAY","i_lat":-6.141205,"time":4,"transit":false,"distance":1264,"i_long":106.820901,"is_transit":false,"station_name":"Jayakarta"},{"distance":1080,"station_id":"MGB","station_name":"Manggabesar","i_lat":-6.149769,"time":2,"is_transit":false,"line":2,"transit":false,"i_long":106.82482},{"station_id":"SW","distance":906,"transit":false,"i_lat":-6.160725,"line":2,"time":2,"station_name":"Sawah Besar","is_transit":false,"i_long":106.827103},{"time":2,"station_id":"JUA","is_transit":false,"distance":1149,"transit":false,"station_name":"Juanda","line":2,"i_lat":-6.166716,"i_long":106.828284},{"i_long":106.832183,"i_lat":-6.186295,"station_id":"GDD","time":4,"line":2,"station_name":"Gondangdia","is_transit":false,"distance":2015,"transit":false},{"i_lat":-6.198556,"transit":false,"station_id":"CKI","station_name":"Cikini","i_long":106.840169,"line":2,"distance":1750,"time":3,"is_transit":false},{"is_transit":true,"station_id":"MRI","transit":true,"line":2,"time":4,"distance":1590,"station_name":"Manggarai","i_lat":-6.209883,"i_long":106.84912},{"station_name":"Sudirman","line":1,"transit":false,"time":4,"distance":3186,"is_transit":false,"i_long":106.822649,"station_id":"SUD","i_lat":-6.202263},{"station_name":"Sudirman Baru","transit":false,"time":1,"station_id":"SUDB","i_lat":-6.201433,"distance":280,"is_transit":false,"i_long":106.819881,"line":1},{"line":1,"station_name":"Karet","is_transit":false,"i_long":106.816351,"transit":false,"i_lat":-6.20132,"time":1,"distance":471,"station_id":"KAT"},{"time":5,"line":1,"distance":2029,"station_id":"THB","i_lat":-6.185545,"station_name":"Tanah Abang","transit":false,"i_long":106.811091,"is_transit":false},{"transit":true,"is_transit":true,"distance":3632,"station_name":"Duri","time":8,"i_long":106.800832,"station_id":"DU","line":1,"i_lat":-6.155215},{"line":5,"time":3,"is_transit":false,"transit":false,"station_name":"Grogol","i_lat":-6.162021,"i_long":106.788277,"station_id":"GGL","distance":1700},{"station_name":"Pesing","i_lat":-6.161433,"is_transit":false,"line":5,"i_long":106.771379,"transit":false,"time":2,"distance":2036,"station_id":"PSG"},{"i_long":106.756522,"time":2,"station_name":"Taman Kota","i_lat":-6.1587309999999995,"is_transit":false,"transit":false,"line":5,"distance":1614,"station_id":"TKO"},{"i_long":106.737035,"station_name":"Bojongindah","distance":2334,"i_lat":-6.159876,"station_id":"BOI","is_transit":false,"transit":false,"line":5,"time":2},{"i_long":106.723064,"station_id":"RW","line":5,"time":4,"i_lat":-6.162758,"station_name":"Rawa Buaya","is_transit":false,"distance":1152,"transit":false},{"i_lat":-6.166068,"i_long":106.701612,"line":5,"transit":false,"distance":2504,"is_transit":false,"station_id":"KDS","time":3,"station_name":"Kalideres"},{"i_long":106.679458,"transit":false,"time":3,"is_transit":false,"station_id":"PI","station_name":"Poris","distance":2548,"i_lat":-6.169933,"line":5},{"i_long":106.665036,"is_transit":false,"station_name":"Batuceper","time":3,"line":5,"station_id":"BPR","distance":1834,"transit":false,"i_lat":-6.171811},{"is_transit":false,"station_name":"Tanah Tinggi","station_id":"TTI","i_lat":-6.17331,"time":3,"i_long":106.64657,"line":5,"distance":2028,"transit":false}],[{"is_transit":false,"distance":0,"station_name":"Kampung Bandan","line":4,"time":0,"transit":false,"station_id":"KPB","i_lat":-6.132549,"i_long":106.826365},{"is_transit":false,"i_lat":-6.14505,"station_name":"Rajawali","time":3,"transit":false,"line":11,"i_long":106.836569,"distance":1444,"station_id":"RJW"},{"distance":1901,"line":11,"transit":false,"station_id":"KMO","i_long":106.839204,"station_name":"Kemayoran","time":5,"i_lat":-6.161728,"is_transit":false},{"distance":1436,"time":4,"station_id":"PSE","station_name":"Pasar Senen","transit":false,"i_lat":-6.174784,"line":11,"i_long":106.84368,"is_transit":false},{"i_long":106.850107,"is_transit":false,"station_id":"GST","line":11,"time":8,"distance":1567,"transit":false,"station_name":"Gang Sentiong","i_lat":-6.185975},{"i_long":106.855437,"transit":false,"station_name":"Kramat","i_lat":-6.193792,"is_transit":false,"line":11,"station_id":"KMT","time":1,"distance":973},{"is_transit":false,"time":2,"station_id":"POK","line":11,"i_lat":-6.209188,"i_long":106.861737,"transit":false,"distance":1829,"station_name":"Pondok Jati"},{"distance":1236,"station_id":"JNG","i_long":106.86807400000001,"is_transit":true,"time":9,"transit":true,"station_name":"Jatinegara","i_lat":-6.215091,"line":1},{"distance":1377,"line":1,"time":2,"is_transit":false,"station_name":"Matraman","transit":false,"i_long":106.858896,"i_lat":-6.212485,"station_id":"MTR"},{"station_id":"MRI","station_name":"Manggarai","distance":1275,"i_lat":-6.209883,"is_transit":false,"line":2,"transit":false,"time":2,"i_long":106.84912},{"i_long":106.822649,"transit":false,"station_name":"Sudirman","distance":3186,"is_transit":false,"time":4,"i_lat":-6.202263,"station_id":"SUD","line":1},{"i_lat":-6.201433,"transit":false,"distance":280,"i_long":106.819881,"line":1,"is_transit":false,"time":1,"station_name":"Sudirman Baru","station_id":"SUDB"},{"is_transit":false,"line":1,"i_long":106.816351,"i_lat":-6.20132,"station_name":"Karet","transit":false,"station_id":"KAT","time":1,"distance":471},{"station_id":"THB","time":5,"i_long":106.811091,"line":1,"i_lat":-6.185545,"distance":2029,"transit":false,"is_transit":false,"station_name":"Tanah Abang"},{"i_long":106.800832,"line":1,"is_transit":true,"transit":true,"station_id":"DU","time":8,"distance":3632,"station_name":"Duri","i_lat":-6.155215},{"distance":1700,"station_name":"Grogol","i_long":106.788277,"station_id":"GGL","i_lat":-6.162021,"line":5,"time":3,"is_transit":false,"transit":false},{"station_id":"PSG","i_long":106.771379,"line":5,"is_transit":false,"i_lat":-6.161433,"transit":false,"distance":2036,"time":2,"station_name":"Pesing"},{"station_id":"TKO","time":2,"transit":false,"line":5,"distance":1614,"i_lat":-6.1587309999999995,"is_transit":false,"station_name":"Taman Kota","i_long":106.756522},{"transit":false,"time":2,"i_long":106.737035,"line":5,"distance":2334,"i_lat":-6.159876,"station_id":"BOI","is_transit":false,"station_name":"Bojongindah"},{"line":5,"distance":1152,"station_name":"Rawa Buaya","time":4,"transit":false,"is_transit":false,"i_long":106.723064,"station_id":"RW","i_lat":-6.162758},{"station_id":"KDS","time":3,"line":5,"is_transit":false,"i_long":106.701612,"distance":2504,"station_name":"Kalideres","transit":false,"i_lat":-6.166068},{"station_name":"Poris","is_transit":false,"i_lat":-6.169933,"transit":false,"i_long":106.679458,"station_id":"PI","line":5,"time":3,"distance":2548},{"time":3,"i_lat":-6.171811,"distance":1834,"is_transit":false,"transit":false,"station_id":"BPR","i_long":106.665036,"station_name":"Batuceper","line":5},{"i_long":106.64657,"i_lat":-6.17331,"station_name":"Tanah Tinggi","time":3,"line":5,"station_id":"TTI","distance":2028,"is_transit":false,"transit":false}]]}