{"data":[[{"i_long":106.826365,"time":0,"line":4,"is_transit":false,"transit":false,"station_name":"Kampung Bandan","i_lat":-6.132549,"distance":0,"station_id":"KPB"},{"station_name":"Angke","i_long":106.79867,"transit":false,"time":9,"is_transit":false,"line":1,"i_lat":-6.144674,"station_id":"AK","distance":4102},{"time":4,"station_id":"DU","i_long":106.800832,"transit":false,"station_name":"Duri","line":1,"is_transit":false,"distance":1230,"i_lat":-6.155215},{"i_long":106.811091,"station_name":"Tanah Abang","line":1,"is_transit":true,"time":8,"distance":3632,"station_id":"THB","transit":true,"i_lat":-6.185545},{"station_id":"PLM","line":6,"is_transit":false,"transit":false,"station_name":"Palmerah","time":6,"distance":3191,"i_long":106.79689,"i_lat":-6.207404},{"time":7,"distance":3737,"station_name":"Kebayoran","transit":false,"is_transit":false,"station_id":"KBY","i_lat":-6.237242,"i_long":106.780334,"line":6},{"i_long":106.74273,"is_transit":false,"distance":6218,"i_lat":-6.276362,"line":6,"station_name":"Pondokranji","station_id":"PDJ","transit":false,"time":8},{"is_transit":false,"line":6,"station_id":"JMU","transit":false,"station_name":"Jurangmangu","i_long":106.728916,"distance":2179,"time":3,"i_lat":-6.288927}],[{"is_transit":false,"station_name":"Kampung Bandan","i_long":106.826365,"transit":false,"station_id":"KPB","distance":0,"i_lat":-6.132549,"time":0,"line":4},{"time":3,"station_id":"JAKK","line":2,"transit":true,"distance":1364,"is_transit":true,"station_name":"Jakarta Kota","i_lat":-6.137569,"i_long":106.812439},{"i_long":106.820901,"line":2,"transit":false,"station_name":"Jayakarta","is_transit":false,"time":4,"distance":1264,"i_lat":-6.141205,"station_id":"JAY"},{"i_lat":-6.149769,"is_transit":false,"transit":false,"i_long":106.82482,"distance":1080,"station_name":"Manggabesar","line":2,"station_id":"MGB","time":2},{"transit":false,"i_long":106.827103,"is_transit":false,"station_name":"Sawah Besar","station_id":"SW","distance":906,"i_lat":-6.160725,"line":2,"time":2},{"i_long":106.828284,"station_id":"JUA","line":2,"station_name":"Juanda","i_lat":-6.166716,"transit":false,"is_transit":false,"time":2,"distance":1149},{"transit":false,"station_id":"GDD","i_long":106.832183,"line":2,"station_name":"Gondangdia","distance":2015,"time":4,"is_transit":false,"i_lat":-6.186295},{"i_long":106.840169,"time":3,"station_name":"Cikini","station_id":"CKI","distance":1750,"i_lat":-6.198556,"is_transit":false,"transit":false,"line":2},{"transit":true,"i_lat":-6.209883,"i_long":106.84912,"distance":1590,"is_transit":true,"time":4,"station_name":"Manggarai","station_id":"MRI","line":2},{"i_lat":-6.202263,"i_long":106.822649,"distance":3186,"transit":false,"station_name":"Sudirman","station_id":"SUD","line":1,"is_transit":false,"time":4},{"station_name":"Sudirman Baru","is_transit":false,"station_id":"SUDB","i_lat":-6.201433,"transit":false,"line":1,"i_long":106.819881,"time":1,"distance":280},{"i_long":106.816351,"is_transit":false,"station_name":"Karet","time":1,"transit":false,"i_lat":-6.20132,"station_id":"KAT","line":1,"distance":471},{"station_id":"THB","transit":true,"is_transit":true,"line":1,"i_lat":-6.185545,"time":5,"station_name":"Tanah Abang","i_long":106.811091,"distance":2029},{"station_name":"Palmerah","i_lat":-6.207404,"station_id":"PLM","i_long":106.79689,"is_transit":false,"line":6,"transit":false,"distance":3191,"time":6},{"is_transit":false,"station_name":"Kebayoran","transit":false,"i_lat":-6.237242,"line":6,"i_long":106.780334,"distance":3737,"station_id":"KBY","time":7},{"station_name":"Pondokranji","distance":6218,"i_long":106.74273,"i_lat":-6.276362,"transit":false,"station_id":"PDJ","is_transit":false,"time":8,"line":6},{"distance":2179,"time":3,"is_transit":false,"station_id":"JMU","transit":false,"station_name":"Jurangmangu","i_lat":-6.288927,"i_long":106.728916,"line":6}],[{"is_transit":false,"i_lat":-6.132549,"line":4,"station_id":"KPB","time":0,"station_name":"Kampung Bandan","i_long":106.826365,"transit":false,"distance":0},{"time":3,"station_name":"Rajawali","distance":1444,"station_id":"RJW","i_long":106.836569,"transit":false,"i_lat":-6.14505,"is_transit":false,"line":11},{"distance":1901,"i_lat":-6.161728,"time":5,"station_id":"KMO","i_long":106.839204,"station_name":"Kemayoran","is_transit":false,"line":11,"transit":false},{"station_id":"PSE","is_transit":false,"distance":1436,"station_name":"Pasar Senen","line":11,"transit":false,"time":4,"i_lat":-6.174784,"i_long":106.84368},{"i_long":106.850107,"distance":1567,"line":11,"station_id":"GST","i_lat":-6.185975,"transit":false,"is_transit":false,"station_name":"Gang Sentiong","time":8},{"i_lat":-6.193792,"transit":false,"time":1,"is_transit":false,"line":11,"i_long":106.855437,"station_id":"KMT","station_name":"Kramat","distance":973},{"station_id":"POK","distance":1829,"transit":false,"i_lat":-6.209188,"line":11,"i_long":106.861737,"is_transit":false,"station_name":"Pondok Jati","time":2},{"i_long":106.86807400000001,"is_transit":true,"i_lat":-6.215091,"time":9,"station_name":"Jatinegara","station_id":"JNG","line":1,"transit":true,"distance":1236},{"line":1,"is_transit":false,"transit":false,"distance":1377,"i_long":106.858896,"i_lat":-6.212485,"time":2,"station_name":"Matraman","station_id":"MTR"},{"i_long":106.84912,"line":2,"time":2,"is_transit":false,"station_name":"Manggarai","station_id":"MRI","transit":false,"distance":1275,"i_lat":-6.209883},{"distance":3186,"station_id":"SUD","is_transit":false,"i_lat":-6.202263,"time":4,"station_name":"Sudirman","transit":false,"line":1,"i_long":106.822649},{"station_id":"SUDB","i_long":106.819881,"line":1,"is_transit":false,"distance":280,"i_lat":-6.201433,"station_name":"Sudirman Baru","time":1,"transit":false},{"transit":false,"is_transit":false,"station_id":"KAT","i_lat":-6.20132,"station_name":"Karet","line":1,"i_long":106.816351,"time":1,"distance":471},{"transit":true,"station_id":"THB","line":1,"time":5,"is_transit":true,"distance":2029,"station_name":"Tanah Abang","i_lat":-6.185545,"i_long":106.811091},{"station_name":"Palmerah","i_lat":-6.207404,"i_long":106.79689,"distance":3191,"is_transit":false,"station_id":"PLM","line":6,"transit":false,"time":6},{"distance":3737,"i_lat":-6.237242,"station_id":"KBY","line":6,"i_long":106.780334,"time":7,"transit":false,"station_name":"Kebayoran","is_transit":false},{"transit":false,"is_transit":false,"distance":6218,"time":8,"station_name":"Pondokranji","station_id":"PDJ","i_lat":-6.276362,"i_long":106.74273,"line":6},{"distance":2179,"station_name":"Jurangmangu","station_id":"JMU","transit":false,"i_long":106.728916,"i_lat":-6.288927,"is_transit":false,"time":3,"line":6}]]}