{"data":[[{"i_lat":-6.132549,"line":0,"time":0,"station_id":"KPB","station_name":"Kampung Bandan","is_transit":true,"distance":0,"i_long":106.826365,"transit":false},{"is_transit":true,"line":0,"station_name":"Jakarta Kota","transit":true,"distance":1364,"i_long":106.812439,"time":3,"station_id":"JAKK","i_lat":-6.137569},{"station_name":"Jayakarta","i_lat":-6.141205,"i_long":106.820901,"is_transit":false,"distance":1264,"station_id":"JAY","transit":false,"line":7,"time":4},{"i_long":106.82482,"line":2,"distance":1080,"station_id":"MGB","time":2,"station_name":"Manggabesar","transit":false,"is_transit":false,"i_lat":-6.149769},{"i_lat":-6.160725,"i_long":106.827103,"station_id":"SW","transit":false,"is_transit":false,"time":2,"distance":906,"line":2,"station_name":"Sawah Besar"},{"station_name":"Juanda","station_id":"JUA","i_long":106.828284,"is_transit":false,"line":2,"i_lat":-6.166716,"distance":1149,"time":2,"transit":false}],[{"station_name":"Kampung Bandan","is_transit":true,"time":0,"i_long":106.826365,"i_lat":-6.132549,"transit":false,"line":0,"distance":0,"station_id":"KPB"},{"is_transit":false,"station_name":"Angke","station_id":"AK","time":9,"transit":false,"distance":4102,"i_lat":-6.144674,"line":0,"i_long":106.79867},{"i_long":106.800832,"time":4,"is_transit":true,"station_name":"Duri","transit":true,"distance":1230,"i_lat":-6.155215,"line":1,"station_id":"DU"},{"time":8,"station_id":"THB","distance":3632,"is_transit":true,"line":1,"station_name":"Tanah Abang","i_long":106.811091,"i_lat":-6.185545,"transit":false},{"station_id":"KAT","transit":false,"is_transit":false,"station_name":"Karet","time":5,"distance":2029,"line":1,"i_long":106.816351,"i_lat":-6.20132},{"i_lat":-6.201433,"line":1,"station_id":"SUDB","station_name":"Sudirman Baru","distance":471,"time":1,"i_long":106.819881,"is_transit":false,"transit":false},{"i_lat":-6.202263,"i_long":106.822649,"transit":false,"time":1,"is_transit":false,"distance":280,"line":1,"station_name":"Sudirman","station_id":"SUD"},{"time":4,"station_name":"Manggarai","transit":true,"line":0,"distance":3186,"is_transit":true,"i_long":106.84912,"i_lat":-6.209883,"station_id":"MRI"},{"station_id":"CKI","is_transit":false,"i_long":106.840169,"transit":false,"line":0,"time":4,"station_name":"Cikini","distance":1590,"i_lat":-6.198556},{"i_long":106.832183,"time":3,"station_name":"Gondangdia","is_transit":false,"line":2,"transit":false,"distance":1750,"i_lat":-6.186295,"station_id":"GDD"},{"is_transit":false,"transit":false,"distance":2015,"line":2,"station_id":"JUA","i_lat":-6.166716,"i_long":106.828284,"station_name":"Juanda","time":4}],[{"station_name":"Kampung Bandan","is_transit":true,"distance":0,"time":0,"station_id":"KPB","i_lat":-6.132549,"line":0,"i_long":106.826365,"transit":false},{"station_id":"RJW","distance":1444,"transit":false,"i_lat":-6.14505,"time":3,"i_long":106.836569,"line":11,"is_transit":false,"station_name":"Rajawali"},{"distance":1901,"line":11,"i_lat":-6.161728,"station_name":"Kemayoran","transit":false,"is_transit":false,"i_long":106.839204,"station_id":"KMO","time":5},{"time":4,"station_id":"PSE","line":11,"is_transit":false,"i_lat":-6.174784,"i_long":106.84368,"transit":false,"station_name":"Pasar Senen","distance":1436},{"line":11,"distance":1567,"transit":false,"time":8,"i_lat":-6.185975,"station_name":"Gang Sentiong","i_long":106.850107,"is_transit":false,"station_id":"GST"},{"line":11,"distance":973,"time":1,"is_transit":false,"station_name":"Kramat","station_id":"KMT","i_long":106.855437,"i_lat":-6.193792,"transit":false},{"station_id":"POK","line":11,"transit":false,"station_name":"Pondok Jati","distance":1829,"time":2,"i_long":106.861737,"is_transit":false,"i_lat":-6.209188},{"station_id":"JNG","is_transit":true,"time":9,"i_long":106.86807400000001,"station_name":"Jatinegara","i_lat":-6.215091,"line":0,"distance":1236,"transit":true},{"station_id":"MTR","is_transit":false,"i_long":106.858896,"transit":false,"i_lat":-6.212485,"line":1,"distance":1377,"station_name":"Matraman","time":2},{"i_lat":-6.209883,"time":2,"line":0,"transit":true,"station_name":"Manggarai","station_id":"MRI","i_long":106.84912,"is_transit":true,"distance":1275},{"station_name":"Cikini","i_long":106.840169,"distance":1590,"line":0,"station_id":"CKI","is_transit":false,"time":4,"i_lat":-6.198556,"transit":false},{"distance":1750,"i_long":106.832183,"time":3,"i_lat":-6.186295,"transit":false,"line":2,"station_name":"Gondangdia","station_id":"GDD","is_transit":false},{"time":4,"is_transit":false,"distance":2015,"transit":false,"station_name":"Juanda","i_lat":-6.166716,"i_long":106.828284,"station_id":"JUA","line":2}]]}