{"data":[[{"is_transit":false,"time":0,"distance":0,"i_lat":-6.132549,"station_name":"Kampung Bandan","line":4,"station_id":"KPB","i_long":106.826365,"transit":false},{"time":3,"transit":false,"line":11,"i_lat":-6.14505,"distance":1444,"i_long":106.836569,"station_name":"Rajawali","is_transit":false,"station_id":"RJW"},{"distance":1901,"i_long":106.839204,"line":11,"station_id":"KMO","is_transit":false,"transit":false,"i_lat":-6.161728,"station_name":"Kemayoran","time":5},{"i_lat":-6.174784,"is_transit":false,"transit":false,"line":11,"i_long":106.84368,"station_name":"Pasar Senen","time":4,"distance":1436,"station_id":"PSE"}],[{"is_transit":false,"i_lat":-6.132549,"line":4,"time":0,"i_long":106.826365,"distance":0,"transit":false,"station_name":"Kampung Bandan","station_id":"KPB"},{"i_long":106.79867,"time":9,"line":1,"station_id":"AK","transit":false,"i_lat":-6.144674,"station_name":"Angke","is_transit":false,"distance":4102},{"i_long":106.800832,"station_name":"Duri","time":4,"is_transit":false,"transit":false,"i_lat":-6.155215,"distance":1230,"station_id":"DU","line":1},{"station_name":"Tanah Abang","distance":3632,"transit":false,"station_id":"THB","is_transit":false,"time":8,"i_long":106.811091,"i_lat":-6.185545,"line":1},{"is_transit":false,"line":1,"station_name":"Karet","i_long":106.816351,"i_lat":-6.20132,"station_id":"KAT","time":5,"transit":false,"distance":2029},{"time":1,"line":1,"distance":471,"station_id":"SUDB","is_transit":false,"station_name":"Sudirman Baru","i_lat":-6.201433,"transit":false,"i_long":106.819881},{"time":1,"line":1,"is_transit":false,"i_lat":-6.202263,"transit":false,"distance":280,"station_id":"SUD","station_name":"Sudirman","i_long":106.822649},{"line":2,"station_id":"MRI","transit":false,"i_lat":-6.209883,"station_name":"Manggarai","time":4,"distance":3186,"i_long":106.84912,"is_transit":false},{"transit":false,"line":1,"time":2,"station_id":"MTR","i_long":106.858896,"i_lat":-6.212485,"station_name":"Matraman","distance":1275,"is_transit":false},{"is_transit":true,"station_id":"JNG","i_long":106.86807400000001,"line":1,"i_lat":-6.215091,"transit":true,"time":8,"distance":1377,"station_name":"Jatinegara"},{"station_name":"Pondok Jati","i_lat":-6.209188,"distance":1236,"line":11,"station_id":"POK","is_transit":false,"transit":false,"time":2,"i_long":106.861737},{"station_id":"KMT","transit":false,"is_transit":false,"distance":1829,"station_name":"Kramat","i_lat":-6.193792,"line":11,"time":2,"i_long":106.855437},{"i_long":106.850107,"station_name":"Gang Sentiong","line":11,"transit":false,"station_id":"GST","time":1,"distance":973,"is_transit":false,"i_lat":-6.185975},{"line":11,"i_long":106.84368,"transit":false,"time":8,"i_lat":-6.174784,"station_id":"PSE","distance":1567,"station_name":"Pasar Senen","is_transit":false}],[{"station_id":"KPB","is_transit":false,"transit":false,"time":0,"distance":0,"i_lat":-6.132549,"station_name":"Kampung Bandan","i_long":106.826365,"line":4},{"station_name":"Jakarta Kota","station_id":"JAKK","transit":true,"i_lat":-6.137569,"i_long":106.812439,"is_transit":true,"distance":1364,"line":2,"time":3},{"time":4,"line":2,"i_long":106.820901,"transit":false,"is_transit":false,"distance":1264,"station_name":"Jayakarta","i_lat":-6.141205,"station_id":"JAY"},{"is_transit":false,"transit":false,"i_long":106.82482,"distance":1080,"station_name":"Manggabesar","i_lat":-6.149769,"line":2,"time":2,"station_id":"MGB"},{"is_transit":false,"line":2,"station_name":"Sawah Besar","transit":false,"time":2,"station_id":"SW","i_lat":-6.160725,"i_long":106.827103,"distance":906},{"time":2,"i_lat":-6.166716,"distance":1149,"transit":false,"line":2,"station_id":"JUA","station_name":"Juanda","is_transit":false,"i_long":106.828284},{"station_id":"GDD","transit":false,"line":2,"station_name":"Gondangdia","distance":2015,"i_lat":-6.186295,"is_transit":false,"time":4,"i_long":106.832183},{"i_lat":-6.198556,"station_name":"Cikini","distance":1750,"is_transit":false,"transit":false,"i_long":106.840169,"time":3,"line":2,"station_id":"CKI"},{"distance":1590,"time":4,"station_id":"MRI","is_transit":true,"line":2,"i_long":106.84912,"transit":true,"i_lat":-6.209883,"station_name":"Manggarai"},{"station_id":"MTR","time":2,"station_name":"Matraman","i_lat":-6.212485,"i_long":106.858896,"transit":false,"is_transit":false,"line":1,"distance":1275},{"distance":1377,"time":8,"station_name":"Jatinegara","is_transit":true,"transit":true,"i_long":106.86807400000001,"station_id":"JNG","i_lat":-6.215091,"line":1},{"distance":1236,"transit":false,"station_name":"Pondok Jati","is_transit":false,"line":11,"time":2,"station_id":"POK","i_long":106.861737,"i_lat":-6.209188},{"distance":1829,"station_id":"KMT","line":11,"i_lat":-6.193792,"is_transit":false,"transit":false,"i_long":106.855437,"station_name":"Kramat","time":2},{"distance":973,"line":11,"transit":false,"i_lat":-6.185975,"station_name":"Gang Sentiong","i_long":106.850107,"is_transit":false,"station_id":"GST","time":1},{"time":8,"distance":1567,"transit":false,"is_transit":false,"i_long":106.84368,"i_lat":-6.174784,"station_id":"PSE","line":11,"station_name":"Pasar Senen"}]]}