{"data":[[{"i_long":106.826365,"station_name":"Kampung Bandan","transit":false,"distance":0,"station_id":"KPB","i_lat":-6.132549,"line":0,"time":0,"is_transit":true},{"station_id":"AK","station_name":"Angke","i_lat":-6.144674,"line":0,"time":9,"transit":false,"i_long":106.79867,"is_transit":false,"distance":4102},{"station_name":"Duri","distance":1230,"station_id":"DU","is_transit":true,"i_long":106.800832,"i_lat":-6.155215,"line":1,"transit":true,"time":4},{"time":8,"is_transit":true,"station_id":"THB","i_lat":-6.185545,"i_long":106.811091,"station_name":"Tanah Abang","line":1,"distance":3632,"transit":false},{"transit":false,"station_id":"KAT","distance":2029,"time":5,"station_name":"Karet","is_transit":false,"i_lat":-6.20132,"i_long":106.816351,"line":1},{"transit":false,"time":1,"i_lat":-6.201433,"distance":471,"station_name":"Sudirman Baru","station_id":"SUDB","line":1,"i_long":106.819881,"is_transit":false},{"line":1,"station_id":"SUD","time":1,"i_lat":-6.202263,"station_name":"Sudirman","transit":false,"i_long":106.822649,"is_transit":false,"distance":280},{"line":0,"station_name":"Manggarai","time":4,"transit":true,"i_lat":-6.209883,"is_transit":true,"distance":3186,"station_id":"MRI","i_long":106.84912},{"distance":2610,"station_name":"Tebet","transit":false,"is_transit":false,"line":2,"i_lat":-6.226659,"time":4,"station_id":"TEB","i_long":106.857948},{"is_transit":false,"distance":1230,"transit":false,"station_name":"Cawang","i_long":106.856607,"i_lat":-6.242512,"line":0,"time":2,"station_id":"CW"},{"time":3,"i_long":106.85449,"distance":1546,"line":0,"station_id":"DRN","transit":false,"is_transit":false,"i_lat":-6.255332,"station_name":"Duren Kalibata"},{"distance":824,"i_lat":-6.263214,"line":2,"transit":false,"station_name":"Pasar Minggu Baru","station_id":"PSMB","time":2,"i_long":106.851577,"is_transit":false},{"station_name":"Pasar Minggu","i_lat":-6.2842400000000005,"station_id":"PSM","is_transit":false,"line":2,"transit":false,"distance":2380,"time":2,"i_long":106.843999},{"time":4,"distance":2820,"station_id":"TNT","station_name":"Tanjung Barat","is_transit":false,"i_long":106.838896,"transit":false,"line":2,"i_lat":-6.3080680000000005},{"line":2,"i_long":106.832616,"distance":2671,"time":3,"i_lat":-6.330363,"station_id":"LNA","station_name":"Lenteng Agung","transit":false,"is_transit":false},{"i_long":106.834175,"line":2,"is_transit":false,"transit":false,"station_name":"Univ. Pancasila","time":2,"distance":1029,"i_lat":-6.339291,"station_id":"UP"},{"station_id":"UI","station_name":"Univ. Indonesia","is_transit":false,"line":2,"i_lat":-6.360749,"transit":false,"time":3,"distance":2264,"i_long":106.831474},{"i_long":106.831114,"line":2,"time":2,"is_transit":false,"station_name":"Pondok Cina","transit":false,"distance":1109,"station_id":"POC","i_lat":-6.369073}],[{"station_name":"Kampung Bandan","time":0,"is_transit":true,"i_lat":-6.132549,"line":0,"distance":0,"transit":false,"station_id":"KPB","i_long":106.826365},{"i_long":106.812439,"station_name":"Jakarta Kota","distance":1364,"is_transit":true,"time":3,"station_id":"JAKK","transit":true,"line":0,"i_lat":-6.137569},{"transit":false,"is_transit":false,"line":7,"i_long":106.820901,"time":4,"distance":1264,"station_id":"JAY","i_lat":-6.141205,"station_name":"Jayakarta"},{"station_name":"Manggabesar","station_id":"MGB","i_long":106.82482,"line":2,"time":2,"i_lat":-6.149769,"transit":false,"is_transit":false,"distance":1080},{"station_name":"Sawah Besar","transit":false,"line":2,"i_lat":-6.160725,"is_transit":false,"station_id":"SW","distance":906,"i_long":106.827103,"time":2},{"station_id":"JUA","i_lat":-6.166716,"i_long":106.828284,"line":2,"time":2,"is_transit":false,"transit":false,"station_name":"Juanda","distance":1149},{"transit":false,"is_transit":false,"station_id":"GDD","distance":2015,"line":2,"time":4,"i_lat":-6.186295,"i_long":106.832183,"station_name":"Gondangdia"},{"station_name":"Cikini","line":0,"is_transit":false,"time":3,"distance":1750,"transit":false,"station_id":"CKI","i_lat":-6.198556,"i_long":106.840169},{"i_lat":-6.209883,"time":4,"transit":true,"is_transit":true,"i_long":106.84912,"line":0,"station_name":"Manggarai","distance":1590,"station_id":"MRI"},{"distance":2610,"line":2,"is_transit":false,"transit":false,"station_name":"Tebet","station_id":"TEB","i_lat":-6.226659,"i_long":106.857948,"time":4},{"time":2,"line":0,"i_long":106.856607,"station_name":"Cawang","is_transit":false,"i_lat":-6.242512,"transit":false,"distance":1230,"station_id":"CW"},{"transit":false,"is_transit":false,"time":3,"station_id":"DRN","i_lat":-6.255332,"distance":1546,"i_long":106.85449,"line":0,"station_name":"Duren Kalibata"},{"station_name":"Pasar Minggu Baru","i_lat":-6.263214,"i_long":106.851577,"station_id":"PSMB","time":2,"line":2,"transit":false,"is_transit":false,"distance":824},{"line":2,"is_transit":false,"time":2,"distance":2380,"station_id":"PSM","station_name":"Pasar Minggu","i_lat":-6.2842400000000005,"transit":false,"i_long":106.843999},{"time":4,"distance":2820,"line":2,"station_name":"Tanjung Barat","transit":false,"station_id":"TNT","i_long":106.838896,"i_lat":-6.3080680000000005,"is_transit":false},{"station_name":"Lenteng Agung","i_lat":-6.330363,"is_transit":false,"distance":2671,"i_long":106.832616,"transit":false,"line":2,"time":3,"station_id":"LNA"},{"time":2,"station_id":"UP","is_transit":false,"distance":1029,"i_long":106.834175,"line":2,"station_name":"Univ. Pancasila","transit":false,"i_lat":-6.339291},{"transit":false,"is_transit":false,"time":3,"station_id":"UI","i_long":106.831474,"distance":2264,"line":2,"station_name":"Univ. Indonesia","i_lat":-6.360749},{"i_lat":-6.369073,"transit":false,"is_transit":false,"station_id":"POC","line":2,"time":2,"i_long":106.831114,"station_name":"Pondok Cina","distance":1109}],[{"transit":false,"station_id":"KPB","distance":0,"i_lat":-6.132549,"time":0,"line":0,"station_name":"Kampung Bandan","is_transit":true,"i_long":106.826365},{"i_lat":-6.14505,"station_id":"RJW","line":11,"is_transit":false,"i_long":106.836569,"distance":1444,"station_name":"Rajawali","time":3,"transit":false},{"i_lat":-6.161728,"i_long":106.839204,"line":11,"transit":false,"is_transit":false,"station_id":"KMO","station_name":"Kemayoran","distance":1901,"time":5},{"time":4,"station_id":"PSE","i_lat":-6.174784,"i_long":106.84368,"station_name":"Pasar Senen","distance":1436,"line":11,"is_transit":false,"transit":false},{"distance":1567,"station_name":"Gang Sentiong","station_id":"GST","line":11,"i_lat":-6.185975,"i_long":106.850107,"time":8,"transit":false,"is_transit":false},{"time":1,"station_id":"KMT","is_transit":false,"i_lat":-6.193792,"station_name":"Kramat","transit":false,"i_long":106.855437,"line":11,"distance":973},{"is_transit":false,"i_long":106.861737,"time":2,"line":11,"i_lat":-6.209188,"station_id":"POK","distance":1829,"station_name":"Pondok Jati","transit":false},{"i_lat":-6.215091,"time":9,"i_long":106.86807400000001,"station_id":"JNG","distance":1236,"transit":true,"line":0,"station_name":"Jatinegara","is_transit":true},{"line":1,"i_long":106.858896,"time":2,"distance":1377,"is_transit":false,"station_name":"Matraman","station_id":"MTR","i_lat":-6.212485,"transit":false},{"i_long":106.84912,"line":0,"transit":true,"is_transit":true,"i_lat":-6.209883,"distance":1275,"station_name":"Manggarai","station_id":"MRI","time":2},{"distance":2610,"line":2,"i_long":106.857948,"i_lat":-6.226659,"transit":false,"station_name":"Tebet","time":4,"is_transit":false,"station_id":"TEB"},{"i_lat":-6.242512,"line":0,"station_name":"Cawang","i_long":106.856607,"is_transit":false,"time":2,"station_id":"CW","distance":1230,"transit":false},{"station_id":"DRN","line":0,"time":3,"i_long":106.85449,"i_lat":-6.255332,"distance":1546,"transit":false,"station_name":"Duren Kalibata","is_transit":false},{"station_id":"PSMB","i_lat":-6.263214,"distance":824,"station_name":"Pasar Minggu Baru","transit":false,"i_long":106.851577,"is_transit":false,"time":2,"line":2},{"station_name":"Pasar Minggu","transit":false,"station_id":"PSM","line":2,"distance":2380,"i_lat":-6.2842400000000005,"is_transit":false,"i_long":106.843999,"time":2},{"time":4,"station_id":"TNT","station_name":"Tanjung Barat","transit":false,"is_transit":false,"i_long":106.838896,"i_lat":-6.3080680000000005,"line":2,"distance":2820},{"i_lat":-6.330363,"is_transit":false,"station_id":"LNA","distance":2671,"station_name":"Lenteng Agung","line":2,"time":3,"transit":false,"i_long":106.832616},{"i_lat":-6.339291,"line":2,"transit":false,"time":2,"distance":1029,"is_transit":false,"station_name":"Univ. Pancasila","station_id":"UP","i_long":106.834175},{"station_id":"UI","i_long":106.831474,"transit":false,"is_transit":false,"time":3,"line":2,"i_lat":-6.360749,"distance":2264,"station_name":"Univ. Indonesia"},{"station_id":"POC","transit":false,"i_lat":-6.369073,"is_transit":false,"i_long":106.831114,"line":2,"time":2,"station_name":"Pondok Cina","distance":1109}]]}