{"data":[[{"transit":false,"i_lat":-6.132549,"i_long":106.826365,"line":4,"station_name":"Kampung Bandan","is_transit":false,"station_id":"KPB","distance":0,"time":0},{"station_name":"Rajawali","transit":false,"time":3,"distance":1444,"line":11,"i_lat":-6.14505,"station_id":"RJW","i_long":106.836569,"is_transit":false},{"distance":1901,"station_name":"Kemayoran","transit":false,"is_transit":false,"i_lat":-6.161728,"i_long":106.839204,"line":11,"station_id":"KMO","time":5},{"distance":1436,"i_lat":-6.174784,"is_transit":false,"i_long":106.84368,"station_id":"PSE","line":11,"transit":false,"time":4,"station_name":"Pasar Senen"},{"time":8,"transit":false,"station_id":"GST","i_long":106.850107,"distance":1567,"line":11,"is_transit":false,"station_name":"Gang Sentiong","i_lat":-6.185975},{"station_id":"KMT","time":1,"i_lat":-6.193792,"i_long":106.855437,"transit":false,"line":11,"is_transit":false,"distance":973,"station_name":"Kramat"},{"station_id":"POK","transit":false,"time":2,"i_long":106.861737,"distance":1829,"is_transit":false,"line":11,"i_lat":-6.209188,"station_name":"Pondok Jati"},{"station_name":"Jatinegara","line":1,"distance":1236,"i_long":106.86807400000001,"time":9,"is_transit":true,"i_lat":-6.215091,"station_id":"JNG","transit":true},{"is_transit":false,"transit":false,"i_long":106.899548,"station_name":"Klender","station_id":"KLD","i_lat":-6.2135,"line":1,"distance":3395,"time":3},{"i_long":106.922662,"station_name":"Buaran","transit":false,"is_transit":false,"station_id":"BUA","i_lat":-6.215568,"line":1,"time":2,"distance":3100},{"distance":1305,"station_id":"KLDB","i_long":106.939679,"time":1,"line":1,"is_transit":false,"station_name":"Klenderbaru","i_lat":-6.217455,"transit":false},{"is_transit":false,"station_name":"Cakung","transit":false,"station_id":"CUK","i_long":106.951283,"line":1,"i_lat":-6.219053,"time":8,"distance":1385}],[{"is_transit":false,"distance":0,"i_lat":-6.132549,"transit":false,"station_id":"KPB","i_long":106.826365,"station_name":"Kampung Bandan","line":4,"time":0},{"is_transit":false,"distance":4102,"station_name":"Angke","transit":false,"time":9,"i_lat":-6.144674,"i_long":106.79867,"line":1,"station_id":"AK"},{"line":1,"transit":false,"distance":1230,"station_id":"DU","i_lat":-6.155215,"is_transit":false,"time":4,"station_name":"Duri","i_long":106.800832},{"is_transit":false,"i_long":106.811091,"station_id":"THB","line":1,"station_name":"Tanah Abang","i_lat":-6.185545,"time":8,"distance":3632,"transit":false},{"i_long":106.816351,"station_id":"KAT","i_lat":-6.20132,"line":1,"station_name":"Karet","distance":2029,"transit":false,"is_transit":false,"time":5},{"distance":471,"line":1,"station_id":"SUDB","i_lat":-6.201433,"is_transit":false,"i_long":106.819881,"time":1,"station_name":"Sudirman Baru","transit":false},{"distance":280,"station_name":"Sudirman","i_long":106.822649,"station_id":"SUD","transit":false,"is_transit":false,"time":1,"i_lat":-6.202263,"line":1},{"i_lat":-6.209883,"distance":3186,"station_id":"MRI","line":2,"is_transit":false,"i_long":106.84912,"station_name":"Manggarai","transit":false,"time":4},{"transit":false,"station_name":"Matraman","station_id":"MTR","i_long":106.858896,"distance":1275,"time":2,"is_transit":false,"line":1,"i_lat":-6.212485},{"time":8,"i_lat":-6.215091,"line":1,"i_long":106.86807400000001,"transit":false,"station_id":"JNG","is_transit":false,"station_name":"Jatinegara","distance":1377},{"time":3,"i_lat":-6.2135,"station_name":"Klender","i_long":106.899548,"line":1,"transit":false,"is_transit":false,"distance":3395,"station_id":"KLD"},{"station_name":"Buaran","i_long":106.922662,"distance":3100,"station_id":"BUA","line":1,"i_lat":-6.215568,"transit":false,"is_transit":false,"time":2},{"i_lat":-6.217455,"transit":false,"distance":1305,"time":1,"is_transit":false,"i_long":106.939679,"station_name":"Klenderbaru","line":1,"station_id":"KLDB"},{"line":1,"time":8,"transit":false,"station_name":"Cakung","is_transit":false,"i_long":106.951283,"station_id":"CUK","distance":1385,"i_lat":-6.219053}],[{"is_transit":false,"distance":0,"station_id":"KPB","transit":false,"time":0,"i_long":106.826365,"i_lat":-6.132549,"line":4,"station_name":"Kampung Bandan"},{"is_transit":true,"distance":1364,"transit":true,"i_long":106.812439,"station_id":"JAKK","station_name":"Jakarta Kota","i_lat":-6.137569,"time":3,"line":2},{"transit":false,"distance":1264,"is_transit":false,"station_name":"Jayakarta","line":2,"i_lat":-6.141205,"station_id":"JAY","time":4,"i_long":106.820901},{"transit":false,"i_long":106.82482,"line":2,"is_transit":false,"distance":1080,"station_id":"MGB","i_lat":-6.149769,"station_name":"Manggabesar","time":2},{"line":2,"time":2,"transit":false,"i_lat":-6.160725,"is_transit":false,"station_name":"Sawah Besar","station_id":"SW","distance":906,"i_long":106.827103},{"is_transit":false,"transit":false,"i_lat":-6.166716,"time":2,"line":2,"station_id":"JUA","i_long":106.828284,"distance":1149,"station_name":"Juanda"},{"line":2,"time":4,"is_transit":false,"i_lat":-6.186295,"station_name":"Gondangdia","transit":false,"i_long":106.832183,"distance":2015,"station_id":"GDD"},{"distance":1750,"i_lat":-6.198556,"line":2,"station_name":"Cikini","transit":false,"time":3,"i_long":106.840169,"is_transit":false,"station_id":"CKI"},{"distance":1590,"station_id":"MRI","transit":true,"is_transit":true,"i_lat":-6.209883,"line":2,"time":4,"station_name":"Manggarai","i_long":106.84912},{"i_long":106.858896,"line":1,"transit":false,"station_name":"Matraman","distance":1275,"station_id":"MTR","is_transit":false,"time":2,"i_lat":-6.212485},{"station_id":"JNG","line":1,"distance":1377,"station_name":"Jatinegara","transit":false,"is_transit":false,"i_long":106.86807400000001,"time":8,"i_lat":-6.215091},{"is_transit":false,"station_id":"KLD","time":3,"transit":false,"i_lat":-6.2135,"station_name":"Klender","i_long":106.899548,"line":1,"distance":3395},{"i_long":106.922662,"station_name":"Buaran","time":2,"distance":3100,"line":1,"i_lat":-6.215568,"transit":false,"is_transit":false,"station_id":"BUA"},{"i_long":106.939679,"distance":1305,"line":1,"is_transit":false,"i_lat":-6.217455,"station_id":"KLDB","transit":false,"time":1,"station_name":"Klenderbaru"},{"time":8,"line":1,"is_transit":false,"distance":1385,"station_name":"Cakung","station_id":"CUK","transit":false,"i_long":106.951283,"i_lat":-6.219053}]]}