{"data":[[{"station_name":"Kampung Bandan","time":0,"i_lat":-6.132549,"is_transit":false,"distance":0,"line":4,"transit":false,"station_id":"KPB","i_long":106.826365},{"station_name":"Angke","transit":false,"distance":4102,"i_lat":-6.144674,"is_transit":false,"time":9,"station_id":"AK","i_long":106.79867,"line":1},{"station_name":"Duri","line":1,"station_id":"DU","time":4,"is_transit":false,"i_long":106.800832,"i_lat":-6.155215,"distance":1230,"transit":false},{"station_id":"THB","station_name":"Tanah Abang","time":8,"line":1,"is_transit":true,"i_lat":-6.185545,"transit":true,"i_long":106.811091,"distance":3632},{"line":6,"station_name":"Palmerah","distance":3191,"i_lat":-6.207404,"transit":false,"i_long":106.79689,"is_transit":false,"station_id":"PLM","time":6},{"distance":3737,"transit":false,"station_name":"Kebayoran","is_transit":false,"i_long":106.780334,"i_lat":-6.237242,"line":6,"station_id":"KBY","time":7},{"distance":6218,"is_transit":false,"transit":false,"station_name":"Pondokranji","time":8,"station_id":"PDJ","i_lat":-6.276362,"i_long":106.74273,"line":6},{"station_name":"Jurangmangu","transit":false,"distance":2179,"station_id":"JMU","time":3,"is_transit":false,"i_lat":-6.288927,"line":6,"i_long":106.728916}],[{"station_id":"KPB","i_long":106.826365,"transit":false,"time":0,"i_lat":-6.132549,"line":4,"is_transit":false,"distance":0,"station_name":"Kampung Bandan"},{"transit":true,"station_name":"Jakarta Kota","time":3,"i_lat":-6.137569,"line":2,"i_long":106.812439,"station_id":"JAKK","is_transit":true,"distance":1364},{"time":4,"station_name":"Jayakarta","line":2,"distance":1264,"station_id":"JAY","transit":false,"is_transit":false,"i_lat":-6.141205,"i_long":106.820901},{"line":2,"is_transit":false,"station_id":"MGB","i_long":106.82482,"station_name":"Manggabesar","transit":false,"i_lat":-6.149769,"time":2,"distance":1080},{"station_id":"SW","station_name":"Sawah Besar","i_long":106.827103,"transit":false,"distance":906,"is_transit":false,"time":2,"i_lat":-6.160725,"line":2},{"transit":false,"is_transit":false,"time":2,"line":2,"station_id":"JUA","station_name":"Juanda","distance":1149,"i_long":106.828284,"i_lat":-6.166716},{"i_long":106.832183,"station_id":"GDD","time":4,"station_name":"Gondangdia","distance":2015,"line":2,"transit":false,"is_transit":false,"i_lat":-6.186295},{"distance":1750,"station_name":"Cikini","i_long":106.840169,"i_lat":-6.198556,"line":2,"time":3,"transit":false,"station_id":"CKI","is_transit":false},{"time":4,"distance":1590,"i_lat":-6.209883,"station_name":"Manggarai","is_transit":true,"line":2,"station_id":"MRI","i_long":106.84912,"transit":true},{"transit":false,"station_name":"Sudirman","distance":3186,"station_id":"SUD","is_transit":false,"time":4,"line":1,"i_lat":-6.202263,"i_long":106.822649},{"i_lat":-6.201433,"is_transit":false,"distance":280,"line":1,"station_id":"SUDB","station_name":"Sudirman Baru","i_long":106.819881,"time":1,"transit":false},{"i_long":106.816351,"line":1,"station_id":"KAT","station_name":"Karet","time":1,"distance":471,"transit":false,"is_transit":false,"i_lat":-6.20132},{"is_transit":true,"station_name":"Tanah Abang","i_long":106.811091,"distance":2029,"i_lat":-6.185545,"station_id":"THB","transit":true,"time":5,"line":1},{"station_id":"PLM","time":6,"station_name":"Palmerah","is_transit":false,"i_lat":-6.207404,"distance":3191,"i_long":106.79689,"line":6,"transit":false},{"station_id":"KBY","time":7,"line":6,"i_long":106.780334,"is_transit":false,"distance":3737,"transit":false,"i_lat":-6.237242,"station_name":"Kebayoran"},{"i_lat":-6.276362,"station_id":"PDJ","distance":6218,"time":8,"line":6,"transit":false,"i_long":106.74273,"station_name":"Pondokranji","is_transit":false},{"is_transit":false,"i_long":106.728916,"transit":false,"line":6,"distance":2179,"station_name":"Jurangmangu","i_lat":-6.288927,"station_id":"JMU","time":3}],[{"is_transit":false,"time":0,"station_name":"Kampung Bandan","distance":0,"i_long":106.826365,"transit":false,"line":4,"station_id":"KPB","i_lat":-6.132549},{"i_long":106.836569,"station_id":"RJW","line":11,"distance":1444,"station_name":"Rajawali","is_transit":false,"transit":false,"time":3,"i_lat":-6.14505},{"line":11,"station_id":"KMO","distance":1901,"station_name":"Kemayoran","time":5,"transit":false,"is_transit":false,"i_long":106.839204,"i_lat":-6.161728},{"transit":false,"station_id":"PSE","is_transit":false,"i_long":106.84368,"i_lat":-6.174784,"time":4,"distance":1436,"station_name":"Pasar Senen","line":11},{"is_transit":false,"i_long":106.850107,"line":11,"time":8,"station_id":"GST","station_name":"Gang Sentiong","i_lat":-6.185975,"distance":1567,"transit":false},{"distance":973,"transit":false,"i_lat":-6.193792,"is_transit":false,"time":1,"station_name":"Kramat","line":11,"i_long":106.855437,"station_id":"KMT"},{"is_transit":false,"line":11,"i_long":106.861737,"station_id":"POK","station_name":"Pondok Jati","transit":false,"i_lat":-6.209188,"distance":1829,"time":2},{"i_long":106.86807400000001,"time":9,"is_transit":true,"i_lat":-6.215091,"station_id":"JNG","distance":1236,"station_name":"Jatinegara","transit":true,"line":1},{"i_lat":-6.212485,"transit":false,"station_id":"MTR","is_transit":false,"i_long":106.858896,"line":1,"time":2,"distance":1377,"station_name":"Matraman"},{"time":2,"station_name":"Manggarai","station_id":"MRI","distance":1275,"is_transit":false,"transit":false,"i_lat":-6.209883,"i_long":106.84912,"line":2},{"time":4,"is_transit":false,"i_long":106.822649,"station_id":"SUD","station_name":"Sudirman","i_lat":-6.202263,"line":1,"transit":false,"distance":3186},{"i_long":106.819881,"line":1,"i_lat":-6.201433,"station_name":"Sudirman Baru","station_id":"SUDB","time":1,"distance":280,"is_transit":false,"transit":false},{"i_long":106.816351,"station_id":"KAT","time":1,"i_lat":-6.20132,"station_name":"Karet","is_transit":false,"line":1,"transit":false,"distance":471},{"is_transit":true,"i_long":106.811091,"distance":2029,"line":1,"transit":true,"time":5,"station_id":"THB","station_name":"Tanah Abang","i_lat":-6.185545},{"i_lat":-6.207404,"station_id":"PLM","is_transit":false,"line":6,"station_name":"Palmerah","distance":3191,"time":6,"i_long":106.79689,"transit":false},{"i_lat":-6.237242,"time":7,"station_id":"KBY","station_name":"Kebayoran","distance":3737,"line":6,"i_long":106.780334,"is_transit":false,"transit":false},{"is_transit":false,"station_id":"PDJ","distance":6218,"time":8,"transit":false,"i_lat":-6.276362,"station_name":"Pondokranji","line":6,"i_long":106.74273},{"i_lat":-6.288927,"line":6,"station_name":"Jurangmangu","distance":2179,"station_id":"JMU","i_long":106.728916,"is_transit":false,"transit":false,"time":3}]]}