{"data":[[{"i_long":106.826365,"station_id":"KPB","is_transit":false,"distance":0,"i_lat":-6.132549,"time":0,"transit":false,"station_name":"Kampung Bandan","line":4},{"i_long":106.79867,"line":1,"i_lat":-6.144674,"is_transit":false,"station_name":"Angke","time":9,"station_id":"AK","distance":4102,"transit":false},{"is_transit":false,"line":1,"i_lat":-6.155215,"station_id":"DU","station_name":"Duri","distance":1230,"transit":false,"time":4,"i_long":106.800832},{"is_transit":true,"line":1,"distance":3632,"i_lat":-6.185545,"station_id":"THB","transit":true,"time":8,"i_long":106.811091,"station_name":"Tanah Abang"},{"i_long":106.79689,"station_name":"Palmerah","station_id":"PLM","is_transit":false,"distance":3191,"transit":false,"line":6,"time":6,"i_lat":-6.207404},{"is_transit":false,"line":6,"i_lat":-6.237242,"station_name":"Kebayoran","time":7,"station_id":"KBY","i_long":106.780334,"distance":3737,"transit":false},{"i_long":106.74273,"i_lat":-6.276362,"is_transit":false,"line":6,"time":8,"station_id":"PDJ","distance":6218,"station_name":"Pondokranji","transit":false},{"transit":false,"i_lat":-6.288927,"line":6,"time":3,"station_id":"JMU","i_long":106.728916,"is_transit":false,"distance":2179,"station_name":"Jurangmangu"},{"transit":false,"is_transit":false,"i_lat":-6.296963,"station_name":"Sudimara","line":6,"time":4,"distance":1994,"i_long":106.712277,"station_id":"SDM"},{"is_transit":false,"i_long":106.675475,"transit":false,"time":6,"distance":4566,"line":6,"station_name":"Rawa Buntu","station_id":"RU","i_lat":-6.314823},{"station_name":"Serpong","time":4,"is_transit":false,"i_lat":-6.319871,"i_long":106.66566,"line":6,"station_id":"SRP","distance":2413,"transit":false},{"i_lat":-6.32484,"i_long":106.640411,"is_transit":false,"line":3,"time":4,"station_name":"Cisauk","transit":false,"station_id":"CSK","distance":1784},{"station_name":"Cicayur","i_lat":-6.329547,"distance":2519,"line":3,"is_transit":false,"station_id":"CC","time":4,"i_long":106.617853,"transit":false},{"transit":false,"i_lat":-6.3441410000000005,"station_id":"PRP","is_transit":false,"line":6,"distance":5968,"station_name":"Parung Panjang","time":8,"i_long":106.568863},{"distance":7025,"transit":false,"i_lat":-6.354349,"time":9,"station_id":"CJT","station_name":"Cilejit","i_long":106.508482,"is_transit":false,"line":3},{"time":6,"i_lat":-6.338021,"i_long":106.491338,"station_name":"Daru","transit":false,"station_id":"DAR","line":0,"distance":2675,"is_transit":false},{"time":5,"i_long":106.460812,"is_transit":false,"transit":false,"distance":3902,"i_lat":-6.327251,"station_name":"Tenjo","line":6,"station_id":"TEJ"},{"distance":2974,"time":5,"i_lat":-6.328533,"transit":false,"station_id":"TGS","i_long":106.425991,"station_name":"Tigaraksa","is_transit":false,"line":6},{"distance":2651,"line":3,"i_long":106.411216,"station_id":"CKY","is_transit":false,"station_name":"Cikoya","i_lat":-6.33561,"transit":false,"time":3}],[{"i_lat":-6.132549,"transit":false,"station_id":"KPB","station_name":"Kampung Bandan","distance":0,"i_long":106.826365,"is_transit":false,"line":4,"time":0},{"transit":true,"station_name":"Jakarta Kota","distance":1364,"i_lat":-6.137569,"i_long":106.812439,"is_transit":true,"line":2,"time":3,"station_id":"JAKK"},{"is_transit":false,"station_id":"JAY","distance":1264,"i_long":106.820901,"line":2,"time":4,"transit":false,"station_name":"Jayakarta","i_lat":-6.141205},{"is_transit":false,"i_lat":-6.149769,"station_name":"Manggabesar","transit":false,"i_long":106.82482,"station_id":"MGB","time":2,"distance":1080,"line":2},{"is_transit":false,"distance":906,"time":2,"transit":false,"station_id":"SW","i_long":106.827103,"line":2,"station_name":"Sawah Besar","i_lat":-6.160725},{"station_id":"JUA","time":2,"i_long":106.828284,"is_transit":false,"transit":false,"station_name":"Juanda","distance":1149,"i_lat":-6.166716,"line":2},{"transit":false,"i_long":106.832183,"line":2,"station_name":"Gondangdia","station_id":"GDD","time":4,"distance":2015,"i_lat":-6.186295,"is_transit":false},{"transit":false,"time":3,"distance":1750,"i_lat":-6.198556,"line":2,"station_id":"CKI","i_long":106.840169,"station_name":"Cikini","is_transit":false},{"distance":1590,"line":2,"is_transit":true,"time":4,"i_lat":-6.209883,"i_long":106.84912,"station_id":"MRI","transit":true,"station_name":"Manggarai"},{"is_transit":false,"distance":3186,"transit":false,"line":1,"station_name":"Sudirman","station_id":"SUD","time":4,"i_lat":-6.202263,"i_long":106.822649},{"line":1,"station_id":"SUDB","time":1,"distance":280,"transit":false,"station_name":"Sudirman Baru","is_transit":false,"i_lat":-6.201433,"i_long":106.819881},{"i_long":106.816351,"is_transit":false,"time":1,"transit":false,"distance":471,"i_lat":-6.20132,"line":1,"station_name":"Karet","station_id":"KAT"},{"distance":2029,"station_name":"Tanah Abang","line":1,"station_id":"THB","is_transit":true,"time":5,"i_lat":-6.185545,"i_long":106.811091,"transit":true},{"station_name":"Palmerah","time":6,"distance":3191,"i_lat":-6.207404,"station_id":"PLM","i_long":106.79689,"line":6,"is_transit":false,"transit":false},{"station_id":"KBY","i_long":106.780334,"transit":false,"line":6,"time":7,"distance":3737,"i_lat":-6.237242,"station_name":"Kebayoran","is_transit":false},{"i_long":106.74273,"transit":false,"line":6,"is_transit":false,"i_lat":-6.276362,"station_id":"PDJ","time":8,"distance":6218,"station_name":"Pondokranji"},{"i_lat":-6.288927,"line":6,"station_id":"JMU","i_long":106.728916,"transit":false,"station_name":"Jurangmangu","time":3,"distance":2179,"is_transit":false},{"is_transit":false,"line":6,"distance":1994,"station_name":"Sudimara","station_id":"SDM","i_long":106.712277,"transit":false,"time":4,"i_lat":-6.296963},{"is_transit":false,"time":6,"line":6,"station_name":"Rawa Buntu","transit":false,"station_id":"RU","distance":4566,"i_long":106.675475,"i_lat":-6.314823},{"time":4,"station_id":"SRP","i_lat":-6.319871,"is_transit":false,"transit":false,"station_name":"Serpong","i_long":106.66566,"distance":2413,"line":6},{"distance":1784,"line":3,"i_lat":-6.32484,"i_long":106.640411,"station_name":"Cisauk","station_id":"CSK","transit":false,"time":4,"is_transit":false},{"line":3,"station_name":"Cicayur","station_id":"CC","distance":2519,"transit":false,"i_lat":-6.329547,"i_long":106.617853,"is_transit":false,"time":4},{"line":6,"distance":5968,"transit":false,"station_id":"PRP","i_long":106.568863,"station_name":"Parung Panjang","is_transit":false,"i_lat":-6.3441410000000005,"time":8},{"i_long":106.508482,"line":3,"is_transit":false,"transit":false,"distance":7025,"station_name":"Cilejit","time":9,"station_id":"CJT","i_lat":-6.354349},{"i_lat":-6.338021,"station_name":"Daru","time":6,"line":0,"distance":2675,"station_id":"DAR","transit":false,"is_transit":false,"i_long":106.491338},{"distance":3902,"i_long":106.460812,"transit":false,"station_id":"TEJ","station_name":"Tenjo","is_transit":false,"time":5,"i_lat":-6.327251,"line":6},{"station_id":"TGS","i_long":106.425991,"line":6,"station_name":"Tigaraksa","is_transit":false,"transit":false,"distance":2974,"time":5,"i_lat":-6.328533},{"time":3,"line":3,"i_lat":-6.33561,"is_transit":false,"distance":2651,"station_id":"CKY","transit":false,"i_long":106.411216,"station_name":"Cikoya"}],[{"transit":false,"is_transit":false,"i_long":106.826365,"distance":0,"i_lat":-6.132549,"station_name":"Kampung Bandan","station_id":"KPB","time":0,"line":4},{"distance":1444,"i_long":106.836569,"station_name":"Rajawali","is_transit":false,"time":3,"transit":false,"i_lat":-6.14505,"line":11,"station_id":"RJW"},{"line":11,"i_lat":-6.161728,"station_id":"KMO","i_long":106.839204,"distance":1901,"station_name":"Kemayoran","transit":false,"time":5,"is_transit":false},{"station_id":"PSE","distance":1436,"is_transit":false,"time":4,"i_lat":-6.174784,"i_long":106.84368,"line":11,"station_name":"Pasar Senen","transit":false},{"transit":false,"station_id":"GST","line":11,"is_transit":false,"i_long":106.850107,"i_lat":-6.185975,"station_name":"Gang Sentiong","time":8,"distance":1567},{"is_transit":false,"time":1,"line":11,"station_id":"KMT","transit":false,"distance":973,"i_lat":-6.193792,"station_name":"Kramat","i_long":106.855437},{"is_transit":false,"distance":1829,"line":11,"transit":false,"station_id":"POK","i_lat":-6.209188,"i_long":106.861737,"station_name":"Pondok Jati","time":2},{"i_long":106.86807400000001,"station_id":"JNG","time":9,"transit":true,"distance":1236,"station_name":"Jatinegara","is_transit":true,"i_lat":-6.215091,"line":1},{"station_id":"MTR","distance":1377,"line":1,"station_name":"Matraman","i_lat":-6.212485,"transit":false,"time":2,"i_long":106.858896,"is_transit":false},{"is_transit":false,"station_id":"MRI","transit":false,"distance":1275,"time":2,"i_lat":-6.209883,"line":2,"i_long":106.84912,"station_name":"Manggarai"},{"distance":3186,"transit":false,"is_transit":false,"i_long":106.822649,"station_name":"Sudirman","time":4,"station_id":"SUD","line":1,"i_lat":-6.202263},{"is_transit":false,"i_lat":-6.201433,"station_id":"SUDB","station_name":"Sudirman Baru","time":1,"transit":false,"distance":280,"line":1,"i_long":106.819881},{"time":1,"station_id":"KAT","distance":471,"i_lat":-6.20132,"i_long":106.816351,"station_name":"Karet","transit":false,"line":1,"is_transit":false},{"transit":true,"time":5,"i_lat":-6.185545,"line":1,"station_name":"Tanah Abang","station_id":"THB","is_transit":true,"distance":2029,"i_long":106.811091},{"i_long":106.79689,"line":6,"is_transit":false,"transit":false,"station_name":"Palmerah","time":6,"i_lat":-6.207404,"distance":3191,"station_id":"PLM"},{"station_id":"KBY","i_lat":-6.237242,"time":7,"line":6,"i_long":106.780334,"transit":false,"is_transit":false,"station_name":"Kebayoran","distance":3737},{"transit":false,"line":6,"i_lat":-6.276362,"time":8,"station_id":"PDJ","i_long":106.74273,"station_name":"Pondokranji","is_transit":false,"distance":6218},{"is_transit":false,"distance":2179,"station_name":"Jurangmangu","station_id":"JMU","i_long":106.728916,"line":6,"time":3,"i_lat":-6.288927,"transit":false},{"distance":1994,"is_transit":false,"i_lat":-6.296963,"station_name":"Sudimara","transit":false,"station_id":"SDM","time":4,"i_long":106.712277,"line":6},{"is_transit":false,"transit":false,"station_name":"Rawa Buntu","station_id":"RU","distance":4566,"line":6,"time":6,"i_long":106.675475,"i_lat":-6.314823},{"time":4,"transit":false,"i_long":106.66566,"is_transit":false,"distance":2413,"line":6,"i_lat":-6.319871,"station_id":"SRP","station_name":"Serpong"},{"i_long":106.640411,"station_name":"Cisauk","station_id":"CSK","i_lat":-6.32484,"is_transit":false,"time":4,"line":3,"distance":1784,"transit":false},{"line":3,"station_name":"Cicayur","is_transit":false,"i_lat":-6.329547,"i_long":106.617853,"distance":2519,"station_id":"CC","transit":false,"time":4},{"time":8,"line":6,"station_name":"Parung Panjang","is_transit":false,"i_long":106.568863,"i_lat":-6.3441410000000005,"station_id":"PRP","distance":5968,"transit":false},{"distance":7025,"i_lat":-6.354349,"station_name":"Cilejit","station_id":"CJT","is_transit":false,"line":3,"transit":false,"i_long":106.508482,"time":9},{"distance":2675,"is_transit":false,"transit":false,"station_name":"Daru","i_long":106.491338,"line":0,"time":6,"station_id":"DAR","i_lat":-6.338021},{"distance":3902,"time":5,"station_id":"TEJ","line":6,"station_name":"Tenjo","i_long":106.460812,"i_lat":-6.327251,"transit":false,"is_transit":false},{"transit":false,"is_transit":false,"i_long":106.425991,"distance":2974,"station_id":"TGS","time":5,"station_name":"Tigaraksa","line":6,"i_lat":-6.328533},{"time":3,"station_name":"Cikoya","transit":false,"is_transit":false,"distance":2651,"i_long":106.411216,"line":3,"station_id":"CKY","i_lat":-6.33561}]]}