{"data":[[{"line":4,"station_name":"Kampung Bandan","i_lat":-6.132549,"time":0,"station_id":"KPB","is_transit":false,"transit":false,"distance":0,"i_long":106.826365},{"transit":true,"distance":1364,"i_lat":-6.137569,"line":2,"is_transit":true,"station_name":"Jakarta Kota","time":3,"i_long":106.812439,"station_id":"JAKK"},{"time":4,"station_id":"JAY","station_name":"Jayakarta","transit":false,"distance":1264,"i_long":106.820901,"is_transit":false,"line":2,"i_lat":-6.141205},{"station_name":"Manggabesar","i_long":106.82482,"station_id":"MGB","time":2,"line":2,"i_lat":-6.149769,"transit":false,"distance":1080,"is_transit":false},{"transit":false,"i_lat":-6.160725,"i_long":106.827103,"line":2,"time":2,"is_transit":false,"station_name":"Sawah Besar","distance":906,"station_id":"SW"},{"i_lat":-6.166716,"distance":1149,"line":2,"is_transit":false,"time":2,"station_name":"Juanda","i_long":106.828284,"transit":false,"station_id":"JUA"}],[{"i_lat":-6.132549,"line":4,"time":0,"distance":0,"i_long":106.826365,"transit":false,"station_name":"Kampung Bandan","station_id":"KPB","is_transit":false},{"station_id":"AK","station_name":"Angke","i_lat":-6.144674,"transit":false,"i_long":106.79867,"line":1,"time":9,"distance":4102,"is_transit":false},{"distance":1230,"line":1,"station_id":"DU","transit":false,"i_long":106.800832,"time":4,"is_transit":false,"i_lat":-6.155215,"station_name":"Duri"},{"i_lat":-6.185545,"station_id":"THB","i_long":106.811091,"transit":false,"time":8,"station_name":"Tanah Abang","distance":3632,"is_transit":false,"line":1},{"i_long":106.816351,"time":5,"i_lat":-6.20132,"transit":false,"is_transit":false,"station_name":"Karet","distance":2029,"station_id":"KAT","line":1},{"is_transit":false,"i_lat":-6.201433,"station_id":"SUDB","time":1,"transit":false,"i_long":106.819881,"station_name":"Sudirman Baru","distance":471,"line":1},{"i_long":106.822649,"line":1,"i_lat":-6.202263,"station_id":"SUD","time":1,"is_transit":false,"transit":false,"distance":280,"station_name":"Sudirman"},{"i_lat":-6.209883,"i_long":106.84912,"station_name":"Manggarai","distance":3186,"line":2,"transit":true,"time":4,"is_transit":true,"station_id":"MRI"},{"transit":false,"station_name":"Cikini","line":2,"station_id":"CKI","is_transit":false,"distance":1590,"i_long":106.840169,"time":4,"i_lat":-6.198556},{"line":2,"distance":1750,"time":3,"station_id":"GDD","i_lat":-6.186295,"i_long":106.832183,"is_transit":false,"transit":false,"station_name":"Gondangdia"},{"distance":2015,"i_long":106.828284,"is_transit":false,"transit":false,"station_name":"Juanda","i_lat":-6.166716,"station_id":"JUA","time":4,"line":2}],[{"station_id":"KPB","station_name":"Kampung Bandan","time":0,"distance":0,"is_transit":false,"i_lat":-6.132549,"i_long":106.826365,"transit":false,"line":4},{"i_lat":-6.14505,"station_id":"RJW","distance":1444,"line":11,"time":3,"transit":false,"is_transit":false,"station_name":"Rajawali","i_long":106.836569},{"i_long":106.839204,"line":11,"distance":1901,"station_name":"Kemayoran","is_transit":false,"station_id":"KMO","transit":false,"i_lat":-6.161728,"time":5},{"time":4,"transit":false,"is_transit":false,"station_name":"Pasar Senen","i_lat":-6.174784,"i_long":106.84368,"line":11,"station_id":"PSE","distance":1436},{"transit":false,"station_id":"GST","distance":1567,"time":8,"i_long":106.850107,"is_transit":false,"line":11,"station_name":"Gang Sentiong","i_lat":-6.185975},{"time":1,"i_long":106.855437,"i_lat":-6.193792,"transit":false,"distance":973,"station_id":"KMT","station_name":"Kramat","line":11,"is_transit":false},{"i_lat":-6.209188,"line":11,"time":2,"transit":false,"station_name":"Pondok Jati","i_long":106.861737,"distance":1829,"station_id":"POK","is_transit":false},{"i_lat":-6.215091,"distance":1236,"station_name":"Jatinegara","time":9,"i_long":106.86807400000001,"is_transit":true,"station_id":"JNG","line":1,"transit":true},{"station_id":"MTR","line":1,"is_transit":false,"station_name":"Matraman","i_long":106.858896,"distance":1377,"i_lat":-6.212485,"transit":false,"time":2},{"distance":1275,"i_lat":-6.209883,"line":2,"transit":true,"is_transit":true,"station_name":"Manggarai","station_id":"MRI","i_long":106.84912,"time":2},{"transit":false,"station_id":"CKI","line":2,"distance":1590,"station_name":"Cikini","time":4,"i_long":106.840169,"is_transit":false,"i_lat":-6.198556},{"is_transit":false,"station_id":"GDD","distance":1750,"i_lat":-6.186295,"i_long":106.832183,"station_name":"Gondangdia","time":3,"transit":false,"line":2},{"i_lat":-6.166716,"station_id":"JUA","i_long":106.828284,"transit":false,"distance":2015,"station_name":"Juanda","line":2,"time":4,"is_transit":false}]]}