{"data":[[{"transit":false,"i_lat":-6.132549,"station_id":"KPB","i_long":106.826365,"time":0,"line":0,"is_transit":true,"distance":0,"station_name":"Kampung Bandan"},{"line":0,"is_transit":false,"time":9,"distance":4102,"station_name":"Angke","transit":false,"station_id":"AK","i_lat":-6.144674,"i_long":106.79867},{"time":4,"distance":1230,"station_name":"Duri","i_long":106.800832,"station_id":"DU","transit":true,"is_transit":true,"i_lat":-6.155215,"line":1},{"station_name":"Tanah Abang","time":8,"station_id":"THB","transit":true,"is_transit":true,"i_long":106.811091,"distance":3632,"i_lat":-6.185545,"line":1},{"distance":3191,"station_name":"Palmerah","i_long":106.79689,"line":6,"time":6,"station_id":"PLM","i_lat":-6.207404,"transit":false,"is_transit":false},{"i_long":106.780334,"distance":3737,"transit":false,"time":7,"i_lat":-6.237242,"station_id":"KBY","station_name":"Kebayoran","is_transit":false,"line":6},{"line":6,"distance":6218,"transit":false,"is_transit":false,"station_id":"PDJ","station_name":"Pondokranji","i_lat":-6.276362,"i_long":106.74273,"time":8},{"time":3,"station_name":"Jurangmangu","is_transit":false,"line":6,"i_long":106.728916,"transit":false,"station_id":"JMU","distance":2179,"i_lat":-6.288927}],[{"i_long":106.826365,"time":0,"station_name":"Kampung Bandan","distance":0,"station_id":"KPB","is_transit":true,"transit":false,"line":0,"i_lat":-6.132549},{"station_id":"JAKK","station_name":"Jakarta Kota","i_lat":-6.137569,"line":0,"time":3,"transit":true,"distance":1364,"is_transit":true,"i_long":106.812439},{"line":7,"i_long":106.820901,"transit":false,"station_id":"JAY","time":4,"station_name":"Jayakarta","distance":1264,"i_lat":-6.141205,"is_transit":false},{"i_long":106.82482,"time":2,"line":2,"transit":false,"distance":1080,"station_name":"Manggabesar","is_transit":false,"i_lat":-6.149769,"station_id":"MGB"},{"station_name":"Sawah Besar","i_lat":-6.160725,"distance":906,"i_long":106.827103,"transit":false,"time":2,"line":2,"station_id":"SW","is_transit":false},{"distance":1149,"line":2,"station_name":"Juanda","transit":false,"i_long":106.828284,"is_transit":false,"time":2,"i_lat":-6.166716,"station_id":"JUA"},{"time":4,"distance":2015,"i_lat":-6.186295,"line":2,"i_long":106.832183,"is_transit":false,"station_id":"GDD","transit":false,"station_name":"Gondangdia"},{"i_lat":-6.198556,"station_name":"Cikini","time":3,"distance":1750,"line":0,"station_id":"CKI","is_transit":false,"i_long":106.840169,"transit":false},{"is_transit":true,"station_name":"Manggarai","transit":true,"i_long":106.84912,"time":4,"station_id":"MRI","line":0,"distance":1590,"i_lat":-6.209883},{"station_id":"SUD","transit":false,"distance":3186,"station_name":"Sudirman","is_transit":false,"i_lat":-6.202263,"time":4,"line":1,"i_long":106.822649},{"distance":280,"is_transit":false,"i_lat":-6.201433,"time":1,"station_name":"Sudirman Baru","line":1,"transit":false,"station_id":"SUDB","i_long":106.819881},{"distance":471,"i_long":106.816351,"time":1,"is_transit":false,"station_name":"Karet","transit":false,"i_lat":-6.20132,"line":1,"station_id":"KAT"},{"line":1,"time":5,"i_lat":-6.185545,"is_transit":true,"distance":2029,"transit":true,"station_name":"Tanah Abang","station_id":"THB","i_long":106.811091},{"station_id":"PLM","station_name":"Palmerah","i_lat":-6.207404,"is_transit":false,"time":6,"i_long":106.79689,"transit":false,"line":6,"distance":3191},{"station_id":"KBY","transit":false,"time":7,"station_name":"Kebayoran","i_lat":-6.237242,"line":6,"distance":3737,"is_transit":false,"i_long":106.780334},{"is_transit":false,"time":8,"station_id":"PDJ","i_long":106.74273,"i_lat":-6.276362,"distance":6218,"station_name":"Pondokranji","transit":false,"line":6},{"station_name":"Jurangmangu","i_long":106.728916,"transit":false,"distance":2179,"line":6,"station_id":"JMU","is_transit":false,"time":3,"i_lat":-6.288927}],[{"station_id":"KPB","station_name":"Kampung Bandan","i_lat":-6.132549,"i_long":106.826365,"time":0,"transit":false,"distance":0,"is_transit":true,"line":0},{"distance":1444,"i_lat":-6.14505,"line":11,"transit":false,"time":3,"station_id":"RJW","i_long":106.836569,"station_name":"Rajawali","is_transit":false},{"is_transit":false,"line":11,"distance":1901,"transit":false,"station_id":"KMO","i_long":106.839204,"station_name":"Kemayoran","i_lat":-6.161728,"time":5},{"distance":1436,"station_id":"PSE","is_transit":false,"line":11,"transit":false,"station_name":"Pasar Senen","i_long":106.84368,"i_lat":-6.174784,"time":4},{"distance":1567,"i_long":106.850107,"station_name":"Gang Sentiong","station_id":"GST","is_transit":false,"transit":false,"line":11,"time":8,"i_lat":-6.185975},{"transit":false,"line":11,"distance":973,"i_long":106.855437,"station_id":"KMT","i_lat":-6.193792,"is_transit":false,"time":1,"station_name":"Kramat"},{"station_name":"Pondok Jati","transit":false,"time":2,"i_long":106.861737,"line":11,"i_lat":-6.209188,"station_id":"POK","is_transit":false,"distance":1829},{"line":0,"station_id":"JNG","station_name":"Jatinegara","transit":true,"distance":1236,"time":9,"i_lat":-6.215091,"is_transit":true,"i_long":106.86807400000001},{"is_transit":false,"time":2,"distance":1377,"station_name":"Matraman","station_id":"MTR","i_long":106.858896,"i_lat":-6.212485,"line":1,"transit":false},{"is_transit":true,"station_name":"Manggarai","i_lat":-6.209883,"distance":1275,"transit":false,"station_id":"MRI","line":0,"time":2,"i_long":106.84912},{"station_name":"Sudirman","i_lat":-6.202263,"is_transit":false,"time":4,"line":1,"station_id":"SUD","transit":false,"distance":3186,"i_long":106.822649},{"station_name":"Sudirman Baru","i_lat":-6.201433,"distance":280,"transit":false,"station_id":"SUDB","time":1,"i_long":106.819881,"line":1,"is_transit":false},{"line":1,"i_long":106.816351,"time":1,"transit":false,"distance":471,"station_name":"Karet","is_transit":false,"i_lat":-6.20132,"station_id":"KAT"},{"i_long":106.811091,"line":1,"time":5,"i_lat":-6.185545,"station_id":"THB","transit":true,"distance":2029,"is_transit":true,"station_name":"Tanah Abang"},{"i_lat":-6.207404,"i_long":106.79689,"is_transit":false,"time":6,"line":6,"station_id":"PLM","station_name":"Palmerah","transit":false,"distance":3191},{"is_transit":false,"time":7,"i_long":106.780334,"station_name":"Kebayoran","distance":3737,"transit":false,"i_lat":-6.237242,"line":6,"station_id":"KBY"},{"line":6,"transit":false,"is_transit":false,"i_long":106.74273,"time":8,"station_name":"Pondokranji","distance":6218,"i_lat":-6.276362,"station_id":"PDJ"},{"is_transit":false,"station_id":"JMU","transit":false,"distance":2179,"station_name":"Jurangmangu","line":6,"time":3,"i_long":106.728916,"i_lat":-6.288927}]]}