{"data":[[{"distance":0,"station_name":"Kampung Bandan","line":4,"i_long":106.826365,"is_transit":false,"station_id":"KPB","i_lat":-6.132549,"time":0,"transit":false},{"time":3,"station_name":"Jakarta Kota","station_id":"JAKK","line":2,"i_long":106.812439,"distance":1364,"is_transit":true,"i_lat":-6.137569,"transit":true},{"distance":1264,"station_id":"JAY","i_long":106.820901,"station_name":"Jayakarta","transit":false,"is_transit":false,"line":2,"time":4,"i_lat":-6.141205},{"i_long":106.82482,"station_id":"MGB","is_transit":false,"time":2,"transit":false,"station_name":"Manggabesar","distance":1080,"i_lat":-6.149769,"line":2},{"station_name":"Sawah Besar","distance":906,"i_lat":-6.160725,"time":2,"i_long":106.827103,"transit":false,"line":2,"is_transit":false,"station_id":"SW"}],[{"i_lat":-6.132549,"station_name":"Kampung Bandan","i_long":106.826365,"transit":false,"time":0,"distance":0,"station_id":"KPB","line":4,"is_transit":false},{"line":1,"is_transit":false,"i_long":106.79867,"i_lat":-6.144674,"distance":4102,"time":9,"transit":false,"station_id":"AK","station_name":"Angke"},{"line":1,"station_name":"Duri","i_long":106.800832,"i_lat":-6.155215,"transit":false,"station_id":"DU","distance":1230,"time":4,"is_transit":false},{"transit":false,"is_transit":false,"distance":3632,"i_long":106.811091,"time":8,"line":1,"station_id":"THB","station_name":"Tanah Abang","i_lat":-6.185545},{"time":5,"transit":false,"distance":2029,"i_long":106.816351,"line":1,"station_name":"Karet","i_lat":-6.20132,"is_transit":false,"station_id":"KAT"},{"i_long":106.819881,"time":1,"i_lat":-6.201433,"transit":false,"line":1,"station_id":"SUDB","is_transit":false,"station_name":"Sudirman Baru","distance":471},{"time":1,"line":1,"i_lat":-6.202263,"station_name":"Sudirman","distance":280,"transit":false,"i_long":106.822649,"station_id":"SUD","is_transit":false},{"time":4,"transit":true,"i_lat":-6.209883,"i_long":106.84912,"station_id":"MRI","line":2,"is_transit":true,"station_name":"Manggarai","distance":3186},{"transit":false,"station_name":"Cikini","is_transit":false,"i_lat":-6.198556,"station_id":"CKI","time":4,"distance":1590,"i_long":106.840169,"line":2},{"line":2,"i_lat":-6.186295,"time":3,"i_long":106.832183,"station_name":"Gondangdia","distance":1750,"is_transit":false,"station_id":"GDD","transit":false},{"distance":2015,"station_id":"JUA","is_transit":false,"station_name":"Juanda","i_lat":-6.166716,"i_long":106.828284,"line":2,"transit":false,"time":4},{"transit":false,"time":2,"line":2,"i_lat":-6.160725,"station_name":"Sawah Besar","i_long":106.827103,"station_id":"SW","is_transit":false,"distance":1149}],[{"transit":false,"i_lat":-6.132549,"station_name":"Kampung Bandan","line":4,"station_id":"KPB","is_transit":false,"i_long":106.826365,"time":0,"distance":0},{"transit":false,"distance":1444,"station_id":"RJW","station_name":"Rajawali","i_lat":-6.14505,"line":11,"is_transit":false,"time":3,"i_long":106.836569},{"i_long":106.839204,"time":5,"is_transit":false,"station_name":"Kemayoran","transit":false,"line":11,"distance":1901,"station_id":"KMO","i_lat":-6.161728},{"station_name":"Pasar Senen","i_long":106.84368,"time":4,"station_id":"PSE","line":11,"i_lat":-6.174784,"is_transit":false,"transit":false,"distance":1436},{"line":11,"time":8,"transit":false,"station_id":"GST","is_transit":false,"distance":1567,"i_lat":-6.185975,"i_long":106.850107,"station_name":"Gang Sentiong"},{"station_name":"Kramat","i_long":106.855437,"is_transit":false,"line":11,"station_id":"KMT","transit":false,"time":1,"i_lat":-6.193792,"distance":973},{"i_long":106.861737,"distance":1829,"transit":false,"station_name":"Pondok Jati","i_lat":-6.209188,"time":2,"line":11,"is_transit":false,"station_id":"POK"},{"time":9,"i_long":106.86807400000001,"station_name":"Jatinegara","i_lat":-6.215091,"station_id":"JNG","distance":1236,"transit":true,"line":1,"is_transit":true},{"station_name":"Matraman","time":2,"i_long":106.858896,"i_lat":-6.212485,"is_transit":false,"distance":1377,"line":1,"transit":false,"station_id":"MTR"},{"is_transit":true,"station_id":"MRI","i_long":106.84912,"i_lat":-6.209883,"distance":1275,"line":2,"transit":true,"station_name":"Manggarai","time":2},{"station_id":"CKI","is_transit":false,"station_name":"Cikini","time":4,"i_lat":-6.198556,"line":2,"distance":1590,"i_long":106.840169,"transit":false},{"distance":1750,"is_transit":false,"i_long":106.832183,"transit":false,"line":2,"station_id":"GDD","time":3,"station_name":"Gondangdia","i_lat":-6.186295},{"line":2,"i_long":106.828284,"station_id":"JUA","i_lat":-6.166716,"is_transit":false,"time":4,"distance":2015,"transit":false,"station_name":"Juanda"},{"station_id":"SW","i_long":106.827103,"is_transit":false,"distance":1149,"i_lat":-6.160725,"transit":false,"time":2,"line":2,"station_name":"Sawah Besar"}]]}