{"data":[[{"is_transit":true,"i_long":106.826365,"i_lat":-6.132549,"station_id":"KPB","time":0,"transit":false,"station_name":"Kampung Bandan","distance":0,"line":0},{"station_name":"Angke","line":0,"time":9,"transit":false,"is_transit":false,"i_lat":-6.144674,"i_long":106.79867,"distance":4102,"station_id":"AK"},{"station_id":"DU","station_name":"Duri","i_long":106.800832,"i_lat":-6.155215,"is_transit":true,"time":4,"distance":1230,"line":1,"transit":true},{"station_id":"GGL","transit":false,"station_name":"Grogol","is_transit":false,"i_lat":-6.162021,"line":5,"distance":1700,"i_long":106.788277,"time":3},{"station_id":"PSG","station_name":"Pesing","i_lat":-6.161433,"distance":2036,"is_transit":false,"i_long":106.771379,"line":5,"transit":false,"time":2},{"transit":false,"distance":1614,"station_id":"TKO","is_transit":false,"station_name":"Taman Kota","line":5,"i_long":106.756522,"time":2,"i_lat":-6.1587309999999995},{"i_long":106.737035,"station_name":"Bojongindah","line":0,"distance":2334,"station_id":"BOI","is_transit":false,"i_lat":-6.159876,"transit":false,"time":2},{"station_name":"Rawa Buaya","transit":false,"distance":1152,"i_long":106.723064,"station_id":"RW","i_lat":-6.162758,"is_transit":false,"time":4,"line":5},{"i_long":106.701612,"i_lat":-6.166068,"station_name":"Kalideres","station_id":"KDS","line":5,"transit":false,"time":3,"is_transit":false,"distance":2504},{"i_long":106.679458,"station_name":"Poris","time":3,"is_transit":false,"line":5,"transit":false,"distance":2548,"station_id":"PI","i_lat":-6.169933},{"i_long":106.665036,"is_transit":false,"time":3,"i_lat":-6.171811,"line":0,"station_name":"Batuceper","distance":1834,"station_id":"BPR","transit":false},{"distance":2028,"i_lat":-6.17331,"station_name":"Tanah Tinggi","time":3,"i_long":106.64657,"station_id":"TTI","transit":false,"is_transit":false,"line":5}],[{"i_long":106.826365,"is_transit":true,"time":0,"station_id":"KPB","i_lat":-6.132549,"station_name":"Kampung Bandan","distance":0,"line":0,"transit":false},{"i_long":106.812439,"transit":true,"is_transit":true,"station_id":"JAKK","i_lat":-6.137569,"distance":1364,"station_name":"Jakarta Kota","time":3,"line":0},{"time":4,"station_name":"Jayakarta","is_transit":false,"distance":1264,"i_lat":-6.141205,"station_id":"JAY","i_long":106.820901,"line":7,"transit":false},{"station_name":"Manggabesar","i_long":106.82482,"i_lat":-6.149769,"time":2,"station_id":"MGB","is_transit":false,"transit":false,"line":2,"distance":1080},{"is_transit":false,"distance":906,"station_id":"SW","i_lat":-6.160725,"line":2,"i_long":106.827103,"time":2,"transit":false,"station_name":"Sawah Besar"},{"distance":1149,"is_transit":false,"i_long":106.828284,"station_id":"JUA","i_lat":-6.166716,"time":2,"line":2,"transit":false,"station_name":"Juanda"},{"is_transit":false,"station_id":"GDD","time":4,"distance":2015,"station_name":"Gondangdia","i_long":106.832183,"i_lat":-6.186295,"transit":false,"line":2},{"i_lat":-6.198556,"line":0,"i_long":106.840169,"station_id":"CKI","time":3,"transit":false,"is_transit":false,"station_name":"Cikini","distance":1750},{"station_name":"Manggarai","distance":1590,"is_transit":true,"line":0,"station_id":"MRI","i_long":106.84912,"time":4,"i_lat":-6.209883,"transit":true},{"is_transit":false,"i_lat":-6.202263,"line":1,"station_name":"Sudirman","i_long":106.822649,"station_id":"SUD","time":4,"distance":3186,"transit":false},{"is_transit":false,"station_name":"Sudirman Baru","i_long":106.819881,"i_lat":-6.201433,"line":1,"transit":false,"station_id":"SUDB","time":1,"distance":280},{"time":1,"station_id":"KAT","is_transit":false,"distance":471,"line":1,"transit":false,"station_name":"Karet","i_lat":-6.20132,"i_long":106.816351},{"time":5,"station_id":"THB","distance":2029,"station_name":"Tanah Abang","transit":false,"i_lat":-6.185545,"line":1,"i_long":106.811091,"is_transit":true},{"is_transit":true,"i_lat":-6.155215,"station_name":"Duri","i_long":106.800832,"distance":3632,"transit":true,"line":1,"station_id":"DU","time":8},{"i_long":106.788277,"distance":1700,"line":5,"station_name":"Grogol","is_transit":false,"time":3,"transit":false,"station_id":"GGL","i_lat":-6.162021},{"time":2,"i_long":106.771379,"i_lat":-6.161433,"line":5,"transit":false,"is_transit":false,"station_name":"Pesing","distance":2036,"station_id":"PSG"},{"i_lat":-6.1587309999999995,"line":5,"i_long":106.756522,"transit":false,"time":2,"station_name":"Taman Kota","is_transit":false,"distance":1614,"station_id":"TKO"},{"i_long":106.737035,"is_transit":false,"line":0,"station_id":"BOI","time":2,"station_name":"Bojongindah","distance":2334,"i_lat":-6.159876,"transit":false},{"distance":1152,"i_long":106.723064,"is_transit":false,"station_name":"Rawa Buaya","transit":false,"i_lat":-6.162758,"line":5,"station_id":"RW","time":4},{"is_transit":false,"i_lat":-6.166068,"station_id":"KDS","distance":2504,"time":3,"transit":false,"line":5,"station_name":"Kalideres","i_long":106.701612},{"line":5,"station_id":"PI","time":3,"station_name":"Poris","transit":false,"is_transit":false,"distance":2548,"i_lat":-6.169933,"i_long":106.679458},{"i_long":106.665036,"station_name":"Batuceper","line":0,"is_transit":false,"transit":false,"station_id":"BPR","time":3,"i_lat":-6.171811,"distance":1834},{"station_id":"TTI","time":3,"distance":2028,"transit":false,"i_lat":-6.17331,"i_long":106.64657,"station_name":"Tanah Tinggi","is_transit":false,"line":5}],[{"distance":0,"time":0,"i_long":106.826365,"station_id":"KPB","is_transit":true,"transit":false,"i_lat":-6.132549,"station_name":"Kampung Bandan","line":0},{"station_name":"Rajawali","transit":false,"line":11,"is_transit":false,"station_id":"RJW","distance":1444,"i_long":106.836569,"time":3,"i_lat":-6.14505},{"transit":false,"line":11,"station_id":"KMO","time":5,"station_name":"Kemayoran","is_transit":false,"distance":1901,"i_lat":-6.161728,"i_long":106.839204},{"distance":1436,"line":11,"i_lat":-6.174784,"station_name":"Pasar Senen","station_id":"PSE","transit":false,"i_long":106.84368,"time":4,"is_transit":false},{"transit":false,"distance":1567,"station_name":"Gang Sentiong","line":11,"is_transit":false,"time":8,"i_lat":-6.185975,"i_long":106.850107,"station_id":"GST"},{"is_transit":false,"station_id":"KMT","station_name":"Kramat","transit":false,"i_long":106.855437,"time":1,"i_lat":-6.193792,"distance":973,"line":11},{"is_transit":false,"station_id":"POK","time":2,"transit":false,"line":11,"i_lat":-6.209188,"i_long":106.861737,"station_name":"Pondok Jati","distance":1829},{"is_transit":true,"distance":1236,"line":0,"transit":true,"station_id":"JNG","time":9,"station_name":"Jatinegara","i_lat":-6.215091,"i_long":106.86807400000001},{"i_long":106.858896,"line":1,"transit":false,"station_name":"Matraman","station_id":"MTR","is_transit":false,"time":2,"i_lat":-6.212485,"distance":1377},{"i_long":106.84912,"time":2,"distance":1275,"transit":false,"i_lat":-6.209883,"line":0,"station_id":"MRI","station_name":"Manggarai","is_transit":true},{"station_name":"Sudirman","time":4,"distance":3186,"transit":false,"i_lat":-6.202263,"is_transit":false,"station_id":"SUD","line":1,"i_long":106.822649},{"line":1,"i_lat":-6.201433,"distance":280,"station_name":"Sudirman Baru","station_id":"SUDB","i_long":106.819881,"is_transit":false,"transit":false,"time":1},{"station_id":"KAT","distance":471,"i_lat":-6.20132,"i_long":106.816351,"line":1,"station_name":"Karet","time":1,"transit":false,"is_transit":false},{"time":5,"i_lat":-6.185545,"transit":false,"i_long":106.811091,"station_id":"THB","is_transit":true,"line":1,"distance":2029,"station_name":"Tanah Abang"},{"i_long":106.800832,"station_id":"DU","is_transit":true,"i_lat":-6.155215,"line":1,"distance":3632,"transit":true,"station_name":"Duri","time":8},{"i_lat":-6.162021,"time":3,"is_transit":false,"line":5,"distance":1700,"station_id":"GGL","transit":false,"i_long":106.788277,"station_name":"Grogol"},{"station_id":"PSG","transit":false,"time":2,"i_lat":-6.161433,"line":5,"is_transit":false,"station_name":"Pesing","distance":2036,"i_long":106.771379},{"station_name":"Taman Kota","is_transit":false,"line":5,"station_id":"TKO","i_long":106.756522,"distance":1614,"i_lat":-6.1587309999999995,"time":2,"transit":false},{"i_lat":-6.159876,"i_long":106.737035,"line":0,"is_transit":false,"transit":false,"station_id":"BOI","time":2,"distance":2334,"station_name":"Bojongindah"},{"station_id":"RW","station_name":"Rawa Buaya","i_lat":-6.162758,"is_transit":false,"time":4,"transit":false,"i_long":106.723064,"line":5,"distance":1152},{"time":3,"transit":false,"station_name":"Kalideres","i_lat":-6.166068,"station_id":"KDS","i_long":106.701612,"distance":2504,"line":5,"is_transit":false},{"is_transit":false,"line":5,"time":3,"distance":2548,"i_long":106.679458,"transit":false,"i_lat":-6.169933,"station_id":"PI","station_name":"Poris"},{"is_transit":false,"i_long":106.665036,"station_name":"Batuceper","i_lat":-6.171811,"transit":false,"line":0,"station_id":"BPR","time":3,"distance":1834},{"i_lat":-6.17331,"station_id":"TTI","line":5,"distance":2028,"i_long":106.64657,"is_transit":false,"time":3,"transit":false,"station_name":"Tanah Tinggi"}]]}