{"data":[[{"line":4,"transit":false,"distance":0,"is_transit":false,"i_long":106.826365,"station_id":"KPB","i_lat":-6.132549,"time":0,"station_name":"Kampung Bandan"},{"time":3,"i_long":106.812439,"line":2,"transit":true,"station_id":"JAKK","is_transit":true,"distance":1364,"i_lat":-6.137569,"station_name":"Jakarta Kota"},{"distance":1264,"station_id":"JAY","line":2,"time":4,"transit":false,"is_transit":false,"i_lat":-6.141205,"station_name":"Jayakarta","i_long":106.820901},{"line":2,"station_name":"Manggabesar","station_id":"MGB","i_long":106.82482,"transit":false,"distance":1080,"i_lat":-6.149769,"time":2,"is_transit":false},{"distance":906,"is_transit":false,"time":2,"station_name":"Sawah Besar","line":2,"i_lat":-6.160725,"transit":false,"i_long":106.827103,"station_id":"SW"}],[{"line":4,"i_long":106.826365,"i_lat":-6.132549,"time":0,"transit":false,"is_transit":false,"distance":0,"station_id":"KPB","station_name":"Kampung Bandan"},{"station_name":"Angke","transit":false,"line":1,"i_lat":-6.144674,"i_long":106.79867,"time":9,"station_id":"AK","is_transit":false,"distance":4102},{"i_lat":-6.155215,"is_transit":false,"time":4,"station_name":"Duri","line":1,"distance":1230,"transit":false,"station_id":"DU","i_long":106.800832},{"time":8,"is_transit":false,"station_name":"Tanah Abang","line":1,"transit":false,"station_id":"THB","i_long":106.811091,"i_lat":-6.185545,"distance":3632},{"transit":false,"distance":2029,"line":1,"i_lat":-6.20132,"is_transit":false,"time":5,"station_id":"KAT","station_name":"Karet","i_long":106.816351},{"transit":false,"is_transit":false,"station_id":"SUDB","station_name":"Sudirman Baru","time":1,"i_lat":-6.201433,"i_long":106.819881,"line":1,"distance":471},{"distance":280,"i_lat":-6.202263,"i_long":106.822649,"line":1,"station_name":"Sudirman","is_transit":false,"time":1,"station_id":"SUD","transit":false},{"line":2,"station_name":"Manggarai","time":4,"transit":true,"i_lat":-6.209883,"distance":3186,"is_transit":true,"i_long":106.84912,"station_id":"MRI"},{"i_long":106.840169,"transit":false,"is_transit":false,"line":2,"time":4,"distance":1590,"station_id":"CKI","station_name":"Cikini","i_lat":-6.198556},{"station_id":"GDD","transit":false,"i_lat":-6.186295,"is_transit":false,"i_long":106.832183,"station_name":"Gondangdia","time":3,"distance":1750,"line":2},{"i_lat":-6.166716,"distance":2015,"station_name":"Juanda","station_id":"JUA","line":2,"time":4,"i_long":106.828284,"transit":false,"is_transit":false},{"distance":1149,"station_name":"Sawah Besar","i_lat":-6.160725,"station_id":"SW","is_transit":false,"line":2,"transit":false,"i_long":106.827103,"time":2}],[{"is_transit":false,"line":4,"transit":false,"station_id":"KPB","time":0,"station_name":"Kampung Bandan","i_long":106.826365,"i_lat":-6.132549,"distance":0},{"time":3,"distance":1444,"i_lat":-6.14505,"i_long":106.836569,"is_transit":false,"station_name":"Rajawali","line":11,"transit":false,"station_id":"RJW"},{"is_transit":false,"distance":1901,"time":5,"station_name":"Kemayoran","line":11,"transit":false,"station_id":"KMO","i_lat":-6.161728,"i_long":106.839204},{"line":11,"transit":false,"distance":1436,"station_id":"PSE","is_transit":false,"time":4,"i_lat":-6.174784,"i_long":106.84368,"station_name":"Pasar Senen"},{"line":11,"distance":1567,"time":8,"station_name":"Gang Sentiong","i_lat":-6.185975,"is_transit":false,"i_long":106.850107,"station_id":"GST","transit":false},{"line":11,"station_id":"KMT","i_long":106.855437,"distance":973,"is_transit":false,"transit":false,"time":1,"station_name":"Kramat","i_lat":-6.193792},{"station_name":"Pondok Jati","i_lat":-6.209188,"line":11,"i_long":106.861737,"distance":1829,"transit":false,"station_id":"POK","is_transit":false,"time":2},{"station_name":"Jatinegara","distance":1236,"is_transit":true,"transit":true,"station_id":"JNG","time":9,"i_long":106.86807400000001,"line":1,"i_lat":-6.215091},{"station_name":"Matraman","transit":false,"is_transit":false,"station_id":"MTR","i_lat":-6.212485,"time":2,"distance":1377,"i_long":106.858896,"line":1},{"i_lat":-6.209883,"station_id":"MRI","time":2,"distance":1275,"line":2,"i_long":106.84912,"is_transit":true,"station_name":"Manggarai","transit":true},{"distance":1590,"line":2,"i_lat":-6.198556,"station_id":"CKI","is_transit":false,"i_long":106.840169,"station_name":"Cikini","time":4,"transit":false},{"transit":false,"time":3,"station_name":"Gondangdia","i_long":106.832183,"is_transit":false,"line":2,"distance":1750,"i_lat":-6.186295,"station_id":"GDD"},{"is_transit":false,"distance":2015,"transit":false,"i_long":106.828284,"line":2,"station_name":"Juanda","time":4,"station_id":"JUA","i_lat":-6.166716},{"i_long":106.827103,"distance":1149,"time":2,"i_lat":-6.160725,"is_transit":false,"line":2,"station_name":"Sawah Besar","transit":false,"station_id":"SW"}]]}