{"data":[[{"is_transit":false,"transit":false,"time":0,"line":4,"i_lat":-6.132549,"station_name":"Kampung Bandan","distance":0,"station_id":"KPB","i_long":106.826365},{"station_id":"RJW","time":3,"distance":1444,"line":11,"station_name":"Rajawali","is_transit":false,"i_lat":-6.14505,"i_long":106.836569,"transit":false},{"time":5,"station_name":"Kemayoran","i_long":106.839204,"transit":false,"distance":1901,"station_id":"KMO","line":11,"is_transit":false,"i_lat":-6.161728},{"line":11,"station_id":"PSE","time":4,"i_long":106.84368,"i_lat":-6.174784,"is_transit":false,"distance":1436,"station_name":"Pasar Senen","transit":false},{"station_name":"Gang Sentiong","is_transit":false,"time":8,"distance":1567,"i_long":106.850107,"station_id":"GST","line":11,"transit":false,"i_lat":-6.185975},{"station_name":"Kramat","is_transit":false,"station_id":"KMT","i_long":106.855437,"transit":false,"line":11,"i_lat":-6.193792,"distance":973,"time":1},{"distance":1829,"is_transit":false,"time":2,"i_lat":-6.209188,"i_long":106.861737,"station_name":"Pondok Jati","transit":false,"station_id":"POK","line":11},{"line":1,"i_lat":-6.215091,"station_id":"JNG","time":9,"is_transit":true,"distance":1236,"transit":true,"station_name":"Jatinegara","i_long":106.86807400000001},{"station_name":"Klender","station_id":"KLD","is_transit":false,"transit":false,"time":3,"line":1,"distance":3395,"i_long":106.899548,"i_lat":-6.2135},{"line":1,"distance":3100,"station_id":"BUA","i_lat":-6.215568,"station_name":"Buaran","time":2,"i_long":106.922662,"is_transit":false,"transit":false},{"station_name":"Klenderbaru","time":1,"transit":false,"i_lat":-6.217455,"is_transit":false,"i_long":106.939679,"station_id":"KLDB","distance":1305,"line":1},{"distance":1385,"i_long":106.951283,"station_name":"Cakung","time":8,"transit":false,"is_transit":false,"station_id":"CUK","i_lat":-6.219053,"line":1},{"i_lat":-6.224515,"line":1,"transit":false,"distance":3097,"station_id":"KRI","i_long":106.977657,"station_name":"Kranji","time":3,"is_transit":false},{"i_long":106.997013,"i_lat":-6.236616,"station_id":"BKS","is_transit":false,"time":4,"distance":2520,"line":1,"transit":false,"station_name":"Bekasi"},{"station_id":"BKST","is_transit":false,"distance":2368,"i_lat":-6.248029,"line":1,"station_name":"Bekasi Timur","time":2,"i_long":107.016735,"transit":false},{"transit":false,"distance":4460,"station_name":"Tambun","i_long":107.055722,"time":7,"line":1,"is_transit":false,"station_id":"TB","i_lat":-6.258864},{"i_long":107.083084,"transit":false,"is_transit":false,"time":3,"station_name":"Cibitung","distance":3420,"i_lat":-6.261877,"station_id":"CIT","line":1},{"time":2,"station_name":"Metland Telaga Murni","is_transit":false,"distance":2800,"i_lat":-6.262938,"i_long":107.093313,"transit":false,"line":1,"station_id":"TLM"},{"is_transit":false,"i_lat":-6.2553149999999995,"line":1,"transit":false,"i_long":107.144613,"station_id":"CKR","distance":3689,"station_name":"Cikarang","time":4}],[{"distance":0,"transit":false,"i_lat":-6.132549,"i_long":106.826365,"station_name":"Kampung Bandan","line":4,"station_id":"KPB","is_transit":false,"time":0},{"i_long":106.79867,"station_name":"Angke","time":9,"is_transit":false,"i_lat":-6.144674,"line":1,"distance":4102,"transit":false,"station_id":"AK"},{"i_long":106.800832,"station_name":"Duri","line":1,"transit":false,"distance":1230,"is_transit":false,"i_lat":-6.155215,"time":4,"station_id":"DU"},{"is_transit":false,"transit":false,"station_name":"Tanah Abang","i_lat":-6.185545,"station_id":"THB","i_long":106.811091,"line":1,"time":8,"distance":3632},{"time":5,"is_transit":false,"station_name":"Karet","distance":2029,"i_lat":-6.20132,"line":1,"transit":false,"station_id":"KAT","i_long":106.816351},{"distance":471,"i_lat":-6.201433,"i_long":106.819881,"station_id":"SUDB","line":1,"transit":false,"is_transit":false,"time":1,"station_name":"Sudirman Baru"},{"i_long":106.822649,"station_id":"SUD","is_transit":false,"station_name":"Sudirman","transit":false,"distance":280,"line":1,"i_lat":-6.202263,"time":1},{"transit":false,"is_transit":false,"i_lat":-6.209883,"i_long":106.84912,"line":2,"time":4,"station_name":"Manggarai","station_id":"MRI","distance":3186},{"transit":false,"distance":1275,"i_long":106.858896,"station_id":"MTR","line":1,"station_name":"Matraman","i_lat":-6.212485,"time":2,"is_transit":false},{"line":1,"distance":1377,"station_id":"JNG","station_name":"Jatinegara","i_lat":-6.215091,"time":8,"i_long":106.86807400000001,"transit":false,"is_transit":false},{"i_lat":-6.2135,"transit":false,"time":3,"line":1,"station_id":"KLD","is_transit":false,"i_long":106.899548,"station_name":"Klender","distance":3395},{"i_lat":-6.215568,"time":2,"line":1,"distance":3100,"transit":false,"is_transit":false,"i_long":106.922662,"station_name":"Buaran","station_id":"BUA"},{"i_long":106.939679,"distance":1305,"transit":false,"is_transit":false,"station_name":"Klenderbaru","i_lat":-6.217455,"station_id":"KLDB","line":1,"time":1},{"station_id":"CUK","i_lat":-6.219053,"is_transit":false,"line":1,"i_long":106.951283,"station_name":"Cakung","time":8,"transit":false,"distance":1385},{"distance":3097,"station_name":"Kranji","station_id":"KRI","i_lat":-6.224515,"time":3,"i_long":106.977657,"line":1,"is_transit":false,"transit":false},{"transit":false,"i_long":106.997013,"is_transit":false,"time":4,"distance":2520,"station_id":"BKS","station_name":"Bekasi","line":1,"i_lat":-6.236616},{"distance":2368,"transit":false,"is_transit":false,"station_id":"BKST","i_lat":-6.248029,"time":2,"i_long":107.016735,"station_name":"Bekasi Timur","line":1},{"is_transit":false,"station_id":"TB","distance":4460,"station_name":"Tambun","line":1,"transit":false,"time":7,"i_long":107.055722,"i_lat":-6.258864},{"i_long":107.083084,"station_name":"Cibitung","time":3,"line":1,"distance":3420,"is_transit":false,"station_id":"CIT","i_lat":-6.261877,"transit":false},{"distance":2800,"i_long":107.093313,"station_name":"Metland Telaga Murni","line":1,"is_transit":false,"i_lat":-6.262938,"transit":false,"station_id":"TLM","time":2},{"i_long":107.144613,"line":1,"station_name":"Cikarang","station_id":"CKR","is_transit":false,"time":4,"distance":3689,"i_lat":-6.2553149999999995,"transit":false}],[{"transit":false,"is_transit":false,"distance":0,"i_lat":-6.132549,"line":4,"station_name":"Kampung Bandan","i_long":106.826365,"time":0,"station_id":"KPB"},{"i_lat":-6.137569,"is_transit":true,"transit":true,"i_long":106.812439,"station_name":"Jakarta Kota","line":2,"distance":1364,"time":3,"station_id":"JAKK"},{"transit":false,"line":2,"time":4,"station_id":"JAY","station_name":"Jayakarta","is_transit":false,"distance":1264,"i_lat":-6.141205,"i_long":106.820901},{"is_transit":false,"station_id":"MGB","time":2,"i_long":106.82482,"i_lat":-6.149769,"line":2,"distance":1080,"transit":false,"station_name":"Manggabesar"},{"is_transit":false,"distance":906,"i_lat":-6.160725,"i_long":106.827103,"time":2,"station_name":"Sawah Besar","transit":false,"line":2,"station_id":"SW"},{"i_long":106.828284,"transit":false,"time":2,"i_lat":-6.166716,"line":2,"station_name":"Juanda","station_id":"JUA","distance":1149,"is_transit":false},{"line":2,"is_transit":false,"transit":false,"i_long":106.832183,"distance":2015,"station_id":"GDD","station_name":"Gondangdia","i_lat":-6.186295,"time":4},{"line":2,"transit":false,"is_transit":false,"time":3,"station_name":"Cikini","distance":1750,"i_lat":-6.198556,"station_id":"CKI","i_long":106.840169},{"distance":1590,"transit":true,"station_name":"Manggarai","is_transit":true,"time":4,"i_lat":-6.209883,"i_long":106.84912,"line":2,"station_id":"MRI"},{"is_transit":false,"time":2,"distance":1275,"i_lat":-6.212485,"i_long":106.858896,"line":1,"transit":false,"station_name":"Matraman","station_id":"MTR"},{"time":8,"transit":false,"is_transit":false,"station_name":"Jatinegara","station_id":"JNG","i_lat":-6.215091,"i_long":106.86807400000001,"distance":1377,"line":1},{"is_transit":false,"distance":3395,"time":3,"station_name":"Klender","transit":false,"station_id":"KLD","i_lat":-6.2135,"i_long":106.899548,"line":1},{"is_transit":false,"transit":false,"time":2,"station_id":"BUA","distance":3100,"station_name":"Buaran","i_long":106.922662,"i_lat":-6.215568,"line":1},{"i_lat":-6.217455,"line":1,"transit":false,"is_transit":false,"station_name":"Klenderbaru","distance":1305,"station_id":"KLDB","time":1,"i_long":106.939679},{"station_id":"CUK","i_long":106.951283,"distance":1385,"i_lat":-6.219053,"line":1,"transit":false,"is_transit":false,"time":8,"station_name":"Cakung"},{"station_name":"Kranji","transit":false,"station_id":"KRI","time":3,"line":1,"i_lat":-6.224515,"is_transit":false,"distance":3097,"i_long":106.977657},{"i_lat":-6.236616,"distance":2520,"line":1,"station_id":"BKS","i_long":106.997013,"transit":false,"station_name":"Bekasi","is_transit":false,"time":4},{"time":2,"is_transit":false,"station_id":"BKST","distance":2368,"i_lat":-6.248029,"line":1,"i_long":107.016735,"station_name":"Bekasi Timur","transit":false},{"line":1,"transit":false,"time":7,"distance":4460,"i_lat":-6.258864,"i_long":107.055722,"station_name":"Tambun","station_id":"TB","is_transit":false},{"station_id":"CIT","station_name":"Cibitung","i_long":107.083084,"transit":false,"distance":3420,"is_transit":false,"i_lat":-6.261877,"line":1,"time":3},{"station_id":"TLM","station_name":"Metland Telaga Murni","i_lat":-6.262938,"transit":false,"is_transit":false,"i_long":107.093313,"distance":2800,"time":2,"line":1},{"i_long":107.144613,"transit":false,"station_name":"Cikarang","i_lat":-6.2553149999999995,"time":4,"station_id":"CKR","distance":3689,"line":1,"is_transit":false}]]}