{"data":[[{"i_lat":-6.132549,"time":0,"station_name":"Kampung Bandan","transit":false,"station_id":"KPB","line":4,"is_transit":false,"i_long":106.826365,"distance":0},{"line":1,"is_transit":false,"transit":false,"i_lat":-6.144674,"distance":4102,"time":9,"station_id":"AK","station_name":"Angke","i_long":106.79867},{"station_id":"DU","time":4,"i_lat":-6.155215,"station_name":"Duri","line":1,"transit":false,"i_long":106.800832,"is_transit":false,"distance":1230},{"i_long":106.811091,"line":1,"i_lat":-6.185545,"station_name":"Tanah Abang","station_id":"THB","is_transit":true,"time":8,"distance":3632,"transit":true},{"station_name":"Palmerah","transit":false,"station_id":"PLM","time":6,"distance":3191,"i_lat":-6.207404,"line":6,"i_long":106.79689,"is_transit":false},{"i_long":106.780334,"time":7,"line":6,"station_id":"KBY","transit":false,"station_name":"Kebayoran","i_lat":-6.237242,"is_transit":false,"distance":3737},{"i_long":106.74273,"station_id":"PDJ","station_name":"Pondokranji","i_lat":-6.276362,"line":6,"distance":6218,"time":8,"transit":false,"is_transit":false},{"time":3,"station_name":"Jurangmangu","distance":2179,"is_transit":false,"transit":false,"i_lat":-6.288927,"station_id":"JMU","i_long":106.728916,"line":6},{"transit":false,"station_id":"SDM","i_long":106.712277,"time":4,"i_lat":-6.296963,"line":6,"is_transit":false,"distance":1994,"station_name":"Sudimara"},{"distance":4566,"line":6,"time":6,"transit":false,"is_transit":false,"station_name":"Rawa Buntu","i_long":106.675475,"i_lat":-6.314823,"station_id":"RU"},{"i_lat":-6.319871,"line":6,"time":4,"station_name":"Serpong","i_long":106.66566,"station_id":"SRP","transit":false,"is_transit":false,"distance":2413},{"station_name":"Cisauk","is_transit":false,"i_lat":-6.32484,"time":4,"distance":1784,"station_id":"CSK","i_long":106.640411,"transit":false,"line":3}],[{"station_name":"Kampung Bandan","station_id":"KPB","is_transit":false,"line":4,"i_long":106.826365,"transit":false,"distance":0,"i_lat":-6.132549,"time":0},{"i_long":106.812439,"station_name":"Jakarta Kota","distance":1364,"line":2,"is_transit":true,"i_lat":-6.137569,"time":3,"transit":true,"station_id":"JAKK"},{"is_transit":false,"distance":1264,"transit":false,"station_name":"Jayakarta","i_long":106.820901,"time":4,"i_lat":-6.141205,"station_id":"JAY","line":2},{"time":2,"i_lat":-6.149769,"distance":1080,"is_transit":false,"transit":false,"i_long":106.82482,"station_id":"MGB","station_name":"Manggabesar","line":2},{"station_name":"Sawah Besar","i_long":106.827103,"distance":906,"is_transit":false,"station_id":"SW","i_lat":-6.160725,"line":2,"transit":false,"time":2},{"distance":1149,"station_id":"JUA","i_lat":-6.166716,"i_long":106.828284,"line":2,"is_transit":false,"transit":false,"station_name":"Juanda","time":2},{"station_name":"Gondangdia","distance":2015,"transit":false,"i_long":106.832183,"is_transit":false,"line":2,"station_id":"GDD","i_lat":-6.186295,"time":4},{"is_transit":false,"station_id":"CKI","time":3,"i_long":106.840169,"i_lat":-6.198556,"station_name":"Cikini","line":2,"transit":false,"distance":1750},{"line":2,"i_long":106.84912,"station_name":"Manggarai","transit":true,"time":4,"is_transit":true,"i_lat":-6.209883,"distance":1590,"station_id":"MRI"},{"distance":3186,"station_name":"Sudirman","station_id":"SUD","is_transit":false,"i_lat":-6.202263,"i_long":106.822649,"transit":false,"time":4,"line":1},{"time":1,"station_name":"Sudirman Baru","distance":280,"i_long":106.819881,"line":1,"is_transit":false,"transit":false,"i_lat":-6.201433,"station_id":"SUDB"},{"station_name":"Karet","transit":false,"station_id":"KAT","i_lat":-6.20132,"distance":471,"i_long":106.816351,"time":1,"is_transit":false,"line":1},{"station_id":"THB","i_long":106.811091,"station_name":"Tanah Abang","distance":2029,"is_transit":true,"transit":true,"time":5,"line":1,"i_lat":-6.185545},{"i_lat":-6.207404,"i_long":106.79689,"is_transit":false,"line":6,"time":6,"transit":false,"station_name":"Palmerah","station_id":"PLM","distance":3191},{"distance":3737,"time":7,"transit":false,"i_long":106.780334,"is_transit":false,"i_lat":-6.237242,"line":6,"station_id":"KBY","station_name":"Kebayoran"},{"station_name":"Pondokranji","transit":false,"is_transit":false,"distance":6218,"i_lat":-6.276362,"i_long":106.74273,"time":8,"line":6,"station_id":"PDJ"},{"time":3,"station_id":"JMU","distance":2179,"i_long":106.728916,"line":6,"station_name":"Jurangmangu","transit":false,"is_transit":false,"i_lat":-6.288927},{"transit":false,"station_name":"Sudimara","i_lat":-6.296963,"time":4,"distance":1994,"is_transit":false,"station_id":"SDM","i_long":106.712277,"line":6},{"i_long":106.675475,"station_name":"Rawa Buntu","station_id":"RU","distance":4566,"i_lat":-6.314823,"time":6,"transit":false,"line":6,"is_transit":false},{"i_long":106.66566,"station_name":"Serpong","is_transit":false,"time":4,"i_lat":-6.319871,"distance":2413,"line":6,"station_id":"SRP","transit":false},{"station_id":"CSK","i_long":106.640411,"i_lat":-6.32484,"station_name":"Cisauk","transit":false,"distance":1784,"is_transit":false,"time":4,"line":3}],[{"i_long":106.826365,"i_lat":-6.132549,"time":0,"station_id":"KPB","is_transit":false,"distance":0,"transit":false,"station_name":"Kampung Bandan","line":4},{"station_id":"RJW","i_long":106.836569,"is_transit":false,"transit":false,"distance":1444,"line":11,"station_name":"Rajawali","i_lat":-6.14505,"time":3},{"is_transit":false,"distance":1901,"transit":false,"station_name":"Kemayoran","time":5,"i_long":106.839204,"line":11,"i_lat":-6.161728,"station_id":"KMO"},{"time":4,"i_lat":-6.174784,"station_id":"PSE","station_name":"Pasar Senen","transit":false,"i_long":106.84368,"is_transit":false,"line":11,"distance":1436},{"is_transit":false,"line":11,"station_name":"Gang Sentiong","transit":false,"distance":1567,"i_lat":-6.185975,"station_id":"GST","time":8,"i_long":106.850107},{"time":1,"distance":973,"station_name":"Kramat","i_long":106.855437,"station_id":"KMT","line":11,"is_transit":false,"i_lat":-6.193792,"transit":false},{"station_name":"Pondok Jati","station_id":"POK","i_long":106.861737,"distance":1829,"is_transit":false,"i_lat":-6.209188,"time":2,"line":11,"transit":false},{"transit":true,"station_name":"Jatinegara","station_id":"JNG","distance":1236,"i_long":106.86807400000001,"line":1,"is_transit":true,"time":9,"i_lat":-6.215091},{"i_lat":-6.212485,"station_id":"MTR","i_long":106.858896,"is_transit":false,"station_name":"Matraman","transit":false,"line":1,"distance":1377,"time":2},{"station_name":"Manggarai","station_id":"MRI","i_long":106.84912,"transit":false,"time":2,"distance":1275,"i_lat":-6.209883,"line":2,"is_transit":false},{"time":4,"transit":false,"distance":3186,"i_long":106.822649,"station_id":"SUD","line":1,"station_name":"Sudirman","is_transit":false,"i_lat":-6.202263},{"transit":false,"time":1,"i_lat":-6.201433,"i_long":106.819881,"station_name":"Sudirman Baru","is_transit":false,"distance":280,"line":1,"station_id":"SUDB"},{"line":1,"transit":false,"station_name":"Karet","station_id":"KAT","distance":471,"is_transit":false,"time":1,"i_lat":-6.20132,"i_long":106.816351},{"station_name":"Tanah Abang","transit":true,"is_transit":true,"i_lat":-6.185545,"i_long":106.811091,"distance":2029,"line":1,"time":5,"station_id":"THB"},{"distance":3191,"is_transit":false,"station_name":"Palmerah","i_long":106.79689,"line":6,"transit":false,"station_id":"PLM","i_lat":-6.207404,"time":6},{"distance":3737,"i_lat":-6.237242,"i_long":106.780334,"line":6,"transit":false,"station_id":"KBY","is_transit":false,"station_name":"Kebayoran","time":7},{"line":6,"transit":false,"station_id":"PDJ","is_transit":false,"i_lat":-6.276362,"i_long":106.74273,"station_name":"Pondokranji","time":8,"distance":6218},{"i_lat":-6.288927,"distance":2179,"line":6,"transit":false,"is_transit":false,"time":3,"station_id":"JMU","station_name":"Jurangmangu","i_long":106.728916},{"station_name":"Sudimara","i_long":106.712277,"is_transit":false,"transit":false,"station_id":"SDM","time":4,"line":6,"distance":1994,"i_lat":-6.296963},{"line":6,"i_long":106.675475,"station_id":"RU","is_transit":false,"time":6,"distance":4566,"transit":false,"station_name":"Rawa Buntu","i_lat":-6.314823},{"line":6,"is_transit":false,"station_id":"SRP","station_name":"Serpong","time":4,"i_lat":-6.319871,"i_long":106.66566,"transit":false,"distance":2413},{"station_name":"Cisauk","station_id":"CSK","distance":1784,"line":3,"i_long":106.640411,"time":4,"i_lat":-6.32484,"transit":false,"is_transit":false}]]}