{"data":[[{"is_transit":false,"distance":0,"i_long":106.826365,"station_id":"KPB","transit":false,"i_lat":-6.132549,"time":0,"line":4,"station_name":"Kampung Bandan"},{"transit":false,"station_name":"Angke","time":9,"station_id":"AK","is_transit":false,"i_long":106.79867,"i_lat":-6.144674,"distance":4102,"line":1},{"line":1,"is_transit":false,"station_id":"DU","distance":1230,"time":4,"transit":false,"i_lat":-6.155215,"i_long":106.800832,"station_name":"Duri"},{"station_name":"Tanah Abang","time":8,"i_lat":-6.185545,"is_transit":true,"station_id":"THB","line":1,"distance":3632,"transit":true,"i_long":106.811091},{"i_lat":-6.207404,"is_transit":false,"station_name":"Palmerah","station_id":"PLM","time":6,"line":6,"i_long":106.79689,"distance":3191,"transit":false},{"station_name":"Kebayoran","transit":false,"line":6,"time":7,"distance":3737,"is_transit":false,"station_id":"KBY","i_lat":-6.237242,"i_long":106.780334},{"station_name":"Pondokranji","line":6,"transit":false,"distance":6218,"i_long":106.74273,"time":8,"is_transit":false,"station_id":"PDJ","i_lat":-6.276362},{"time":3,"station_name":"Jurangmangu","distance":2179,"i_long":106.728916,"is_transit":false,"line":6,"i_lat":-6.288927,"station_id":"JMU","transit":false},{"line":6,"transit":false,"station_id":"SDM","i_lat":-6.296963,"station_name":"Sudimara","is_transit":false,"i_long":106.712277,"distance":1994,"time":4},{"is_transit":false,"time":6,"station_name":"Rawa Buntu","distance":4566,"station_id":"RU","i_lat":-6.314823,"i_long":106.675475,"transit":false,"line":6},{"station_id":"SRP","i_lat":-6.319871,"line":6,"station_name":"Serpong","transit":false,"distance":2413,"time":4,"is_transit":false,"i_long":106.66566},{"distance":1784,"is_transit":false,"station_name":"Cisauk","station_id":"CSK","i_long":106.640411,"line":3,"transit":false,"time":4,"i_lat":-6.32484}],[{"i_long":106.826365,"is_transit":false,"station_name":"Kampung Bandan","i_lat":-6.132549,"line":4,"station_id":"KPB","transit":false,"time":0,"distance":0},{"i_lat":-6.137569,"is_transit":true,"station_name":"Jakarta Kota","i_long":106.812439,"distance":1364,"time":3,"line":2,"station_id":"JAKK","transit":true},{"i_lat":-6.141205,"line":2,"station_id":"JAY","is_transit":false,"station_name":"Jayakarta","distance":1264,"transit":false,"i_long":106.820901,"time":4},{"i_lat":-6.149769,"i_long":106.82482,"line":2,"distance":1080,"is_transit":false,"station_id":"MGB","station_name":"Manggabesar","transit":false,"time":2},{"station_name":"Sawah Besar","i_lat":-6.160725,"line":2,"transit":false,"distance":906,"station_id":"SW","is_transit":false,"i_long":106.827103,"time":2},{"i_lat":-6.166716,"time":2,"station_id":"JUA","distance":1149,"i_long":106.828284,"station_name":"Juanda","is_transit":false,"transit":false,"line":2},{"line":2,"i_long":106.832183,"transit":false,"i_lat":-6.186295,"station_name":"Gondangdia","time":4,"is_transit":false,"station_id":"GDD","distance":2015},{"station_id":"CKI","transit":false,"time":3,"distance":1750,"i_lat":-6.198556,"line":2,"station_name":"Cikini","i_long":106.840169,"is_transit":false},{"distance":1590,"transit":true,"is_transit":true,"station_id":"MRI","i_lat":-6.209883,"station_name":"Manggarai","i_long":106.84912,"time":4,"line":2},{"transit":false,"station_id":"SUD","line":1,"distance":3186,"station_name":"Sudirman","i_lat":-6.202263,"time":4,"is_transit":false,"i_long":106.822649},{"i_lat":-6.201433,"station_id":"SUDB","station_name":"Sudirman Baru","transit":false,"i_long":106.819881,"time":1,"line":1,"is_transit":false,"distance":280},{"station_name":"Karet","distance":471,"i_lat":-6.20132,"is_transit":false,"line":1,"transit":false,"station_id":"KAT","time":1,"i_long":106.816351},{"i_lat":-6.185545,"transit":true,"line":1,"time":5,"distance":2029,"is_transit":true,"i_long":106.811091,"station_name":"Tanah Abang","station_id":"THB"},{"i_lat":-6.207404,"i_long":106.79689,"is_transit":false,"station_name":"Palmerah","station_id":"PLM","time":6,"distance":3191,"line":6,"transit":false},{"station_name":"Kebayoran","distance":3737,"i_long":106.780334,"time":7,"transit":false,"line":6,"i_lat":-6.237242,"is_transit":false,"station_id":"KBY"},{"i_long":106.74273,"i_lat":-6.276362,"transit":false,"is_transit":false,"distance":6218,"line":6,"station_id":"PDJ","station_name":"Pondokranji","time":8},{"is_transit":false,"i_long":106.728916,"station_name":"Jurangmangu","time":3,"distance":2179,"transit":false,"line":6,"i_lat":-6.288927,"station_id":"JMU"},{"station_name":"Sudimara","distance":1994,"time":4,"is_transit":false,"station_id":"SDM","i_lat":-6.296963,"i_long":106.712277,"transit":false,"line":6},{"station_name":"Rawa Buntu","distance":4566,"transit":false,"time":6,"line":6,"i_lat":-6.314823,"i_long":106.675475,"is_transit":false,"station_id":"RU"},{"transit":false,"i_lat":-6.319871,"i_long":106.66566,"time":4,"is_transit":false,"station_id":"SRP","line":6,"distance":2413,"station_name":"Serpong"},{"i_lat":-6.32484,"station_name":"Cisauk","line":3,"distance":1784,"station_id":"CSK","time":4,"i_long":106.640411,"transit":false,"is_transit":false}],[{"transit":false,"station_id":"KPB","line":4,"is_transit":false,"i_lat":-6.132549,"i_long":106.826365,"distance":0,"time":0,"station_name":"Kampung Bandan"},{"transit":false,"line":11,"time":3,"station_id":"RJW","i_lat":-6.14505,"is_transit":false,"i_long":106.836569,"station_name":"Rajawali","distance":1444},{"i_lat":-6.161728,"station_name":"Kemayoran","transit":false,"i_long":106.839204,"line":11,"is_transit":false,"station_id":"KMO","distance":1901,"time":5},{"transit":false,"i_long":106.84368,"station_id":"PSE","time":4,"distance":1436,"line":11,"station_name":"Pasar Senen","i_lat":-6.174784,"is_transit":false},{"i_lat":-6.185975,"transit":false,"station_id":"GST","station_name":"Gang Sentiong","distance":1567,"time":8,"i_long":106.850107,"line":11,"is_transit":false},{"station_id":"KMT","line":11,"i_long":106.855437,"station_name":"Kramat","time":1,"i_lat":-6.193792,"is_transit":false,"distance":973,"transit":false},{"line":11,"i_long":106.861737,"is_transit":false,"station_id":"POK","time":2,"station_name":"Pondok Jati","distance":1829,"transit":false,"i_lat":-6.209188},{"station_name":"Jatinegara","i_lat":-6.215091,"distance":1236,"transit":true,"i_long":106.86807400000001,"is_transit":true,"time":9,"station_id":"JNG","line":1},{"station_id":"MTR","distance":1377,"station_name":"Matraman","i_long":106.858896,"is_transit":false,"line":1,"transit":false,"i_lat":-6.212485,"time":2},{"i_long":106.84912,"time":2,"transit":false,"line":2,"is_transit":false,"station_id":"MRI","distance":1275,"station_name":"Manggarai","i_lat":-6.209883},{"is_transit":false,"distance":3186,"line":1,"transit":false,"station_id":"SUD","station_name":"Sudirman","time":4,"i_lat":-6.202263,"i_long":106.822649},{"time":1,"line":1,"station_name":"Sudirman Baru","i_lat":-6.201433,"station_id":"SUDB","i_long":106.819881,"is_transit":false,"distance":280,"transit":false},{"i_lat":-6.20132,"line":1,"transit":false,"is_transit":false,"station_id":"KAT","i_long":106.816351,"station_name":"Karet","distance":471,"time":1},{"station_name":"Tanah Abang","i_lat":-6.185545,"distance":2029,"station_id":"THB","line":1,"time":5,"transit":true,"is_transit":true,"i_long":106.811091},{"station_name":"Palmerah","i_lat":-6.207404,"station_id":"PLM","line":6,"time":6,"i_long":106.79689,"is_transit":false,"distance":3191,"transit":false},{"distance":3737,"station_name":"Kebayoran","time":7,"i_lat":-6.237242,"station_id":"KBY","transit":false,"i_long":106.780334,"line":6,"is_transit":false},{"distance":6218,"is_transit":false,"i_lat":-6.276362,"time":8,"i_long":106.74273,"station_id":"PDJ","transit":false,"station_name":"Pondokranji","line":6},{"station_id":"JMU","is_transit":false,"distance":2179,"time":3,"i_long":106.728916,"station_name":"Jurangmangu","line":6,"i_lat":-6.288927,"transit":false},{"station_name":"Sudimara","i_long":106.712277,"is_transit":false,"i_lat":-6.296963,"station_id":"SDM","transit":false,"time":4,"line":6,"distance":1994},{"transit":false,"i_long":106.675475,"line":6,"i_lat":-6.314823,"station_name":"Rawa Buntu","time":6,"station_id":"RU","is_transit":false,"distance":4566},{"time":4,"i_long":106.66566,"transit":false,"is_transit":false,"line":6,"station_name":"Serpong","station_id":"SRP","distance":2413,"i_lat":-6.319871},{"distance":1784,"i_lat":-6.32484,"transit":false,"is_transit":false,"station_id":"CSK","line":3,"i_long":106.640411,"time":4,"station_name":"Cisauk"}]]}