{"data":[[{"transit":false,"i_lat":-6.132549,"is_transit":false,"station_name":"Kampung Bandan","line":4,"station_id":"KPB","distance":0,"i_long":106.826365,"time":0},{"distance":1364,"i_lat":-6.137569,"i_long":106.812439,"is_transit":true,"line":2,"transit":true,"station_name":"Jakarta Kota","time":3,"station_id":"JAKK"},{"time":4,"i_lat":-6.141205,"i_long":106.820901,"transit":false,"line":2,"is_transit":false,"distance":1264,"station_name":"Jayakarta","station_id":"JAY"},{"distance":1080,"time":2,"is_transit":false,"i_lat":-6.149769,"i_long":106.82482,"line":2,"station_name":"Manggabesar","station_id":"MGB","transit":false},{"station_name":"Sawah Besar","distance":906,"is_transit":false,"i_lat":-6.160725,"time":2,"transit":false,"i_long":106.827103,"line":2,"station_id":"SW"},{"transit":false,"station_name":"Juanda","time":2,"station_id":"JUA","line":2,"distance":1149,"i_lat":-6.166716,"i_long":106.828284,"is_transit":false}],[{"station_id":"KPB","station_name":"Kampung Bandan","transit":false,"distance":0,"i_long":106.826365,"line":4,"is_transit":false,"i_lat":-6.132549,"time":0},{"is_transit":false,"i_lat":-6.144674,"i_long":106.79867,"station_name":"Angke","distance":4102,"station_id":"AK","transit":false,"line":1,"time":9},{"transit":false,"station_id":"DU","is_transit":false,"i_long":106.800832,"time":4,"distance":1230,"station_name":"Duri","line":1,"i_lat":-6.155215},{"i_long":106.811091,"i_lat":-6.185545,"time":8,"station_id":"THB","station_name":"Tanah Abang","is_transit":false,"line":1,"transit":false,"distance":3632},{"i_long":106.816351,"is_transit":false,"station_name":"Karet","i_lat":-6.20132,"transit":false,"distance":2029,"line":1,"time":5,"station_id":"KAT"},{"station_id":"SUDB","is_transit":false,"station_name":"Sudirman Baru","distance":471,"time":1,"i_lat":-6.201433,"line":1,"transit":false,"i_long":106.819881},{"is_transit":false,"i_long":106.822649,"i_lat":-6.202263,"time":1,"transit":false,"distance":280,"line":1,"station_name":"Sudirman","station_id":"SUD"},{"station_id":"MRI","i_lat":-6.209883,"station_name":"Manggarai","is_transit":true,"distance":3186,"i_long":106.84912,"time":4,"transit":true,"line":2},{"i_long":106.840169,"transit":false,"distance":1590,"line":2,"is_transit":false,"station_name":"Cikini","time":4,"i_lat":-6.198556,"station_id":"CKI"},{"is_transit":false,"transit":false,"distance":1750,"station_name":"Gondangdia","i_lat":-6.186295,"i_long":106.832183,"time":3,"station_id":"GDD","line":2},{"distance":2015,"station_name":"Juanda","time":4,"station_id":"JUA","is_transit":false,"i_lat":-6.166716,"i_long":106.828284,"transit":false,"line":2}],[{"time":0,"i_long":106.826365,"transit":false,"station_name":"Kampung Bandan","line":4,"i_lat":-6.132549,"station_id":"KPB","distance":0,"is_transit":false},{"distance":1444,"i_long":106.836569,"is_transit":false,"station_id":"RJW","station_name":"Rajawali","transit":false,"i_lat":-6.14505,"time":3,"line":11},{"line":11,"time":5,"i_long":106.839204,"transit":false,"i_lat":-6.161728,"station_name":"Kemayoran","station_id":"KMO","is_transit":false,"distance":1901},{"line":11,"i_lat":-6.174784,"station_id":"PSE","transit":false,"station_name":"Pasar Senen","time":4,"distance":1436,"is_transit":false,"i_long":106.84368},{"line":11,"is_transit":false,"station_name":"Gang Sentiong","station_id":"GST","distance":1567,"time":8,"transit":false,"i_lat":-6.185975,"i_long":106.850107},{"time":1,"is_transit":false,"i_lat":-6.193792,"line":11,"i_long":106.855437,"distance":973,"station_id":"KMT","station_name":"Kramat","transit":false},{"line":11,"station_name":"Pondok Jati","is_transit":false,"i_long":106.861737,"time":2,"i_lat":-6.209188,"distance":1829,"station_id":"POK","transit":false},{"distance":1236,"station_name":"Jatinegara","is_transit":true,"i_lat":-6.215091,"station_id":"JNG","transit":true,"i_long":106.86807400000001,"line":1,"time":9},{"station_name":"Matraman","transit":false,"distance":1377,"time":2,"is_transit":false,"i_lat":-6.212485,"station_id":"MTR","i_long":106.858896,"line":1},{"is_transit":true,"distance":1275,"i_long":106.84912,"time":2,"line":2,"station_id":"MRI","i_lat":-6.209883,"station_name":"Manggarai","transit":true},{"i_long":106.840169,"station_id":"CKI","station_name":"Cikini","is_transit":false,"line":2,"time":4,"distance":1590,"transit":false,"i_lat":-6.198556},{"time":3,"transit":false,"station_name":"Gondangdia","i_long":106.832183,"is_transit":false,"i_lat":-6.186295,"distance":1750,"station_id":"GDD","line":2},{"station_id":"JUA","station_name":"Juanda","line":2,"time":4,"transit":false,"is_transit":false,"i_long":106.828284,"distance":2015,"i_lat":-6.166716}]]}