{"data":[[{"i_long":106.826365,"i_lat":-6.132549,"station_id":"KPB","distance":0,"line":4,"station_name":"Kampung Bandan","transit":false,"is_transit":false,"time":0},{"transit":false,"station_name":"Rajawali","station_id":"RJW","distance":1444,"i_long":106.836569,"i_lat":-6.14505,"line":11,"time":3,"is_transit":false},{"time":5,"i_lat":-6.161728,"i_long":106.839204,"station_id":"KMO","transit":false,"station_name":"Kemayoran","distance":1901,"line":11,"is_transit":false}],[{"station_id":"KPB","i_lat":-6.132549,"transit":false,"i_long":106.826365,"time":0,"line":4,"is_transit":false,"distance":0,"station_name":"Kampung Bandan"},{"is_transit":false,"transit":false,"station_id":"AK","i_lat":-6.144674,"time":9,"i_long":106.79867,"station_name":"Angke","distance":4102,"line":1},{"is_transit":false,"i_long":106.800832,"line":1,"i_lat":-6.155215,"station_id":"DU","time":4,"station_name":"Duri","distance":1230,"transit":false},{"station_name":"Tanah Abang","transit":false,"is_transit":false,"station_id":"THB","time":8,"distance":3632,"i_lat":-6.185545,"i_long":106.811091,"line":1},{"transit":false,"station_name":"Karet","i_long":106.816351,"station_id":"KAT","is_transit":false,"line":1,"i_lat":-6.20132,"distance":2029,"time":5},{"transit":false,"i_long":106.819881,"line":1,"is_transit":false,"station_name":"Sudirman Baru","station_id":"SUDB","time":1,"distance":471,"i_lat":-6.201433},{"i_lat":-6.202263,"time":1,"i_long":106.822649,"distance":280,"is_transit":false,"line":1,"station_id":"SUD","station_name":"Sudirman","transit":false},{"is_transit":false,"station_id":"MRI","line":2,"distance":3186,"i_long":106.84912,"transit":false,"i_lat":-6.209883,"station_name":"Manggarai","time":4},{"i_long":106.858896,"line":1,"i_lat":-6.212485,"transit":false,"station_id":"MTR","time":2,"is_transit":false,"station_name":"Matraman","distance":1275},{"distance":1377,"i_lat":-6.215091,"i_long":106.86807400000001,"line":1,"station_name":"Jatinegara","is_transit":true,"time":8,"transit":true,"station_id":"JNG"},{"distance":1236,"time":2,"station_name":"Pondok Jati","transit":false,"i_lat":-6.209188,"i_long":106.861737,"line":11,"station_id":"POK","is_transit":false},{"is_transit":false,"time":2,"i_lat":-6.193792,"transit":false,"station_name":"Kramat","distance":1829,"station_id":"KMT","line":11,"i_long":106.855437},{"transit":false,"station_id":"GST","station_name":"Gang Sentiong","is_transit":false,"time":1,"i_lat":-6.185975,"i_long":106.850107,"distance":973,"line":11},{"i_lat":-6.174784,"line":11,"i_long":106.84368,"station_name":"Pasar Senen","is_transit":false,"transit":false,"station_id":"PSE","distance":1567,"time":8},{"transit":false,"station_id":"KMO","time":4,"i_lat":-6.161728,"i_long":106.839204,"distance":1436,"is_transit":false,"station_name":"Kemayoran","line":11}],[{"transit":false,"station_id":"KPB","station_name":"Kampung Bandan","time":0,"i_lat":-6.132549,"i_long":106.826365,"is_transit":false,"distance":0,"line":4},{"station_name":"Jakarta Kota","time":3,"i_lat":-6.137569,"line":2,"distance":1364,"station_id":"JAKK","is_transit":true,"transit":true,"i_long":106.812439},{"transit":false,"is_transit":false,"station_id":"JAY","i_lat":-6.141205,"i_long":106.820901,"line":2,"time":4,"station_name":"Jayakarta","distance":1264},{"is_transit":false,"distance":1080,"transit":false,"station_id":"MGB","station_name":"Manggabesar","i_lat":-6.149769,"i_long":106.82482,"time":2,"line":2},{"distance":906,"i_lat":-6.160725,"transit":false,"station_id":"SW","line":2,"time":2,"i_long":106.827103,"is_transit":false,"station_name":"Sawah Besar"},{"distance":1149,"time":2,"station_name":"Juanda","is_transit":false,"station_id":"JUA","i_lat":-6.166716,"i_long":106.828284,"transit":false,"line":2},{"transit":false,"station_name":"Gondangdia","i_long":106.832183,"is_transit":false,"station_id":"GDD","time":4,"i_lat":-6.186295,"line":2,"distance":2015},{"time":3,"is_transit":false,"transit":false,"station_name":"Cikini","station_id":"CKI","distance":1750,"i_long":106.840169,"line":2,"i_lat":-6.198556},{"transit":true,"time":4,"distance":1590,"i_long":106.84912,"station_name":"Manggarai","station_id":"MRI","i_lat":-6.209883,"is_transit":true,"line":2},{"distance":1275,"i_lat":-6.212485,"time":2,"i_long":106.858896,"line":1,"is_transit":false,"station_name":"Matraman","transit":false,"station_id":"MTR"},{"distance":1377,"i_lat":-6.215091,"station_name":"Jatinegara","transit":true,"is_transit":true,"line":1,"i_long":106.86807400000001,"station_id":"JNG","time":8},{"station_id":"POK","distance":1236,"time":2,"transit":false,"i_lat":-6.209188,"i_long":106.861737,"line":11,"station_name":"Pondok Jati","is_transit":false},{"line":11,"station_name":"Kramat","i_lat":-6.193792,"distance":1829,"is_transit":false,"i_long":106.855437,"transit":false,"time":2,"station_id":"KMT"},{"station_name":"Gang Sentiong","station_id":"GST","time":1,"distance":973,"transit":false,"i_lat":-6.185975,"i_long":106.850107,"line":11,"is_transit":false},{"distance":1567,"i_lat":-6.174784,"i_long":106.84368,"is_transit":false,"station_name":"Pasar Senen","time":8,"line":11,"station_id":"PSE","transit":false},{"is_transit":false,"station_name":"Kemayoran","station_id":"KMO","line":11,"transit":false,"distance":1436,"i_lat":-6.161728,"time":4,"i_long":106.839204}]]}