{"data":[[{"line":4,"transit":false,"time":0,"distance":0,"station_id":"KPB","i_lat":-6.132549,"is_transit":false,"station_name":"Kampung Bandan","i_long":106.826365},{"time":3,"station_name":"Rajawali","distance":1444,"i_lat":-6.14505,"is_transit":false,"i_long":106.836569,"line":11,"station_id":"RJW","transit":false},{"station_name":"Kemayoran","distance":1901,"transit":false,"line":11,"station_id":"KMO","is_transit":false,"i_lat":-6.161728,"i_long":106.839204,"time":5},{"transit":false,"time":4,"i_lat":-6.174784,"line":11,"station_id":"PSE","distance":1436,"is_transit":false,"i_long":106.84368,"station_name":"Pasar Senen"},{"distance":1567,"is_transit":false,"station_name":"Gang Sentiong","time":8,"station_id":"GST","i_lat":-6.185975,"line":11,"transit":false,"i_long":106.850107},{"i_lat":-6.193792,"i_long":106.855437,"line":11,"distance":973,"station_name":"Kramat","is_transit":false,"time":1,"station_id":"KMT","transit":false},{"i_lat":-6.209188,"is_transit":false,"time":2,"transit":false,"i_long":106.861737,"distance":1829,"station_name":"Pondok Jati","line":11,"station_id":"POK"},{"distance":1236,"i_long":106.86807400000001,"time":9,"line":1,"station_id":"JNG","station_name":"Jatinegara","transit":true,"i_lat":-6.215091,"is_transit":true},{"transit":false,"station_id":"KLD","time":3,"i_long":106.899548,"is_transit":false,"station_name":"Klender","line":1,"i_lat":-6.2135,"distance":3395},{"is_transit":false,"line":1,"distance":3100,"station_id":"BUA","transit":false,"i_long":106.922662,"time":2,"i_lat":-6.215568,"station_name":"Buaran"},{"time":1,"i_lat":-6.217455,"line":1,"station_id":"KLDB","station_name":"Klenderbaru","is_transit":false,"transit":false,"i_long":106.939679,"distance":1305},{"transit":false,"i_long":106.951283,"time":8,"line":1,"distance":1385,"station_name":"Cakung","is_transit":false,"station_id":"CUK","i_lat":-6.219053},{"station_name":"Kranji","is_transit":false,"line":1,"transit":false,"distance":3097,"i_long":106.977657,"station_id":"KRI","i_lat":-6.224515,"time":3},{"distance":2520,"station_id":"BKS","i_long":106.997013,"line":1,"transit":false,"is_transit":false,"station_name":"Bekasi","time":4,"i_lat":-6.236616},{"is_transit":false,"i_long":107.016735,"station_id":"BKST","distance":2368,"time":2,"station_name":"Bekasi Timur","i_lat":-6.248029,"line":1,"transit":false},{"time":7,"i_long":107.055722,"i_lat":-6.258864,"station_id":"TB","station_name":"Tambun","line":1,"distance":4460,"is_transit":false,"transit":false}],[{"line":4,"i_long":106.826365,"i_lat":-6.132549,"is_transit":false,"time":0,"station_id":"KPB","station_name":"Kampung Bandan","transit":false,"distance":0},{"distance":4102,"line":1,"i_long":106.79867,"time":9,"station_id":"AK","is_transit":false,"station_name":"Angke","transit":false,"i_lat":-6.144674},{"time":4,"is_transit":false,"distance":1230,"transit":false,"i_long":106.800832,"line":1,"station_name":"Duri","i_lat":-6.155215,"station_id":"DU"},{"i_long":106.811091,"line":1,"station_name":"Tanah Abang","time":8,"i_lat":-6.185545,"transit":false,"is_transit":false,"distance":3632,"station_id":"THB"},{"i_lat":-6.20132,"distance":2029,"station_id":"KAT","station_name":"Karet","time":5,"transit":false,"is_transit":false,"i_long":106.816351,"line":1},{"is_transit":false,"station_id":"SUDB","time":1,"station_name":"Sudirman Baru","i_long":106.819881,"distance":471,"i_lat":-6.201433,"transit":false,"line":1},{"station_name":"Sudirman","i_long":106.822649,"line":1,"is_transit":false,"station_id":"SUD","distance":280,"transit":false,"time":1,"i_lat":-6.202263},{"line":2,"i_long":106.84912,"distance":3186,"i_lat":-6.209883,"time":4,"is_transit":false,"station_id":"MRI","transit":false,"station_name":"Manggarai"},{"station_name":"Matraman","time":2,"line":1,"is_transit":false,"i_long":106.858896,"station_id":"MTR","distance":1275,"i_lat":-6.212485,"transit":false},{"line":1,"distance":1377,"is_transit":false,"station_id":"JNG","i_long":106.86807400000001,"station_name":"Jatinegara","transit":false,"i_lat":-6.215091,"time":8},{"i_lat":-6.2135,"line":1,"station_name":"Klender","i_long":106.899548,"transit":false,"time":3,"station_id":"KLD","is_transit":false,"distance":3395},{"i_lat":-6.215568,"is_transit":false,"distance":3100,"station_id":"BUA","transit":false,"i_long":106.922662,"time":2,"station_name":"Buaran","line":1},{"station_name":"Klenderbaru","transit":false,"is_transit":false,"line":1,"station_id":"KLDB","distance":1305,"i_lat":-6.217455,"time":1,"i_long":106.939679},{"is_transit":false,"transit":false,"i_long":106.951283,"station_name":"Cakung","station_id":"CUK","time":8,"distance":1385,"line":1,"i_lat":-6.219053},{"distance":3097,"station_id":"KRI","transit":false,"i_long":106.977657,"time":3,"is_transit":false,"station_name":"Kranji","line":1,"i_lat":-6.224515},{"distance":2520,"is_transit":false,"i_lat":-6.236616,"line":1,"i_long":106.997013,"station_name":"Bekasi","time":4,"transit":false,"station_id":"BKS"},{"i_long":107.016735,"line":1,"station_name":"Bekasi Timur","station_id":"BKST","time":2,"is_transit":false,"transit":false,"distance":2368,"i_lat":-6.248029},{"i_lat":-6.258864,"is_transit":false,"i_long":107.055722,"station_id":"TB","line":1,"distance":4460,"time":7,"transit":false,"station_name":"Tambun"}],[{"transit":false,"station_name":"Kampung Bandan","time":0,"distance":0,"station_id":"KPB","i_lat":-6.132549,"is_transit":false,"i_long":106.826365,"line":4},{"station_id":"JAKK","i_lat":-6.137569,"distance":1364,"line":2,"station_name":"Jakarta Kota","transit":true,"i_long":106.812439,"is_transit":true,"time":3},{"distance":1264,"i_long":106.820901,"line":2,"i_lat":-6.141205,"station_id":"JAY","time":4,"is_transit":false,"transit":false,"station_name":"Jayakarta"},{"station_name":"Manggabesar","i_long":106.82482,"distance":1080,"time":2,"is_transit":false,"transit":false,"station_id":"MGB","i_lat":-6.149769,"line":2},{"i_long":106.827103,"i_lat":-6.160725,"time":2,"is_transit":false,"station_name":"Sawah Besar","line":2,"station_id":"SW","transit":false,"distance":906},{"time":2,"distance":1149,"is_transit":false,"station_name":"Juanda","i_lat":-6.166716,"transit":false,"station_id":"JUA","i_long":106.828284,"line":2},{"station_name":"Gondangdia","station_id":"GDD","transit":false,"i_lat":-6.186295,"time":4,"line":2,"distance":2015,"is_transit":false,"i_long":106.832183},{"transit":false,"station_name":"Cikini","i_lat":-6.198556,"i_long":106.840169,"station_id":"CKI","distance":1750,"line":2,"time":3,"is_transit":false},{"i_long":106.84912,"distance":1590,"line":2,"is_transit":true,"time":4,"station_name":"Manggarai","station_id":"MRI","i_lat":-6.209883,"transit":true},{"i_lat":-6.212485,"i_long":106.858896,"distance":1275,"time":2,"station_name":"Matraman","station_id":"MTR","line":1,"is_transit":false,"transit":false},{"time":8,"is_transit":false,"distance":1377,"i_long":106.86807400000001,"station_name":"Jatinegara","line":1,"transit":false,"station_id":"JNG","i_lat":-6.215091},{"transit":false,"station_id":"KLD","line":1,"i_long":106.899548,"time":3,"distance":3395,"is_transit":false,"i_lat":-6.2135,"station_name":"Klender"},{"line":1,"is_transit":false,"transit":false,"station_name":"Buaran","i_long":106.922662,"station_id":"BUA","distance":3100,"time":2,"i_lat":-6.215568},{"i_lat":-6.217455,"i_long":106.939679,"time":1,"distance":1305,"station_name":"Klenderbaru","station_id":"KLDB","line":1,"transit":false,"is_transit":false},{"time":8,"i_lat":-6.219053,"transit":false,"line":1,"i_long":106.951283,"station_id":"CUK","distance":1385,"is_transit":false,"station_name":"Cakung"},{"i_long":106.977657,"line":1,"i_lat":-6.224515,"time":3,"transit":false,"distance":3097,"station_name":"Kranji","is_transit":false,"station_id":"KRI"},{"i_lat":-6.236616,"is_transit":false,"station_id":"BKS","transit":false,"station_name":"Bekasi","time":4,"distance":2520,"i_long":106.997013,"line":1},{"time":2,"station_id":"BKST","is_transit":false,"transit":false,"distance":2368,"i_lat":-6.248029,"station_name":"Bekasi Timur","i_long":107.016735,"line":1},{"transit":false,"station_id":"TB","line":1,"is_transit":false,"time":7,"distance":4460,"i_lat":-6.258864,"station_name":"Tambun","i_long":107.055722}]]}