{"data":[[{"time":0,"i_lat":-6.132549,"station_id":"KPB","transit":false,"is_transit":false,"distance":0,"i_long":106.826365,"station_name":"Kampung Bandan","line":4},{"line":11,"transit":false,"i_lat":-6.14505,"i_long":106.836569,"distance":1444,"station_name":"Rajawali","time":3,"station_id":"RJW","is_transit":false},{"distance":1901,"i_long":106.839204,"time":5,"i_lat":-6.161728,"transit":false,"station_id":"KMO","is_transit":false,"line":11,"station_name":"Kemayoran"},{"station_name":"Pasar Senen","station_id":"PSE","i_lat":-6.174784,"line":11,"transit":false,"i_long":106.84368,"is_transit":false,"time":4,"distance":1436},{"distance":1567,"station_id":"GST","time":8,"transit":false,"i_lat":-6.185975,"line":11,"i_long":106.850107,"station_name":"Gang Sentiong","is_transit":false},{"i_long":106.855437,"time":1,"i_lat":-6.193792,"line":11,"station_id":"KMT","is_transit":false,"transit":false,"station_name":"Kramat","distance":973},{"station_id":"POK","time":2,"station_name":"Pondok Jati","line":11,"is_transit":false,"transit":false,"distance":1829,"i_lat":-6.209188,"i_long":106.861737}],[{"station_name":"Kampung Bandan","distance":0,"i_long":106.826365,"time":0,"transit":false,"station_id":"KPB","is_transit":false,"line":4,"i_lat":-6.132549},{"i_long":106.79867,"station_name":"Angke","transit":false,"station_id":"AK","line":1,"distance":4102,"is_transit":false,"time":9,"i_lat":-6.144674},{"is_transit":false,"i_lat":-6.155215,"i_long":106.800832,"time":4,"distance":1230,"transit":false,"line":1,"station_id":"DU","station_name":"Duri"},{"line":1,"station_id":"THB","station_name":"Tanah Abang","distance":3632,"i_lat":-6.185545,"time":8,"i_long":106.811091,"transit":false,"is_transit":false},{"i_long":106.816351,"transit":false,"line":1,"is_transit":false,"distance":2029,"station_id":"KAT","time":5,"i_lat":-6.20132,"station_name":"Karet"},{"station_id":"SUDB","distance":471,"i_long":106.819881,"station_name":"Sudirman Baru","transit":false,"is_transit":false,"i_lat":-6.201433,"time":1,"line":1},{"i_lat":-6.202263,"transit":false,"i_long":106.822649,"station_id":"SUD","is_transit":false,"distance":280,"line":1,"station_name":"Sudirman","time":1},{"i_lat":-6.209883,"line":2,"is_transit":false,"i_long":106.84912,"distance":3186,"transit":false,"time":4,"station_name":"Manggarai","station_id":"MRI"},{"transit":false,"station_name":"Matraman","i_lat":-6.212485,"station_id":"MTR","time":2,"line":1,"is_transit":false,"distance":1275,"i_long":106.858896},{"station_id":"JNG","line":1,"station_name":"Jatinegara","distance":1377,"i_long":106.86807400000001,"i_lat":-6.215091,"time":8,"transit":true,"is_transit":true},{"station_id":"POK","is_transit":false,"station_name":"Pondok Jati","i_long":106.861737,"time":2,"i_lat":-6.209188,"transit":false,"distance":1236,"line":11}],[{"station_name":"Kampung Bandan","transit":false,"is_transit":false,"station_id":"KPB","i_lat":-6.132549,"i_long":106.826365,"distance":0,"time":0,"line":4},{"is_transit":true,"transit":true,"time":3,"distance":1364,"i_lat":-6.137569,"i_long":106.812439,"line":2,"station_id":"JAKK","station_name":"Jakarta Kota"},{"station_id":"JAY","distance":1264,"is_transit":false,"time":4,"station_name":"Jayakarta","i_lat":-6.141205,"i_long":106.820901,"transit":false,"line":2},{"station_name":"Manggabesar","is_transit":false,"time":2,"line":2,"i_long":106.82482,"i_lat":-6.149769,"transit":false,"station_id":"MGB","distance":1080},{"distance":906,"i_long":106.827103,"station_name":"Sawah Besar","is_transit":false,"line":2,"station_id":"SW","transit":false,"i_lat":-6.160725,"time":2},{"i_long":106.828284,"station_id":"JUA","transit":false,"is_transit":false,"line":2,"distance":1149,"station_name":"Juanda","i_lat":-6.166716,"time":2},{"i_long":106.832183,"station_id":"GDD","distance":2015,"line":2,"time":4,"is_transit":false,"station_name":"Gondangdia","transit":false,"i_lat":-6.186295},{"time":3,"is_transit":false,"station_name":"Cikini","transit":false,"i_lat":-6.198556,"distance":1750,"station_id":"CKI","i_long":106.840169,"line":2},{"station_id":"MRI","i_long":106.84912,"line":2,"i_lat":-6.209883,"distance":1590,"transit":true,"time":4,"is_transit":true,"station_name":"Manggarai"},{"i_long":106.858896,"time":2,"station_id":"MTR","station_name":"Matraman","line":1,"transit":false,"i_lat":-6.212485,"is_transit":false,"distance":1275},{"i_lat":-6.215091,"i_long":106.86807400000001,"is_transit":true,"time":8,"line":1,"transit":true,"distance":1377,"station_id":"JNG","station_name":"Jatinegara"},{"station_id":"POK","time":2,"transit":false,"station_name":"Pondok Jati","i_long":106.861737,"distance":1236,"line":11,"i_lat":-6.209188,"is_transit":false}]]}