{"data":[[{"i_lat":-6.132549,"i_long":106.826365,"line":4,"station_name":"Kampung Bandan","transit":false,"distance":0,"time":0,"station_id":"KPB","is_transit":false},{"station_name":"Angke","distance":4102,"i_lat":-6.144674,"i_long":106.79867,"is_transit":false,"transit":false,"time":9,"station_id":"AK","line":1},{"i_long":106.800832,"station_id":"DU","station_name":"Duri","is_transit":false,"i_lat":-6.155215,"line":1,"transit":false,"distance":1230,"time":4},{"transit":true,"station_id":"THB","is_transit":true,"i_long":106.811091,"distance":3632,"line":1,"station_name":"Tanah Abang","time":8,"i_lat":-6.185545},{"i_long":106.79689,"transit":false,"line":6,"station_id":"PLM","distance":3191,"time":6,"i_lat":-6.207404,"is_transit":false,"station_name":"Palmerah"},{"i_long":106.780334,"i_lat":-6.237242,"is_transit":false,"transit":false,"station_name":"Kebayoran","station_id":"KBY","time":7,"distance":3737,"line":6},{"i_lat":-6.276362,"station_name":"Pondokranji","transit":false,"distance":6218,"time":8,"line":6,"i_long":106.74273,"station_id":"PDJ","is_transit":false},{"station_name":"Jurangmangu","station_id":"JMU","line":6,"i_long":106.728916,"transit":false,"time":3,"distance":2179,"is_transit":false,"i_lat":-6.288927},{"time":4,"i_lat":-6.296963,"i_long":106.712277,"station_name":"Sudimara","transit":false,"is_transit":false,"line":6,"distance":1994,"station_id":"SDM"}],[{"distance":0,"time":0,"station_name":"Kampung Bandan","transit":false,"line":4,"station_id":"KPB","is_transit":false,"i_lat":-6.132549,"i_long":106.826365},{"i_long":106.812439,"line":2,"station_id":"JAKK","time":3,"i_lat":-6.137569,"transit":true,"station_name":"Jakarta Kota","distance":1364,"is_transit":true},{"i_long":106.820901,"time":4,"distance":1264,"i_lat":-6.141205,"station_id":"JAY","transit":false,"is_transit":false,"line":2,"station_name":"Jayakarta"},{"station_id":"MGB","time":2,"distance":1080,"line":2,"transit":false,"station_name":"Manggabesar","i_long":106.82482,"is_transit":false,"i_lat":-6.149769},{"i_long":106.827103,"time":2,"i_lat":-6.160725,"line":2,"station_name":"Sawah Besar","distance":906,"transit":false,"station_id":"SW","is_transit":false},{"station_name":"Juanda","station_id":"JUA","is_transit":false,"time":2,"distance":1149,"i_long":106.828284,"i_lat":-6.166716,"line":2,"transit":false},{"transit":false,"distance":2015,"time":4,"i_lat":-6.186295,"i_long":106.832183,"station_id":"GDD","station_name":"Gondangdia","is_transit":false,"line":2},{"i_lat":-6.198556,"i_long":106.840169,"distance":1750,"transit":false,"time":3,"is_transit":false,"line":2,"station_id":"CKI","station_name":"Cikini"},{"station_id":"MRI","distance":1590,"i_lat":-6.209883,"i_long":106.84912,"line":2,"is_transit":true,"station_name":"Manggarai","time":4,"transit":true},{"i_lat":-6.202263,"station_id":"SUD","transit":false,"station_name":"Sudirman","distance":3186,"time":4,"i_long":106.822649,"line":1,"is_transit":false},{"i_lat":-6.201433,"station_name":"Sudirman Baru","is_transit":false,"i_long":106.819881,"distance":280,"transit":false,"line":1,"time":1,"station_id":"SUDB"},{"station_id":"KAT","transit":false,"station_name":"Karet","distance":471,"i_long":106.816351,"time":1,"i_lat":-6.20132,"line":1,"is_transit":false},{"line":1,"station_id":"THB","is_transit":true,"i_long":106.811091,"station_name":"Tanah Abang","transit":true,"i_lat":-6.185545,"time":5,"distance":2029},{"station_id":"PLM","station_name":"Palmerah","is_transit":false,"transit":false,"distance":3191,"time":6,"i_lat":-6.207404,"i_long":106.79689,"line":6},{"transit":false,"i_long":106.780334,"station_name":"Kebayoran","time":7,"distance":3737,"is_transit":false,"i_lat":-6.237242,"line":6,"station_id":"KBY"},{"line":6,"station_id":"PDJ","is_transit":false,"time":8,"i_lat":-6.276362,"distance":6218,"transit":false,"i_long":106.74273,"station_name":"Pondokranji"},{"station_name":"Jurangmangu","transit":false,"line":6,"is_transit":false,"distance":2179,"i_long":106.728916,"station_id":"JMU","i_lat":-6.288927,"time":3},{"transit":false,"station_name":"Sudimara","distance":1994,"i_long":106.712277,"station_id":"SDM","is_transit":false,"i_lat":-6.296963,"line":6,"time":4}],[{"station_id":"KPB","time":0,"station_name":"Kampung Bandan","line":4,"distance":0,"is_transit":false,"transit":false,"i_lat":-6.132549,"i_long":106.826365},{"time":3,"i_long":106.836569,"line":11,"transit":false,"distance":1444,"station_id":"RJW","station_name":"Rajawali","is_transit":false,"i_lat":-6.14505},{"i_long":106.839204,"distance":1901,"transit":false,"time":5,"station_id":"KMO","is_transit":false,"i_lat":-6.161728,"line":11,"station_name":"Kemayoran"},{"distance":1436,"i_long":106.84368,"line":11,"station_id":"PSE","is_transit":false,"time":4,"station_name":"Pasar Senen","i_lat":-6.174784,"transit":false},{"line":11,"station_id":"GST","i_lat":-6.185975,"station_name":"Gang Sentiong","is_transit":false,"time":8,"distance":1567,"i_long":106.850107,"transit":false},{"i_lat":-6.193792,"time":1,"station_id":"KMT","distance":973,"i_long":106.855437,"station_name":"Kramat","is_transit":false,"line":11,"transit":false},{"time":2,"transit":false,"line":11,"i_long":106.861737,"i_lat":-6.209188,"distance":1829,"station_name":"Pondok Jati","is_transit":false,"station_id":"POK"},{"line":1,"i_long":106.86807400000001,"time":9,"station_id":"JNG","station_name":"Jatinegara","transit":true,"distance":1236,"is_transit":true,"i_lat":-6.215091},{"distance":1377,"time":2,"line":1,"i_long":106.858896,"station_name":"Matraman","transit":false,"is_transit":false,"i_lat":-6.212485,"station_id":"MTR"},{"station_id":"MRI","time":2,"is_transit":false,"transit":false,"distance":1275,"line":2,"station_name":"Manggarai","i_lat":-6.209883,"i_long":106.84912},{"is_transit":false,"station_id":"SUD","station_name":"Sudirman","transit":false,"distance":3186,"i_lat":-6.202263,"i_long":106.822649,"line":1,"time":4},{"i_lat":-6.201433,"transit":false,"line":1,"station_name":"Sudirman Baru","time":1,"station_id":"SUDB","is_transit":false,"distance":280,"i_long":106.819881},{"transit":false,"time":1,"i_lat":-6.20132,"i_long":106.816351,"station_id":"KAT","is_transit":false,"distance":471,"station_name":"Karet","line":1},{"line":1,"i_long":106.811091,"station_name":"Tanah Abang","station_id":"THB","distance":2029,"time":5,"transit":true,"is_transit":true,"i_lat":-6.185545},{"i_long":106.79689,"line":6,"station_name":"Palmerah","time":6,"is_transit":false,"i_lat":-6.207404,"transit":false,"station_id":"PLM","distance":3191},{"station_id":"KBY","distance":3737,"station_name":"Kebayoran","is_transit":false,"i_long":106.780334,"line":6,"time":7,"transit":false,"i_lat":-6.237242},{"distance":6218,"line":6,"time":8,"station_id":"PDJ","transit":false,"is_transit":false,"i_lat":-6.276362,"i_long":106.74273,"station_name":"Pondokranji"},{"i_lat":-6.288927,"distance":2179,"transit":false,"is_transit":false,"station_id":"JMU","station_name":"Jurangmangu","i_long":106.728916,"line":6,"time":3},{"transit":false,"i_long":106.712277,"station_id":"SDM","time":4,"is_transit":false,"i_lat":-6.296963,"line":6,"distance":1994,"station_name":"Sudimara"}]]}