{"data":[[{"line":4,"distance":0,"station_name":"Kampung Bandan","time":0,"i_long":106.826365,"station_id":"KPB","i_lat":-6.132549,"transit":false,"is_transit":false},{"distance":1444,"is_transit":false,"i_long":106.836569,"station_name":"Rajawali","station_id":"RJW","line":11,"transit":false,"time":3,"i_lat":-6.14505},{"is_transit":false,"line":11,"station_id":"KMO","i_lat":-6.161728,"station_name":"Kemayoran","distance":1901,"transit":false,"time":5,"i_long":106.839204},{"distance":1436,"line":11,"station_name":"Pasar Senen","time":4,"i_long":106.84368,"station_id":"PSE","transit":false,"is_transit":false,"i_lat":-6.174784},{"i_long":106.850107,"station_name":"Gang Sentiong","time":8,"line":11,"i_lat":-6.185975,"station_id":"GST","is_transit":false,"transit":false,"distance":1567},{"is_transit":false,"transit":false,"i_lat":-6.193792,"i_long":106.855437,"line":11,"distance":973,"station_id":"KMT","station_name":"Kramat","time":1},{"is_transit":false,"i_lat":-6.209188,"station_name":"Pondok Jati","i_long":106.861737,"time":2,"transit":false,"station_id":"POK","line":11,"distance":1829},{"is_transit":true,"time":9,"station_id":"JNG","i_lat":-6.215091,"i_long":106.86807400000001,"transit":true,"station_name":"Jatinegara","line":1,"distance":1236},{"i_long":106.899548,"line":1,"transit":false,"station_id":"KLD","i_lat":-6.2135,"distance":3395,"time":3,"station_name":"Klender","is_transit":false},{"line":1,"is_transit":false,"station_name":"Buaran","transit":false,"time":2,"i_lat":-6.215568,"station_id":"BUA","distance":3100,"i_long":106.922662},{"station_id":"KLDB","transit":false,"time":1,"distance":1305,"station_name":"Klenderbaru","i_lat":-6.217455,"line":1,"is_transit":false,"i_long":106.939679},{"distance":1385,"i_lat":-6.219053,"is_transit":false,"line":1,"i_long":106.951283,"station_id":"CUK","transit":false,"time":8,"station_name":"Cakung"},{"line":1,"i_lat":-6.224515,"is_transit":false,"time":3,"i_long":106.977657,"station_id":"KRI","distance":3097,"station_name":"Kranji","transit":false},{"transit":false,"time":4,"i_lat":-6.236616,"station_name":"Bekasi","distance":2520,"i_long":106.997013,"is_transit":false,"station_id":"BKS","line":1},{"station_id":"BKST","time":2,"transit":false,"is_transit":false,"distance":2368,"line":1,"station_name":"Bekasi Timur","i_lat":-6.248029,"i_long":107.016735},{"line":1,"i_long":107.055722,"transit":false,"time":7,"station_id":"TB","station_name":"Tambun","i_lat":-6.258864,"distance":4460,"is_transit":false}],[{"line":4,"transit":false,"i_lat":-6.132549,"i_long":106.826365,"time":0,"station_id":"KPB","distance":0,"is_transit":false,"station_name":"Kampung Bandan"},{"station_id":"AK","time":9,"distance":4102,"is_transit":false,"line":1,"i_lat":-6.144674,"transit":false,"i_long":106.79867,"station_name":"Angke"},{"station_name":"Duri","i_lat":-6.155215,"is_transit":false,"i_long":106.800832,"time":4,"line":1,"station_id":"DU","transit":false,"distance":1230},{"transit":false,"i_lat":-6.185545,"station_id":"THB","is_transit":false,"distance":3632,"station_name":"Tanah Abang","i_long":106.811091,"time":8,"line":1},{"i_long":106.816351,"line":1,"is_transit":false,"distance":2029,"i_lat":-6.20132,"station_id":"KAT","transit":false,"time":5,"station_name":"Karet"},{"line":1,"time":1,"station_name":"Sudirman Baru","i_long":106.819881,"is_transit":false,"distance":471,"station_id":"SUDB","i_lat":-6.201433,"transit":false},{"station_name":"Sudirman","line":1,"i_lat":-6.202263,"i_long":106.822649,"is_transit":false,"station_id":"SUD","transit":false,"time":1,"distance":280},{"distance":3186,"station_name":"Manggarai","transit":false,"i_long":106.84912,"time":4,"line":2,"is_transit":false,"station_id":"MRI","i_lat":-6.209883},{"time":2,"line":1,"station_name":"Matraman","is_transit":false,"transit":false,"station_id":"MTR","distance":1275,"i_long":106.858896,"i_lat":-6.212485},{"time":8,"station_id":"JNG","distance":1377,"line":1,"is_transit":false,"i_lat":-6.215091,"transit":false,"i_long":106.86807400000001,"station_name":"Jatinegara"},{"is_transit":false,"time":3,"i_lat":-6.2135,"i_long":106.899548,"transit":false,"distance":3395,"line":1,"station_id":"KLD","station_name":"Klender"},{"i_long":106.922662,"transit":false,"station_id":"BUA","time":2,"distance":3100,"station_name":"Buaran","line":1,"is_transit":false,"i_lat":-6.215568},{"i_lat":-6.217455,"transit":false,"i_long":106.939679,"is_transit":false,"distance":1305,"time":1,"station_id":"KLDB","station_name":"Klenderbaru","line":1},{"distance":1385,"i_lat":-6.219053,"i_long":106.951283,"time":8,"station_id":"CUK","line":1,"transit":false,"is_transit":false,"station_name":"Cakung"},{"i_long":106.977657,"transit":false,"is_transit":false,"distance":3097,"station_id":"KRI","time":3,"station_name":"Kranji","i_lat":-6.224515,"line":1},{"line":1,"i_long":106.997013,"i_lat":-6.236616,"is_transit":false,"distance":2520,"station_id":"BKS","transit":false,"time":4,"station_name":"Bekasi"},{"is_transit":false,"distance":2368,"station_id":"BKST","transit":false,"time":2,"i_lat":-6.248029,"i_long":107.016735,"line":1,"station_name":"Bekasi Timur"},{"time":7,"station_id":"TB","transit":false,"distance":4460,"station_name":"Tambun","i_lat":-6.258864,"is_transit":false,"i_long":107.055722,"line":1}],[{"distance":0,"i_long":106.826365,"station_name":"Kampung Bandan","line":4,"i_lat":-6.132549,"transit":false,"is_transit":false,"time":0,"station_id":"KPB"},{"line":2,"is_transit":true,"distance":1364,"transit":true,"time":3,"station_name":"Jakarta Kota","i_lat":-6.137569,"i_long":106.812439,"station_id":"JAKK"},{"is_transit":false,"station_name":"Jayakarta","transit":false,"i_lat":-6.141205,"i_long":106.820901,"distance":1264,"time":4,"line":2,"station_id":"JAY"},{"i_lat":-6.149769,"is_transit":false,"station_name":"Manggabesar","distance":1080,"time":2,"transit":false,"line":2,"station_id":"MGB","i_long":106.82482},{"i_long":106.827103,"transit":false,"station_name":"Sawah Besar","distance":906,"line":2,"time":2,"is_transit":false,"i_lat":-6.160725,"station_id":"SW"},{"station_id":"JUA","time":2,"line":2,"station_name":"Juanda","is_transit":false,"transit":false,"i_lat":-6.166716,"distance":1149,"i_long":106.828284},{"line":2,"is_transit":false,"i_long":106.832183,"i_lat":-6.186295,"distance":2015,"time":4,"station_id":"GDD","transit":false,"station_name":"Gondangdia"},{"i_long":106.840169,"is_transit":false,"time":3,"station_id":"CKI","station_name":"Cikini","line":2,"distance":1750,"i_lat":-6.198556,"transit":false},{"transit":true,"is_transit":true,"i_lat":-6.209883,"time":4,"line":2,"distance":1590,"station_name":"Manggarai","i_long":106.84912,"station_id":"MRI"},{"line":1,"distance":1275,"time":2,"station_name":"Matraman","transit":false,"is_transit":false,"i_lat":-6.212485,"station_id":"MTR","i_long":106.858896},{"station_id":"JNG","distance":1377,"transit":false,"station_name":"Jatinegara","i_long":106.86807400000001,"i_lat":-6.215091,"line":1,"is_transit":false,"time":8},{"time":3,"station_name":"Klender","i_long":106.899548,"transit":false,"line":1,"distance":3395,"i_lat":-6.2135,"station_id":"KLD","is_transit":false},{"is_transit":false,"distance":3100,"line":1,"station_name":"Buaran","time":2,"i_long":106.922662,"station_id":"BUA","i_lat":-6.215568,"transit":false},{"time":1,"line":1,"i_long":106.939679,"transit":false,"station_id":"KLDB","station_name":"Klenderbaru","i_lat":-6.217455,"is_transit":false,"distance":1305},{"i_long":106.951283,"station_name":"Cakung","is_transit":false,"station_id":"CUK","transit":false,"i_lat":-6.219053,"distance":1385,"line":1,"time":8},{"station_id":"KRI","is_transit":false,"transit":false,"i_long":106.977657,"line":1,"station_name":"Kranji","time":3,"i_lat":-6.224515,"distance":3097},{"line":1,"i_lat":-6.236616,"station_id":"BKS","i_long":106.997013,"distance":2520,"is_transit":false,"time":4,"transit":false,"station_name":"Bekasi"},{"transit":false,"time":2,"station_name":"Bekasi Timur","i_long":107.016735,"line":1,"i_lat":-6.248029,"station_id":"BKST","is_transit":false,"distance":2368},{"time":7,"distance":4460,"station_id":"TB","i_lat":-6.258864,"line":1,"transit":false,"station_name":"Tambun","i_long":107.055722,"is_transit":false}]]}