{"data":[[{"distance":0,"i_long":106.826365,"time":0,"station_id":"KPB","is_transit":true,"station_name":"Kampung Bandan","i_lat":-6.132549,"line":0,"transit":false},{"transit":false,"distance":1444,"station_name":"Rajawali","time":3,"is_transit":false,"i_lat":-6.14505,"line":11,"station_id":"RJW","i_long":106.836569},{"distance":1901,"station_name":"Kemayoran","i_lat":-6.161728,"i_long":106.839204,"station_id":"KMO","is_transit":false,"transit":false,"line":11,"time":5},{"i_long":106.84368,"line":11,"station_name":"Pasar Senen","transit":false,"is_transit":false,"distance":1436,"i_lat":-6.174784,"station_id":"PSE","time":4},{"i_long":106.850107,"i_lat":-6.185975,"station_id":"GST","transit":false,"distance":1567,"station_name":"Gang Sentiong","line":11,"time":8,"is_transit":false},{"transit":false,"line":11,"station_name":"Kramat","i_lat":-6.193792,"distance":973,"i_long":106.855437,"is_transit":false,"station_id":"KMT","time":1},{"station_id":"POK","i_lat":-6.209188,"time":2,"i_long":106.861737,"is_transit":false,"distance":1829,"station_name":"Pondok Jati","line":11,"transit":false}],[{"distance":0,"is_transit":true,"station_id":"KPB","i_lat":-6.132549,"i_long":106.826365,"time":0,"line":0,"station_name":"Kampung Bandan","transit":false},{"time":9,"station_id":"AK","distance":4102,"i_long":106.79867,"transit":false,"station_name":"Angke","line":0,"i_lat":-6.144674,"is_transit":false},{"time":4,"is_transit":true,"transit":true,"station_name":"Duri","distance":1230,"station_id":"DU","i_lat":-6.155215,"i_long":106.800832,"line":1},{"transit":false,"i_long":106.811091,"line":1,"i_lat":-6.185545,"station_id":"THB","station_name":"Tanah Abang","distance":3632,"is_transit":true,"time":8},{"time":5,"distance":2029,"transit":false,"i_lat":-6.20132,"i_long":106.816351,"is_transit":false,"station_id":"KAT","line":1,"station_name":"Karet"},{"distance":471,"line":1,"station_id":"SUDB","transit":false,"station_name":"Sudirman Baru","is_transit":false,"time":1,"i_long":106.819881,"i_lat":-6.201433},{"distance":280,"line":1,"station_name":"Sudirman","time":1,"i_lat":-6.202263,"station_id":"SUD","is_transit":false,"transit":false,"i_long":106.822649},{"distance":3186,"time":4,"i_lat":-6.209883,"line":0,"station_name":"Manggarai","is_transit":true,"i_long":106.84912,"transit":false,"station_id":"MRI"},{"station_name":"Matraman","i_long":106.858896,"i_lat":-6.212485,"line":1,"transit":false,"distance":1275,"station_id":"MTR","time":2,"is_transit":false},{"i_lat":-6.215091,"station_name":"Jatinegara","station_id":"JNG","transit":true,"i_long":106.86807400000001,"line":0,"time":8,"distance":1377,"is_transit":true},{"i_long":106.861737,"line":11,"transit":false,"is_transit":false,"distance":1236,"i_lat":-6.209188,"station_id":"POK","station_name":"Pondok Jati","time":2}],[{"is_transit":true,"i_long":106.826365,"line":0,"time":0,"transit":false,"i_lat":-6.132549,"station_id":"KPB","station_name":"Kampung Bandan","distance":0},{"is_transit":true,"line":0,"time":3,"i_long":106.812439,"distance":1364,"i_lat":-6.137569,"station_id":"JAKK","station_name":"Jakarta Kota","transit":true},{"transit":false,"station_name":"Jayakarta","i_lat":-6.141205,"line":7,"time":4,"station_id":"JAY","i_long":106.820901,"distance":1264,"is_transit":false},{"line":2,"station_id":"MGB","i_lat":-6.149769,"time":2,"i_long":106.82482,"station_name":"Manggabesar","distance":1080,"is_transit":false,"transit":false},{"is_transit":false,"i_lat":-6.160725,"station_name":"Sawah Besar","transit":false,"distance":906,"i_long":106.827103,"station_id":"SW","line":2,"time":2},{"time":2,"transit":false,"distance":1149,"line":2,"i_long":106.828284,"station_id":"JUA","station_name":"Juanda","i_lat":-6.166716,"is_transit":false},{"transit":false,"line":2,"time":4,"i_lat":-6.186295,"distance":2015,"station_name":"Gondangdia","station_id":"GDD","is_transit":false,"i_long":106.832183},{"station_name":"Cikini","i_lat":-6.198556,"station_id":"CKI","i_long":106.840169,"time":3,"transit":false,"line":0,"is_transit":false,"distance":1750},{"distance":1590,"line":0,"transit":true,"i_long":106.84912,"station_name":"Manggarai","i_lat":-6.209883,"is_transit":true,"station_id":"MRI","time":4},{"transit":false,"i_lat":-6.212485,"station_name":"Matraman","i_long":106.858896,"distance":1275,"time":2,"line":1,"station_id":"MTR","is_transit":false},{"is_transit":true,"station_id":"JNG","distance":1377,"transit":true,"i_long":106.86807400000001,"i_lat":-6.215091,"station_name":"Jatinegara","time":8,"line":0},{"station_id":"POK","i_long":106.861737,"i_lat":-6.209188,"time":2,"line":11,"station_name":"Pondok Jati","distance":1236,"transit":false,"is_transit":false}]]}