{"data":[[{"is_transit":false,"station_name":"Kampung Bandan","i_lat":-6.132549,"distance":0,"time":0,"station_id":"KPB","transit":false,"i_long":106.826365,"line":4},{"line":11,"station_id":"RJW","transit":false,"time":3,"i_lat":-6.14505,"distance":1444,"station_name":"Rajawali","is_transit":false,"i_long":106.836569},{"is_transit":false,"station_id":"KMO","line":11,"i_lat":-6.161728,"station_name":"Kemayoran","time":5,"distance":1901,"i_long":106.839204,"transit":false},{"i_long":106.84368,"is_transit":false,"time":4,"station_id":"PSE","i_lat":-6.174784,"station_name":"Pasar Senen","distance":1436,"line":11,"transit":false},{"line":11,"transit":false,"station_name":"Gang Sentiong","distance":1567,"i_long":106.850107,"is_transit":false,"time":8,"station_id":"GST","i_lat":-6.185975},{"station_name":"Kramat","station_id":"KMT","is_transit":false,"transit":false,"time":1,"i_long":106.855437,"i_lat":-6.193792,"line":11,"distance":973},{"station_name":"Pondok Jati","distance":1829,"line":11,"i_long":106.861737,"time":2,"transit":false,"station_id":"POK","i_lat":-6.209188,"is_transit":false},{"i_lat":-6.215091,"line":1,"transit":true,"distance":1236,"station_name":"Jatinegara","station_id":"JNG","is_transit":true,"time":9,"i_long":106.86807400000001},{"line":1,"i_long":106.899548,"time":3,"i_lat":-6.2135,"is_transit":false,"station_id":"KLD","transit":false,"distance":3395,"station_name":"Klender"},{"i_long":106.922662,"station_name":"Buaran","distance":3100,"i_lat":-6.215568,"line":1,"transit":false,"time":2,"station_id":"BUA","is_transit":false},{"is_transit":false,"time":1,"transit":false,"i_lat":-6.217455,"i_long":106.939679,"station_id":"KLDB","station_name":"Klenderbaru","distance":1305,"line":1},{"station_name":"Cakung","is_transit":false,"i_lat":-6.219053,"i_long":106.951283,"station_id":"CUK","transit":false,"time":8,"line":1,"distance":1385},{"station_id":"KRI","i_long":106.977657,"line":1,"is_transit":false,"station_name":"Kranji","transit":false,"distance":3097,"time":3,"i_lat":-6.224515},{"i_long":106.997013,"transit":false,"distance":2520,"station_id":"BKS","is_transit":false,"station_name":"Bekasi","time":4,"line":1,"i_lat":-6.236616},{"i_long":107.016735,"distance":2368,"station_id":"BKST","station_name":"Bekasi Timur","time":2,"transit":false,"is_transit":false,"line":1,"i_lat":-6.248029},{"transit":false,"i_lat":-6.258864,"station_name":"Tambun","line":1,"time":7,"is_transit":false,"i_long":107.055722,"station_id":"TB","distance":4460},{"station_id":"CIT","line":1,"time":3,"is_transit":false,"distance":3420,"i_long":107.083084,"transit":false,"station_name":"Cibitung","i_lat":-6.261877}],[{"transit":false,"station_id":"KPB","i_lat":-6.132549,"time":0,"station_name":"Kampung Bandan","is_transit":false,"line":4,"distance":0,"i_long":106.826365},{"station_name":"Angke","distance":4102,"transit":false,"time":9,"is_transit":false,"station_id":"AK","i_long":106.79867,"i_lat":-6.144674,"line":1},{"line":1,"is_transit":false,"transit":false,"i_lat":-6.155215,"i_long":106.800832,"station_name":"Duri","station_id":"DU","time":4,"distance":1230},{"i_long":106.811091,"i_lat":-6.185545,"time":8,"station_id":"THB","line":1,"transit":false,"is_transit":false,"distance":3632,"station_name":"Tanah Abang"},{"i_lat":-6.20132,"i_long":106.816351,"transit":false,"is_transit":false,"distance":2029,"station_name":"Karet","line":1,"station_id":"KAT","time":5},{"station_name":"Sudirman Baru","distance":471,"is_transit":false,"time":1,"i_lat":-6.201433,"i_long":106.819881,"transit":false,"line":1,"station_id":"SUDB"},{"distance":280,"line":1,"is_transit":false,"i_lat":-6.202263,"transit":false,"station_name":"Sudirman","station_id":"SUD","i_long":106.822649,"time":1},{"distance":3186,"transit":false,"station_id":"MRI","station_name":"Manggarai","i_long":106.84912,"time":4,"line":2,"is_transit":false,"i_lat":-6.209883},{"time":2,"station_name":"Matraman","is_transit":false,"transit":false,"i_lat":-6.212485,"line":1,"i_long":106.858896,"station_id":"MTR","distance":1275},{"i_lat":-6.215091,"is_transit":false,"station_name":"Jatinegara","station_id":"JNG","transit":false,"i_long":106.86807400000001,"distance":1377,"time":8,"line":1},{"i_long":106.899548,"station_id":"KLD","transit":false,"i_lat":-6.2135,"time":3,"is_transit":false,"line":1,"station_name":"Klender","distance":3395},{"station_id":"BUA","time":2,"i_long":106.922662,"distance":3100,"i_lat":-6.215568,"station_name":"Buaran","line":1,"is_transit":false,"transit":false},{"i_lat":-6.217455,"transit":false,"station_id":"KLDB","is_transit":false,"time":1,"station_name":"Klenderbaru","distance":1305,"i_long":106.939679,"line":1},{"station_id":"CUK","distance":1385,"station_name":"Cakung","is_transit":false,"line":1,"i_lat":-6.219053,"transit":false,"i_long":106.951283,"time":8},{"line":1,"transit":false,"distance":3097,"i_long":106.977657,"station_id":"KRI","is_transit":false,"station_name":"Kranji","i_lat":-6.224515,"time":3},{"distance":2520,"line":1,"is_transit":false,"transit":false,"i_lat":-6.236616,"i_long":106.997013,"station_name":"Bekasi","time":4,"station_id":"BKS"},{"time":2,"transit":false,"station_id":"BKST","line":1,"i_lat":-6.248029,"distance":2368,"station_name":"Bekasi Timur","i_long":107.016735,"is_transit":false},{"i_lat":-6.258864,"transit":false,"i_long":107.055722,"station_name":"Tambun","station_id":"TB","distance":4460,"line":1,"is_transit":false,"time":7},{"transit":false,"distance":3420,"line":1,"time":3,"is_transit":false,"i_long":107.083084,"station_id":"CIT","station_name":"Cibitung","i_lat":-6.261877}],[{"time":0,"station_id":"KPB","distance":0,"line":4,"station_name":"Kampung Bandan","is_transit":false,"i_lat":-6.132549,"i_long":106.826365,"transit":false},{"is_transit":true,"i_long":106.812439,"station_name":"Jakarta Kota","line":2,"transit":true,"distance":1364,"time":3,"i_lat":-6.137569,"station_id":"JAKK"},{"station_name":"Jayakarta","time":4,"station_id":"JAY","i_lat":-6.141205,"transit":false,"distance":1264,"line":2,"is_transit":false,"i_long":106.820901},{"distance":1080,"station_id":"MGB","line":2,"i_long":106.82482,"station_name":"Manggabesar","is_transit":false,"transit":false,"time":2,"i_lat":-6.149769},{"station_name":"Sawah Besar","station_id":"SW","transit":false,"is_transit":false,"time":2,"i_lat":-6.160725,"line":2,"distance":906,"i_long":106.827103},{"transit":false,"station_name":"Juanda","time":2,"i_lat":-6.166716,"i_long":106.828284,"line":2,"is_transit":false,"distance":1149,"station_id":"JUA"},{"distance":2015,"i_long":106.832183,"is_transit":false,"station_id":"GDD","line":2,"time":4,"transit":false,"i_lat":-6.186295,"station_name":"Gondangdia"},{"station_id":"CKI","distance":1750,"i_long":106.840169,"station_name":"Cikini","is_transit":false,"time":3,"line":2,"i_lat":-6.198556,"transit":false},{"is_transit":true,"transit":true,"time":4,"station_name":"Manggarai","station_id":"MRI","i_long":106.84912,"line":2,"distance":1590,"i_lat":-6.209883},{"station_name":"Matraman","is_transit":false,"time":2,"distance":1275,"i_lat":-6.212485,"transit":false,"line":1,"station_id":"MTR","i_long":106.858896},{"station_id":"JNG","i_long":106.86807400000001,"transit":false,"station_name":"Jatinegara","is_transit":false,"time":8,"distance":1377,"line":1,"i_lat":-6.215091},{"station_id":"KLD","i_long":106.899548,"i_lat":-6.2135,"line":1,"transit":false,"is_transit":false,"station_name":"Klender","time":3,"distance":3395},{"time":2,"i_lat":-6.215568,"distance":3100,"i_long":106.922662,"is_transit":false,"station_name":"Buaran","station_id":"BUA","transit":false,"line":1},{"is_transit":false,"line":1,"transit":false,"i_lat":-6.217455,"station_name":"Klenderbaru","station_id":"KLDB","time":1,"i_long":106.939679,"distance":1305},{"transit":false,"time":8,"station_id":"CUK","is_transit":false,"line":1,"i_long":106.951283,"distance":1385,"i_lat":-6.219053,"station_name":"Cakung"},{"is_transit":false,"line":1,"i_long":106.977657,"station_name":"Kranji","time":3,"distance":3097,"station_id":"KRI","transit":false,"i_lat":-6.224515},{"station_name":"Bekasi","station_id":"BKS","time":4,"distance":2520,"i_lat":-6.236616,"line":1,"is_transit":false,"i_long":106.997013,"transit":false},{"transit":false,"line":1,"i_long":107.016735,"is_transit":false,"station_name":"Bekasi Timur","distance":2368,"station_id":"BKST","time":2,"i_lat":-6.248029},{"transit":false,"station_name":"Tambun","i_lat":-6.258864,"i_long":107.055722,"distance":4460,"is_transit":false,"time":7,"line":1,"station_id":"TB"},{"time":3,"is_transit":false,"transit":false,"station_name":"Cibitung","station_id":"CIT","i_lat":-6.261877,"line":1,"distance":3420,"i_long":107.083084}]]}