{"data":[[{"i_long":106.826365,"time":0,"station_name":"Kampung Bandan","is_transit":true,"transit":false,"distance":0,"line":0,"station_id":"KPB","i_lat":-6.132549},{"line":0,"station_id":"AK","time":9,"station_name":"Angke","distance":4102,"is_transit":false,"transit":false,"i_lat":-6.144674,"i_long":106.79867},{"i_lat":-6.155215,"line":1,"station_name":"Duri","i_long":106.800832,"is_transit":true,"station_id":"DU","transit":true,"distance":1230,"time":4},{"i_long":106.811091,"station_name":"Tanah Abang","time":8,"i_lat":-6.185545,"transit":false,"line":1,"station_id":"THB","is_transit":true,"distance":3632},{"transit":false,"distance":2029,"i_lat":-6.20132,"is_transit":false,"time":5,"station_name":"Karet","i_long":106.816351,"line":1,"station_id":"KAT"},{"station_name":"Sudirman Baru","is_transit":false,"i_lat":-6.201433,"station_id":"SUDB","distance":471,"line":1,"time":1,"i_long":106.819881,"transit":false},{"distance":280,"station_id":"SUD","is_transit":false,"i_lat":-6.202263,"line":1,"i_long":106.822649,"transit":false,"station_name":"Sudirman","time":1}],[{"time":0,"station_id":"KPB","is_transit":true,"i_lat":-6.132549,"station_name":"Kampung Bandan","line":0,"i_long":106.826365,"transit":false,"distance":0},{"time":3,"i_long":106.812439,"station_id":"JAKK","transit":true,"station_name":"Jakarta Kota","line":0,"i_lat":-6.137569,"distance":1364,"is_transit":true},{"is_transit":false,"time":4,"i_long":106.820901,"i_lat":-6.141205,"distance":1264,"station_name":"Jayakarta","transit":false,"station_id":"JAY","line":7},{"transit":false,"time":2,"i_lat":-6.149769,"distance":1080,"station_name":"Manggabesar","is_transit":false,"line":2,"station_id":"MGB","i_long":106.82482},{"i_lat":-6.160725,"line":2,"i_long":106.827103,"is_transit":false,"station_name":"Sawah Besar","time":2,"distance":906,"station_id":"SW","transit":false},{"transit":false,"distance":1149,"is_transit":false,"i_lat":-6.166716,"time":2,"i_long":106.828284,"station_id":"JUA","station_name":"Juanda","line":2},{"i_long":106.832183,"line":2,"i_lat":-6.186295,"time":4,"transit":false,"distance":2015,"station_id":"GDD","is_transit":false,"station_name":"Gondangdia"},{"transit":false,"is_transit":false,"distance":1750,"time":3,"station_name":"Cikini","i_lat":-6.198556,"station_id":"CKI","i_long":106.840169,"line":0},{"station_id":"MRI","is_transit":true,"i_lat":-6.209883,"line":0,"distance":1590,"transit":true,"station_name":"Manggarai","i_long":106.84912,"time":4},{"station_id":"SUD","i_long":106.822649,"distance":3186,"i_lat":-6.202263,"station_name":"Sudirman","time":4,"line":1,"transit":false,"is_transit":false}],[{"line":0,"i_long":106.826365,"time":0,"transit":false,"i_lat":-6.132549,"station_id":"KPB","is_transit":true,"distance":0,"station_name":"Kampung Bandan"},{"distance":1444,"station_name":"Rajawali","is_transit":false,"station_id":"RJW","transit":false,"i_lat":-6.14505,"time":3,"line":11,"i_long":106.836569},{"i_long":106.839204,"distance":1901,"line":11,"is_transit":false,"station_id":"KMO","transit":false,"i_lat":-6.161728,"station_name":"Kemayoran","time":5},{"distance":1436,"station_id":"PSE","station_name":"Pasar Senen","i_lat":-6.174784,"is_transit":false,"transit":false,"line":11,"time":4,"i_long":106.84368},{"distance":1567,"transit":false,"i_long":106.850107,"time":8,"i_lat":-6.185975,"is_transit":false,"station_name":"Gang Sentiong","line":11,"station_id":"GST"},{"is_transit":false,"station_name":"Kramat","distance":973,"transit":false,"time":1,"i_lat":-6.193792,"station_id":"KMT","line":11,"i_long":106.855437},{"station_name":"Pondok Jati","distance":1829,"i_long":106.861737,"time":2,"station_id":"POK","line":11,"is_transit":false,"transit":false,"i_lat":-6.209188},{"station_name":"Jatinegara","time":9,"distance":1236,"is_transit":true,"station_id":"JNG","i_lat":-6.215091,"i_long":106.86807400000001,"line":0,"transit":true},{"station_id":"MTR","transit":false,"i_lat":-6.212485,"distance":1377,"line":1,"is_transit":false,"time":2,"station_name":"Matraman","i_long":106.858896},{"time":2,"transit":false,"line":0,"is_transit":true,"station_id":"MRI","i_long":106.84912,"distance":1275,"i_lat":-6.209883,"station_name":"Manggarai"},{"i_lat":-6.202263,"distance":3186,"i_long":106.822649,"transit":false,"is_transit":false,"line":1,"time":4,"station_id":"SUD","station_name":"Sudirman"}]]}