{"data":[[{"time":0,"transit":false,"i_lat":-6.132549,"i_long":106.826365,"station_id":"KPB","distance":0,"is_transit":false,"line":4,"station_name":"Kampung Bandan"},{"is_transit":false,"station_id":"AK","i_long":106.79867,"time":9,"station_name":"Angke","transit":false,"distance":4102,"i_lat":-6.144674,"line":1},{"i_lat":-6.155215,"transit":false,"is_transit":false,"line":1,"station_name":"Duri","i_long":106.800832,"distance":1230,"time":4,"station_id":"DU"},{"i_long":106.811091,"line":1,"station_name":"Tanah Abang","time":8,"transit":false,"i_lat":-6.185545,"is_transit":false,"station_id":"THB","distance":3632},{"transit":false,"time":5,"distance":2029,"i_long":106.816351,"line":1,"station_id":"KAT","station_name":"Karet","i_lat":-6.20132,"is_transit":false},{"i_lat":-6.201433,"i_long":106.819881,"station_id":"SUDB","is_transit":false,"transit":false,"distance":471,"line":1,"station_name":"Sudirman Baru","time":1},{"is_transit":false,"i_long":106.822649,"line":1,"transit":false,"time":1,"distance":280,"i_lat":-6.202263,"station_id":"SUD","station_name":"Sudirman"},{"i_long":106.84912,"is_transit":true,"transit":true,"station_id":"MRI","time":4,"distance":3186,"i_lat":-6.209883,"line":2,"station_name":"Manggarai"},{"station_name":"Tebet","time":4,"i_lat":-6.226659,"line":2,"transit":false,"distance":2610,"is_transit":false,"i_long":106.857948,"station_id":"TEB"},{"i_long":106.856607,"line":2,"distance":1230,"i_lat":-6.242512,"station_id":"CW","transit":false,"time":2,"is_transit":false,"station_name":"Cawang"}],[{"line":4,"i_lat":-6.132549,"station_name":"Kampung Bandan","distance":0,"transit":false,"i_long":106.826365,"station_id":"KPB","time":0,"is_transit":false},{"i_long":106.812439,"station_name":"Jakarta Kota","line":2,"time":3,"transit":true,"station_id":"JAKK","distance":1364,"is_transit":true,"i_lat":-6.137569},{"station_name":"Jayakarta","station_id":"JAY","distance":1264,"transit":false,"is_transit":false,"i_long":106.820901,"line":2,"time":4,"i_lat":-6.141205},{"distance":1080,"station_id":"MGB","i_long":106.82482,"i_lat":-6.149769,"time":2,"is_transit":false,"line":2,"station_name":"Manggabesar","transit":false},{"i_lat":-6.160725,"time":2,"station_name":"Sawah Besar","distance":906,"station_id":"SW","transit":false,"is_transit":false,"line":2,"i_long":106.827103},{"i_long":106.828284,"line":2,"time":2,"distance":1149,"station_id":"JUA","i_lat":-6.166716,"station_name":"Juanda","transit":false,"is_transit":false},{"distance":2015,"line":2,"i_long":106.832183,"station_id":"GDD","transit":false,"i_lat":-6.186295,"time":4,"is_transit":false,"station_name":"Gondangdia"},{"transit":false,"distance":1750,"i_long":106.840169,"i_lat":-6.198556,"is_transit":false,"station_id":"CKI","line":2,"time":3,"station_name":"Cikini"},{"time":4,"line":2,"i_lat":-6.209883,"station_name":"Manggarai","i_long":106.84912,"distance":1590,"transit":false,"station_id":"MRI","is_transit":false},{"station_id":"TEB","is_transit":false,"transit":false,"station_name":"Tebet","line":2,"distance":2610,"i_lat":-6.226659,"time":4,"i_long":106.857948},{"distance":1230,"i_long":106.856607,"is_transit":false,"station_name":"Cawang","transit":false,"i_lat":-6.242512,"station_id":"CW","line":2,"time":2}],[{"station_name":"Kampung Bandan","i_long":106.826365,"distance":0,"station_id":"KPB","i_lat":-6.132549,"is_transit":false,"time":0,"transit":false,"line":4},{"station_id":"RJW","line":11,"station_name":"Rajawali","i_long":106.836569,"transit":false,"distance":1444,"time":3,"i_lat":-6.14505,"is_transit":false},{"i_long":106.839204,"i_lat":-6.161728,"transit":false,"distance":1901,"station_id":"KMO","station_name":"Kemayoran","time":5,"is_transit":false,"line":11},{"station_name":"Pasar Senen","station_id":"PSE","i_long":106.84368,"distance":1436,"transit":false,"time":4,"is_transit":false,"i_lat":-6.174784,"line":11},{"station_name":"Gang Sentiong","time":8,"is_transit":false,"transit":false,"line":11,"i_long":106.850107,"station_id":"GST","distance":1567,"i_lat":-6.185975},{"distance":973,"i_lat":-6.193792,"station_id":"KMT","is_transit":false,"line":11,"i_long":106.855437,"transit":false,"station_name":"Kramat","time":1},{"transit":false,"station_id":"POK","station_name":"Pondok Jati","distance":1829,"is_transit":false,"i_lat":-6.209188,"time":2,"i_long":106.861737,"line":11},{"station_id":"JNG","i_lat":-6.215091,"transit":true,"station_name":"Jatinegara","distance":1236,"time":9,"is_transit":true,"i_long":106.86807400000001,"line":1},{"distance":1377,"i_lat":-6.212485,"station_name":"Matraman","station_id":"MTR","time":2,"i_long":106.858896,"is_transit":false,"line":1,"transit":false},{"line":2,"transit":true,"time":2,"station_id":"MRI","i_lat":-6.209883,"station_name":"Manggarai","is_transit":true,"distance":1275,"i_long":106.84912},{"station_name":"Tebet","station_id":"TEB","transit":false,"distance":2610,"is_transit":false,"i_long":106.857948,"line":2,"time":4,"i_lat":-6.226659},{"i_long":106.856607,"line":2,"transit":false,"station_id":"CW","distance":1230,"time":2,"station_name":"Cawang","i_lat":-6.242512,"is_transit":false}]]}