{"data":[[{"i_long":106.826365,"is_transit":false,"distance":0,"time":0,"transit":false,"station_name":"Kampung Bandan","station_id":"KPB","line":4,"i_lat":-6.132549},{"is_transit":false,"i_lat":-6.144674,"distance":4102,"i_long":106.79867,"line":1,"station_id":"AK","transit":false,"station_name":"Angke","time":9},{"transit":true,"time":4,"station_id":"DU","i_long":106.800832,"line":1,"i_lat":-6.155215,"station_name":"Duri","is_transit":true,"distance":1230},{"distance":1700,"station_id":"GGL","line":5,"transit":false,"station_name":"Grogol","time":3,"i_lat":-6.162021,"is_transit":false,"i_long":106.788277},{"transit":false,"i_long":106.771379,"time":2,"distance":2036,"is_transit":false,"i_lat":-6.161433,"line":5,"station_name":"Pesing","station_id":"PSG"},{"is_transit":false,"i_lat":-6.1587309999999995,"time":2,"distance":1614,"line":5,"station_name":"Taman Kota","i_long":106.756522,"station_id":"TKO","transit":false},{"line":5,"distance":2334,"i_long":106.737035,"time":2,"station_id":"BOI","station_name":"Bojongindah","is_transit":false,"transit":false,"i_lat":-6.159876},{"i_long":106.723064,"time":4,"i_lat":-6.162758,"station_id":"RW","distance":1152,"transit":false,"is_transit":false,"line":5,"station_name":"Rawa Buaya"},{"station_name":"Kalideres","i_lat":-6.166068,"line":5,"distance":2504,"transit":false,"station_id":"KDS","time":3,"is_transit":false,"i_long":106.701612},{"line":5,"station_name":"Poris","distance":2548,"is_transit":false,"station_id":"PI","i_lat":-6.169933,"time":3,"i_long":106.679458,"transit":false},{"distance":1834,"station_id":"BPR","is_transit":false,"i_lat":-6.171811,"i_long":106.665036,"transit":false,"station_name":"Batuceper","line":5,"time":3},{"time":3,"transit":false,"line":5,"station_name":"Tanah Tinggi","station_id":"TTI","is_transit":false,"i_lat":-6.17331,"distance":2028,"i_long":106.64657},{"line":5,"is_transit":false,"transit":false,"station_id":"TNG","i_lat":-6.176583,"station_name":"Tangerang","i_long":106.632761,"distance":1547,"time":3}],[{"i_lat":-6.132549,"is_transit":false,"transit":false,"time":0,"station_name":"Kampung Bandan","i_long":106.826365,"station_id":"KPB","line":4,"distance":0},{"i_lat":-6.137569,"transit":true,"station_id":"JAKK","distance":1364,"i_long":106.812439,"time":3,"is_transit":true,"line":2,"station_name":"Jakarta Kota"},{"station_id":"JAY","distance":1264,"i_lat":-6.141205,"time":4,"is_transit":false,"line":2,"station_name":"Jayakarta","i_long":106.820901,"transit":false},{"is_transit":false,"transit":false,"station_name":"Manggabesar","line":2,"i_long":106.82482,"distance":1080,"time":2,"i_lat":-6.149769,"station_id":"MGB"},{"distance":906,"station_name":"Sawah Besar","i_lat":-6.160725,"i_long":106.827103,"station_id":"SW","is_transit":false,"transit":false,"line":2,"time":2},{"distance":1149,"transit":false,"is_transit":false,"line":2,"station_name":"Juanda","i_long":106.828284,"time":2,"station_id":"JUA","i_lat":-6.166716},{"line":2,"time":4,"is_transit":false,"i_long":106.832183,"distance":2015,"transit":false,"i_lat":-6.186295,"station_id":"GDD","station_name":"Gondangdia"},{"i_lat":-6.198556,"line":2,"time":3,"station_id":"CKI","is_transit":false,"station_name":"Cikini","i_long":106.840169,"distance":1750,"transit":false},{"distance":1590,"i_lat":-6.209883,"time":4,"station_name":"Manggarai","transit":true,"is_transit":true,"i_long":106.84912,"line":2,"station_id":"MRI"},{"i_lat":-6.202263,"station_name":"Sudirman","time":4,"distance":3186,"station_id":"SUD","transit":false,"is_transit":false,"line":1,"i_long":106.822649},{"line":1,"station_name":"Sudirman Baru","i_lat":-6.201433,"time":1,"distance":280,"transit":false,"is_transit":false,"station_id":"SUDB","i_long":106.819881},{"i_long":106.816351,"line":1,"transit":false,"distance":471,"i_lat":-6.20132,"time":1,"station_id":"KAT","is_transit":false,"station_name":"Karet"},{"station_id":"THB","station_name":"Tanah Abang","transit":false,"is_transit":false,"time":5,"i_lat":-6.185545,"distance":2029,"line":1,"i_long":106.811091},{"transit":true,"time":8,"distance":3632,"i_lat":-6.155215,"line":1,"i_long":106.800832,"is_transit":true,"station_name":"Duri","station_id":"DU"},{"station_name":"Grogol","is_transit":false,"i_long":106.788277,"line":5,"i_lat":-6.162021,"distance":1700,"time":3,"station_id":"GGL","transit":false},{"distance":2036,"i_long":106.771379,"station_name":"Pesing","transit":false,"station_id":"PSG","is_transit":false,"time":2,"i_lat":-6.161433,"line":5},{"is_transit":false,"i_lat":-6.1587309999999995,"time":2,"i_long":106.756522,"distance":1614,"station_id":"TKO","line":5,"transit":false,"station_name":"Taman Kota"},{"is_transit":false,"i_lat":-6.159876,"time":2,"line":5,"station_id":"BOI","distance":2334,"transit":false,"station_name":"Bojongindah","i_long":106.737035},{"transit":false,"is_transit":false,"i_lat":-6.162758,"time":4,"station_name":"Rawa Buaya","distance":1152,"i_long":106.723064,"line":5,"station_id":"RW"},{"transit":false,"i_lat":-6.166068,"station_name":"Kalideres","distance":2504,"is_transit":false,"time":3,"line":5,"station_id":"KDS","i_long":106.701612},{"station_name":"Poris","transit":false,"station_id":"PI","time":3,"line":5,"is_transit":false,"distance":2548,"i_lat":-6.169933,"i_long":106.679458},{"i_lat":-6.171811,"i_long":106.665036,"line":5,"transit":false,"station_name":"Batuceper","time":3,"distance":1834,"station_id":"BPR","is_transit":false},{"station_name":"Tanah Tinggi","station_id":"TTI","time":3,"i_long":106.64657,"is_transit":false,"distance":2028,"transit":false,"line":5,"i_lat":-6.17331},{"transit":false,"station_id":"TNG","is_transit":false,"i_lat":-6.176583,"line":5,"station_name":"Tangerang","i_long":106.632761,"time":3,"distance":1547}],[{"i_long":106.826365,"is_transit":false,"distance":0,"line":4,"station_name":"Kampung Bandan","time":0,"transit":false,"i_lat":-6.132549,"station_id":"KPB"},{"i_long":106.836569,"station_name":"Rajawali","is_transit":false,"line":11,"transit":false,"time":3,"distance":1444,"i_lat":-6.14505,"station_id":"RJW"},{"distance":1901,"i_lat":-6.161728,"is_transit":false,"station_id":"KMO","time":5,"transit":false,"station_name":"Kemayoran","line":11,"i_long":106.839204},{"is_transit":false,"i_lat":-6.174784,"line":11,"station_id":"PSE","i_long":106.84368,"time":4,"distance":1436,"transit":false,"station_name":"Pasar Senen"},{"line":11,"station_name":"Gang Sentiong","transit":false,"i_lat":-6.185975,"is_transit":false,"distance":1567,"station_id":"GST","time":8,"i_long":106.850107},{"time":1,"is_transit":false,"i_lat":-6.193792,"distance":973,"station_id":"KMT","transit":false,"station_name":"Kramat","i_long":106.855437,"line":11},{"is_transit":false,"transit":false,"station_name":"Pondok Jati","i_long":106.861737,"distance":1829,"time":2,"line":11,"station_id":"POK","i_lat":-6.209188},{"line":1,"time":9,"station_id":"JNG","is_transit":true,"transit":true,"i_lat":-6.215091,"distance":1236,"i_long":106.86807400000001,"station_name":"Jatinegara"},{"is_transit":false,"i_lat":-6.212485,"transit":false,"station_id":"MTR","station_name":"Matraman","i_long":106.858896,"line":1,"time":2,"distance":1377},{"time":2,"transit":false,"i_lat":-6.209883,"is_transit":false,"line":2,"i_long":106.84912,"distance":1275,"station_id":"MRI","station_name":"Manggarai"},{"transit":false,"line":1,"time":4,"station_name":"Sudirman","distance":3186,"is_transit":false,"i_lat":-6.202263,"station_id":"SUD","i_long":106.822649},{"station_name":"Sudirman Baru","is_transit":false,"transit":false,"i_long":106.819881,"line":1,"distance":280,"time":1,"station_id":"SUDB","i_lat":-6.201433},{"time":1,"distance":471,"station_id":"KAT","station_name":"Karet","line":1,"is_transit":false,"i_lat":-6.20132,"transit":false,"i_long":106.816351},{"line":1,"time":5,"i_lat":-6.185545,"distance":2029,"station_name":"Tanah Abang","station_id":"THB","is_transit":false,"transit":false,"i_long":106.811091},{"line":1,"i_lat":-6.155215,"station_id":"DU","i_long":106.800832,"transit":true,"station_name":"Duri","distance":3632,"time":8,"is_transit":true},{"station_id":"GGL","is_transit":false,"i_long":106.788277,"transit":false,"line":5,"i_lat":-6.162021,"distance":1700,"station_name":"Grogol","time":3},{"time":2,"i_long":106.771379,"line":5,"station_name":"Pesing","is_transit":false,"station_id":"PSG","i_lat":-6.161433,"distance":2036,"transit":false},{"time":2,"i_lat":-6.1587309999999995,"line":5,"i_long":106.756522,"is_transit":false,"transit":false,"distance":1614,"station_id":"TKO","station_name":"Taman Kota"},{"transit":false,"time":2,"line":5,"i_long":106.737035,"station_id":"BOI","i_lat":-6.159876,"distance":2334,"is_transit":false,"station_name":"Bojongindah"},{"i_lat":-6.162758,"distance":1152,"station_name":"Rawa Buaya","station_id":"RW","i_long":106.723064,"is_transit":false,"transit":false,"line":5,"time":4},{"line":5,"station_name":"Kalideres","distance":2504,"i_lat":-6.166068,"i_long":106.701612,"is_transit":false,"time":3,"station_id":"KDS","transit":false},{"line":5,"distance":2548,"time":3,"transit":false,"station_name":"Poris","station_id":"PI","is_transit":false,"i_lat":-6.169933,"i_long":106.679458},{"i_lat":-6.171811,"station_name":"Batuceper","i_long":106.665036,"time":3,"is_transit":false,"line":5,"distance":1834,"transit":false,"station_id":"BPR"},{"i_long":106.64657,"is_transit":false,"station_id":"TTI","time":3,"transit":false,"distance":2028,"line":5,"i_lat":-6.17331,"station_name":"Tanah Tinggi"},{"time":3,"i_long":106.632761,"is_transit":false,"transit":false,"station_id":"TNG","i_lat":-6.176583,"station_name":"Tangerang","distance":1547,"line":5}]]}