{"data":[[{"i_lat":-6.132549,"distance":0,"station_id":"KPB","is_transit":false,"line":4,"transit":false,"station_name":"Kampung Bandan","i_long":106.826365,"time":0},{"time":3,"is_transit":false,"transit":false,"line":11,"distance":1444,"station_name":"Rajawali","station_id":"RJW","i_long":106.836569,"i_lat":-6.14505},{"distance":1901,"station_name":"Kemayoran","is_transit":false,"time":5,"station_id":"KMO","i_lat":-6.161728,"transit":false,"line":11,"i_long":106.839204},{"station_id":"PSE","i_lat":-6.174784,"i_long":106.84368,"is_transit":false,"line":11,"station_name":"Pasar Senen","time":4,"transit":false,"distance":1436},{"time":8,"distance":1567,"station_name":"Gang Sentiong","i_lat":-6.185975,"line":11,"station_id":"GST","i_long":106.850107,"is_transit":false,"transit":false},{"line":11,"i_lat":-6.193792,"distance":973,"i_long":106.855437,"transit":false,"station_id":"KMT","station_name":"Kramat","is_transit":false,"time":1},{"station_name":"Pondok Jati","transit":false,"i_lat":-6.209188,"station_id":"POK","is_transit":false,"line":11,"distance":1829,"i_long":106.861737,"time":2},{"is_transit":true,"line":1,"distance":1236,"transit":true,"station_id":"JNG","station_name":"Jatinegara","i_long":106.86807400000001,"time":9,"i_lat":-6.215091},{"station_name":"Klender","distance":3395,"is_transit":false,"transit":false,"i_long":106.899548,"time":3,"i_lat":-6.2135,"station_id":"KLD","line":1},{"transit":false,"station_name":"Buaran","distance":3100,"time":2,"station_id":"BUA","line":1,"i_lat":-6.215568,"is_transit":false,"i_long":106.922662},{"line":1,"transit":false,"is_transit":false,"time":1,"station_name":"Klenderbaru","i_lat":-6.217455,"i_long":106.939679,"distance":1305,"station_id":"KLDB"},{"distance":1385,"station_id":"CUK","i_lat":-6.219053,"line":1,"station_name":"Cakung","i_long":106.951283,"transit":false,"time":8,"is_transit":false},{"distance":3097,"transit":false,"line":1,"i_lat":-6.224515,"is_transit":false,"station_name":"Kranji","station_id":"KRI","i_long":106.977657,"time":3},{"time":4,"line":1,"distance":2520,"is_transit":false,"transit":false,"i_lat":-6.236616,"i_long":106.997013,"station_id":"BKS","station_name":"Bekasi"},{"is_transit":false,"i_long":107.016735,"distance":2368,"line":1,"station_id":"BKST","station_name":"Bekasi Timur","i_lat":-6.248029,"time":2,"transit":false},{"distance":4460,"station_id":"TB","time":7,"station_name":"Tambun","i_long":107.055722,"i_lat":-6.258864,"line":1,"is_transit":false,"transit":false},{"time":3,"station_id":"CIT","transit":false,"line":1,"i_long":107.083084,"i_lat":-6.261877,"distance":3420,"station_name":"Cibitung","is_transit":false},{"time":2,"distance":2800,"line":1,"transit":false,"i_lat":-6.262938,"is_transit":false,"station_name":"Metland Telaga Murni","i_long":107.093313,"station_id":"TLM"},{"station_name":"Cikarang","time":4,"transit":false,"i_long":107.144613,"i_lat":-6.2553149999999995,"line":1,"is_transit":false,"station_id":"CKR","distance":3689}],[{"station_id":"KPB","distance":0,"transit":false,"line":4,"i_long":106.826365,"time":0,"i_lat":-6.132549,"is_transit":false,"station_name":"Kampung Bandan"},{"distance":4102,"is_transit":false,"transit":false,"i_lat":-6.144674,"i_long":106.79867,"line":1,"station_id":"AK","station_name":"Angke","time":9},{"line":1,"distance":1230,"station_id":"DU","transit":false,"station_name":"Duri","time":4,"is_transit":false,"i_long":106.800832,"i_lat":-6.155215},{"i_lat":-6.185545,"is_transit":false,"i_long":106.811091,"station_name":"Tanah Abang","time":8,"distance":3632,"line":1,"station_id":"THB","transit":false},{"time":5,"transit":false,"line":1,"station_id":"KAT","is_transit":false,"i_long":106.816351,"station_name":"Karet","i_lat":-6.20132,"distance":2029},{"distance":471,"station_id":"SUDB","line":1,"time":1,"is_transit":false,"i_lat":-6.201433,"i_long":106.819881,"station_name":"Sudirman Baru","transit":false},{"is_transit":false,"distance":280,"transit":false,"station_name":"Sudirman","i_lat":-6.202263,"time":1,"station_id":"SUD","i_long":106.822649,"line":1},{"time":4,"line":2,"i_long":106.84912,"i_lat":-6.209883,"station_name":"Manggarai","is_transit":false,"transit":false,"station_id":"MRI","distance":3186},{"distance":1275,"station_id":"MTR","i_long":106.858896,"station_name":"Matraman","time":2,"i_lat":-6.212485,"is_transit":false,"transit":false,"line":1},{"station_id":"JNG","distance":1377,"is_transit":false,"transit":false,"time":8,"i_long":106.86807400000001,"line":1,"i_lat":-6.215091,"station_name":"Jatinegara"},{"station_name":"Klender","i_long":106.899548,"is_transit":false,"time":3,"station_id":"KLD","i_lat":-6.2135,"distance":3395,"line":1,"transit":false},{"distance":3100,"station_name":"Buaran","station_id":"BUA","i_lat":-6.215568,"transit":false,"is_transit":false,"i_long":106.922662,"line":1,"time":2},{"station_name":"Klenderbaru","i_long":106.939679,"transit":false,"i_lat":-6.217455,"distance":1305,"station_id":"KLDB","line":1,"time":1,"is_transit":false},{"transit":false,"is_transit":false,"station_name":"Cakung","i_lat":-6.219053,"line":1,"time":8,"station_id":"CUK","distance":1385,"i_long":106.951283},{"i_long":106.977657,"line":1,"station_name":"Kranji","i_lat":-6.224515,"transit":false,"time":3,"distance":3097,"is_transit":false,"station_id":"KRI"},{"time":4,"distance":2520,"is_transit":false,"station_name":"Bekasi","i_lat":-6.236616,"station_id":"BKS","i_long":106.997013,"line":1,"transit":false},{"distance":2368,"time":2,"is_transit":false,"station_id":"BKST","i_lat":-6.248029,"transit":false,"station_name":"Bekasi Timur","i_long":107.016735,"line":1},{"i_long":107.055722,"station_name":"Tambun","time":7,"transit":false,"line":1,"station_id":"TB","distance":4460,"is_transit":false,"i_lat":-6.258864},{"transit":false,"i_long":107.083084,"distance":3420,"i_lat":-6.261877,"line":1,"time":3,"is_transit":false,"station_name":"Cibitung","station_id":"CIT"},{"station_id":"TLM","line":1,"distance":2800,"i_lat":-6.262938,"time":2,"transit":false,"i_long":107.093313,"is_transit":false,"station_name":"Metland Telaga Murni"},{"i_long":107.144613,"distance":3689,"is_transit":false,"station_id":"CKR","line":1,"i_lat":-6.2553149999999995,"station_name":"Cikarang","time":4,"transit":false}],[{"time":0,"distance":0,"is_transit":false,"transit":false,"station_name":"Kampung Bandan","i_long":106.826365,"station_id":"KPB","line":4,"i_lat":-6.132549},{"time":3,"station_name":"Jakarta Kota","station_id":"JAKK","i_lat":-6.137569,"is_transit":true,"transit":true,"line":2,"distance":1364,"i_long":106.812439},{"i_lat":-6.141205,"line":2,"is_transit":false,"station_name":"Jayakarta","transit":false,"distance":1264,"time":4,"station_id":"JAY","i_long":106.820901},{"station_name":"Manggabesar","transit":false,"i_lat":-6.149769,"line":2,"i_long":106.82482,"is_transit":false,"station_id":"MGB","distance":1080,"time":2},{"i_long":106.827103,"line":2,"station_id":"SW","i_lat":-6.160725,"time":2,"transit":false,"is_transit":false,"station_name":"Sawah Besar","distance":906},{"station_name":"Juanda","time":2,"station_id":"JUA","is_transit":false,"transit":false,"i_long":106.828284,"distance":1149,"line":2,"i_lat":-6.166716},{"distance":2015,"transit":false,"i_lat":-6.186295,"time":4,"station_name":"Gondangdia","is_transit":false,"station_id":"GDD","line":2,"i_long":106.832183},{"i_lat":-6.198556,"distance":1750,"station_name":"Cikini","station_id":"CKI","is_transit":false,"transit":false,"line":2,"i_long":106.840169,"time":3},{"distance":1590,"transit":true,"time":4,"station_id":"MRI","i_lat":-6.209883,"i_long":106.84912,"is_transit":true,"line":2,"station_name":"Manggarai"},{"i_lat":-6.212485,"transit":false,"station_name":"Matraman","distance":1275,"line":1,"i_long":106.858896,"time":2,"station_id":"MTR","is_transit":false},{"i_lat":-6.215091,"is_transit":false,"i_long":106.86807400000001,"line":1,"time":8,"station_id":"JNG","distance":1377,"station_name":"Jatinegara","transit":false},{"is_transit":false,"transit":false,"station_name":"Klender","i_lat":-6.2135,"i_long":106.899548,"distance":3395,"time":3,"station_id":"KLD","line":1},{"distance":3100,"i_lat":-6.215568,"i_long":106.922662,"station_id":"BUA","line":1,"is_transit":false,"station_name":"Buaran","transit":false,"time":2},{"station_name":"Klenderbaru","i_lat":-6.217455,"time":1,"is_transit":false,"transit":false,"distance":1305,"line":1,"i_long":106.939679,"station_id":"KLDB"},{"station_id":"CUK","time":8,"station_name":"Cakung","distance":1385,"is_transit":false,"i_lat":-6.219053,"transit":false,"i_long":106.951283,"line":1},{"i_lat":-6.224515,"is_transit":false,"station_name":"Kranji","i_long":106.977657,"distance":3097,"line":1,"transit":false,"time":3,"station_id":"KRI"},{"line":1,"station_id":"BKS","time":4,"is_transit":false,"transit":false,"i_lat":-6.236616,"distance":2520,"station_name":"Bekasi","i_long":106.997013},{"distance":2368,"time":2,"is_transit":false,"i_long":107.016735,"i_lat":-6.248029,"line":1,"transit":false,"station_id":"BKST","station_name":"Bekasi Timur"},{"time":7,"station_id":"TB","distance":4460,"station_name":"Tambun","is_transit":false,"i_long":107.055722,"line":1,"i_lat":-6.258864,"transit":false},{"line":1,"time":3,"station_name":"Cibitung","station_id":"CIT","distance":3420,"is_transit":false,"transit":false,"i_lat":-6.261877,"i_long":107.083084},{"i_long":107.093313,"distance":2800,"transit":false,"i_lat":-6.262938,"line":1,"station_name":"Metland Telaga Murni","time":2,"station_id":"TLM","is_transit":false},{"time":4,"i_lat":-6.2553149999999995,"station_name":"Cikarang","is_transit":false,"transit":false,"line":1,"i_long":107.144613,"distance":3689,"station_id":"CKR"}]]}