{"data":[[{"distance":0,"line":4,"time":0,"station_name":"Kampung Bandan","station_id":"KPB","transit":false,"i_long":106.826365,"i_lat":-6.132549,"is_transit":false},{"station_id":"AK","transit":false,"i_lat":-6.144674,"line":1,"distance":4102,"is_transit":false,"time":9,"i_long":106.79867,"station_name":"Angke"},{"is_transit":false,"i_lat":-6.155215,"distance":1230,"time":4,"station_name":"Duri","i_long":106.800832,"transit":false,"line":1,"station_id":"DU"},{"time":8,"transit":false,"is_transit":false,"station_name":"Tanah Abang","i_lat":-6.185545,"station_id":"THB","distance":3632,"i_long":106.811091,"line":1},{"i_long":106.816351,"i_lat":-6.20132,"station_id":"KAT","line":1,"distance":2029,"station_name":"Karet","transit":false,"time":5,"is_transit":false},{"station_id":"SUDB","i_long":106.819881,"distance":471,"station_name":"Sudirman Baru","line":1,"transit":false,"i_lat":-6.201433,"is_transit":false,"time":1},{"line":1,"time":1,"i_lat":-6.202263,"transit":false,"station_id":"SUD","i_long":106.822649,"is_transit":false,"distance":280,"station_name":"Sudirman"},{"station_id":"MRI","station_name":"Manggarai","line":2,"transit":true,"time":4,"is_transit":true,"i_long":106.84912,"i_lat":-6.209883,"distance":3186},{"transit":false,"distance":2610,"time":4,"station_name":"Tebet","station_id":"TEB","line":2,"is_transit":false,"i_lat":-6.226659,"i_long":106.857948},{"is_transit":false,"i_lat":-6.242512,"distance":1230,"line":2,"station_id":"CW","transit":false,"station_name":"Cawang","time":2,"i_long":106.856607}],[{"i_long":106.826365,"station_id":"KPB","transit":false,"distance":0,"station_name":"Kampung Bandan","time":0,"is_transit":false,"line":4,"i_lat":-6.132549},{"i_long":106.812439,"is_transit":true,"station_id":"JAKK","distance":1364,"time":3,"transit":true,"i_lat":-6.137569,"station_name":"Jakarta Kota","line":2},{"i_lat":-6.141205,"station_id":"JAY","station_name":"Jayakarta","transit":false,"is_transit":false,"i_long":106.820901,"line":2,"time":4,"distance":1264},{"is_transit":false,"i_lat":-6.149769,"i_long":106.82482,"time":2,"station_id":"MGB","distance":1080,"transit":false,"line":2,"station_name":"Manggabesar"},{"time":2,"transit":false,"station_id":"SW","is_transit":false,"i_long":106.827103,"station_name":"Sawah Besar","distance":906,"line":2,"i_lat":-6.160725},{"is_transit":false,"i_long":106.828284,"line":2,"station_name":"Juanda","transit":false,"distance":1149,"time":2,"i_lat":-6.166716,"station_id":"JUA"},{"station_id":"GDD","transit":false,"is_transit":false,"time":4,"station_name":"Gondangdia","i_long":106.832183,"distance":2015,"line":2,"i_lat":-6.186295},{"distance":1750,"i_long":106.840169,"time":3,"station_name":"Cikini","i_lat":-6.198556,"line":2,"transit":false,"is_transit":false,"station_id":"CKI"},{"is_transit":false,"distance":1590,"line":2,"transit":false,"i_long":106.84912,"station_name":"Manggarai","time":4,"station_id":"MRI","i_lat":-6.209883},{"i_lat":-6.226659,"i_long":106.857948,"station_name":"Tebet","station_id":"TEB","is_transit":false,"line":2,"distance":2610,"transit":false,"time":4},{"time":2,"i_long":106.856607,"is_transit":false,"line":2,"station_name":"Cawang","distance":1230,"i_lat":-6.242512,"station_id":"CW","transit":false}],[{"i_lat":-6.132549,"distance":0,"transit":false,"time":0,"i_long":106.826365,"is_transit":false,"station_name":"Kampung Bandan","line":4,"station_id":"KPB"},{"i_lat":-6.14505,"i_long":106.836569,"line":11,"time":3,"transit":false,"station_id":"RJW","distance":1444,"is_transit":false,"station_name":"Rajawali"},{"station_name":"Kemayoran","i_long":106.839204,"line":11,"is_transit":false,"i_lat":-6.161728,"time":5,"station_id":"KMO","distance":1901,"transit":false},{"transit":false,"station_id":"PSE","station_name":"Pasar Senen","distance":1436,"is_transit":false,"time":4,"i_lat":-6.174784,"i_long":106.84368,"line":11},{"time":8,"i_lat":-6.185975,"distance":1567,"is_transit":false,"station_id":"GST","station_name":"Gang Sentiong","i_long":106.850107,"line":11,"transit":false},{"transit":false,"station_name":"Kramat","is_transit":false,"line":11,"i_lat":-6.193792,"station_id":"KMT","i_long":106.855437,"distance":973,"time":1},{"i_long":106.861737,"transit":false,"distance":1829,"is_transit":false,"i_lat":-6.209188,"time":2,"station_id":"POK","line":11,"station_name":"Pondok Jati"},{"transit":true,"distance":1236,"line":1,"station_id":"JNG","is_transit":true,"station_name":"Jatinegara","time":9,"i_lat":-6.215091,"i_long":106.86807400000001},{"station_id":"MTR","line":1,"station_name":"Matraman","i_lat":-6.212485,"transit":false,"distance":1377,"i_long":106.858896,"time":2,"is_transit":false},{"station_name":"Manggarai","line":2,"is_transit":true,"i_long":106.84912,"transit":true,"station_id":"MRI","distance":1275,"time":2,"i_lat":-6.209883},{"i_lat":-6.226659,"i_long":106.857948,"time":4,"station_id":"TEB","distance":2610,"line":2,"is_transit":false,"transit":false,"station_name":"Tebet"},{"line":2,"station_name":"Cawang","station_id":"CW","is_transit":false,"distance":1230,"time":2,"i_long":106.856607,"i_lat":-6.242512,"transit":false}]]}