{"data":[[{"station_id":"KPB","distance":0,"transit":false,"i_lat":-6.132549,"station_name":"Kampung Bandan","is_transit":false,"i_long":106.826365,"line":4,"time":0},{"line":1,"time":9,"i_long":106.79867,"transit":false,"station_name":"Angke","is_transit":false,"station_id":"AK","i_lat":-6.144674,"distance":4102},{"line":1,"transit":false,"station_id":"DU","station_name":"Duri","time":4,"is_transit":false,"i_long":106.800832,"i_lat":-6.155215,"distance":1230},{"transit":false,"line":1,"i_long":106.811091,"station_id":"THB","time":8,"station_name":"Tanah Abang","i_lat":-6.185545,"is_transit":false,"distance":3632},{"station_name":"Karet","distance":2029,"i_lat":-6.20132,"i_long":106.816351,"line":1,"transit":false,"time":5,"is_transit":false,"station_id":"KAT"},{"transit":false,"i_lat":-6.201433,"is_transit":false,"station_id":"SUDB","station_name":"Sudirman Baru","i_long":106.819881,"line":1,"time":1,"distance":471},{"station_id":"SUD","is_transit":false,"time":1,"distance":280,"transit":false,"i_lat":-6.202263,"i_long":106.822649,"line":1,"station_name":"Sudirman"}],[{"line":4,"distance":0,"time":0,"station_name":"Kampung Bandan","transit":false,"is_transit":false,"i_long":106.826365,"station_id":"KPB","i_lat":-6.132549},{"station_id":"JAKK","i_long":106.812439,"i_lat":-6.137569,"station_name":"Jakarta Kota","time":3,"distance":1364,"line":2,"is_transit":true,"transit":true},{"is_transit":false,"i_lat":-6.141205,"line":2,"distance":1264,"station_name":"Jayakarta","transit":false,"i_long":106.820901,"station_id":"JAY","time":4},{"i_lat":-6.149769,"station_id":"MGB","is_transit":false,"i_long":106.82482,"line":2,"transit":false,"station_name":"Manggabesar","time":2,"distance":1080},{"transit":false,"is_transit":false,"distance":906,"i_lat":-6.160725,"time":2,"i_long":106.827103,"station_name":"Sawah Besar","station_id":"SW","line":2},{"i_long":106.828284,"is_transit":false,"line":2,"i_lat":-6.166716,"distance":1149,"transit":false,"station_name":"Juanda","time":2,"station_id":"JUA"},{"is_transit":false,"station_id":"GDD","transit":false,"distance":2015,"time":4,"i_lat":-6.186295,"station_name":"Gondangdia","i_long":106.832183,"line":2},{"line":2,"station_name":"Cikini","i_lat":-6.198556,"time":3,"station_id":"CKI","is_transit":false,"transit":false,"i_long":106.840169,"distance":1750},{"distance":1590,"i_long":106.84912,"time":4,"transit":true,"i_lat":-6.209883,"is_transit":true,"station_id":"MRI","line":2,"station_name":"Manggarai"},{"i_long":106.822649,"distance":3186,"line":1,"station_id":"SUD","transit":false,"time":4,"is_transit":false,"station_name":"Sudirman","i_lat":-6.202263}],[{"i_lat":-6.132549,"station_name":"Kampung Bandan","station_id":"KPB","time":0,"is_transit":false,"transit":false,"distance":0,"i_long":106.826365,"line":4},{"time":3,"distance":1444,"is_transit":false,"line":11,"i_lat":-6.14505,"transit":false,"station_name":"Rajawali","i_long":106.836569,"station_id":"RJW"},{"line":11,"station_name":"Kemayoran","is_transit":false,"time":5,"station_id":"KMO","distance":1901,"transit":false,"i_lat":-6.161728,"i_long":106.839204},{"time":4,"distance":1436,"is_transit":false,"transit":false,"i_long":106.84368,"station_name":"Pasar Senen","station_id":"PSE","i_lat":-6.174784,"line":11},{"station_id":"GST","is_transit":false,"transit":false,"line":11,"i_lat":-6.185975,"i_long":106.850107,"distance":1567,"time":8,"station_name":"Gang Sentiong"},{"transit":false,"time":1,"i_lat":-6.193792,"line":11,"station_id":"KMT","distance":973,"i_long":106.855437,"is_transit":false,"station_name":"Kramat"},{"time":2,"station_name":"Pondok Jati","i_lat":-6.209188,"station_id":"POK","distance":1829,"transit":false,"line":11,"is_transit":false,"i_long":106.861737},{"station_id":"JNG","station_name":"Jatinegara","i_long":106.86807400000001,"is_transit":true,"transit":true,"distance":1236,"time":9,"line":1,"i_lat":-6.215091},{"line":1,"i_lat":-6.212485,"station_name":"Matraman","distance":1377,"time":2,"transit":false,"i_long":106.858896,"station_id":"MTR","is_transit":false},{"time":2,"is_transit":false,"station_id":"MRI","transit":false,"line":2,"i_long":106.84912,"station_name":"Manggarai","i_lat":-6.209883,"distance":1275},{"time":4,"station_name":"Sudirman","is_transit":false,"station_id":"SUD","i_lat":-6.202263,"line":1,"transit":false,"distance":3186,"i_long":106.822649}]]}