{"data":[[{"distance":0,"line":4,"time":0,"transit":false,"station_id":"KPB","station_name":"Kampung Bandan","is_transit":false,"i_lat":-6.132549,"i_long":106.826365},{"station_id":"AK","station_name":"Angke","line":1,"is_transit":false,"i_long":106.79867,"time":9,"transit":false,"distance":4102,"i_lat":-6.144674},{"is_transit":false,"transit":false,"line":1,"i_long":106.800832,"station_id":"DU","station_name":"Duri","time":4,"distance":1230,"i_lat":-6.155215},{"station_id":"THB","station_name":"Tanah Abang","is_transit":false,"i_lat":-6.185545,"i_long":106.811091,"transit":false,"time":8,"distance":3632,"line":1},{"is_transit":false,"station_id":"KAT","line":1,"time":5,"distance":2029,"i_long":106.816351,"transit":false,"i_lat":-6.20132,"station_name":"Karet"},{"is_transit":false,"distance":471,"i_lat":-6.201433,"line":1,"time":1,"station_name":"Sudirman Baru","i_long":106.819881,"station_id":"SUDB","transit":false},{"station_id":"SUD","line":1,"is_transit":false,"time":1,"station_name":"Sudirman","i_long":106.822649,"i_lat":-6.202263,"distance":280,"transit":false},{"station_name":"Manggarai","time":4,"distance":3186,"line":2,"station_id":"MRI","transit":true,"is_transit":true,"i_lat":-6.209883,"i_long":106.84912},{"transit":false,"station_name":"Tebet","line":2,"time":4,"i_lat":-6.226659,"distance":2610,"station_id":"TEB","is_transit":false,"i_long":106.857948},{"distance":1230,"i_lat":-6.242512,"is_transit":false,"station_id":"CW","transit":false,"i_long":106.856607,"time":2,"line":2,"station_name":"Cawang"},{"i_long":106.85449,"transit":false,"is_transit":false,"station_name":"Duren Kalibata","i_lat":-6.255332,"station_id":"DRN","time":3,"distance":1546,"line":2},{"i_long":106.851577,"time":2,"station_name":"Pasar Minggu Baru","distance":824,"line":2,"transit":false,"is_transit":false,"i_lat":-6.263214,"station_id":"PSMB"},{"distance":2380,"is_transit":false,"transit":false,"time":2,"i_lat":-6.2842400000000005,"i_long":106.843999,"line":2,"station_name":"Pasar Minggu","station_id":"PSM"},{"i_lat":-6.3080680000000005,"transit":false,"station_id":"TNT","i_long":106.838896,"distance":2820,"is_transit":false,"station_name":"Tanjung Barat","line":2,"time":4},{"time":3,"transit":false,"station_name":"Lenteng Agung","i_long":106.832616,"line":2,"i_lat":-6.330363,"station_id":"LNA","distance":2671,"is_transit":false},{"time":2,"distance":1029,"line":2,"station_id":"UP","station_name":"Univ. Pancasila","transit":false,"i_lat":-6.339291,"is_transit":false,"i_long":106.834175},{"station_name":"Univ. Indonesia","is_transit":false,"i_long":106.831474,"time":3,"distance":2264,"i_lat":-6.360749,"transit":false,"line":2,"station_id":"UI"},{"distance":1109,"station_name":"Pondok Cina","i_lat":-6.369073,"transit":false,"station_id":"POC","is_transit":false,"line":2,"i_long":106.831114,"time":2}],[{"time":0,"station_name":"Kampung Bandan","is_transit":false,"transit":false,"station_id":"KPB","distance":0,"i_long":106.826365,"line":4,"i_lat":-6.132549},{"is_transit":true,"time":3,"distance":1364,"transit":true,"station_name":"Jakarta Kota","line":2,"i_long":106.812439,"i_lat":-6.137569,"station_id":"JAKK"},{"station_id":"JAY","line":2,"transit":false,"i_lat":-6.141205,"i_long":106.820901,"station_name":"Jayakarta","is_transit":false,"time":4,"distance":1264},{"station_name":"Manggabesar","station_id":"MGB","transit":false,"i_long":106.82482,"i_lat":-6.149769,"line":2,"time":2,"distance":1080,"is_transit":false},{"is_transit":false,"time":2,"station_name":"Sawah Besar","station_id":"SW","i_long":106.827103,"distance":906,"i_lat":-6.160725,"line":2,"transit":false},{"distance":1149,"time":2,"line":2,"i_long":106.828284,"transit":false,"is_transit":false,"i_lat":-6.166716,"station_name":"Juanda","station_id":"JUA"},{"i_long":106.832183,"time":4,"i_lat":-6.186295,"is_transit":false,"transit":false,"distance":2015,"line":2,"station_name":"Gondangdia","station_id":"GDD"},{"station_name":"Cikini","i_long":106.840169,"is_transit":false,"transit":false,"i_lat":-6.198556,"line":2,"station_id":"CKI","time":3,"distance":1750},{"line":2,"station_name":"Manggarai","distance":1590,"station_id":"MRI","i_long":106.84912,"time":4,"transit":false,"is_transit":false,"i_lat":-6.209883},{"station_id":"TEB","time":4,"transit":false,"distance":2610,"i_long":106.857948,"station_name":"Tebet","i_lat":-6.226659,"line":2,"is_transit":false},{"i_long":106.856607,"distance":1230,"station_id":"CW","transit":false,"line":2,"time":2,"is_transit":false,"i_lat":-6.242512,"station_name":"Cawang"},{"is_transit":false,"station_id":"DRN","i_lat":-6.255332,"distance":1546,"line":2,"time":3,"transit":false,"i_long":106.85449,"station_name":"Duren Kalibata"},{"transit":false,"is_transit":false,"i_lat":-6.263214,"station_id":"PSMB","i_long":106.851577,"time":2,"distance":824,"line":2,"station_name":"Pasar Minggu Baru"},{"i_lat":-6.2842400000000005,"station_id":"PSM","time":2,"station_name":"Pasar Minggu","distance":2380,"line":2,"i_long":106.843999,"transit":false,"is_transit":false},{"is_transit":false,"station_id":"TNT","station_name":"Tanjung Barat","distance":2820,"i_lat":-6.3080680000000005,"i_long":106.838896,"line":2,"time":4,"transit":false},{"line":2,"station_name":"Lenteng Agung","is_transit":false,"station_id":"LNA","i_lat":-6.330363,"distance":2671,"i_long":106.832616,"time":3,"transit":false},{"i_long":106.834175,"i_lat":-6.339291,"is_transit":false,"station_id":"UP","transit":false,"line":2,"station_name":"Univ. Pancasila","distance":1029,"time":2},{"i_long":106.831474,"station_id":"UI","time":3,"distance":2264,"line":2,"is_transit":false,"transit":false,"i_lat":-6.360749,"station_name":"Univ. Indonesia"},{"i_long":106.831114,"i_lat":-6.369073,"distance":1109,"time":2,"station_name":"Pondok Cina","line":2,"station_id":"POC","transit":false,"is_transit":false}],[{"station_name":"Kampung Bandan","distance":0,"station_id":"KPB","i_long":106.826365,"time":0,"is_transit":false,"transit":false,"i_lat":-6.132549,"line":4},{"line":11,"is_transit":false,"time":3,"station_name":"Rajawali","transit":false,"i_long":106.836569,"distance":1444,"i_lat":-6.14505,"station_id":"RJW"},{"transit":false,"i_long":106.839204,"station_id":"KMO","is_transit":false,"distance":1901,"i_lat":-6.161728,"line":11,"station_name":"Kemayoran","time":5},{"transit":false,"i_lat":-6.174784,"i_long":106.84368,"line":11,"time":4,"station_id":"PSE","station_name":"Pasar Senen","distance":1436,"is_transit":false},{"transit":false,"line":11,"distance":1567,"station_name":"Gang Sentiong","i_lat":-6.185975,"is_transit":false,"i_long":106.850107,"time":8,"station_id":"GST"},{"station_name":"Kramat","station_id":"KMT","time":1,"distance":973,"is_transit":false,"transit":false,"i_lat":-6.193792,"i_long":106.855437,"line":11},{"is_transit":false,"distance":1829,"i_long":106.861737,"i_lat":-6.209188,"line":11,"station_name":"Pondok Jati","transit":false,"time":2,"station_id":"POK"},{"station_name":"Jatinegara","line":1,"distance":1236,"station_id":"JNG","time":9,"is_transit":true,"i_lat":-6.215091,"i_long":106.86807400000001,"transit":true},{"station_id":"MTR","time":2,"station_name":"Matraman","distance":1377,"transit":false,"i_lat":-6.212485,"i_long":106.858896,"line":1,"is_transit":false},{"time":2,"line":2,"distance":1275,"transit":true,"station_id":"MRI","i_long":106.84912,"station_name":"Manggarai","is_transit":true,"i_lat":-6.209883},{"is_transit":false,"transit":false,"i_lat":-6.226659,"i_long":106.857948,"time":4,"line":2,"station_name":"Tebet","station_id":"TEB","distance":2610},{"station_name":"Cawang","station_id":"CW","transit":false,"distance":1230,"is_transit":false,"i_lat":-6.242512,"line":2,"i_long":106.856607,"time":2},{"i_lat":-6.255332,"station_name":"Duren Kalibata","i_long":106.85449,"station_id":"DRN","distance":1546,"line":2,"transit":false,"is_transit":false,"time":3},{"station_name":"Pasar Minggu Baru","is_transit":false,"line":2,"distance":824,"time":2,"station_id":"PSMB","i_lat":-6.263214,"i_long":106.851577,"transit":false},{"time":2,"station_id":"PSM","line":2,"i_lat":-6.2842400000000005,"i_long":106.843999,"distance":2380,"is_transit":false,"transit":false,"station_name":"Pasar Minggu"},{"transit":false,"distance":2820,"is_transit":false,"i_lat":-6.3080680000000005,"i_long":106.838896,"station_id":"TNT","station_name":"Tanjung Barat","line":2,"time":4},{"distance":2671,"station_name":"Lenteng Agung","transit":false,"is_transit":false,"i_long":106.832616,"station_id":"LNA","time":3,"i_lat":-6.330363,"line":2},{"station_name":"Univ. Pancasila","time":2,"is_transit":false,"line":2,"station_id":"UP","distance":1029,"transit":false,"i_lat":-6.339291,"i_long":106.834175},{"time":3,"distance":2264,"station_name":"Univ. Indonesia","line":2,"transit":false,"station_id":"UI","i_long":106.831474,"is_transit":false,"i_lat":-6.360749},{"i_lat":-6.369073,"transit":false,"station_name":"Pondok Cina","station_id":"POC","distance":1109,"is_transit":false,"time":2,"line":2,"i_long":106.831114}]]}