{"data":[[{"line":4,"i_lat":-6.132549,"is_transit":false,"transit":false,"station_name":"Kampung Bandan","distance":0,"station_id":"KPB","time":0,"i_long":106.826365},{"station_name":"Angke","is_transit":false,"distance":4102,"line":1,"transit":false,"i_lat":-6.144674,"i_long":106.79867,"station_id":"AK","time":9},{"transit":true,"distance":1230,"is_transit":true,"station_name":"Duri","time":4,"station_id":"DU","i_lat":-6.155215,"i_long":106.800832,"line":1},{"station_id":"GGL","i_long":106.788277,"station_name":"Grogol","distance":1700,"time":3,"line":5,"is_transit":false,"i_lat":-6.162021,"transit":false},{"i_long":106.771379,"is_transit":false,"transit":false,"distance":2036,"time":2,"i_lat":-6.161433,"line":5,"station_name":"Pesing","station_id":"PSG"},{"station_name":"Taman Kota","line":5,"is_transit":false,"transit":false,"station_id":"TKO","i_lat":-6.1587309999999995,"i_long":106.756522,"time":2,"distance":1614},{"time":2,"is_transit":false,"i_lat":-6.159876,"transit":false,"distance":2334,"station_id":"BOI","station_name":"Bojongindah","i_long":106.737035,"line":5},{"transit":false,"i_long":106.723064,"line":5,"distance":1152,"time":4,"station_id":"RW","station_name":"Rawa Buaya","is_transit":false,"i_lat":-6.162758},{"i_lat":-6.166068,"transit":false,"station_id":"KDS","i_long":106.701612,"distance":2504,"time":3,"station_name":"Kalideres","line":5,"is_transit":false},{"station_id":"PI","i_lat":-6.169933,"i_long":106.679458,"line":5,"transit":false,"is_transit":false,"station_name":"Poris","time":3,"distance":2548},{"line":5,"time":3,"station_id":"BPR","is_transit":false,"i_lat":-6.171811,"distance":1834,"i_long":106.665036,"station_name":"Batuceper","transit":false},{"is_transit":false,"transit":false,"distance":2028,"station_name":"Tanah Tinggi","station_id":"TTI","i_lat":-6.17331,"i_long":106.64657,"time":3,"line":5},{"station_name":"Tangerang","time":3,"station_id":"TNG","is_transit":false,"i_lat":-6.176583,"i_long":106.632761,"line":5,"transit":false,"distance":1547}],[{"station_name":"Kampung Bandan","i_lat":-6.132549,"time":0,"i_long":106.826365,"is_transit":false,"transit":false,"distance":0,"line":4,"station_id":"KPB"},{"i_lat":-6.137569,"station_id":"JAKK","transit":true,"i_long":106.812439,"line":2,"distance":1364,"is_transit":true,"time":3,"station_name":"Jakarta Kota"},{"i_long":106.820901,"distance":1264,"station_id":"JAY","transit":false,"i_lat":-6.141205,"is_transit":false,"station_name":"Jayakarta","line":2,"time":4},{"time":2,"i_long":106.82482,"station_id":"MGB","transit":false,"is_transit":false,"distance":1080,"station_name":"Manggabesar","i_lat":-6.149769,"line":2},{"i_long":106.827103,"station_name":"Sawah Besar","i_lat":-6.160725,"is_transit":false,"station_id":"SW","distance":906,"transit":false,"line":2,"time":2},{"transit":false,"i_long":106.828284,"is_transit":false,"line":2,"station_id":"JUA","station_name":"Juanda","time":2,"i_lat":-6.166716,"distance":1149},{"time":4,"distance":2015,"i_long":106.832183,"station_id":"GDD","station_name":"Gondangdia","i_lat":-6.186295,"transit":false,"line":2,"is_transit":false},{"line":2,"station_name":"Cikini","i_long":106.840169,"time":3,"transit":false,"is_transit":false,"i_lat":-6.198556,"station_id":"CKI","distance":1750},{"i_lat":-6.209883,"is_transit":true,"i_long":106.84912,"time":4,"transit":true,"station_id":"MRI","station_name":"Manggarai","distance":1590,"line":2},{"station_id":"SUD","is_transit":false,"i_long":106.822649,"line":1,"transit":false,"distance":3186,"i_lat":-6.202263,"station_name":"Sudirman","time":4},{"line":1,"time":1,"i_long":106.819881,"i_lat":-6.201433,"station_id":"SUDB","station_name":"Sudirman Baru","is_transit":false,"distance":280,"transit":false},{"i_long":106.816351,"station_id":"KAT","i_lat":-6.20132,"station_name":"Karet","distance":471,"transit":false,"is_transit":false,"line":1,"time":1},{"i_lat":-6.185545,"station_name":"Tanah Abang","i_long":106.811091,"line":1,"time":5,"transit":false,"station_id":"THB","is_transit":false,"distance":2029},{"is_transit":true,"line":1,"station_name":"Duri","distance":3632,"i_lat":-6.155215,"station_id":"DU","time":8,"i_long":106.800832,"transit":true},{"is_transit":false,"distance":1700,"time":3,"transit":false,"line":5,"station_id":"GGL","i_lat":-6.162021,"i_long":106.788277,"station_name":"Grogol"},{"line":5,"distance":2036,"is_transit":false,"i_lat":-6.161433,"i_long":106.771379,"station_name":"Pesing","transit":false,"station_id":"PSG","time":2},{"transit":false,"line":5,"i_long":106.756522,"distance":1614,"time":2,"station_id":"TKO","station_name":"Taman Kota","i_lat":-6.1587309999999995,"is_transit":false},{"distance":2334,"is_transit":false,"station_id":"BOI","time":2,"i_lat":-6.159876,"line":5,"transit":false,"station_name":"Bojongindah","i_long":106.737035},{"is_transit":false,"time":4,"transit":false,"station_id":"RW","i_long":106.723064,"i_lat":-6.162758,"distance":1152,"station_name":"Rawa Buaya","line":5},{"distance":2504,"i_long":106.701612,"line":5,"i_lat":-6.166068,"station_id":"KDS","is_transit":false,"time":3,"station_name":"Kalideres","transit":false},{"station_name":"Poris","station_id":"PI","transit":false,"distance":2548,"time":3,"is_transit":false,"i_lat":-6.169933,"i_long":106.679458,"line":5},{"is_transit":false,"line":5,"distance":1834,"time":3,"transit":false,"station_name":"Batuceper","station_id":"BPR","i_lat":-6.171811,"i_long":106.665036},{"line":5,"station_name":"Tanah Tinggi","is_transit":false,"distance":2028,"transit":false,"station_id":"TTI","i_lat":-6.17331,"i_long":106.64657,"time":3},{"station_name":"Tangerang","transit":false,"distance":1547,"i_long":106.632761,"station_id":"TNG","is_transit":false,"time":3,"i_lat":-6.176583,"line":5}],[{"i_long":106.826365,"distance":0,"is_transit":false,"transit":false,"line":4,"i_lat":-6.132549,"station_id":"KPB","time":0,"station_name":"Kampung Bandan"},{"transit":false,"i_lat":-6.14505,"i_long":106.836569,"distance":1444,"is_transit":false,"time":3,"station_id":"RJW","station_name":"Rajawali","line":11},{"distance":1901,"transit":false,"line":11,"time":5,"i_lat":-6.161728,"station_name":"Kemayoran","is_transit":false,"i_long":106.839204,"station_id":"KMO"},{"station_id":"PSE","transit":false,"is_transit":false,"distance":1436,"station_name":"Pasar Senen","i_lat":-6.174784,"i_long":106.84368,"line":11,"time":4},{"time":8,"i_long":106.850107,"line":11,"station_id":"GST","transit":false,"is_transit":false,"station_name":"Gang Sentiong","i_lat":-6.185975,"distance":1567},{"time":1,"line":11,"distance":973,"station_id":"KMT","transit":false,"i_lat":-6.193792,"station_name":"Kramat","is_transit":false,"i_long":106.855437},{"i_long":106.861737,"station_id":"POK","is_transit":false,"distance":1829,"station_name":"Pondok Jati","time":2,"i_lat":-6.209188,"transit":false,"line":11},{"line":1,"station_name":"Jatinegara","i_long":106.86807400000001,"is_transit":true,"distance":1236,"transit":true,"i_lat":-6.215091,"station_id":"JNG","time":9},{"station_id":"MTR","line":1,"i_long":106.858896,"is_transit":false,"distance":1377,"station_name":"Matraman","time":2,"transit":false,"i_lat":-6.212485},{"distance":1275,"station_name":"Manggarai","time":2,"transit":false,"is_transit":false,"i_long":106.84912,"line":2,"i_lat":-6.209883,"station_id":"MRI"},{"station_id":"SUD","is_transit":false,"station_name":"Sudirman","time":4,"line":1,"i_lat":-6.202263,"transit":false,"distance":3186,"i_long":106.822649},{"i_long":106.819881,"distance":280,"line":1,"is_transit":false,"station_name":"Sudirman Baru","transit":false,"time":1,"station_id":"SUDB","i_lat":-6.201433},{"distance":471,"transit":false,"station_id":"KAT","station_name":"Karet","is_transit":false,"line":1,"i_long":106.816351,"time":1,"i_lat":-6.20132},{"is_transit":false,"station_name":"Tanah Abang","transit":false,"i_lat":-6.185545,"time":5,"distance":2029,"i_long":106.811091,"station_id":"THB","line":1},{"line":1,"station_name":"Duri","time":8,"station_id":"DU","transit":true,"i_lat":-6.155215,"i_long":106.800832,"distance":3632,"is_transit":true},{"time":3,"station_name":"Grogol","distance":1700,"transit":false,"line":5,"station_id":"GGL","i_lat":-6.162021,"is_transit":false,"i_long":106.788277},{"distance":2036,"i_lat":-6.161433,"transit":false,"time":2,"is_transit":false,"line":5,"i_long":106.771379,"station_name":"Pesing","station_id":"PSG"},{"station_id":"TKO","time":2,"i_long":106.756522,"line":5,"transit":false,"i_lat":-6.1587309999999995,"is_transit":false,"distance":1614,"station_name":"Taman Kota"},{"station_name":"Bojongindah","is_transit":false,"line":5,"time":2,"transit":false,"i_lat":-6.159876,"station_id":"BOI","distance":2334,"i_long":106.737035},{"time":4,"i_lat":-6.162758,"station_name":"Rawa Buaya","line":5,"transit":false,"distance":1152,"i_long":106.723064,"station_id":"RW","is_transit":false},{"transit":false,"time":3,"distance":2504,"line":5,"station_id":"KDS","is_transit":false,"station_name":"Kalideres","i_long":106.701612,"i_lat":-6.166068},{"i_lat":-6.169933,"station_id":"PI","distance":2548,"station_name":"Poris","i_long":106.679458,"is_transit":false,"transit":false,"line":5,"time":3},{"distance":1834,"station_name":"Batuceper","line":5,"is_transit":false,"station_id":"BPR","time":3,"i_lat":-6.171811,"i_long":106.665036,"transit":false},{"line":5,"distance":2028,"is_transit":false,"i_long":106.64657,"time":3,"transit":false,"i_lat":-6.17331,"station_id":"TTI","station_name":"Tanah Tinggi"},{"time":3,"i_lat":-6.176583,"i_long":106.632761,"distance":1547,"line":5,"station_id":"TNG","transit":false,"station_name":"Tangerang","is_transit":false}]]}