{"data":[[{"i_long":106.826365,"i_lat":-6.132549,"station_name":"Kampung Bandan","distance":0,"is_transit":false,"line":4,"transit":false,"time":0,"station_id":"KPB"},{"distance":1444,"station_name":"Rajawali","i_lat":-6.14505,"time":3,"i_long":106.836569,"station_id":"RJW","is_transit":false,"transit":false,"line":11},{"transit":false,"station_id":"KMO","time":5,"is_transit":false,"distance":1901,"i_long":106.839204,"station_name":"Kemayoran","line":11,"i_lat":-6.161728}],[{"distance":0,"station_name":"Kampung Bandan","time":0,"transit":false,"i_long":106.826365,"i_lat":-6.132549,"station_id":"KPB","line":4,"is_transit":false},{"distance":4102,"i_lat":-6.144674,"transit":false,"i_long":106.79867,"station_name":"Angke","is_transit":false,"time":9,"station_id":"AK","line":1},{"station_id":"DU","i_long":106.800832,"is_transit":false,"line":1,"transit":false,"distance":1230,"time":4,"i_lat":-6.155215,"station_name":"Duri"},{"station_id":"THB","transit":false,"time":8,"distance":3632,"line":1,"i_lat":-6.185545,"is_transit":false,"station_name":"Tanah Abang","i_long":106.811091},{"i_lat":-6.20132,"station_id":"KAT","station_name":"Karet","transit":false,"distance":2029,"i_long":106.816351,"time":5,"line":1,"is_transit":false},{"station_name":"Sudirman Baru","is_transit":false,"station_id":"SUDB","i_long":106.819881,"time":1,"i_lat":-6.201433,"transit":false,"line":1,"distance":471},{"station_id":"SUD","i_lat":-6.202263,"line":1,"time":1,"i_long":106.822649,"transit":false,"station_name":"Sudirman","is_transit":false,"distance":280},{"station_id":"MRI","i_lat":-6.209883,"station_name":"Manggarai","time":4,"distance":3186,"i_long":106.84912,"line":2,"transit":false,"is_transit":false},{"time":2,"distance":1275,"line":1,"transit":false,"is_transit":false,"i_lat":-6.212485,"i_long":106.858896,"station_id":"MTR","station_name":"Matraman"},{"time":8,"i_lat":-6.215091,"i_long":106.86807400000001,"distance":1377,"line":1,"station_id":"JNG","is_transit":true,"station_name":"Jatinegara","transit":true},{"i_long":106.861737,"distance":1236,"station_name":"Pondok Jati","time":2,"is_transit":false,"station_id":"POK","line":11,"i_lat":-6.209188,"transit":false},{"distance":1829,"i_long":106.855437,"transit":false,"station_name":"Kramat","time":2,"station_id":"KMT","line":11,"i_lat":-6.193792,"is_transit":false},{"i_long":106.850107,"line":11,"station_name":"Gang Sentiong","station_id":"GST","is_transit":false,"transit":false,"time":1,"distance":973,"i_lat":-6.185975},{"line":11,"time":8,"i_long":106.84368,"i_lat":-6.174784,"transit":false,"is_transit":false,"station_id":"PSE","station_name":"Pasar Senen","distance":1567},{"is_transit":false,"station_name":"Kemayoran","i_long":106.839204,"line":11,"time":4,"transit":false,"station_id":"KMO","i_lat":-6.161728,"distance":1436}],[{"station_name":"Kampung Bandan","is_transit":false,"distance":0,"station_id":"KPB","i_lat":-6.132549,"line":4,"time":0,"i_long":106.826365,"transit":false},{"is_transit":true,"station_id":"JAKK","line":2,"station_name":"Jakarta Kota","transit":true,"time":3,"i_long":106.812439,"distance":1364,"i_lat":-6.137569},{"distance":1264,"time":4,"is_transit":false,"i_long":106.820901,"i_lat":-6.141205,"line":2,"transit":false,"station_name":"Jayakarta","station_id":"JAY"},{"distance":1080,"i_lat":-6.149769,"i_long":106.82482,"line":2,"is_transit":false,"station_id":"MGB","station_name":"Manggabesar","time":2,"transit":false},{"transit":false,"is_transit":false,"station_name":"Sawah Besar","time":2,"distance":906,"station_id":"SW","i_lat":-6.160725,"line":2,"i_long":106.827103},{"line":2,"i_long":106.828284,"station_name":"Juanda","time":2,"transit":false,"is_transit":false,"distance":1149,"station_id":"JUA","i_lat":-6.166716},{"station_id":"GDD","transit":false,"i_long":106.832183,"is_transit":false,"i_lat":-6.186295,"time":4,"line":2,"distance":2015,"station_name":"Gondangdia"},{"time":3,"station_id":"CKI","distance":1750,"i_long":106.840169,"i_lat":-6.198556,"line":2,"transit":false,"station_name":"Cikini","is_transit":false},{"i_long":106.84912,"station_name":"Manggarai","distance":1590,"is_transit":true,"time":4,"station_id":"MRI","i_lat":-6.209883,"line":2,"transit":true},{"distance":1275,"time":2,"station_id":"MTR","is_transit":false,"station_name":"Matraman","transit":false,"line":1,"i_lat":-6.212485,"i_long":106.858896},{"time":8,"i_long":106.86807400000001,"distance":1377,"station_name":"Jatinegara","station_id":"JNG","is_transit":true,"transit":true,"line":1,"i_lat":-6.215091},{"time":2,"is_transit":false,"distance":1236,"i_long":106.861737,"transit":false,"station_name":"Pondok Jati","i_lat":-6.209188,"station_id":"POK","line":11},{"is_transit":false,"time":2,"station_name":"Kramat","distance":1829,"i_long":106.855437,"i_lat":-6.193792,"station_id":"KMT","line":11,"transit":false},{"distance":973,"transit":false,"is_transit":false,"station_id":"GST","i_lat":-6.185975,"i_long":106.850107,"station_name":"Gang Sentiong","time":1,"line":11},{"station_name":"Pasar Senen","is_transit":false,"distance":1567,"station_id":"PSE","i_long":106.84368,"time":8,"line":11,"transit":false,"i_lat":-6.174784},{"line":11,"time":4,"i_long":106.839204,"distance":1436,"station_id":"KMO","is_transit":false,"station_name":"Kemayoran","transit":false,"i_lat":-6.161728}]]}