{"data":[[{"i_long":106.826365,"is_transit":false,"station_name":"Kampung Bandan","station_id":"KPB","line":4,"transit":false,"time":0,"distance":0,"i_lat":-6.132549},{"station_name":"Angke","time":9,"i_long":106.79867,"i_lat":-6.144674,"is_transit":false,"distance":4102,"transit":false,"line":1,"station_id":"AK"},{"is_transit":false,"station_id":"DU","distance":1230,"i_lat":-6.155215,"transit":false,"time":4,"i_long":106.800832,"station_name":"Duri","line":1},{"line":1,"station_name":"Tanah Abang","transit":false,"distance":3632,"is_transit":false,"time":8,"i_lat":-6.185545,"i_long":106.811091,"station_id":"THB"},{"distance":2029,"station_name":"Karet","station_id":"KAT","i_lat":-6.20132,"i_long":106.816351,"transit":false,"line":1,"is_transit":false,"time":5},{"station_id":"SUDB","time":1,"line":1,"transit":false,"station_name":"Sudirman Baru","distance":471,"i_lat":-6.201433,"i_long":106.819881,"is_transit":false},{"time":1,"distance":280,"i_lat":-6.202263,"transit":false,"i_long":106.822649,"station_id":"SUD","line":1,"station_name":"Sudirman","is_transit":false},{"line":2,"is_transit":true,"time":4,"i_lat":-6.209883,"station_name":"Manggarai","i_long":106.84912,"transit":true,"distance":3186,"station_id":"MRI"},{"station_name":"Tebet","i_lat":-6.226659,"i_long":106.857948,"distance":2610,"is_transit":false,"transit":false,"station_id":"TEB","time":4,"line":2},{"station_name":"Cawang","transit":false,"distance":1230,"i_lat":-6.242512,"i_long":106.856607,"line":2,"time":2,"station_id":"CW","is_transit":false},{"station_name":"Duren Kalibata","is_transit":false,"distance":1546,"i_lat":-6.255332,"i_long":106.85449,"station_id":"DRN","transit":false,"time":3,"line":2},{"transit":false,"station_name":"Pasar Minggu Baru","time":2,"station_id":"PSMB","line":2,"is_transit":false,"distance":824,"i_lat":-6.263214,"i_long":106.851577},{"transit":false,"i_lat":-6.2842400000000005,"station_name":"Pasar Minggu","station_id":"PSM","line":2,"distance":2380,"time":2,"i_long":106.843999,"is_transit":false},{"transit":false,"time":4,"station_id":"TNT","is_transit":false,"i_lat":-6.3080680000000005,"distance":2820,"i_long":106.838896,"line":2,"station_name":"Tanjung Barat"},{"is_transit":false,"station_id":"LNA","distance":2671,"i_long":106.832616,"line":2,"transit":false,"station_name":"Lenteng Agung","time":3,"i_lat":-6.330363},{"station_name":"Univ. Pancasila","time":2,"distance":1029,"line":2,"transit":false,"station_id":"UP","is_transit":false,"i_long":106.834175,"i_lat":-6.339291},{"line":2,"distance":2264,"i_lat":-6.360749,"transit":false,"i_long":106.831474,"is_transit":false,"station_name":"Univ. Indonesia","time":3,"station_id":"UI"},{"i_lat":-6.369073,"station_name":"Pondok Cina","station_id":"POC","time":2,"line":2,"is_transit":false,"distance":1109,"transit":false,"i_long":106.831114}],[{"i_lat":-6.132549,"transit":false,"is_transit":false,"i_long":106.826365,"distance":0,"station_id":"KPB","station_name":"Kampung Bandan","time":0,"line":4},{"transit":true,"line":2,"station_id":"JAKK","station_name":"Jakarta Kota","distance":1364,"is_transit":true,"i_lat":-6.137569,"i_long":106.812439,"time":3},{"i_lat":-6.141205,"i_long":106.820901,"distance":1264,"station_id":"JAY","transit":false,"station_name":"Jayakarta","line":2,"is_transit":false,"time":4},{"is_transit":false,"time":2,"i_long":106.82482,"line":2,"station_name":"Manggabesar","transit":false,"i_lat":-6.149769,"distance":1080,"station_id":"MGB"},{"transit":false,"is_transit":false,"station_id":"SW","time":2,"i_lat":-6.160725,"station_name":"Sawah Besar","i_long":106.827103,"line":2,"distance":906},{"i_lat":-6.166716,"is_transit":false,"station_id":"JUA","distance":1149,"i_long":106.828284,"station_name":"Juanda","time":2,"line":2,"transit":false},{"is_transit":false,"line":2,"time":4,"transit":false,"i_long":106.832183,"station_name":"Gondangdia","station_id":"GDD","i_lat":-6.186295,"distance":2015},{"station_id":"CKI","is_transit":false,"line":2,"distance":1750,"time":3,"i_lat":-6.198556,"station_name":"Cikini","transit":false,"i_long":106.840169},{"time":4,"transit":false,"i_long":106.84912,"i_lat":-6.209883,"is_transit":false,"distance":1590,"station_name":"Manggarai","station_id":"MRI","line":2},{"line":2,"is_transit":false,"i_lat":-6.226659,"station_id":"TEB","time":4,"transit":false,"distance":2610,"station_name":"Tebet","i_long":106.857948},{"i_long":106.856607,"i_lat":-6.242512,"transit":false,"line":2,"station_name":"Cawang","is_transit":false,"distance":1230,"time":2,"station_id":"CW"},{"i_lat":-6.255332,"station_name":"Duren Kalibata","station_id":"DRN","transit":false,"time":3,"distance":1546,"is_transit":false,"i_long":106.85449,"line":2},{"time":2,"transit":false,"station_id":"PSMB","i_long":106.851577,"i_lat":-6.263214,"line":2,"station_name":"Pasar Minggu Baru","is_transit":false,"distance":824},{"distance":2380,"i_long":106.843999,"i_lat":-6.2842400000000005,"line":2,"station_name":"Pasar Minggu","is_transit":false,"time":2,"transit":false,"station_id":"PSM"},{"distance":2820,"i_long":106.838896,"line":2,"station_name":"Tanjung Barat","transit":false,"i_lat":-6.3080680000000005,"time":4,"station_id":"TNT","is_transit":false},{"line":2,"i_long":106.832616,"transit":false,"time":3,"i_lat":-6.330363,"is_transit":false,"station_name":"Lenteng Agung","station_id":"LNA","distance":2671},{"distance":1029,"line":2,"station_name":"Univ. Pancasila","is_transit":false,"time":2,"transit":false,"station_id":"UP","i_long":106.834175,"i_lat":-6.339291},{"line":2,"station_name":"Univ. Indonesia","transit":false,"time":3,"distance":2264,"station_id":"UI","is_transit":false,"i_long":106.831474,"i_lat":-6.360749},{"distance":1109,"time":2,"i_lat":-6.369073,"transit":false,"is_transit":false,"station_id":"POC","i_long":106.831114,"line":2,"station_name":"Pondok Cina"}],[{"line":4,"i_long":106.826365,"distance":0,"time":0,"station_id":"KPB","is_transit":false,"transit":false,"i_lat":-6.132549,"station_name":"Kampung Bandan"},{"station_name":"Rajawali","time":3,"i_lat":-6.14505,"i_long":106.836569,"station_id":"RJW","distance":1444,"is_transit":false,"line":11,"transit":false},{"line":11,"station_id":"KMO","is_transit":false,"time":5,"station_name":"Kemayoran","distance":1901,"transit":false,"i_lat":-6.161728,"i_long":106.839204},{"station_id":"PSE","time":4,"distance":1436,"line":11,"station_name":"Pasar Senen","i_lat":-6.174784,"i_long":106.84368,"transit":false,"is_transit":false},{"line":11,"i_lat":-6.185975,"distance":1567,"transit":false,"i_long":106.850107,"time":8,"is_transit":false,"station_name":"Gang Sentiong","station_id":"GST"},{"i_lat":-6.193792,"i_long":106.855437,"transit":false,"line":11,"is_transit":false,"station_name":"Kramat","station_id":"KMT","time":1,"distance":973},{"transit":false,"time":2,"i_lat":-6.209188,"line":11,"station_name":"Pondok Jati","is_transit":false,"distance":1829,"i_long":106.861737,"station_id":"POK"},{"distance":1236,"i_long":106.86807400000001,"time":9,"station_name":"Jatinegara","is_transit":true,"i_lat":-6.215091,"line":1,"transit":true,"station_id":"JNG"},{"transit":false,"time":2,"i_lat":-6.212485,"is_transit":false,"distance":1377,"i_long":106.858896,"line":1,"station_name":"Matraman","station_id":"MTR"},{"transit":true,"station_name":"Manggarai","time":2,"i_long":106.84912,"is_transit":true,"i_lat":-6.209883,"line":2,"distance":1275,"station_id":"MRI"},{"station_name":"Tebet","transit":false,"is_transit":false,"distance":2610,"i_lat":-6.226659,"i_long":106.857948,"line":2,"time":4,"station_id":"TEB"},{"transit":false,"i_lat":-6.242512,"is_transit":false,"i_long":106.856607,"station_name":"Cawang","distance":1230,"time":2,"station_id":"CW","line":2},{"transit":false,"station_name":"Duren Kalibata","time":3,"i_long":106.85449,"station_id":"DRN","is_transit":false,"distance":1546,"line":2,"i_lat":-6.255332},{"time":2,"distance":824,"i_lat":-6.263214,"i_long":106.851577,"station_id":"PSMB","line":2,"is_transit":false,"transit":false,"station_name":"Pasar Minggu Baru"},{"time":2,"transit":false,"distance":2380,"station_id":"PSM","station_name":"Pasar Minggu","line":2,"is_transit":false,"i_lat":-6.2842400000000005,"i_long":106.843999},{"transit":false,"distance":2820,"station_id":"TNT","station_name":"Tanjung Barat","line":2,"is_transit":false,"time":4,"i_lat":-6.3080680000000005,"i_long":106.838896},{"i_long":106.832616,"i_lat":-6.330363,"station_name":"Lenteng Agung","transit":false,"station_id":"LNA","time":3,"distance":2671,"line":2,"is_transit":false},{"i_lat":-6.339291,"is_transit":false,"time":2,"i_long":106.834175,"station_name":"Univ. Pancasila","station_id":"UP","line":2,"transit":false,"distance":1029},{"station_id":"UI","distance":2264,"i_lat":-6.360749,"transit":false,"i_long":106.831474,"line":2,"time":3,"is_transit":false,"station_name":"Univ. Indonesia"},{"station_name":"Pondok Cina","line":2,"is_transit":false,"i_long":106.831114,"distance":1109,"transit":false,"time":2,"i_lat":-6.369073,"station_id":"POC"}]]}