{"data":[[{"station_name":"Kampung Bandan","station_id":"KPB","is_transit":true,"i_lat":-6.132549,"time":0,"distance":0,"transit":false,"i_long":106.826365,"line":0},{"station_name":"Angke","i_long":106.79867,"transit":false,"line":0,"station_id":"AK","distance":4102,"is_transit":false,"time":9,"i_lat":-6.144674},{"i_long":106.800832,"line":1,"distance":1230,"station_name":"Duri","is_transit":true,"station_id":"DU","transit":true,"i_lat":-6.155215,"time":4},{"i_long":106.811091,"line":1,"is_transit":true,"time":8,"distance":3632,"station_id":"THB","i_lat":-6.185545,"transit":true,"station_name":"Tanah Abang"},{"transit":false,"i_long":106.79689,"station_id":"PLM","line":6,"station_name":"Palmerah","is_transit":false,"time":6,"i_lat":-6.207404,"distance":3191},{"station_name":"Kebayoran","transit":false,"is_transit":false,"time":7,"i_lat":-6.237242,"station_id":"KBY","i_long":106.780334,"line":6,"distance":3737},{"station_id":"PDJ","is_transit":false,"time":8,"i_long":106.74273,"station_name":"Pondokranji","transit":false,"distance":6218,"i_lat":-6.276362,"line":6},{"station_name":"Jurangmangu","station_id":"JMU","distance":2179,"line":6,"is_transit":false,"i_long":106.728916,"i_lat":-6.288927,"time":3,"transit":false},{"i_long":106.712277,"is_transit":false,"station_name":"Sudimara","transit":false,"station_id":"SDM","distance":1994,"i_lat":-6.296963,"line":6,"time":4},{"i_long":106.675475,"is_transit":false,"distance":4566,"station_name":"Rawa Buntu","time":6,"i_lat":-6.314823,"line":6,"station_id":"RU","transit":false},{"is_transit":false,"station_id":"SRP","distance":2413,"line":6,"i_lat":-6.319871,"time":4,"transit":false,"i_long":106.66566,"station_name":"Serpong"},{"i_lat":-6.32484,"line":0,"time":4,"station_id":"CSK","is_transit":false,"distance":1784,"i_long":106.640411,"transit":false,"station_name":"Cisauk"},{"station_id":"CC","distance":2519,"is_transit":false,"transit":false,"i_long":106.617853,"i_lat":-6.329547,"time":4,"line":0,"station_name":"Cicayur"},{"distance":5968,"time":8,"i_lat":-6.3441410000000005,"station_id":"PRP","i_long":106.568863,"station_name":"Parung Panjang","transit":false,"line":6,"is_transit":false},{"is_transit":false,"i_lat":-6.354349,"distance":7025,"line":0,"transit":false,"station_id":"CJT","i_long":106.508482,"time":9,"station_name":"Cilejit"},{"station_id":"DAR","i_long":106.491338,"time":6,"is_transit":false,"distance":2675,"transit":false,"i_lat":-6.338021,"station_name":"Daru","line":0},{"distance":3902,"transit":false,"i_long":106.460812,"line":6,"time":5,"station_id":"TEJ","is_transit":false,"station_name":"Tenjo","i_lat":-6.327251},{"station_name":"Tigaraksa","distance":2974,"is_transit":false,"i_long":106.425991,"station_id":"TGS","time":5,"line":6,"i_lat":-6.328533,"transit":false},{"i_lat":-6.33561,"station_id":"CKY","is_transit":false,"line":0,"station_name":"Cikoya","distance":2651,"transit":false,"time":3,"i_long":106.411216},{"i_long":106.394373,"i_lat":-6.332307,"station_name":"Maja","distance":1853,"station_id":"MJ","time":4,"line":6,"is_transit":false,"transit":false},{"transit":false,"i_long":106.332092,"distance":7293,"line":0,"is_transit":false,"station_id":"CTR","time":10,"station_name":"Citeras","i_lat":-6.334892},{"station_id":"RK","i_lat":-6.352675,"station_name":"Rangkasbitung","line":0,"i_long":106.250396,"distance":9847,"is_transit":true,"transit":false,"time":13}],[{"i_long":106.826365,"line":0,"station_id":"KPB","distance":0,"station_name":"Kampung Bandan","i_lat":-6.132549,"transit":false,"is_transit":true,"time":0},{"station_name":"Jakarta Kota","distance":1364,"transit":true,"line":0,"i_long":106.812439,"station_id":"JAKK","is_transit":true,"time":3,"i_lat":-6.137569},{"transit":false,"i_lat":-6.141205,"time":4,"station_id":"JAY","line":7,"station_name":"Jayakarta","distance":1264,"i_long":106.820901,"is_transit":false},{"time":2,"is_transit":false,"transit":false,"station_name":"Manggabesar","i_long":106.82482,"station_id":"MGB","line":2,"distance":1080,"i_lat":-6.149769},{"i_long":106.827103,"line":2,"is_transit":false,"time":2,"distance":906,"station_id":"SW","transit":false,"i_lat":-6.160725,"station_name":"Sawah Besar"},{"transit":false,"i_lat":-6.166716,"is_transit":false,"station_name":"Juanda","distance":1149,"i_long":106.828284,"line":2,"station_id":"JUA","time":2},{"distance":2015,"station_id":"GDD","station_name":"Gondangdia","i_lat":-6.186295,"is_transit":false,"i_long":106.832183,"line":2,"time":4,"transit":false},{"time":3,"line":0,"station_name":"Cikini","i_lat":-6.198556,"transit":false,"distance":1750,"station_id":"CKI","is_transit":false,"i_long":106.840169},{"transit":true,"distance":1590,"station_name":"Manggarai","i_lat":-6.209883,"time":4,"i_long":106.84912,"line":0,"station_id":"MRI","is_transit":true},{"i_lat":-6.202263,"is_transit":false,"i_long":106.822649,"distance":3186,"line":1,"station_id":"SUD","time":4,"transit":false,"station_name":"Sudirman"},{"transit":false,"i_long":106.819881,"time":1,"i_lat":-6.201433,"line":1,"station_id":"SUDB","distance":280,"is_transit":false,"station_name":"Sudirman Baru"},{"station_id":"KAT","transit":false,"station_name":"Karet","time":1,"i_long":106.816351,"distance":471,"line":1,"is_transit":false,"i_lat":-6.20132},{"is_transit":true,"distance":2029,"transit":true,"line":1,"i_long":106.811091,"i_lat":-6.185545,"station_id":"THB","time":5,"station_name":"Tanah Abang"},{"is_transit":false,"transit":false,"i_long":106.79689,"distance":3191,"station_name":"Palmerah","time":6,"line":6,"i_lat":-6.207404,"station_id":"PLM"},{"line":6,"station_id":"KBY","transit":false,"i_lat":-6.237242,"distance":3737,"is_transit":false,"i_long":106.780334,"time":7,"station_name":"Kebayoran"},{"is_transit":false,"time":8,"i_lat":-6.276362,"line":6,"i_long":106.74273,"station_id":"PDJ","distance":6218,"transit":false,"station_name":"Pondokranji"},{"transit":false,"i_long":106.728916,"distance":2179,"line":6,"station_name":"Jurangmangu","is_transit":false,"i_lat":-6.288927,"time":3,"station_id":"JMU"},{"line":6,"is_transit":false,"i_lat":-6.296963,"station_name":"Sudimara","i_long":106.712277,"distance":1994,"station_id":"SDM","time":4,"transit":false},{"is_transit":false,"line":6,"station_id":"RU","transit":false,"i_lat":-6.314823,"station_name":"Rawa Buntu","time":6,"distance":4566,"i_long":106.675475},{"transit":false,"time":4,"station_name":"Serpong","station_id":"SRP","line":6,"is_transit":false,"distance":2413,"i_lat":-6.319871,"i_long":106.66566},{"station_id":"CSK","station_name":"Cisauk","is_transit":false,"i_long":106.640411,"distance":1784,"line":0,"transit":false,"time":4,"i_lat":-6.32484},{"time":4,"transit":false,"i_lat":-6.329547,"distance":2519,"i_long":106.617853,"is_transit":false,"station_id":"CC","station_name":"Cicayur","line":0},{"is_transit":false,"distance":5968,"line":6,"transit":false,"i_lat":-6.3441410000000005,"i_long":106.568863,"station_name":"Parung Panjang","station_id":"PRP","time":8},{"is_transit":false,"time":9,"distance":7025,"station_id":"CJT","line":0,"station_name":"Cilejit","i_long":106.508482,"transit":false,"i_lat":-6.354349},{"transit":false,"is_transit":false,"time":6,"i_long":106.491338,"station_id":"DAR","i_lat":-6.338021,"distance":2675,"station_name":"Daru","line":0},{"is_transit":false,"i_long":106.460812,"transit":false,"line":6,"i_lat":-6.327251,"station_id":"TEJ","station_name":"Tenjo","time":5,"distance":3902},{"station_name":"Tigaraksa","transit":false,"i_lat":-6.328533,"distance":2974,"station_id":"TGS","time":5,"line":6,"i_long":106.425991,"is_transit":false},{"line":0,"time":3,"station_name":"Cikoya","station_id":"CKY","i_long":106.411216,"distance":2651,"is_transit":false,"transit":false,"i_lat":-6.33561},{"time":4,"transit":false,"distance":1853,"i_lat":-6.332307,"i_long":106.394373,"station_id":"MJ","line":6,"is_transit":false,"station_name":"Maja"},{"time":10,"line":0,"distance":7293,"is_transit":false,"transit":false,"i_lat":-6.334892,"station_id":"CTR","station_name":"Citeras","i_long":106.332092},{"station_name":"Rangkasbitung","time":13,"transit":false,"is_transit":true,"i_lat":-6.352675,"distance":9847,"i_long":106.250396,"station_id":"RK","line":0}],[{"station_id":"KPB","distance":0,"transit":false,"i_lat":-6.132549,"is_transit":true,"i_long":106.826365,"line":0,"time":0,"station_name":"Kampung Bandan"},{"transit":false,"distance":1444,"station_name":"Rajawali","station_id":"RJW","time":3,"i_long":106.836569,"line":11,"is_transit":false,"i_lat":-6.14505},{"is_transit":false,"i_lat":-6.161728,"transit":false,"line":11,"station_id":"KMO","time":5,"distance":1901,"station_name":"Kemayoran","i_long":106.839204},{"transit":false,"i_lat":-6.174784,"i_long":106.84368,"station_id":"PSE","line":11,"time":4,"is_transit":false,"distance":1436,"station_name":"Pasar Senen"},{"i_lat":-6.185975,"distance":1567,"line":11,"is_transit":false,"station_name":"Gang Sentiong","station_id":"GST","transit":false,"i_long":106.850107,"time":8},{"i_lat":-6.193792,"time":1,"distance":973,"station_id":"KMT","transit":false,"station_name":"Kramat","i_long":106.855437,"line":11,"is_transit":false},{"station_id":"POK","time":2,"transit":false,"i_lat":-6.209188,"distance":1829,"station_name":"Pondok Jati","is_transit":false,"i_long":106.861737,"line":11},{"time":9,"transit":true,"i_long":106.86807400000001,"line":0,"station_id":"JNG","station_name":"Jatinegara","i_lat":-6.215091,"is_transit":true,"distance":1236},{"time":2,"i_lat":-6.212485,"line":1,"station_name":"Matraman","station_id":"MTR","distance":1377,"i_long":106.858896,"is_transit":false,"transit":false},{"i_lat":-6.209883,"transit":false,"time":2,"distance":1275,"i_long":106.84912,"station_id":"MRI","is_transit":true,"station_name":"Manggarai","line":0},{"station_id":"SUD","is_transit":false,"i_lat":-6.202263,"line":1,"transit":false,"i_long":106.822649,"station_name":"Sudirman","time":4,"distance":3186},{"i_lat":-6.201433,"i_long":106.819881,"line":1,"transit":false,"station_id":"SUDB","time":1,"distance":280,"is_transit":false,"station_name":"Sudirman Baru"},{"time":1,"station_id":"KAT","line":1,"is_transit":false,"station_name":"Karet","distance":471,"transit":false,"i_long":106.816351,"i_lat":-6.20132},{"station_id":"THB","station_name":"Tanah Abang","line":1,"is_transit":true,"i_lat":-6.185545,"distance":2029,"time":5,"transit":true,"i_long":106.811091},{"is_transit":false,"transit":false,"i_lat":-6.207404,"i_long":106.79689,"distance":3191,"station_id":"PLM","line":6,"station_name":"Palmerah","time":6},{"is_transit":false,"i_lat":-6.237242,"station_id":"KBY","distance":3737,"transit":false,"line":6,"time":7,"station_name":"Kebayoran","i_long":106.780334},{"station_id":"PDJ","station_name":"Pondokranji","transit":false,"is_transit":false,"time":8,"distance":6218,"i_lat":-6.276362,"i_long":106.74273,"line":6},{"station_id":"JMU","i_long":106.728916,"is_transit":false,"i_lat":-6.288927,"distance":2179,"line":6,"time":3,"station_name":"Jurangmangu","transit":false},{"time":4,"i_lat":-6.296963,"i_long":106.712277,"line":6,"distance":1994,"transit":false,"station_id":"SDM","is_transit":false,"station_name":"Sudimara"},{"line":6,"station_name":"Rawa Buntu","i_long":106.675475,"time":6,"i_lat":-6.314823,"station_id":"RU","is_transit":false,"distance":4566,"transit":false},{"is_transit":false,"station_id":"SRP","station_name":"Serpong","i_long":106.66566,"transit":false,"distance":2413,"line":6,"time":4,"i_lat":-6.319871},{"station_name":"Cisauk","time":4,"transit":false,"distance":1784,"line":0,"is_transit":false,"station_id":"CSK","i_lat":-6.32484,"i_long":106.640411},{"time":4,"line":0,"transit":false,"is_transit":false,"i_long":106.617853,"i_lat":-6.329547,"station_id":"CC","station_name":"Cicayur","distance":2519},{"line":6,"is_transit":false,"station_id":"PRP","time":8,"distance":5968,"i_lat":-6.3441410000000005,"station_name":"Parung Panjang","transit":false,"i_long":106.568863},{"station_name":"Cilejit","transit":false,"line":0,"station_id":"CJT","time":9,"distance":7025,"i_lat":-6.354349,"is_transit":false,"i_long":106.508482},{"is_transit":false,"distance":2675,"station_name":"Daru","i_lat":-6.338021,"transit":false,"time":6,"i_long":106.491338,"station_id":"DAR","line":0},{"station_id":"TEJ","i_lat":-6.327251,"time":5,"station_name":"Tenjo","line":6,"is_transit":false,"transit":false,"distance":3902,"i_long":106.460812},{"i_long":106.425991,"line":6,"distance":2974,"station_name":"Tigaraksa","transit":false,"is_transit":false,"time":5,"station_id":"TGS","i_lat":-6.328533},{"i_long":106.411216,"line":0,"distance":2651,"station_name":"Cikoya","station_id":"CKY","time":3,"is_transit":false,"transit":false,"i_lat":-6.33561},{"line":6,"is_transit":false,"station_id":"MJ","transit":false,"i_lat":-6.332307,"distance":1853,"station_name":"Maja","time":4,"i_long":106.394373},{"station_id":"CTR","line":0,"distance":7293,"i_long":106.332092,"is_transit":false,"time":10,"station_name":"Citeras","i_lat":-6.334892,"transit":false},{"i_long":106.250396,"station_id":"RK","distance":9847,"transit":false,"station_name":"Rangkasbitung","time":13,"line":0,"is_transit":true,"i_lat":-6.352675}]]}