{"data":[[{"i_long":106.826365,"i_lat":-6.132549,"time":0,"station_id":"KPB","station_name":"Kampung Bandan","distance":0,"line":4,"transit":false,"is_transit":false},{"station_id":"AK","transit":false,"i_long":106.79867,"i_lat":-6.144674,"is_transit":false,"time":9,"station_name":"Angke","distance":4102,"line":1},{"is_transit":false,"time":4,"transit":false,"i_long":106.800832,"line":1,"i_lat":-6.155215,"station_name":"Duri","station_id":"DU","distance":1230},{"station_name":"Tanah Abang","is_transit":true,"transit":true,"distance":3632,"station_id":"THB","i_long":106.811091,"i_lat":-6.185545,"time":8,"line":1},{"transit":false,"distance":3191,"station_id":"PLM","i_lat":-6.207404,"line":6,"time":6,"i_long":106.79689,"station_name":"Palmerah","is_transit":false},{"station_name":"Kebayoran","is_transit":false,"transit":false,"time":7,"i_long":106.780334,"distance":3737,"line":6,"station_id":"KBY","i_lat":-6.237242},{"is_transit":false,"distance":6218,"i_lat":-6.276362,"transit":false,"i_long":106.74273,"line":6,"station_id":"PDJ","time":8,"station_name":"Pondokranji"},{"line":6,"transit":false,"time":3,"is_transit":false,"i_long":106.728916,"station_name":"Jurangmangu","i_lat":-6.288927,"distance":2179,"station_id":"JMU"},{"transit":false,"station_name":"Sudimara","distance":1994,"i_lat":-6.296963,"is_transit":false,"time":4,"i_long":106.712277,"line":6,"station_id":"SDM"},{"station_name":"Rawa Buntu","distance":4566,"i_long":106.675475,"time":6,"transit":false,"line":6,"station_id":"RU","i_lat":-6.314823,"is_transit":false},{"is_transit":false,"transit":false,"i_lat":-6.319871,"i_long":106.66566,"line":6,"distance":2413,"station_id":"SRP","time":4,"station_name":"Serpong"},{"is_transit":false,"station_id":"CSK","station_name":"Cisauk","time":4,"line":3,"i_lat":-6.32484,"i_long":106.640411,"transit":false,"distance":1784},{"time":4,"is_transit":false,"station_name":"Cicayur","transit":false,"i_long":106.617853,"distance":2519,"line":3,"i_lat":-6.329547,"station_id":"CC"},{"distance":5968,"transit":false,"station_id":"PRP","i_long":106.568863,"i_lat":-6.3441410000000005,"time":8,"line":6,"station_name":"Parung Panjang","is_transit":false},{"i_long":106.508482,"station_name":"Cilejit","i_lat":-6.354349,"transit":false,"station_id":"CJT","line":3,"is_transit":false,"distance":7025,"time":9},{"i_lat":-6.338021,"transit":false,"i_long":106.491338,"time":6,"is_transit":false,"distance":2675,"station_id":"DAR","station_name":"Daru","line":0},{"distance":3902,"is_transit":false,"time":5,"station_name":"Tenjo","line":6,"i_lat":-6.327251,"i_long":106.460812,"transit":false,"station_id":"TEJ"},{"distance":2974,"line":6,"station_id":"TGS","station_name":"Tigaraksa","time":5,"i_long":106.425991,"is_transit":false,"i_lat":-6.328533,"transit":false},{"station_id":"CKY","i_long":106.411216,"distance":2651,"i_lat":-6.33561,"time":3,"station_name":"Cikoya","line":3,"transit":false,"is_transit":false}],[{"station_name":"Kampung Bandan","time":0,"i_long":106.826365,"transit":false,"i_lat":-6.132549,"station_id":"KPB","distance":0,"is_transit":false,"line":4},{"transit":true,"station_name":"Jakarta Kota","is_transit":true,"i_lat":-6.137569,"time":3,"distance":1364,"station_id":"JAKK","i_long":106.812439,"line":2},{"transit":false,"station_name":"Jayakarta","time":4,"line":2,"station_id":"JAY","is_transit":false,"distance":1264,"i_lat":-6.141205,"i_long":106.820901},{"station_name":"Manggabesar","time":2,"line":2,"transit":false,"distance":1080,"station_id":"MGB","i_lat":-6.149769,"is_transit":false,"i_long":106.82482},{"is_transit":false,"distance":906,"station_name":"Sawah Besar","i_long":106.827103,"line":2,"station_id":"SW","i_lat":-6.160725,"transit":false,"time":2},{"distance":1149,"station_name":"Juanda","is_transit":false,"transit":false,"i_lat":-6.166716,"i_long":106.828284,"time":2,"line":2,"station_id":"JUA"},{"distance":2015,"station_id":"GDD","station_name":"Gondangdia","transit":false,"line":2,"is_transit":false,"i_lat":-6.186295,"time":4,"i_long":106.832183},{"transit":false,"station_name":"Cikini","time":3,"i_lat":-6.198556,"is_transit":false,"line":2,"station_id":"CKI","i_long":106.840169,"distance":1750},{"transit":true,"station_name":"Manggarai","distance":1590,"i_long":106.84912,"time":4,"station_id":"MRI","is_transit":true,"line":2,"i_lat":-6.209883},{"i_long":106.822649,"line":1,"time":4,"station_name":"Sudirman","is_transit":false,"transit":false,"i_lat":-6.202263,"station_id":"SUD","distance":3186},{"time":1,"distance":280,"is_transit":false,"i_lat":-6.201433,"i_long":106.819881,"station_id":"SUDB","line":1,"station_name":"Sudirman Baru","transit":false},{"time":1,"is_transit":false,"transit":false,"i_lat":-6.20132,"station_name":"Karet","i_long":106.816351,"line":1,"distance":471,"station_id":"KAT"},{"station_name":"Tanah Abang","i_lat":-6.185545,"transit":true,"line":1,"distance":2029,"i_long":106.811091,"time":5,"station_id":"THB","is_transit":true},{"station_name":"Palmerah","transit":false,"station_id":"PLM","i_lat":-6.207404,"time":6,"is_transit":false,"line":6,"i_long":106.79689,"distance":3191},{"station_name":"Kebayoran","station_id":"KBY","i_lat":-6.237242,"i_long":106.780334,"time":7,"line":6,"is_transit":false,"transit":false,"distance":3737},{"station_name":"Pondokranji","is_transit":false,"i_long":106.74273,"distance":6218,"time":8,"station_id":"PDJ","transit":false,"line":6,"i_lat":-6.276362},{"transit":false,"distance":2179,"is_transit":false,"station_id":"JMU","i_long":106.728916,"line":6,"i_lat":-6.288927,"time":3,"station_name":"Jurangmangu"},{"station_id":"SDM","i_lat":-6.296963,"line":6,"time":4,"station_name":"Sudimara","is_transit":false,"distance":1994,"transit":false,"i_long":106.712277},{"is_transit":false,"i_lat":-6.314823,"line":6,"transit":false,"station_name":"Rawa Buntu","distance":4566,"i_long":106.675475,"time":6,"station_id":"RU"},{"station_id":"SRP","is_transit":false,"station_name":"Serpong","i_lat":-6.319871,"time":4,"i_long":106.66566,"line":6,"distance":2413,"transit":false},{"time":4,"station_name":"Cisauk","is_transit":false,"i_lat":-6.32484,"station_id":"CSK","distance":1784,"line":3,"transit":false,"i_long":106.640411},{"line":3,"station_id":"CC","is_transit":false,"i_long":106.617853,"transit":false,"distance":2519,"i_lat":-6.329547,"time":4,"station_name":"Cicayur"},{"distance":5968,"time":8,"station_id":"PRP","i_lat":-6.3441410000000005,"i_long":106.568863,"is_transit":false,"transit":false,"line":6,"station_name":"Parung Panjang"},{"distance":7025,"station_id":"CJT","i_lat":-6.354349,"time":9,"is_transit":false,"station_name":"Cilejit","transit":false,"line":3,"i_long":106.508482},{"distance":2675,"line":0,"time":6,"transit":false,"i_lat":-6.338021,"i_long":106.491338,"station_name":"Daru","is_transit":false,"station_id":"DAR"},{"distance":3902,"i_long":106.460812,"time":5,"station_name":"Tenjo","station_id":"TEJ","is_transit":false,"i_lat":-6.327251,"line":6,"transit":false},{"i_lat":-6.328533,"station_name":"Tigaraksa","transit":false,"i_long":106.425991,"line":6,"time":5,"distance":2974,"is_transit":false,"station_id":"TGS"},{"station_id":"CKY","is_transit":false,"i_long":106.411216,"time":3,"distance":2651,"line":3,"station_name":"Cikoya","transit":false,"i_lat":-6.33561}],[{"transit":false,"line":4,"time":0,"station_id":"KPB","i_long":106.826365,"is_transit":false,"i_lat":-6.132549,"distance":0,"station_name":"Kampung Bandan"},{"transit":false,"time":3,"line":11,"station_id":"RJW","station_name":"Rajawali","distance":1444,"is_transit":false,"i_lat":-6.14505,"i_long":106.836569},{"time":5,"is_transit":false,"distance":1901,"i_long":106.839204,"transit":false,"station_id":"KMO","i_lat":-6.161728,"line":11,"station_name":"Kemayoran"},{"i_long":106.84368,"distance":1436,"station_id":"PSE","line":11,"i_lat":-6.174784,"time":4,"is_transit":false,"station_name":"Pasar Senen","transit":false},{"distance":1567,"station_name":"Gang Sentiong","transit":false,"station_id":"GST","i_long":106.850107,"time":8,"is_transit":false,"line":11,"i_lat":-6.185975},{"line":11,"time":1,"station_name":"Kramat","station_id":"KMT","is_transit":false,"i_long":106.855437,"transit":false,"i_lat":-6.193792,"distance":973},{"time":2,"station_id":"POK","line":11,"distance":1829,"transit":false,"i_lat":-6.209188,"is_transit":false,"station_name":"Pondok Jati","i_long":106.861737},{"time":9,"i_long":106.86807400000001,"is_transit":true,"distance":1236,"transit":true,"i_lat":-6.215091,"station_name":"Jatinegara","station_id":"JNG","line":1},{"distance":1377,"station_name":"Matraman","i_lat":-6.212485,"is_transit":false,"line":1,"time":2,"transit":false,"i_long":106.858896,"station_id":"MTR"},{"time":2,"i_lat":-6.209883,"distance":1275,"line":2,"transit":false,"station_id":"MRI","station_name":"Manggarai","is_transit":false,"i_long":106.84912},{"station_name":"Sudirman","station_id":"SUD","i_long":106.822649,"time":4,"transit":false,"is_transit":false,"distance":3186,"i_lat":-6.202263,"line":1},{"distance":280,"is_transit":false,"i_lat":-6.201433,"line":1,"time":1,"i_long":106.819881,"station_id":"SUDB","transit":false,"station_name":"Sudirman Baru"},{"distance":471,"station_id":"KAT","transit":false,"i_long":106.816351,"line":1,"i_lat":-6.20132,"station_name":"Karet","time":1,"is_transit":false},{"is_transit":true,"transit":true,"line":1,"distance":2029,"station_name":"Tanah Abang","station_id":"THB","i_lat":-6.185545,"time":5,"i_long":106.811091},{"is_transit":false,"i_lat":-6.207404,"time":6,"i_long":106.79689,"station_name":"Palmerah","station_id":"PLM","line":6,"transit":false,"distance":3191},{"station_name":"Kebayoran","distance":3737,"station_id":"KBY","transit":false,"time":7,"line":6,"i_long":106.780334,"is_transit":false,"i_lat":-6.237242},{"i_lat":-6.276362,"i_long":106.74273,"transit":false,"line":6,"is_transit":false,"time":8,"station_id":"PDJ","distance":6218,"station_name":"Pondokranji"},{"station_id":"JMU","i_long":106.728916,"distance":2179,"line":6,"i_lat":-6.288927,"is_transit":false,"station_name":"Jurangmangu","time":3,"transit":false},{"i_long":106.712277,"transit":false,"line":6,"is_transit":false,"i_lat":-6.296963,"time":4,"station_name":"Sudimara","distance":1994,"station_id":"SDM"},{"time":6,"station_id":"RU","line":6,"i_long":106.675475,"station_name":"Rawa Buntu","is_transit":false,"i_lat":-6.314823,"transit":false,"distance":4566},{"transit":false,"i_lat":-6.319871,"time":4,"distance":2413,"is_transit":false,"station_id":"SRP","i_long":106.66566,"station_name":"Serpong","line":6},{"distance":1784,"transit":false,"i_lat":-6.32484,"time":4,"station_id":"CSK","i_long":106.640411,"station_name":"Cisauk","is_transit":false,"line":3},{"station_name":"Cicayur","distance":2519,"time":4,"station_id":"CC","transit":false,"is_transit":false,"i_lat":-6.329547,"i_long":106.617853,"line":3},{"is_transit":false,"station_id":"PRP","station_name":"Parung Panjang","i_lat":-6.3441410000000005,"line":6,"transit":false,"i_long":106.568863,"distance":5968,"time":8},{"line":3,"station_id":"CJT","time":9,"station_name":"Cilejit","is_transit":false,"i_lat":-6.354349,"distance":7025,"transit":false,"i_long":106.508482},{"transit":false,"distance":2675,"i_lat":-6.338021,"line":0,"time":6,"station_id":"DAR","is_transit":false,"i_long":106.491338,"station_name":"Daru"},{"distance":3902,"line":6,"i_long":106.460812,"i_lat":-6.327251,"time":5,"transit":false,"station_name":"Tenjo","is_transit":false,"station_id":"TEJ"},{"line":6,"station_id":"TGS","i_lat":-6.328533,"i_long":106.425991,"is_transit":false,"transit":false,"station_name":"Tigaraksa","distance":2974,"time":5},{"line":3,"station_id":"CKY","distance":2651,"i_lat":-6.33561,"transit":false,"station_name":"Cikoya","i_long":106.411216,"time":3,"is_transit":false}]]}