{"data":[[{"line":4,"station_name":"Kampung Bandan","i_lat":-6.132549,"transit":false,"is_transit":false,"time":0,"station_id":"KPB","i_long":106.826365,"distance":0},{"line":1,"time":9,"station_name":"Angke","transit":false,"is_transit":false,"station_id":"AK","i_lat":-6.144674,"distance":4102,"i_long":106.79867},{"time":4,"station_id":"DU","i_long":106.800832,"transit":false,"i_lat":-6.155215,"distance":1230,"station_name":"Duri","line":1,"is_transit":false},{"is_transit":true,"line":1,"distance":3632,"station_id":"THB","transit":true,"station_name":"Tanah Abang","i_lat":-6.185545,"time":8,"i_long":106.811091},{"station_name":"Palmerah","is_transit":false,"time":6,"line":6,"distance":3191,"i_long":106.79689,"station_id":"PLM","transit":false,"i_lat":-6.207404},{"is_transit":false,"station_name":"Kebayoran","distance":3737,"time":7,"i_long":106.780334,"line":6,"i_lat":-6.237242,"transit":false,"station_id":"KBY"},{"transit":false,"station_id":"PDJ","is_transit":false,"i_lat":-6.276362,"line":6,"i_long":106.74273,"distance":6218,"station_name":"Pondokranji","time":8},{"i_lat":-6.288927,"station_name":"Jurangmangu","line":6,"is_transit":false,"distance":2179,"i_long":106.728916,"station_id":"JMU","time":3,"transit":false},{"i_lat":-6.296963,"i_long":106.712277,"is_transit":false,"transit":false,"station_id":"SDM","time":4,"line":6,"station_name":"Sudimara","distance":1994},{"distance":4566,"station_id":"RU","time":6,"is_transit":false,"i_long":106.675475,"line":6,"transit":false,"i_lat":-6.314823,"station_name":"Rawa Buntu"},{"i_lat":-6.319871,"i_long":106.66566,"station_name":"Serpong","transit":false,"station_id":"SRP","time":4,"line":6,"distance":2413,"is_transit":false},{"station_id":"CSK","time":4,"distance":1784,"transit":false,"station_name":"Cisauk","line":3,"is_transit":false,"i_long":106.640411,"i_lat":-6.32484},{"distance":2519,"line":3,"transit":false,"time":4,"is_transit":false,"i_long":106.617853,"station_name":"Cicayur","i_lat":-6.329547,"station_id":"CC"},{"distance":5968,"transit":false,"is_transit":false,"time":8,"i_lat":-6.3441410000000005,"station_name":"Parung Panjang","station_id":"PRP","line":6,"i_long":106.568863},{"station_name":"Cilejit","station_id":"CJT","is_transit":false,"transit":false,"time":9,"i_lat":-6.354349,"distance":7025,"i_long":106.508482,"line":3},{"station_name":"Daru","i_long":106.491338,"line":0,"i_lat":-6.338021,"is_transit":false,"time":6,"transit":false,"distance":2675,"station_id":"DAR"},{"distance":3902,"line":6,"is_transit":false,"transit":false,"i_lat":-6.327251,"time":5,"i_long":106.460812,"station_id":"TEJ","station_name":"Tenjo"},{"distance":2974,"is_transit":false,"line":6,"station_id":"TGS","transit":false,"i_lat":-6.328533,"time":5,"station_name":"Tigaraksa","i_long":106.425991},{"transit":false,"time":3,"is_transit":false,"station_name":"Cikoya","i_lat":-6.33561,"distance":2651,"station_id":"CKY","i_long":106.411216,"line":3}],[{"distance":0,"station_name":"Kampung Bandan","i_lat":-6.132549,"line":4,"time":0,"i_long":106.826365,"transit":false,"station_id":"KPB","is_transit":false},{"i_lat":-6.137569,"i_long":106.812439,"is_transit":true,"station_id":"JAKK","line":2,"transit":true,"distance":1364,"station_name":"Jakarta Kota","time":3},{"transit":false,"station_id":"JAY","is_transit":false,"station_name":"Jayakarta","i_long":106.820901,"line":2,"distance":1264,"i_lat":-6.141205,"time":4},{"station_name":"Manggabesar","distance":1080,"transit":false,"i_lat":-6.149769,"line":2,"time":2,"i_long":106.82482,"station_id":"MGB","is_transit":false},{"transit":false,"is_transit":false,"time":2,"line":2,"i_long":106.827103,"i_lat":-6.160725,"station_name":"Sawah Besar","station_id":"SW","distance":906},{"is_transit":false,"i_lat":-6.166716,"line":2,"station_id":"JUA","station_name":"Juanda","i_long":106.828284,"distance":1149,"transit":false,"time":2},{"i_lat":-6.186295,"distance":2015,"station_id":"GDD","time":4,"i_long":106.832183,"station_name":"Gondangdia","line":2,"is_transit":false,"transit":false},{"distance":1750,"i_lat":-6.198556,"station_id":"CKI","is_transit":false,"time":3,"station_name":"Cikini","transit":false,"line":2,"i_long":106.840169},{"i_lat":-6.209883,"time":4,"station_name":"Manggarai","line":2,"is_transit":true,"distance":1590,"i_long":106.84912,"station_id":"MRI","transit":true},{"distance":3186,"is_transit":false,"station_id":"SUD","time":4,"i_long":106.822649,"line":1,"transit":false,"i_lat":-6.202263,"station_name":"Sudirman"},{"time":1,"transit":false,"line":1,"i_lat":-6.201433,"station_id":"SUDB","is_transit":false,"station_name":"Sudirman Baru","i_long":106.819881,"distance":280},{"station_id":"KAT","i_long":106.816351,"time":1,"transit":false,"line":1,"is_transit":false,"i_lat":-6.20132,"station_name":"Karet","distance":471},{"i_long":106.811091,"is_transit":true,"distance":2029,"transit":true,"station_name":"Tanah Abang","line":1,"i_lat":-6.185545,"station_id":"THB","time":5},{"line":6,"transit":false,"is_transit":false,"time":6,"station_name":"Palmerah","i_lat":-6.207404,"distance":3191,"i_long":106.79689,"station_id":"PLM"},{"station_id":"KBY","i_long":106.780334,"is_transit":false,"line":6,"time":7,"station_name":"Kebayoran","transit":false,"i_lat":-6.237242,"distance":3737},{"is_transit":false,"transit":false,"i_lat":-6.276362,"i_long":106.74273,"line":6,"station_id":"PDJ","time":8,"distance":6218,"station_name":"Pondokranji"},{"is_transit":false,"i_long":106.728916,"station_name":"Jurangmangu","station_id":"JMU","i_lat":-6.288927,"time":3,"distance":2179,"transit":false,"line":6},{"station_id":"SDM","is_transit":false,"station_name":"Sudimara","distance":1994,"transit":false,"time":4,"i_lat":-6.296963,"i_long":106.712277,"line":6},{"i_lat":-6.314823,"time":6,"station_id":"RU","transit":false,"distance":4566,"i_long":106.675475,"is_transit":false,"station_name":"Rawa Buntu","line":6},{"i_lat":-6.319871,"i_long":106.66566,"distance":2413,"is_transit":false,"time":4,"transit":false,"station_name":"Serpong","line":6,"station_id":"SRP"},{"station_id":"CSK","line":3,"is_transit":false,"transit":false,"time":4,"station_name":"Cisauk","i_lat":-6.32484,"i_long":106.640411,"distance":1784},{"distance":2519,"i_lat":-6.329547,"is_transit":false,"station_name":"Cicayur","line":3,"i_long":106.617853,"station_id":"CC","transit":false,"time":4},{"i_long":106.568863,"transit":false,"i_lat":-6.3441410000000005,"distance":5968,"station_id":"PRP","is_transit":false,"time":8,"station_name":"Parung Panjang","line":6},{"is_transit":false,"station_id":"CJT","distance":7025,"line":3,"station_name":"Cilejit","i_long":106.508482,"time":9,"transit":false,"i_lat":-6.354349},{"station_name":"Daru","i_lat":-6.338021,"line":0,"station_id":"DAR","transit":false,"distance":2675,"i_long":106.491338,"time":6,"is_transit":false},{"station_name":"Tenjo","is_transit":false,"distance":3902,"station_id":"TEJ","i_lat":-6.327251,"i_long":106.460812,"transit":false,"time":5,"line":6},{"time":5,"station_name":"Tigaraksa","i_lat":-6.328533,"is_transit":false,"station_id":"TGS","i_long":106.425991,"line":6,"distance":2974,"transit":false},{"is_transit":false,"time":3,"i_long":106.411216,"station_name":"Cikoya","i_lat":-6.33561,"line":3,"station_id":"CKY","distance":2651,"transit":false}],[{"station_name":"Kampung Bandan","time":0,"line":4,"i_long":106.826365,"distance":0,"station_id":"KPB","is_transit":false,"transit":false,"i_lat":-6.132549},{"transit":false,"is_transit":false,"station_name":"Rajawali","time":3,"line":11,"i_lat":-6.14505,"distance":1444,"i_long":106.836569,"station_id":"RJW"},{"is_transit":false,"transit":false,"station_name":"Kemayoran","i_long":106.839204,"distance":1901,"i_lat":-6.161728,"line":11,"station_id":"KMO","time":5},{"is_transit":false,"time":4,"transit":false,"line":11,"station_id":"PSE","i_lat":-6.174784,"station_name":"Pasar Senen","distance":1436,"i_long":106.84368},{"distance":1567,"transit":false,"station_id":"GST","line":11,"i_long":106.850107,"is_transit":false,"i_lat":-6.185975,"time":8,"station_name":"Gang Sentiong"},{"line":11,"distance":973,"station_id":"KMT","i_long":106.855437,"transit":false,"station_name":"Kramat","is_transit":false,"time":1,"i_lat":-6.193792},{"distance":1829,"transit":false,"i_long":106.861737,"is_transit":false,"station_name":"Pondok Jati","i_lat":-6.209188,"time":2,"line":11,"station_id":"POK"},{"distance":1236,"time":9,"is_transit":true,"i_lat":-6.215091,"station_id":"JNG","i_long":106.86807400000001,"line":1,"transit":true,"station_name":"Jatinegara"},{"i_long":106.858896,"line":1,"distance":1377,"station_name":"Matraman","i_lat":-6.212485,"time":2,"station_id":"MTR","transit":false,"is_transit":false},{"i_long":106.84912,"station_id":"MRI","time":2,"transit":false,"is_transit":false,"station_name":"Manggarai","i_lat":-6.209883,"distance":1275,"line":2},{"i_long":106.822649,"station_id":"SUD","distance":3186,"transit":false,"station_name":"Sudirman","line":1,"i_lat":-6.202263,"is_transit":false,"time":4},{"i_lat":-6.201433,"station_id":"SUDB","i_long":106.819881,"time":1,"distance":280,"line":1,"is_transit":false,"transit":false,"station_name":"Sudirman Baru"},{"is_transit":false,"station_id":"KAT","line":1,"i_long":106.816351,"distance":471,"i_lat":-6.20132,"transit":false,"station_name":"Karet","time":1},{"distance":2029,"station_name":"Tanah Abang","i_long":106.811091,"line":1,"station_id":"THB","time":5,"is_transit":true,"i_lat":-6.185545,"transit":true},{"time":6,"transit":false,"line":6,"i_long":106.79689,"station_name":"Palmerah","is_transit":false,"distance":3191,"station_id":"PLM","i_lat":-6.207404},{"station_id":"KBY","station_name":"Kebayoran","i_lat":-6.237242,"i_long":106.780334,"is_transit":false,"time":7,"line":6,"transit":false,"distance":3737},{"distance":6218,"time":8,"station_id":"PDJ","line":6,"is_transit":false,"i_long":106.74273,"station_name":"Pondokranji","i_lat":-6.276362,"transit":false},{"time":3,"line":6,"transit":false,"is_transit":false,"distance":2179,"station_name":"Jurangmangu","i_long":106.728916,"i_lat":-6.288927,"station_id":"JMU"},{"transit":false,"is_transit":false,"time":4,"station_name":"Sudimara","line":6,"distance":1994,"i_long":106.712277,"i_lat":-6.296963,"station_id":"SDM"},{"i_long":106.675475,"time":6,"station_name":"Rawa Buntu","is_transit":false,"transit":false,"distance":4566,"station_id":"RU","line":6,"i_lat":-6.314823},{"distance":2413,"is_transit":false,"station_name":"Serpong","time":4,"transit":false,"i_lat":-6.319871,"station_id":"SRP","i_long":106.66566,"line":6},{"i_long":106.640411,"station_name":"Cisauk","time":4,"is_transit":false,"line":3,"transit":false,"distance":1784,"i_lat":-6.32484,"station_id":"CSK"},{"time":4,"station_id":"CC","i_long":106.617853,"line":3,"is_transit":false,"i_lat":-6.329547,"distance":2519,"station_name":"Cicayur","transit":false},{"line":6,"station_name":"Parung Panjang","i_lat":-6.3441410000000005,"i_long":106.568863,"time":8,"station_id":"PRP","is_transit":false,"distance":5968,"transit":false},{"line":3,"i_long":106.508482,"time":9,"station_name":"Cilejit","transit":false,"is_transit":false,"distance":7025,"i_lat":-6.354349,"station_id":"CJT"},{"station_id":"DAR","line":0,"i_lat":-6.338021,"time":6,"distance":2675,"station_name":"Daru","i_long":106.491338,"is_transit":false,"transit":false},{"distance":3902,"station_id":"TEJ","is_transit":false,"time":5,"i_long":106.460812,"i_lat":-6.327251,"station_name":"Tenjo","line":6,"transit":false},{"line":6,"distance":2974,"station_id":"TGS","is_transit":false,"time":5,"station_name":"Tigaraksa","i_lat":-6.328533,"transit":false,"i_long":106.425991},{"transit":false,"i_lat":-6.33561,"line":3,"time":3,"station_name":"Cikoya","is_transit":false,"station_id":"CKY","i_long":106.411216,"distance":2651}]]}