{"data":[[{"station_id":"KPB","time":0,"is_transit":true,"station_name":"Kampung Bandan","distance":0,"i_lat":-6.132549,"transit":false,"i_long":106.826365,"line":0},{"station_name":"Rajawali","line":11,"transit":false,"time":3,"distance":1444,"station_id":"RJW","is_transit":false,"i_lat":-6.14505,"i_long":106.836569},{"time":5,"distance":1901,"i_long":106.839204,"transit":false,"line":11,"is_transit":false,"i_lat":-6.161728,"station_id":"KMO","station_name":"Kemayoran"},{"distance":1436,"i_long":106.84368,"transit":false,"line":11,"time":4,"station_id":"PSE","station_name":"Pasar Senen","i_lat":-6.174784,"is_transit":false},{"is_transit":false,"station_id":"GST","i_long":106.850107,"station_name":"Gang Sentiong","time":8,"i_lat":-6.185975,"distance":1567,"line":11,"transit":false},{"station_name":"Kramat","line":11,"station_id":"KMT","transit":false,"is_transit":false,"distance":973,"i_long":106.855437,"time":1,"i_lat":-6.193792},{"is_transit":false,"time":2,"distance":1829,"transit":false,"line":11,"i_long":106.861737,"i_lat":-6.209188,"station_id":"POK","station_name":"Pondok Jati"},{"line":0,"station_id":"JNG","is_transit":true,"distance":1236,"i_lat":-6.215091,"i_long":106.86807400000001,"time":9,"station_name":"Jatinegara","transit":true},{"station_id":"KLD","line":1,"station_name":"Klender","i_long":106.899548,"is_transit":false,"distance":3395,"transit":false,"i_lat":-6.2135,"time":3},{"transit":false,"i_long":106.922662,"station_id":"BUA","line":0,"station_name":"Buaran","i_lat":-6.215568,"is_transit":false,"time":2,"distance":3100},{"distance":1305,"is_transit":false,"i_long":106.939679,"transit":false,"i_lat":-6.217455,"line":1,"station_id":"KLDB","station_name":"Klenderbaru","time":1},{"station_name":"Cakung","line":0,"time":8,"transit":false,"station_id":"CUK","is_transit":false,"distance":1385,"i_lat":-6.219053,"i_long":106.951283},{"station_id":"KRI","line":1,"i_long":106.977657,"distance":3097,"i_lat":-6.224515,"transit":false,"station_name":"Kranji","is_transit":false,"time":3},{"transit":false,"i_long":106.997013,"is_transit":false,"time":4,"i_lat":-6.236616,"line":0,"station_id":"BKS","station_name":"Bekasi","distance":2520},{"distance":2368,"is_transit":false,"station_id":"BKST","i_long":107.016735,"line":0,"i_lat":-6.248029,"time":2,"transit":false,"station_name":"Bekasi Timur"},{"distance":4460,"station_id":"TB","line":1,"i_long":107.055722,"is_transit":false,"i_lat":-6.258864,"station_name":"Tambun","time":7,"transit":false}],[{"is_transit":true,"time":0,"distance":0,"line":0,"station_name":"Kampung Bandan","station_id":"KPB","transit":false,"i_lat":-6.132549,"i_long":106.826365},{"transit":false,"is_transit":false,"i_lat":-6.144674,"time":9,"line":0,"i_long":106.79867,"station_name":"Angke","distance":4102,"station_id":"AK"},{"distance":1230,"transit":true,"i_long":106.800832,"line":1,"time":4,"station_id":"DU","station_name":"Duri","is_transit":true,"i_lat":-6.155215},{"time":8,"station_id":"THB","is_transit":true,"i_lat":-6.185545,"distance":3632,"station_name":"Tanah Abang","i_long":106.811091,"line":1,"transit":false},{"is_transit":false,"i_lat":-6.20132,"i_long":106.816351,"line":1,"distance":2029,"time":5,"transit":false,"station_id":"KAT","station_name":"Karet"},{"is_transit":false,"time":1,"line":1,"i_lat":-6.201433,"transit":false,"distance":471,"i_long":106.819881,"station_id":"SUDB","station_name":"Sudirman Baru"},{"time":1,"i_long":106.822649,"line":1,"distance":280,"i_lat":-6.202263,"station_name":"Sudirman","is_transit":false,"station_id":"SUD","transit":false},{"i_long":106.84912,"is_transit":true,"transit":false,"station_name":"Manggarai","line":0,"i_lat":-6.209883,"time":4,"station_id":"MRI","distance":3186},{"transit":false,"station_id":"MTR","time":2,"is_transit":false,"i_lat":-6.212485,"i_long":106.858896,"distance":1275,"station_name":"Matraman","line":1},{"transit":false,"is_transit":true,"time":8,"station_name":"Jatinegara","station_id":"JNG","i_lat":-6.215091,"line":0,"distance":1377,"i_long":106.86807400000001},{"station_name":"Klender","is_transit":false,"i_lat":-6.2135,"time":3,"distance":3395,"i_long":106.899548,"line":1,"transit":false,"station_id":"KLD"},{"transit":false,"station_name":"Buaran","station_id":"BUA","distance":3100,"i_lat":-6.215568,"i_long":106.922662,"time":2,"line":0,"is_transit":false},{"station_name":"Klenderbaru","line":1,"time":1,"transit":false,"is_transit":false,"distance":1305,"station_id":"KLDB","i_lat":-6.217455,"i_long":106.939679},{"is_transit":false,"distance":1385,"i_lat":-6.219053,"i_long":106.951283,"line":0,"station_id":"CUK","station_name":"Cakung","transit":false,"time":8},{"transit":false,"is_transit":false,"i_lat":-6.224515,"i_long":106.977657,"line":1,"station_id":"KRI","station_name":"Kranji","time":3,"distance":3097},{"transit":false,"i_lat":-6.236616,"line":0,"i_long":106.997013,"station_id":"BKS","is_transit":false,"time":4,"distance":2520,"station_name":"Bekasi"},{"station_id":"BKST","is_transit":false,"i_long":107.016735,"line":0,"distance":2368,"station_name":"Bekasi Timur","transit":false,"time":2,"i_lat":-6.248029},{"time":7,"i_long":107.055722,"line":1,"is_transit":false,"i_lat":-6.258864,"transit":false,"station_name":"Tambun","distance":4460,"station_id":"TB"}],[{"distance":0,"is_transit":true,"transit":false,"station_name":"Kampung Bandan","time":0,"line":0,"i_lat":-6.132549,"station_id":"KPB","i_long":106.826365},{"i_lat":-6.137569,"line":0,"distance":1364,"transit":true,"station_id":"JAKK","station_name":"Jakarta Kota","time":3,"i_long":106.812439,"is_transit":true},{"station_id":"JAY","is_transit":false,"distance":1264,"time":4,"transit":false,"station_name":"Jayakarta","i_lat":-6.141205,"i_long":106.820901,"line":7},{"station_id":"MGB","i_lat":-6.149769,"line":2,"transit":false,"time":2,"station_name":"Manggabesar","i_long":106.82482,"is_transit":false,"distance":1080},{"distance":906,"line":2,"time":2,"is_transit":false,"station_id":"SW","transit":false,"i_lat":-6.160725,"i_long":106.827103,"station_name":"Sawah Besar"},{"transit":false,"time":2,"station_id":"JUA","distance":1149,"station_name":"Juanda","i_lat":-6.166716,"i_long":106.828284,"line":2,"is_transit":false},{"station_name":"Gondangdia","line":2,"station_id":"GDD","time":4,"i_lat":-6.186295,"i_long":106.832183,"transit":false,"is_transit":false,"distance":2015},{"station_name":"Cikini","is_transit":false,"distance":1750,"time":3,"i_lat":-6.198556,"transit":false,"i_long":106.840169,"station_id":"CKI","line":0},{"transit":true,"distance":1590,"time":4,"i_lat":-6.209883,"i_long":106.84912,"station_id":"MRI","line":0,"station_name":"Manggarai","is_transit":true},{"time":2,"i_long":106.858896,"station_name":"Matraman","distance":1275,"line":1,"station_id":"MTR","transit":false,"i_lat":-6.212485,"is_transit":false},{"is_transit":true,"i_lat":-6.215091,"line":0,"distance":1377,"transit":false,"i_long":106.86807400000001,"station_id":"JNG","time":8,"station_name":"Jatinegara"},{"distance":3395,"transit":false,"time":3,"i_lat":-6.2135,"i_long":106.899548,"is_transit":false,"line":1,"station_id":"KLD","station_name":"Klender"},{"station_name":"Buaran","transit":false,"i_lat":-6.215568,"i_long":106.922662,"is_transit":false,"station_id":"BUA","time":2,"distance":3100,"line":0},{"is_transit":false,"distance":1305,"station_name":"Klenderbaru","station_id":"KLDB","transit":false,"i_lat":-6.217455,"line":1,"i_long":106.939679,"time":1},{"time":8,"is_transit":false,"distance":1385,"transit":false,"line":0,"i_lat":-6.219053,"station_id":"CUK","i_long":106.951283,"station_name":"Cakung"},{"station_id":"KRI","distance":3097,"i_long":106.977657,"line":1,"i_lat":-6.224515,"transit":false,"is_transit":false,"time":3,"station_name":"Kranji"},{"station_name":"Bekasi","i_long":106.997013,"line":0,"station_id":"BKS","is_transit":false,"distance":2520,"time":4,"transit":false,"i_lat":-6.236616},{"station_name":"Bekasi Timur","i_lat":-6.248029,"i_long":107.016735,"station_id":"BKST","is_transit":false,"distance":2368,"line":0,"time":2,"transit":false},{"i_lat":-6.258864,"is_transit":false,"station_name":"Tambun","time":7,"distance":4460,"i_long":107.055722,"line":1,"station_id":"TB","transit":false}]]}