{"data":[[{"line":4,"transit":false,"i_long":106.826365,"station_id":"KPB","i_lat":-6.132549,"time":0,"is_transit":false,"distance":0,"station_name":"Kampung Bandan"},{"time":9,"is_transit":false,"transit":false,"station_name":"Angke","line":1,"distance":4102,"station_id":"AK","i_lat":-6.144674,"i_long":106.79867},{"transit":true,"time":4,"station_name":"Duri","i_long":106.800832,"line":1,"is_transit":true,"station_id":"DU","i_lat":-6.155215,"distance":1230},{"station_name":"Grogol","i_long":106.788277,"station_id":"GRG","transit":false,"i_lat":-6.162021,"time":3,"distance":1700,"line":5,"is_transit":false},{"time":2,"i_long":106.771379,"station_name":"Pesing","distance":2036,"station_id":"PSG","is_transit":false,"i_lat":-6.161433,"line":5,"transit":false},{"transit":false,"time":2,"station_name":"Taman Kota","i_long":106.756522,"line":5,"station_id":"TKO","is_transit":false,"i_lat":-6.1587309999999995,"distance":1614},{"line":5,"time":2,"station_id":"BOI","i_lat":-6.159876,"i_long":106.737035,"distance":2334,"is_transit":false,"transit":false,"station_name":"Bojongindah"},{"station_id":"RW","station_name":"Rawa Buaya","transit":false,"i_lat":-6.162758,"i_long":106.723064,"line":5,"time":4,"is_transit":false,"distance":1152},{"time":3,"station_id":"KDS","station_name":"Kalideres","transit":false,"i_lat":-6.166068,"distance":2504,"is_transit":false,"i_long":106.701612,"line":5},{"i_lat":-6.169933,"i_long":106.679458,"transit":false,"station_id":"PI","line":5,"time":3,"distance":2548,"is_transit":false,"station_name":"Poris"},{"distance":1834,"is_transit":false,"time":3,"transit":false,"station_id":"BPR","i_lat":-6.171811,"i_long":106.665036,"line":5,"station_name":"Batuceper"},{"station_id":"THI","time":3,"i_lat":-6.17331,"distance":2028,"station_name":"Tanah Tinggi","i_long":106.64657,"line":5,"is_transit":false,"transit":false},{"i_lat":-6.176583,"line":5,"i_long":106.632761,"transit":false,"time":3,"distance":1547,"station_id":"TNG","station_name":"Tangerang","is_transit":false}],[{"distance":0,"i_lat":-6.132549,"is_transit":false,"time":0,"station_id":"KPB","line":4,"station_name":"Kampung Bandan","transit":false,"i_long":106.826365},{"station_id":"JAKK","distance":1364,"transit":true,"i_lat":-6.137569,"is_transit":true,"station_name":"Jakarta Kota","line":2,"time":3,"i_long":106.812439},{"time":4,"distance":1264,"line":2,"i_long":106.820901,"i_lat":-6.141205,"station_id":"JAY","is_transit":false,"station_name":"Jayakarta","transit":false},{"distance":1080,"station_id":"MGB","time":2,"station_name":"Manggabesar","transit":false,"i_lat":-6.149769,"line":2,"is_transit":false,"i_long":106.82482},{"transit":false,"station_name":"Sawah Besar","i_long":106.827103,"time":2,"line":2,"distance":906,"i_lat":-6.160725,"station_id":"SW","is_transit":false},{"i_lat":-6.166716,"station_name":"Juanda","i_long":106.828284,"time":2,"station_id":"JUA","distance":1149,"transit":false,"line":2,"is_transit":false},{"distance":2015,"station_id":"GDD","is_transit":false,"i_lat":-6.186295,"station_name":"Gondangdia","time":4,"i_long":106.832183,"line":2,"transit":false},{"station_name":"Cikini","station_id":"CKI","is_transit":false,"i_lat":-6.198556,"distance":1750,"i_long":106.840169,"transit":false,"line":2,"time":3},{"i_lat":-6.209883,"distance":1590,"i_long":106.84912,"time":4,"is_transit":true,"line":2,"transit":true,"station_id":"MRI","station_name":"Manggarai"},{"is_transit":false,"station_id":"SUD","time":4,"line":1,"i_lat":-6.202263,"i_long":106.822649,"distance":3186,"station_name":"Sudirman","transit":false},{"distance":280,"station_id":"SUDB","is_transit":false,"i_lat":-6.201433,"line":1,"station_name":"Sudirman Baru","transit":false,"i_long":106.819881,"time":1},{"time":1,"i_long":106.816351,"i_lat":-6.20132,"transit":false,"line":1,"station_id":"KAT","station_name":"Karet","is_transit":false,"distance":471},{"i_lat":-6.185545,"i_long":106.811091,"distance":2029,"line":1,"station_name":"Tanah Abang","is_transit":false,"transit":false,"station_id":"THB","time":5},{"line":1,"time":8,"transit":true,"i_lat":-6.155215,"station_id":"DU","distance":3632,"station_name":"Duri","i_long":106.800832,"is_transit":true},{"station_name":"Grogol","transit":false,"is_transit":false,"distance":1700,"i_long":106.788277,"time":3,"station_id":"GRG","line":5,"i_lat":-6.162021},{"is_transit":false,"i_long":106.771379,"station_id":"PSG","distance":2036,"station_name":"Pesing","time":2,"transit":false,"i_lat":-6.161433,"line":5},{"station_id":"TKO","transit":false,"i_lat":-6.1587309999999995,"distance":1614,"station_name":"Taman Kota","time":2,"is_transit":false,"i_long":106.756522,"line":5},{"is_transit":false,"i_lat":-6.159876,"transit":false,"time":2,"station_id":"BOI","distance":2334,"station_name":"Bojongindah","i_long":106.737035,"line":5},{"station_name":"Rawa Buaya","i_long":106.723064,"line":5,"is_transit":false,"station_id":"RW","time":4,"distance":1152,"transit":false,"i_lat":-6.162758},{"transit":false,"i_lat":-6.166068,"time":3,"is_transit":false,"line":5,"station_name":"Kalideres","distance":2504,"station_id":"KDS","i_long":106.701612},{"time":3,"is_transit":false,"transit":false,"i_long":106.679458,"distance":2548,"line":5,"station_name":"Poris","station_id":"PI","i_lat":-6.169933},{"station_id":"BPR","i_lat":-6.171811,"distance":1834,"line":5,"transit":false,"time":3,"i_long":106.665036,"station_name":"Batuceper","is_transit":false},{"line":5,"transit":false,"distance":2028,"station_id":"THI","station_name":"Tanah Tinggi","time":3,"i_lat":-6.17331,"i_long":106.64657,"is_transit":false},{"line":5,"is_transit":false,"distance":1547,"time":3,"station_name":"Tangerang","station_id":"TNG","transit":false,"i_lat":-6.176583,"i_long":106.632761}],[{"time":0,"i_long":106.826365,"transit":false,"i_lat":-6.132549,"is_transit":false,"distance":0,"station_id":"KPB","station_name":"Kampung Bandan","line":4},{"is_transit":false,"distance":1444,"time":3,"line":11,"station_id":"RJW","transit":false,"i_lat":-6.14505,"i_long":106.836569,"station_name":"Rajawali"},{"distance":1901,"station_id":"KMO","transit":false,"time":5,"station_name":"Kemayoran","i_long":106.839204,"is_transit":false,"line":11,"i_lat":-6.161728},{"station_id":"PSE","transit":false,"time":4,"distance":1436,"station_name":"Pasar Senen","line":11,"is_transit":false,"i_long":106.84368,"i_lat":-6.174784},{"time":8,"i_lat":-6.185975,"i_long":106.850107,"station_name":"Gang Sentiong","line":11,"is_transit":false,"distance":1567,"transit":false,"station_id":"GST"},{"station_id":"KMT","i_long":106.855437,"line":11,"i_lat":-6.193792,"distance":973,"is_transit":false,"time":1,"station_name":"Kramat","transit":false},{"station_id":"POK","line":11,"transit":false,"i_lat":-6.209188,"is_transit":false,"station_name":"Pondok Jati","distance":1829,"time":2,"i_long":106.861737},{"is_transit":true,"station_name":"Jatinegara","i_lat":-6.215091,"line":1,"station_id":"JNG","i_long":106.86807400000001,"time":9,"distance":1236,"transit":true},{"line":1,"i_lat":-6.212485,"time":2,"distance":1377,"is_transit":false,"transit":false,"station_name":"Matraman","station_id":"MTR","i_long":106.858896},{"time":2,"station_name":"Manggarai","i_lat":-6.209883,"i_long":106.84912,"line":2,"transit":false,"station_id":"MRI","is_transit":false,"distance":1275},{"i_long":106.822649,"distance":3186,"is_transit":false,"time":4,"line":1,"transit":false,"station_name":"Sudirman","station_id":"SUD","i_lat":-6.202263},{"i_lat":-6.201433,"line":1,"distance":280,"station_name":"Sudirman Baru","i_long":106.819881,"is_transit":false,"time":1,"transit":false,"station_id":"SUDB"},{"i_lat":-6.20132,"transit":false,"time":1,"line":1,"distance":471,"i_long":106.816351,"station_name":"Karet","station_id":"KAT","is_transit":false},{"station_name":"Tanah Abang","line":1,"i_lat":-6.185545,"distance":2029,"transit":false,"time":5,"is_transit":false,"station_id":"THB","i_long":106.811091},{"i_long":106.800832,"line":1,"distance":3632,"station_name":"Duri","transit":true,"station_id":"DU","is_transit":true,"i_lat":-6.155215,"time":8},{"station_id":"GRG","i_long":106.788277,"i_lat":-6.162021,"time":3,"is_transit":false,"line":5,"transit":false,"distance":1700,"station_name":"Grogol"},{"time":2,"station_name":"Pesing","i_long":106.771379,"is_transit":false,"line":5,"distance":2036,"transit":false,"i_lat":-6.161433,"station_id":"PSG"},{"transit":false,"i_long":106.756522,"time":2,"distance":1614,"station_id":"TKO","is_transit":false,"i_lat":-6.1587309999999995,"line":5,"station_name":"Taman Kota"},{"transit":false,"is_transit":false,"i_lat":-6.159876,"line":5,"distance":2334,"i_long":106.737035,"station_id":"BOI","time":2,"station_name":"Bojongindah"},{"distance":1152,"station_name":"Rawa Buaya","i_long":106.723064,"station_id":"RW","i_lat":-6.162758,"transit":false,"line":5,"time":4,"is_transit":false},{"i_lat":-6.166068,"line":5,"station_name":"Kalideres","distance":2504,"is_transit":false,"time":3,"station_id":"KDS","transit":false,"i_long":106.701612},{"transit":false,"station_name":"Poris","i_lat":-6.169933,"line":5,"i_long":106.679458,"time":3,"distance":2548,"is_transit":false,"station_id":"PI"},{"station_name":"Batuceper","time":3,"station_id":"BPR","transit":false,"i_long":106.665036,"is_transit":false,"i_lat":-6.171811,"distance":1834,"line":5},{"time":3,"distance":2028,"i_lat":-6.17331,"i_long":106.64657,"transit":false,"station_id":"THI","is_transit":false,"station_name":"Tanah Tinggi","line":5},{"time":3,"distance":1547,"transit":false,"i_lat":-6.176583,"i_long":106.632761,"line":5,"station_id":"TNG","station_name":"Tangerang","is_transit":false}]]}