{"data":[[{"i_lat":-6.132549,"i_long":106.826365,"line":0,"time":0,"station_name":"Kampung Bandan","distance":0,"transit":false,"is_transit":true,"station_id":"KPB"},{"station_id":"AK","transit":false,"i_lat":-6.144674,"line":0,"i_long":106.79867,"distance":4102,"time":9,"station_name":"Angke","is_transit":false},{"is_transit":true,"transit":true,"i_lat":-6.155215,"distance":1230,"station_id":"DU","station_name":"Duri","time":4,"i_long":106.800832,"line":1},{"time":8,"distance":3632,"is_transit":true,"i_long":106.811091,"station_name":"Tanah Abang","i_lat":-6.185545,"station_id":"THB","line":1,"transit":true},{"station_name":"Palmerah","line":6,"distance":3191,"is_transit":false,"transit":false,"station_id":"PLM","time":6,"i_lat":-6.207404,"i_long":106.79689},{"i_long":106.780334,"time":7,"line":6,"station_name":"Kebayoran","station_id":"KBY","is_transit":false,"distance":3737,"transit":false,"i_lat":-6.237242},{"time":8,"distance":6218,"i_lat":-6.276362,"transit":false,"station_id":"PDJ","line":6,"is_transit":false,"i_long":106.74273,"station_name":"Pondokranji"},{"is_transit":false,"station_id":"JMU","distance":2179,"transit":false,"i_lat":-6.288927,"time":3,"station_name":"Jurangmangu","i_long":106.728916,"line":6},{"line":6,"transit":false,"i_long":106.712277,"station_name":"Sudimara","time":4,"station_id":"SDM","is_transit":false,"i_lat":-6.296963,"distance":1994},{"transit":false,"i_lat":-6.314823,"station_name":"Rawa Buntu","i_long":106.675475,"distance":4566,"line":6,"station_id":"RU","is_transit":false,"time":6},{"distance":2413,"is_transit":false,"i_long":106.66566,"line":6,"station_id":"SRP","transit":false,"time":4,"station_name":"Serpong","i_lat":-6.319871},{"time":4,"transit":false,"i_long":106.640411,"line":0,"is_transit":false,"i_lat":-6.32484,"distance":1784,"station_name":"Cisauk","station_id":"CSK"},{"station_name":"Cicayur","line":0,"time":4,"distance":2519,"i_lat":-6.329547,"i_long":106.617853,"is_transit":false,"station_id":"CC","transit":false},{"i_lat":-6.3441410000000005,"distance":5968,"is_transit":false,"station_name":"Parung Panjang","time":8,"i_long":106.568863,"line":6,"station_id":"PRP","transit":false},{"line":0,"is_transit":false,"transit":false,"i_long":106.508482,"station_id":"CJT","time":9,"i_lat":-6.354349,"distance":7025,"station_name":"Cilejit"},{"is_transit":false,"distance":2675,"line":0,"i_lat":-6.338021,"station_id":"DAR","transit":false,"i_long":106.491338,"time":6,"station_name":"Daru"},{"station_id":"TEJ","time":5,"transit":false,"i_long":106.460812,"i_lat":-6.327251,"is_transit":false,"station_name":"Tenjo","line":6,"distance":3902}],[{"is_transit":true,"distance":0,"i_long":106.826365,"i_lat":-6.132549,"station_id":"KPB","line":0,"transit":false,"station_name":"Kampung Bandan","time":0},{"i_long":106.812439,"transit":true,"i_lat":-6.137569,"station_id":"JAKK","time":3,"station_name":"Jakarta Kota","line":0,"is_transit":true,"distance":1364},{"station_name":"Jayakarta","i_lat":-6.141205,"line":7,"time":4,"station_id":"JAY","is_transit":false,"i_long":106.820901,"transit":false,"distance":1264},{"distance":1080,"line":2,"station_name":"Manggabesar","time":2,"i_lat":-6.149769,"station_id":"MGB","is_transit":false,"transit":false,"i_long":106.82482},{"i_lat":-6.160725,"time":2,"is_transit":false,"i_long":106.827103,"line":2,"station_id":"SW","station_name":"Sawah Besar","transit":false,"distance":906},{"i_long":106.828284,"distance":1149,"station_name":"Juanda","is_transit":false,"station_id":"JUA","line":2,"time":2,"transit":false,"i_lat":-6.166716},{"is_transit":false,"station_id":"GDD","station_name":"Gondangdia","transit":false,"line":2,"i_lat":-6.186295,"i_long":106.832183,"time":4,"distance":2015},{"i_long":106.840169,"is_transit":false,"transit":false,"i_lat":-6.198556,"station_id":"CKI","distance":1750,"line":0,"time":3,"station_name":"Cikini"},{"station_id":"MRI","line":0,"time":4,"i_lat":-6.209883,"i_long":106.84912,"is_transit":true,"transit":true,"distance":1590,"station_name":"Manggarai"},{"time":4,"is_transit":false,"transit":false,"station_id":"SUD","distance":3186,"station_name":"Sudirman","i_lat":-6.202263,"i_long":106.822649,"line":1},{"time":1,"is_transit":false,"distance":280,"transit":false,"i_lat":-6.201433,"station_name":"Sudirman Baru","i_long":106.819881,"line":1,"station_id":"SUDB"},{"distance":471,"i_long":106.816351,"transit":false,"time":1,"i_lat":-6.20132,"station_id":"KAT","line":1,"station_name":"Karet","is_transit":false},{"station_name":"Tanah Abang","line":1,"time":5,"station_id":"THB","is_transit":true,"transit":true,"distance":2029,"i_long":106.811091,"i_lat":-6.185545},{"distance":3191,"line":6,"i_lat":-6.207404,"station_name":"Palmerah","station_id":"PLM","time":6,"i_long":106.79689,"transit":false,"is_transit":false},{"time":7,"station_id":"KBY","distance":3737,"transit":false,"i_lat":-6.237242,"line":6,"i_long":106.780334,"station_name":"Kebayoran","is_transit":false},{"is_transit":false,"time":8,"station_id":"PDJ","station_name":"Pondokranji","distance":6218,"i_long":106.74273,"line":6,"transit":false,"i_lat":-6.276362},{"line":6,"distance":2179,"i_long":106.728916,"i_lat":-6.288927,"station_id":"JMU","transit":false,"station_name":"Jurangmangu","is_transit":false,"time":3},{"is_transit":false,"i_lat":-6.296963,"station_name":"Sudimara","station_id":"SDM","line":6,"distance":1994,"i_long":106.712277,"time":4,"transit":false},{"time":6,"station_name":"Rawa Buntu","is_transit":false,"i_long":106.675475,"distance":4566,"transit":false,"line":6,"i_lat":-6.314823,"station_id":"RU"},{"station_id":"SRP","transit":false,"i_long":106.66566,"line":6,"station_name":"Serpong","time":4,"is_transit":false,"distance":2413,"i_lat":-6.319871},{"station_name":"Cisauk","distance":1784,"is_transit":false,"transit":false,"station_id":"CSK","time":4,"i_lat":-6.32484,"i_long":106.640411,"line":0},{"i_lat":-6.329547,"distance":2519,"station_id":"CC","station_name":"Cicayur","transit":false,"i_long":106.617853,"line":0,"time":4,"is_transit":false},{"time":8,"line":6,"distance":5968,"station_id":"PRP","transit":false,"i_lat":-6.3441410000000005,"i_long":106.568863,"station_name":"Parung Panjang","is_transit":false},{"transit":false,"i_long":106.508482,"i_lat":-6.354349,"distance":7025,"line":0,"is_transit":false,"station_id":"CJT","station_name":"Cilejit","time":9},{"time":6,"i_lat":-6.338021,"is_transit":false,"i_long":106.491338,"transit":false,"station_name":"Daru","distance":2675,"line":0,"station_id":"DAR"},{"transit":false,"station_name":"Tenjo","is_transit":false,"distance":3902,"time":5,"i_lat":-6.327251,"i_long":106.460812,"station_id":"TEJ","line":6}],[{"station_name":"Kampung Bandan","is_transit":true,"line":0,"station_id":"KPB","time":0,"distance":0,"transit":false,"i_long":106.826365,"i_lat":-6.132549},{"is_transit":false,"line":11,"i_lat":-6.14505,"distance":1444,"transit":false,"station_id":"RJW","time":3,"i_long":106.836569,"station_name":"Rajawali"},{"time":5,"i_lat":-6.161728,"is_transit":false,"station_name":"Kemayoran","station_id":"KMO","distance":1901,"line":11,"i_long":106.839204,"transit":false},{"time":4,"line":11,"distance":1436,"transit":false,"i_long":106.84368,"is_transit":false,"i_lat":-6.174784,"station_name":"Pasar Senen","station_id":"PSE"},{"station_name":"Gang Sentiong","i_long":106.850107,"transit":false,"time":8,"station_id":"GST","distance":1567,"line":11,"is_transit":false,"i_lat":-6.185975},{"i_long":106.855437,"distance":973,"station_name":"Kramat","is_transit":false,"line":11,"i_lat":-6.193792,"station_id":"KMT","time":1,"transit":false},{"time":2,"station_name":"Pondok Jati","is_transit":false,"transit":false,"station_id":"POK","i_lat":-6.209188,"distance":1829,"i_long":106.861737,"line":11},{"distance":1236,"is_transit":true,"line":0,"i_lat":-6.215091,"time":9,"transit":true,"station_id":"JNG","i_long":106.86807400000001,"station_name":"Jatinegara"},{"time":2,"i_long":106.858896,"station_name":"Matraman","i_lat":-6.212485,"station_id":"MTR","is_transit":false,"distance":1377,"transit":false,"line":1},{"station_id":"MRI","time":2,"line":0,"distance":1275,"i_long":106.84912,"is_transit":true,"i_lat":-6.209883,"station_name":"Manggarai","transit":false},{"station_name":"Sudirman","time":4,"i_long":106.822649,"is_transit":false,"line":1,"i_lat":-6.202263,"station_id":"SUD","distance":3186,"transit":false},{"i_long":106.819881,"station_id":"SUDB","transit":false,"distance":280,"time":1,"is_transit":false,"i_lat":-6.201433,"station_name":"Sudirman Baru","line":1},{"station_id":"KAT","line":1,"is_transit":false,"i_lat":-6.20132,"time":1,"station_name":"Karet","distance":471,"transit":false,"i_long":106.816351},{"station_name":"Tanah Abang","is_transit":true,"i_lat":-6.185545,"distance":2029,"line":1,"station_id":"THB","i_long":106.811091,"transit":true,"time":5},{"station_id":"PLM","i_lat":-6.207404,"time":6,"station_name":"Palmerah","distance":3191,"line":6,"is_transit":false,"i_long":106.79689,"transit":false},{"station_id":"KBY","line":6,"is_transit":false,"i_lat":-6.237242,"distance":3737,"time":7,"i_long":106.780334,"station_name":"Kebayoran","transit":false},{"station_name":"Pondokranji","time":8,"transit":false,"is_transit":false,"line":6,"distance":6218,"station_id":"PDJ","i_long":106.74273,"i_lat":-6.276362},{"is_transit":false,"line":6,"i_lat":-6.288927,"station_id":"JMU","station_name":"Jurangmangu","distance":2179,"transit":false,"i_long":106.728916,"time":3},{"station_name":"Sudimara","is_transit":false,"time":4,"station_id":"SDM","transit":false,"i_long":106.712277,"line":6,"distance":1994,"i_lat":-6.296963},{"distance":4566,"i_lat":-6.314823,"line":6,"is_transit":false,"transit":false,"station_id":"RU","station_name":"Rawa Buntu","time":6,"i_long":106.675475},{"station_name":"Serpong","time":4,"i_long":106.66566,"i_lat":-6.319871,"distance":2413,"station_id":"SRP","transit":false,"line":6,"is_transit":false},{"is_transit":false,"transit":false,"line":0,"station_id":"CSK","i_lat":-6.32484,"distance":1784,"station_name":"Cisauk","time":4,"i_long":106.640411},{"i_lat":-6.329547,"transit":false,"time":4,"station_id":"CC","is_transit":false,"distance":2519,"line":0,"station_name":"Cicayur","i_long":106.617853},{"station_name":"Parung Panjang","time":8,"i_long":106.568863,"is_transit":false,"line":6,"transit":false,"distance":5968,"station_id":"PRP","i_lat":-6.3441410000000005},{"line":0,"i_long":106.508482,"station_name":"Cilejit","station_id":"CJT","time":9,"transit":false,"i_lat":-6.354349,"is_transit":false,"distance":7025},{"i_long":106.491338,"station_id":"DAR","is_transit":false,"time":6,"transit":false,"line":0,"distance":2675,"i_lat":-6.338021,"station_name":"Daru"},{"time":5,"is_transit":false,"distance":3902,"i_long":106.460812,"station_id":"TEJ","line":6,"i_lat":-6.327251,"station_name":"Tenjo","transit":false}]]}