{"data":[[{"station_id":"KPB","station_name":"Kampung Bandan","distance":0,"time":0,"i_lat":-6.132549,"is_transit":false,"transit":false,"i_long":106.826365,"line":4},{"i_lat":-6.14505,"i_long":106.836569,"line":11,"transit":false,"time":3,"distance":1444,"station_id":"RJW","station_name":"Rajawali","is_transit":false},{"time":5,"i_long":106.839204,"station_id":"KMO","line":11,"distance":1901,"is_transit":false,"station_name":"Kemayoran","i_lat":-6.161728,"transit":false},{"transit":false,"is_transit":false,"station_id":"PSE","time":4,"station_name":"Pasar Senen","i_lat":-6.174784,"i_long":106.84368,"line":11,"distance":1436},{"station_name":"Gang Sentiong","line":11,"station_id":"GST","is_transit":false,"i_lat":-6.185975,"i_long":106.850107,"distance":1567,"transit":false,"time":8},{"time":1,"station_name":"Kramat","i_long":106.855437,"station_id":"KMT","line":11,"is_transit":false,"transit":false,"i_lat":-6.193792,"distance":973},{"transit":false,"line":11,"i_long":106.861737,"station_name":"Pondok Jati","time":2,"i_lat":-6.209188,"station_id":"POK","distance":1829,"is_transit":false},{"time":9,"i_lat":-6.215091,"i_long":106.86807400000001,"distance":1236,"station_id":"JNG","line":1,"transit":true,"station_name":"Jatinegara","is_transit":true},{"time":3,"i_long":106.899548,"line":1,"is_transit":false,"i_lat":-6.2135,"station_id":"KLD","station_name":"Klender","distance":3395,"transit":false},{"transit":false,"i_lat":-6.215568,"i_long":106.922662,"station_id":"BUA","time":2,"is_transit":false,"distance":3100,"line":1,"station_name":"Buaran"},{"i_lat":-6.217455,"time":1,"i_long":106.939679,"station_id":"KLDB","is_transit":false,"station_name":"Klenderbaru","line":1,"distance":1305,"transit":false},{"station_id":"CUK","transit":false,"time":8,"distance":1385,"i_lat":-6.219053,"i_long":106.951283,"station_name":"Cakung","is_transit":false,"line":1},{"transit":false,"i_long":106.977657,"station_id":"KRI","i_lat":-6.224515,"distance":3097,"line":1,"is_transit":false,"station_name":"Kranji","time":3},{"i_long":106.997013,"line":1,"station_id":"BKS","distance":2520,"station_name":"Bekasi","transit":false,"is_transit":false,"time":4,"i_lat":-6.236616},{"time":2,"line":1,"station_id":"BKST","transit":false,"i_lat":-6.248029,"is_transit":false,"i_long":107.016735,"station_name":"Bekasi Timur","distance":2368},{"station_id":"TB","station_name":"Tambun","transit":false,"is_transit":false,"time":7,"line":1,"i_long":107.055722,"distance":4460,"i_lat":-6.258864},{"distance":3420,"i_lat":-6.261877,"is_transit":false,"station_id":"CIT","line":1,"station_name":"Cibitung","transit":false,"time":3,"i_long":107.083084}],[{"station_id":"KPB","distance":0,"i_long":106.826365,"is_transit":false,"line":4,"time":0,"station_name":"Kampung Bandan","i_lat":-6.132549,"transit":false},{"transit":false,"time":9,"station_id":"AK","line":1,"station_name":"Angke","is_transit":false,"distance":4102,"i_lat":-6.144674,"i_long":106.79867},{"time":4,"i_long":106.800832,"station_name":"Duri","distance":1230,"i_lat":-6.155215,"line":1,"is_transit":false,"station_id":"DU","transit":false},{"transit":false,"distance":3632,"i_lat":-6.185545,"i_long":106.811091,"station_name":"Tanah Abang","is_transit":false,"time":8,"station_id":"THB","line":1},{"i_lat":-6.20132,"i_long":106.816351,"distance":2029,"is_transit":false,"station_name":"Karet","line":1,"station_id":"KAT","transit":false,"time":5},{"i_lat":-6.201433,"distance":471,"time":1,"station_id":"SUDB","is_transit":false,"i_long":106.819881,"line":1,"transit":false,"station_name":"Sudirman Baru"},{"i_long":106.822649,"station_id":"SUD","line":1,"transit":false,"distance":280,"station_name":"Sudirman","is_transit":false,"i_lat":-6.202263,"time":1},{"i_long":106.84912,"station_name":"Manggarai","is_transit":false,"i_lat":-6.209883,"distance":3186,"line":2,"transit":false,"station_id":"MRI","time":4},{"time":2,"distance":1275,"station_name":"Matraman","station_id":"MTR","i_long":106.858896,"is_transit":false,"i_lat":-6.212485,"transit":false,"line":1},{"distance":1377,"i_long":106.86807400000001,"line":1,"is_transit":false,"i_lat":-6.215091,"station_name":"Jatinegara","station_id":"JNG","transit":false,"time":8},{"line":1,"station_name":"Klender","transit":false,"i_long":106.899548,"i_lat":-6.2135,"is_transit":false,"time":3,"station_id":"KLD","distance":3395},{"transit":false,"station_id":"BUA","distance":3100,"is_transit":false,"i_lat":-6.215568,"time":2,"station_name":"Buaran","i_long":106.922662,"line":1},{"distance":1305,"time":1,"station_id":"KLDB","i_long":106.939679,"line":1,"transit":false,"is_transit":false,"i_lat":-6.217455,"station_name":"Klenderbaru"},{"is_transit":false,"i_lat":-6.219053,"time":8,"line":1,"station_name":"Cakung","station_id":"CUK","distance":1385,"transit":false,"i_long":106.951283},{"i_long":106.977657,"distance":3097,"is_transit":false,"transit":false,"station_id":"KRI","time":3,"station_name":"Kranji","i_lat":-6.224515,"line":1},{"station_id":"BKS","station_name":"Bekasi","distance":2520,"transit":false,"time":4,"i_lat":-6.236616,"i_long":106.997013,"line":1,"is_transit":false},{"is_transit":false,"station_name":"Bekasi Timur","transit":false,"station_id":"BKST","i_long":107.016735,"time":2,"distance":2368,"line":1,"i_lat":-6.248029},{"line":1,"transit":false,"station_name":"Tambun","time":7,"i_lat":-6.258864,"is_transit":false,"distance":4460,"station_id":"TB","i_long":107.055722},{"station_id":"CIT","transit":false,"distance":3420,"is_transit":false,"time":3,"i_lat":-6.261877,"station_name":"Cibitung","line":1,"i_long":107.083084}],[{"distance":0,"station_id":"KPB","transit":false,"time":0,"i_lat":-6.132549,"i_long":106.826365,"is_transit":false,"station_name":"Kampung Bandan","line":4},{"is_transit":true,"time":3,"line":2,"station_id":"JAKK","distance":1364,"i_long":106.812439,"i_lat":-6.137569,"station_name":"Jakarta Kota","transit":true},{"station_id":"JAY","distance":1264,"line":2,"transit":false,"time":4,"is_transit":false,"i_lat":-6.141205,"i_long":106.820901,"station_name":"Jayakarta"},{"station_name":"Manggabesar","transit":false,"is_transit":false,"i_lat":-6.149769,"line":2,"distance":1080,"i_long":106.82482,"time":2,"station_id":"MGB"},{"station_id":"SW","distance":906,"time":2,"station_name":"Sawah Besar","i_long":106.827103,"transit":false,"is_transit":false,"i_lat":-6.160725,"line":2},{"i_long":106.828284,"i_lat":-6.166716,"transit":false,"is_transit":false,"line":2,"station_id":"JUA","station_name":"Juanda","time":2,"distance":1149},{"distance":2015,"i_lat":-6.186295,"is_transit":false,"line":2,"i_long":106.832183,"time":4,"station_id":"GDD","transit":false,"station_name":"Gondangdia"},{"station_name":"Cikini","i_lat":-6.198556,"line":2,"time":3,"distance":1750,"station_id":"CKI","i_long":106.840169,"transit":false,"is_transit":false},{"line":2,"station_name":"Manggarai","i_long":106.84912,"time":4,"station_id":"MRI","is_transit":true,"transit":true,"i_lat":-6.209883,"distance":1590},{"station_name":"Matraman","transit":false,"time":2,"i_lat":-6.212485,"distance":1275,"is_transit":false,"station_id":"MTR","i_long":106.858896,"line":1},{"station_id":"JNG","station_name":"Jatinegara","i_lat":-6.215091,"distance":1377,"is_transit":false,"transit":false,"line":1,"time":8,"i_long":106.86807400000001},{"transit":false,"station_id":"KLD","station_name":"Klender","time":3,"distance":3395,"is_transit":false,"i_long":106.899548,"i_lat":-6.2135,"line":1},{"i_long":106.922662,"is_transit":false,"time":2,"line":1,"i_lat":-6.215568,"distance":3100,"station_id":"BUA","station_name":"Buaran","transit":false},{"distance":1305,"line":1,"station_name":"Klenderbaru","station_id":"KLDB","transit":false,"time":1,"i_lat":-6.217455,"i_long":106.939679,"is_transit":false},{"i_lat":-6.219053,"station_id":"CUK","station_name":"Cakung","distance":1385,"i_long":106.951283,"transit":false,"is_transit":false,"time":8,"line":1},{"distance":3097,"transit":false,"i_long":106.977657,"is_transit":false,"line":1,"time":3,"i_lat":-6.224515,"station_id":"KRI","station_name":"Kranji"},{"is_transit":false,"line":1,"i_long":106.997013,"distance":2520,"transit":false,"time":4,"station_name":"Bekasi","station_id":"BKS","i_lat":-6.236616},{"distance":2368,"i_lat":-6.248029,"station_name":"Bekasi Timur","is_transit":false,"station_id":"BKST","i_long":107.016735,"transit":false,"line":1,"time":2},{"transit":false,"station_name":"Tambun","time":7,"line":1,"distance":4460,"i_lat":-6.258864,"is_transit":false,"i_long":107.055722,"station_id":"TB"},{"is_transit":false,"distance":3420,"i_lat":-6.261877,"line":1,"station_id":"CIT","time":3,"i_long":107.083084,"station_name":"Cibitung","transit":false}]]}