{"data":[[{"station_name":"Kampung Bandan","distance":0,"is_transit":true,"i_long":106.826365,"transit":false,"time":0,"station_id":"KPB","i_lat":-6.132549,"line":0},{"line":11,"transit":false,"i_long":106.836569,"station_id":"RJW","distance":1444,"time":3,"i_lat":-6.14505,"station_name":"Rajawali","is_transit":false},{"i_lat":-6.161728,"distance":1901,"transit":false,"station_name":"Kemayoran","is_transit":false,"line":11,"time":5,"i_long":106.839204,"station_id":"KMO"},{"distance":1436,"i_long":106.84368,"is_transit":false,"i_lat":-6.174784,"transit":false,"line":11,"time":4,"station_name":"Pasar Senen","station_id":"PSE"}],[{"is_transit":true,"distance":0,"station_id":"KPB","i_long":106.826365,"station_name":"Kampung Bandan","time":0,"transit":false,"line":0,"i_lat":-6.132549},{"distance":4102,"time":9,"line":0,"i_long":106.79867,"is_transit":false,"station_id":"AK","i_lat":-6.144674,"transit":false,"station_name":"Angke"},{"station_id":"DU","transit":true,"station_name":"Duri","i_lat":-6.155215,"line":1,"distance":1230,"is_transit":true,"time":4,"i_long":106.800832},{"station_id":"THB","transit":false,"line":1,"i_lat":-6.185545,"station_name":"Tanah Abang","is_transit":true,"time":8,"distance":3632,"i_long":106.811091},{"distance":2029,"line":1,"station_name":"Karet","station_id":"KAT","is_transit":false,"i_lat":-6.20132,"transit":false,"i_long":106.816351,"time":5},{"station_name":"Sudirman Baru","line":1,"distance":471,"i_lat":-6.201433,"i_long":106.819881,"is_transit":false,"time":1,"station_id":"SUDB","transit":false},{"distance":280,"station_id":"SUD","transit":false,"i_long":106.822649,"station_name":"Sudirman","time":1,"i_lat":-6.202263,"line":1,"is_transit":false},{"station_name":"Manggarai","is_transit":true,"i_lat":-6.209883,"transit":false,"station_id":"MRI","i_long":106.84912,"time":4,"distance":3186,"line":0},{"line":1,"station_id":"MTR","transit":false,"station_name":"Matraman","i_lat":-6.212485,"time":2,"is_transit":false,"i_long":106.858896,"distance":1275},{"station_id":"JNG","time":8,"is_transit":true,"station_name":"Jatinegara","i_lat":-6.215091,"line":0,"transit":true,"distance":1377,"i_long":106.86807400000001},{"station_id":"POK","line":11,"station_name":"Pondok Jati","time":2,"is_transit":false,"i_long":106.861737,"transit":false,"distance":1236,"i_lat":-6.209188},{"line":11,"station_id":"KMT","distance":1829,"is_transit":false,"transit":false,"i_lat":-6.193792,"i_long":106.855437,"time":2,"station_name":"Kramat"},{"station_id":"GST","time":1,"is_transit":false,"line":11,"transit":false,"i_long":106.850107,"i_lat":-6.185975,"station_name":"Gang Sentiong","distance":973},{"distance":1567,"station_name":"Pasar Senen","time":8,"is_transit":false,"i_long":106.84368,"line":11,"i_lat":-6.174784,"transit":false,"station_id":"PSE"}],[{"transit":false,"time":0,"distance":0,"line":0,"i_long":106.826365,"i_lat":-6.132549,"station_id":"KPB","is_transit":true,"station_name":"Kampung Bandan"},{"distance":1364,"is_transit":true,"line":0,"time":3,"station_name":"Jakarta Kota","i_lat":-6.137569,"i_long":106.812439,"station_id":"JAKK","transit":true},{"line":7,"i_long":106.820901,"is_transit":false,"station_name":"Jayakarta","distance":1264,"i_lat":-6.141205,"time":4,"station_id":"JAY","transit":false},{"station_id":"MGB","distance":1080,"i_lat":-6.149769,"time":2,"line":2,"station_name":"Manggabesar","transit":false,"i_long":106.82482,"is_transit":false},{"i_lat":-6.160725,"time":2,"station_name":"Sawah Besar","transit":false,"distance":906,"line":2,"station_id":"SW","i_long":106.827103,"is_transit":false},{"station_name":"Juanda","station_id":"JUA","time":2,"distance":1149,"i_lat":-6.166716,"is_transit":false,"transit":false,"i_long":106.828284,"line":2},{"i_long":106.832183,"line":2,"time":4,"is_transit":false,"station_id":"GDD","transit":false,"station_name":"Gondangdia","distance":2015,"i_lat":-6.186295},{"distance":1750,"i_long":106.840169,"time":3,"i_lat":-6.198556,"line":0,"is_transit":false,"station_id":"CKI","station_name":"Cikini","transit":false},{"i_long":106.84912,"line":0,"i_lat":-6.209883,"transit":true,"station_id":"MRI","is_transit":true,"station_name":"Manggarai","distance":1590,"time":4},{"is_transit":false,"line":1,"time":2,"station_name":"Matraman","i_lat":-6.212485,"i_long":106.858896,"station_id":"MTR","transit":false,"distance":1275},{"i_long":106.86807400000001,"distance":1377,"station_name":"Jatinegara","station_id":"JNG","transit":true,"is_transit":true,"line":0,"i_lat":-6.215091,"time":8},{"station_id":"POK","transit":false,"line":11,"station_name":"Pondok Jati","i_lat":-6.209188,"distance":1236,"time":2,"i_long":106.861737,"is_transit":false},{"time":2,"is_transit":false,"i_long":106.855437,"station_id":"KMT","line":11,"transit":false,"distance":1829,"station_name":"Kramat","i_lat":-6.193792},{"i_long":106.850107,"line":11,"station_name":"Gang Sentiong","distance":973,"time":1,"station_id":"GST","transit":false,"is_transit":false,"i_lat":-6.185975},{"is_transit":false,"i_long":106.84368,"transit":false,"line":11,"station_id":"PSE","time":8,"i_lat":-6.174784,"distance":1567,"station_name":"Pasar Senen"}]]}