{"data":[[{"transit":false,"i_long":106.826365,"station_id":"KPB","is_transit":true,"station_name":"Kampung Bandan","line":0,"i_lat":-6.132549,"distance":0,"time":0},{"station_id":"RJW","i_lat":-6.14505,"distance":1444,"is_transit":false,"transit":false,"line":11,"station_name":"Rajawali","i_long":106.836569,"time":3},{"i_long":106.839204,"station_id":"KMO","transit":false,"i_lat":-6.161728,"line":11,"station_name":"Kemayoran","is_transit":false,"time":5,"distance":1901}],[{"time":0,"is_transit":true,"i_long":106.826365,"transit":false,"station_id":"KPB","line":0,"i_lat":-6.132549,"distance":0,"station_name":"Kampung Bandan"},{"distance":4102,"i_long":106.79867,"line":0,"station_id":"AK","is_transit":false,"station_name":"Angke","time":9,"transit":false,"i_lat":-6.144674},{"i_lat":-6.155215,"is_transit":true,"i_long":106.800832,"transit":true,"time":4,"distance":1230,"station_id":"DU","station_name":"Duri","line":1},{"is_transit":true,"transit":false,"station_id":"THB","station_name":"Tanah Abang","time":8,"i_lat":-6.185545,"line":1,"i_long":106.811091,"distance":3632},{"station_id":"KAT","station_name":"Karet","time":5,"i_long":106.816351,"i_lat":-6.20132,"transit":false,"distance":2029,"line":1,"is_transit":false},{"i_long":106.819881,"transit":false,"line":1,"is_transit":false,"station_id":"SUDB","time":1,"distance":471,"station_name":"Sudirman Baru","i_lat":-6.201433},{"station_id":"SUD","time":1,"i_lat":-6.202263,"transit":false,"station_name":"Sudirman","is_transit":false,"distance":280,"i_long":106.822649,"line":1},{"station_name":"Manggarai","time":4,"line":0,"i_lat":-6.209883,"transit":false,"is_transit":true,"i_long":106.84912,"distance":3186,"station_id":"MRI"},{"line":1,"station_id":"MTR","i_long":106.858896,"time":2,"distance":1275,"transit":false,"i_lat":-6.212485,"station_name":"Matraman","is_transit":false},{"is_transit":true,"line":0,"transit":true,"time":8,"station_name":"Jatinegara","station_id":"JNG","i_lat":-6.215091,"distance":1377,"i_long":106.86807400000001},{"station_id":"POK","time":2,"is_transit":false,"i_lat":-6.209188,"station_name":"Pondok Jati","transit":false,"i_long":106.861737,"line":11,"distance":1236},{"time":2,"line":11,"distance":1829,"station_id":"KMT","i_lat":-6.193792,"is_transit":false,"i_long":106.855437,"station_name":"Kramat","transit":false},{"i_long":106.850107,"time":1,"is_transit":false,"i_lat":-6.185975,"transit":false,"station_id":"GST","station_name":"Gang Sentiong","distance":973,"line":11},{"distance":1567,"i_lat":-6.174784,"line":11,"station_id":"PSE","station_name":"Pasar Senen","transit":false,"time":8,"is_transit":false,"i_long":106.84368},{"time":4,"is_transit":false,"station_id":"KMO","distance":1436,"i_lat":-6.161728,"line":11,"station_name":"Kemayoran","i_long":106.839204,"transit":false}],[{"station_id":"KPB","distance":0,"i_long":106.826365,"line":0,"is_transit":true,"i_lat":-6.132549,"transit":false,"station_name":"Kampung Bandan","time":0},{"i_lat":-6.137569,"transit":true,"is_transit":true,"time":3,"station_id":"JAKK","station_name":"Jakarta Kota","line":0,"distance":1364,"i_long":106.812439},{"distance":1264,"station_name":"Jayakarta","is_transit":false,"station_id":"JAY","i_long":106.820901,"line":7,"transit":false,"time":4,"i_lat":-6.141205},{"transit":false,"line":2,"is_transit":false,"i_lat":-6.149769,"station_id":"MGB","distance":1080,"time":2,"i_long":106.82482,"station_name":"Manggabesar"},{"station_id":"SW","distance":906,"transit":false,"time":2,"i_lat":-6.160725,"i_long":106.827103,"station_name":"Sawah Besar","line":2,"is_transit":false},{"distance":1149,"time":2,"i_lat":-6.166716,"station_name":"Juanda","transit":false,"line":2,"i_long":106.828284,"is_transit":false,"station_id":"JUA"},{"line":2,"is_transit":false,"transit":false,"i_long":106.832183,"distance":2015,"time":4,"station_id":"GDD","station_name":"Gondangdia","i_lat":-6.186295},{"station_id":"CKI","station_name":"Cikini","transit":false,"is_transit":false,"time":3,"i_lat":-6.198556,"line":0,"i_long":106.840169,"distance":1750},{"i_lat":-6.209883,"distance":1590,"station_id":"MRI","station_name":"Manggarai","i_long":106.84912,"line":0,"transit":true,"time":4,"is_transit":true},{"distance":1275,"station_name":"Matraman","transit":false,"time":2,"i_lat":-6.212485,"station_id":"MTR","is_transit":false,"i_long":106.858896,"line":1},{"i_lat":-6.215091,"line":0,"transit":true,"distance":1377,"station_id":"JNG","station_name":"Jatinegara","time":8,"is_transit":true,"i_long":106.86807400000001},{"distance":1236,"time":2,"i_lat":-6.209188,"station_name":"Pondok Jati","transit":false,"station_id":"POK","is_transit":false,"i_long":106.861737,"line":11},{"station_id":"KMT","time":2,"is_transit":false,"line":11,"i_lat":-6.193792,"station_name":"Kramat","transit":false,"distance":1829,"i_long":106.855437},{"transit":false,"line":11,"time":1,"distance":973,"i_lat":-6.185975,"i_long":106.850107,"station_id":"GST","is_transit":false,"station_name":"Gang Sentiong"},{"i_long":106.84368,"transit":false,"line":11,"station_id":"PSE","is_transit":false,"station_name":"Pasar Senen","i_lat":-6.174784,"distance":1567,"time":8},{"is_transit":false,"station_id":"KMO","station_name":"Kemayoran","i_lat":-6.161728,"time":4,"i_long":106.839204,"transit":false,"line":11,"distance":1436}]]}