{"data":[[{"i_lat":-6.132549,"i_long":106.826365,"is_transit":false,"time":0,"station_name":"Kampung Bandan","transit":false,"distance":0,"station_id":"KPB","line":4},{"station_name":"Angke","distance":4102,"time":9,"line":1,"i_long":106.79867,"i_lat":-6.144674,"transit":false,"station_id":"AK","is_transit":false},{"line":1,"i_long":106.800832,"is_transit":false,"station_name":"Duri","transit":false,"i_lat":-6.155215,"station_id":"DU","distance":1230,"time":4},{"time":8,"i_lat":-6.185545,"station_id":"THB","is_transit":true,"station_name":"Tanah Abang","i_long":106.811091,"distance":3632,"transit":true,"line":1},{"i_lat":-6.207404,"i_long":106.79689,"distance":3191,"station_name":"Palmerah","is_transit":false,"line":6,"transit":false,"station_id":"PLM","time":6},{"i_lat":-6.237242,"station_id":"KBY","i_long":106.780334,"line":6,"is_transit":false,"station_name":"Kebayoran","time":7,"transit":false,"distance":3737},{"time":8,"line":6,"distance":6218,"is_transit":false,"transit":false,"i_long":106.74273,"station_name":"Pondokranji","i_lat":-6.276362,"station_id":"PDJ"},{"station_name":"Jurangmangu","transit":false,"line":6,"distance":2179,"i_lat":-6.288927,"time":3,"i_long":106.728916,"station_id":"JMU","is_transit":false},{"i_lat":-6.296963,"is_transit":false,"distance":1994,"station_id":"SDM","i_long":106.712277,"transit":false,"line":6,"time":4,"station_name":"Sudimara"},{"line":6,"i_lat":-6.314823,"is_transit":false,"transit":false,"distance":4566,"time":6,"i_long":106.675475,"station_id":"RU","station_name":"Rawa Buntu"},{"time":4,"i_long":106.66566,"line":6,"station_name":"Serpong","transit":false,"station_id":"SRP","distance":2413,"is_transit":false,"i_lat":-6.319871},{"is_transit":false,"station_name":"Cisauk","i_lat":-6.32484,"line":3,"transit":false,"i_long":106.640411,"station_id":"CSK","distance":1784,"time":4}],[{"time":0,"i_lat":-6.132549,"i_long":106.826365,"transit":false,"line":4,"station_name":"Kampung Bandan","station_id":"KPB","is_transit":false,"distance":0},{"time":3,"station_name":"Jakarta Kota","transit":true,"i_lat":-6.137569,"i_long":106.812439,"line":2,"station_id":"JAKK","is_transit":true,"distance":1364},{"transit":false,"station_id":"JAY","time":4,"distance":1264,"i_lat":-6.141205,"line":2,"is_transit":false,"i_long":106.820901,"station_name":"Jayakarta"},{"transit":false,"is_transit":false,"station_id":"MGB","station_name":"Manggabesar","i_lat":-6.149769,"line":2,"distance":1080,"time":2,"i_long":106.82482},{"station_id":"SW","is_transit":false,"i_lat":-6.160725,"line":2,"transit":false,"time":2,"station_name":"Sawah Besar","distance":906,"i_long":106.827103},{"line":2,"transit":false,"time":2,"is_transit":false,"distance":1149,"station_id":"JUA","station_name":"Juanda","i_lat":-6.166716,"i_long":106.828284},{"station_id":"GDD","time":4,"i_long":106.832183,"is_transit":false,"i_lat":-6.186295,"distance":2015,"line":2,"station_name":"Gondangdia","transit":false},{"i_lat":-6.198556,"i_long":106.840169,"transit":false,"line":2,"is_transit":false,"time":3,"station_name":"Cikini","station_id":"CKI","distance":1750},{"distance":1590,"i_long":106.84912,"transit":true,"is_transit":true,"i_lat":-6.209883,"time":4,"station_name":"Manggarai","line":2,"station_id":"MRI"},{"distance":3186,"station_name":"Sudirman","time":4,"transit":false,"station_id":"SUD","i_lat":-6.202263,"i_long":106.822649,"line":1,"is_transit":false},{"station_name":"Sudirman Baru","time":1,"i_lat":-6.201433,"is_transit":false,"distance":280,"i_long":106.819881,"station_id":"SUDB","transit":false,"line":1},{"line":1,"i_long":106.816351,"i_lat":-6.20132,"station_name":"Karet","time":1,"is_transit":false,"station_id":"KAT","distance":471,"transit":false},{"distance":2029,"transit":true,"time":5,"i_lat":-6.185545,"i_long":106.811091,"is_transit":true,"line":1,"station_name":"Tanah Abang","station_id":"THB"},{"line":6,"distance":3191,"i_long":106.79689,"is_transit":false,"station_name":"Palmerah","transit":false,"time":6,"station_id":"PLM","i_lat":-6.207404},{"distance":3737,"station_id":"KBY","time":7,"i_lat":-6.237242,"i_long":106.780334,"transit":false,"station_name":"Kebayoran","line":6,"is_transit":false},{"is_transit":false,"transit":false,"distance":6218,"i_lat":-6.276362,"station_name":"Pondokranji","station_id":"PDJ","i_long":106.74273,"time":8,"line":6},{"i_lat":-6.288927,"time":3,"is_transit":false,"distance":2179,"line":6,"transit":false,"i_long":106.728916,"station_name":"Jurangmangu","station_id":"JMU"},{"i_long":106.712277,"is_transit":false,"time":4,"line":6,"transit":false,"i_lat":-6.296963,"station_id":"SDM","station_name":"Sudimara","distance":1994},{"is_transit":false,"time":6,"distance":4566,"i_long":106.675475,"i_lat":-6.314823,"station_name":"Rawa Buntu","line":6,"station_id":"RU","transit":false},{"station_id":"SRP","i_long":106.66566,"distance":2413,"station_name":"Serpong","transit":false,"i_lat":-6.319871,"time":4,"line":6,"is_transit":false},{"i_long":106.640411,"line":3,"is_transit":false,"transit":false,"time":4,"i_lat":-6.32484,"station_name":"Cisauk","station_id":"CSK","distance":1784}],[{"i_lat":-6.132549,"transit":false,"is_transit":false,"station_id":"KPB","station_name":"Kampung Bandan","distance":0,"time":0,"i_long":106.826365,"line":4},{"is_transit":false,"station_name":"Rajawali","i_lat":-6.14505,"station_id":"RJW","i_long":106.836569,"distance":1444,"line":11,"transit":false,"time":3},{"station_name":"Kemayoran","i_lat":-6.161728,"line":11,"transit":false,"distance":1901,"is_transit":false,"station_id":"KMO","time":5,"i_long":106.839204},{"is_transit":false,"transit":false,"station_id":"PSE","distance":1436,"i_lat":-6.174784,"line":11,"time":4,"i_long":106.84368,"station_name":"Pasar Senen"},{"station_id":"GST","line":11,"distance":1567,"is_transit":false,"station_name":"Gang Sentiong","i_long":106.850107,"time":8,"i_lat":-6.185975,"transit":false},{"is_transit":false,"transit":false,"station_id":"KMT","line":11,"i_long":106.855437,"station_name":"Kramat","distance":973,"time":1,"i_lat":-6.193792},{"distance":1829,"transit":false,"station_name":"Pondok Jati","station_id":"POK","is_transit":false,"time":2,"i_long":106.861737,"line":11,"i_lat":-6.209188},{"line":1,"distance":1236,"is_transit":true,"transit":true,"time":9,"i_lat":-6.215091,"i_long":106.86807400000001,"station_id":"JNG","station_name":"Jatinegara"},{"line":1,"station_name":"Matraman","i_lat":-6.212485,"transit":false,"station_id":"MTR","is_transit":false,"time":2,"distance":1377,"i_long":106.858896},{"station_name":"Manggarai","i_lat":-6.209883,"distance":1275,"time":2,"transit":false,"station_id":"MRI","line":2,"is_transit":false,"i_long":106.84912},{"time":4,"i_lat":-6.202263,"line":1,"station_id":"SUD","station_name":"Sudirman","is_transit":false,"i_long":106.822649,"distance":3186,"transit":false},{"distance":280,"station_id":"SUDB","is_transit":false,"i_lat":-6.201433,"time":1,"i_long":106.819881,"line":1,"transit":false,"station_name":"Sudirman Baru"},{"time":1,"i_lat":-6.20132,"i_long":106.816351,"line":1,"is_transit":false,"transit":false,"distance":471,"station_name":"Karet","station_id":"KAT"},{"is_transit":true,"station_id":"THB","i_lat":-6.185545,"transit":true,"distance":2029,"i_long":106.811091,"line":1,"station_name":"Tanah Abang","time":5},{"is_transit":false,"transit":false,"distance":3191,"station_id":"PLM","i_lat":-6.207404,"time":6,"i_long":106.79689,"line":6,"station_name":"Palmerah"},{"station_id":"KBY","distance":3737,"time":7,"transit":false,"i_lat":-6.237242,"i_long":106.780334,"line":6,"is_transit":false,"station_name":"Kebayoran"},{"line":6,"transit":false,"i_long":106.74273,"is_transit":false,"distance":6218,"station_name":"Pondokranji","time":8,"station_id":"PDJ","i_lat":-6.276362},{"i_lat":-6.288927,"line":6,"station_id":"JMU","distance":2179,"is_transit":false,"transit":false,"time":3,"station_name":"Jurangmangu","i_long":106.728916},{"i_long":106.712277,"distance":1994,"transit":false,"i_lat":-6.296963,"time":4,"line":6,"station_id":"SDM","is_transit":false,"station_name":"Sudimara"},{"i_lat":-6.314823,"is_transit":false,"line":6,"transit":false,"i_long":106.675475,"distance":4566,"time":6,"station_id":"RU","station_name":"Rawa Buntu"},{"station_name":"Serpong","line":6,"transit":false,"time":4,"station_id":"SRP","is_transit":false,"i_lat":-6.319871,"i_long":106.66566,"distance":2413},{"i_lat":-6.32484,"transit":false,"time":4,"distance":1784,"is_transit":false,"station_id":"CSK","i_long":106.640411,"station_name":"Cisauk","line":3}]]}