{"data":[[{"i_long":106.977657,"line":1,"time":0,"station_name":"Kranji","is_transit":false,"station_id":"KRI","distance":0,"transit":false,"i_lat":-6.224515},{"i_long":106.951283,"transit":false,"distance":3097,"station_name":"Cakung","i_lat":-6.219053,"time":3,"line":0,"is_transit":false,"station_id":"CUK"},{"station_name":"Klenderbaru","time":8,"i_long":106.939679,"transit":false,"i_lat":-6.217455,"distance":1385,"station_id":"KLDB","is_transit":false,"line":1},{"i_long":106.922662,"is_transit":false,"station_id":"BUA","station_name":"Buaran","distance":1305,"time":1,"transit":false,"line":0,"i_lat":-6.215568},{"time":2,"distance":3100,"station_id":"KLD","transit":false,"i_long":106.899548,"line":1,"is_transit":false,"station_name":"Klender","i_lat":-6.2135},{"station_name":"Jatinegara","distance":3395,"transit":false,"station_id":"JNG","i_long":106.86807400000001,"line":0,"i_lat":-6.215091,"is_transit":true,"time":3},{"station_id":"MTR","i_long":106.858896,"distance":1377,"line":1,"time":2,"station_name":"Matraman","is_transit":false,"transit":false,"i_lat":-6.212485},{"time":2,"station_name":"Manggarai","distance":1275,"transit":true,"station_id":"MRI","is_transit":true,"i_lat":-6.209883,"i_long":106.84912,"line":0},{"station_id":"TEB","time":4,"transit":false,"i_long":106.857948,"distance":2610,"line":2,"station_name":"Tebet","is_transit":false,"i_lat":-6.226659},{"station_id":"CW","time":2,"line":0,"station_name":"Cawang","distance":1230,"i_lat":-6.242512,"i_long":106.856607,"transit":false,"is_transit":false},{"distance":1546,"i_lat":-6.255332,"i_long":106.85449,"time":3,"is_transit":false,"transit":false,"station_id":"DRN","station_name":"Duren Kalibata","line":0},{"station_id":"PSMB","time":2,"transit":false,"is_transit":false,"line":2,"station_name":"Pasar Minggu Baru","distance":824,"i_lat":-6.263214,"i_long":106.851577},{"time":2,"transit":false,"i_lat":-6.2842400000000005,"i_long":106.843999,"line":2,"distance":2380,"station_id":"PSM","station_name":"Pasar Minggu","is_transit":false},{"i_long":106.838896,"transit":false,"i_lat":-6.3080680000000005,"distance":2820,"time":4,"station_name":"Tanjung Barat","line":2,"is_transit":false,"station_id":"TNT"}],[{"distance":0,"i_long":106.977657,"station_id":"KRI","is_transit":false,"line":1,"station_name":"Kranji","time":0,"transit":false,"i_lat":-6.224515},{"i_lat":-6.219053,"line":0,"station_id":"CUK","i_long":106.951283,"is_transit":false,"station_name":"Cakung","time":3,"distance":3097,"transit":false},{"transit":false,"time":8,"i_long":106.939679,"line":1,"is_transit":false,"station_name":"Klenderbaru","i_lat":-6.217455,"station_id":"KLDB","distance":1385},{"distance":1305,"station_id":"BUA","station_name":"Buaran","transit":false,"i_lat":-6.215568,"i_long":106.922662,"line":0,"is_transit":false,"time":1},{"i_long":106.899548,"station_name":"Klender","station_id":"KLD","is_transit":false,"line":1,"distance":3100,"time":2,"i_lat":-6.2135,"transit":false},{"distance":3395,"station_id":"JNG","i_lat":-6.215091,"i_long":106.86807400000001,"transit":true,"is_transit":true,"time":3,"station_name":"Jatinegara","line":0},{"distance":1236,"i_long":106.861737,"time":2,"line":11,"is_transit":false,"transit":false,"station_name":"Pondok Jati","i_lat":-6.209188,"station_id":"POK"},{"is_transit":false,"time":2,"i_lat":-6.193792,"line":11,"distance":1829,"transit":false,"station_id":"KMT","i_long":106.855437,"station_name":"Kramat"},{"distance":973,"station_id":"GST","station_name":"Gang Sentiong","time":1,"transit":false,"i_long":106.850107,"line":11,"is_transit":false,"i_lat":-6.185975},{"distance":1567,"station_id":"PSE","line":11,"i_long":106.84368,"i_lat":-6.174784,"is_transit":false,"station_name":"Pasar Senen","time":8,"transit":false},{"i_lat":-6.161728,"line":11,"is_transit":false,"i_long":106.839204,"time":4,"station_id":"KMO","distance":1436,"station_name":"Kemayoran","transit":false},{"transit":false,"distance":1901,"i_long":106.836569,"i_lat":-6.14505,"time":5,"line":11,"station_name":"Rajawali","is_transit":false,"station_id":"RJW"},{"i_lat":-6.132549,"station_id":"KPB","transit":true,"line":0,"station_name":"Kampung Bandan","time":3,"i_long":106.826365,"distance":1444,"is_transit":true},{"i_long":106.79867,"distance":4102,"line":0,"is_transit":false,"station_id":"AK","station_name":"Angke","i_lat":-6.144674,"transit":false,"time":9},{"i_lat":-6.155215,"transit":true,"i_long":106.800832,"time":4,"is_transit":true,"distance":1230,"line":1,"station_id":"DU","station_name":"Duri"},{"is_transit":true,"i_lat":-6.185545,"i_long":106.811091,"station_name":"Tanah Abang","time":8,"distance":3632,"line":1,"station_id":"THB","transit":false},{"line":1,"station_name":"Karet","transit":false,"station_id":"KAT","time":5,"is_transit":false,"i_long":106.816351,"distance":2029,"i_lat":-6.20132},{"i_lat":-6.201433,"time":1,"station_id":"SUDB","i_long":106.819881,"transit":false,"station_name":"Sudirman Baru","is_transit":false,"distance":471,"line":1},{"transit":false,"station_name":"Sudirman","station_id":"SUD","is_transit":false,"distance":280,"time":1,"line":1,"i_lat":-6.202263,"i_long":106.822649},{"transit":true,"distance":3186,"i_long":106.84912,"station_id":"MRI","time":4,"i_lat":-6.209883,"line":0,"station_name":"Manggarai","is_transit":true},{"station_name":"Tebet","i_lat":-6.226659,"line":2,"station_id":"TEB","distance":2610,"is_transit":false,"i_long":106.857948,"transit":false,"time":4},{"line":0,"station_name":"Cawang","station_id":"CW","i_lat":-6.242512,"transit":false,"is_transit":false,"time":2,"distance":1230,"i_long":106.856607},{"line":0,"time":3,"distance":1546,"is_transit":false,"station_name":"Duren Kalibata","transit":false,"station_id":"DRN","i_lat":-6.255332,"i_long":106.85449},{"transit":false,"station_id":"PSMB","distance":824,"i_long":106.851577,"line":2,"station_name":"Pasar Minggu Baru","i_lat":-6.263214,"is_transit":false,"time":2},{"transit":false,"i_long":106.843999,"distance":2380,"station_id":"PSM","station_name":"Pasar Minggu","time":2,"is_transit":false,"line":2,"i_lat":-6.2842400000000005},{"i_lat":-6.3080680000000005,"station_id":"TNT","station_name":"Tanjung Barat","is_transit":false,"distance":2820,"i_long":106.838896,"transit":false,"time":4,"line":2}],[{"is_transit":false,"time":0,"i_lat":-6.224515,"distance":0,"station_id":"KRI","i_long":106.977657,"line":1,"station_name":"Kranji","transit":false},{"station_id":"CUK","station_name":"Cakung","is_transit":false,"i_lat":-6.219053,"line":0,"i_long":106.951283,"distance":3097,"time":3,"transit":false},{"distance":1385,"station_name":"Klenderbaru","time":8,"i_long":106.939679,"is_transit":false,"station_id":"KLDB","transit":false,"i_lat":-6.217455,"line":1},{"distance":1305,"transit":false,"station_name":"Buaran","is_transit":false,"i_lat":-6.215568,"i_long":106.922662,"line":0,"station_id":"BUA","time":1},{"distance":3100,"i_lat":-6.2135,"station_id":"KLD","i_long":106.899548,"time":2,"station_name":"Klender","line":1,"is_transit":false,"transit":false},{"time":3,"is_transit":true,"distance":3395,"station_id":"JNG","i_long":106.86807400000001,"line":0,"i_lat":-6.215091,"station_name":"Jatinegara","transit":true},{"is_transit":false,"time":2,"distance":1236,"i_long":106.861737,"transit":false,"line":11,"i_lat":-6.209188,"station_name":"Pondok Jati","station_id":"POK"},{"i_long":106.855437,"is_transit":false,"i_lat":-6.193792,"station_id":"KMT","distance":1829,"line":11,"transit":false,"time":2,"station_name":"Kramat"},{"station_id":"GST","is_transit":false,"transit":false,"line":11,"station_name":"Gang Sentiong","time":1,"i_lat":-6.185975,"i_long":106.850107,"distance":973},{"distance":1567,"transit":false,"line":11,"i_lat":-6.174784,"i_long":106.84368,"time":8,"station_name":"Pasar Senen","is_transit":false,"station_id":"PSE"},{"station_id":"KMO","transit":false,"station_name":"Kemayoran","i_long":106.839204,"i_lat":-6.161728,"line":11,"is_transit":false,"distance":1436,"time":4},{"i_long":106.836569,"is_transit":false,"station_id":"RJW","station_name":"Rajawali","transit":false,"distance":1901,"time":5,"i_lat":-6.14505,"line":11},{"station_id":"KPB","i_long":106.826365,"line":0,"transit":true,"distance":1444,"time":3,"i_lat":-6.132549,"is_transit":true,"station_name":"Kampung Bandan"},{"transit":true,"i_lat":-6.137569,"station_name":"Jakarta Kota","is_transit":true,"distance":1364,"time":3,"i_long":106.812439,"line":0,"station_id":"JAKK"},{"transit":false,"line":7,"distance":1264,"i_long":106.820901,"i_lat":-6.141205,"time":4,"station_name":"Jayakarta","is_transit":false,"station_id":"JAY"},{"is_transit":false,"distance":1080,"i_lat":-6.149769,"transit":false,"station_name":"Manggabesar","i_long":106.82482,"line":2,"station_id":"MGB","time":2},{"time":2,"line":2,"i_long":106.827103,"station_id":"SW","distance":906,"transit":false,"station_name":"Sawah Besar","is_transit":false,"i_lat":-6.160725},{"station_name":"Juanda","transit":false,"distance":1149,"station_id":"JUA","is_transit":false,"time":2,"i_lat":-6.166716,"line":2,"i_long":106.828284},{"station_id":"GDD","station_name":"Gondangdia","i_lat":-6.186295,"i_long":106.832183,"time":4,"is_transit":false,"line":2,"distance":2015,"transit":false},{"i_long":106.840169,"transit":false,"station_name":"Cikini","line":0,"time":3,"distance":1750,"station_id":"CKI","i_lat":-6.198556,"is_transit":false},{"i_lat":-6.209883,"is_transit":true,"distance":1590,"transit":true,"station_name":"Manggarai","time":4,"station_id":"MRI","i_long":106.84912,"line":0},{"is_transit":false,"time":4,"station_id":"TEB","i_lat":-6.226659,"distance":2610,"i_long":106.857948,"line":2,"transit":false,"station_name":"Tebet"},{"line":0,"station_name":"Cawang","distance":1230,"transit":false,"is_transit":false,"i_lat":-6.242512,"i_long":106.856607,"time":2,"station_id":"CW"},{"i_long":106.85449,"line":0,"transit":false,"distance":1546,"time":3,"station_id":"DRN","station_name":"Duren Kalibata","i_lat":-6.255332,"is_transit":false},{"time":2,"station_name":"Pasar Minggu Baru","line":2,"is_transit":false,"distance":824,"i_long":106.851577,"transit":false,"station_id":"PSMB","i_lat":-6.263214},{"transit":false,"time":2,"is_transit":false,"station_name":"Pasar Minggu","station_id":"PSM","i_long":106.843999,"distance":2380,"i_lat":-6.2842400000000005,"line":2},{"transit":false,"time":4,"station_id":"TNT","i_lat":-6.3080680000000005,"distance":2820,"i_long":106.838896,"is_transit":false,"line":2,"station_name":"Tanjung Barat"}]]}