{"data":[[{"line":1,"station_name":"Kranji","i_long":106.977657,"is_transit":false,"station_id":"KRI","time":0,"i_lat":-6.224515,"distance":0,"transit":false},{"i_long":106.951283,"time":3,"is_transit":false,"station_id":"CUK","i_lat":-6.219053,"transit":false,"line":1,"station_name":"Cakung","distance":3097},{"station_name":"Klenderbaru","i_lat":-6.217455,"i_long":106.939679,"transit":false,"is_transit":false,"line":1,"time":8,"distance":1385,"station_id":"KLDB"},{"distance":1305,"time":1,"i_long":106.922662,"transit":false,"i_lat":-6.215568,"is_transit":false,"station_id":"BUA","station_name":"Buaran","line":1},{"station_name":"Klender","distance":3100,"i_lat":-6.2135,"time":2,"transit":false,"station_id":"KLD","i_long":106.899548,"line":1,"is_transit":false},{"distance":3395,"i_lat":-6.215091,"transit":false,"time":3,"i_long":106.86807400000001,"is_transit":false,"station_id":"JNG","line":1,"station_name":"Jatinegara"},{"time":2,"station_name":"Matraman","i_lat":-6.212485,"transit":false,"i_long":106.858896,"station_id":"MTR","is_transit":false,"line":1,"distance":1377},{"station_id":"MRI","i_lat":-6.209883,"transit":false,"i_long":106.84912,"time":2,"line":2,"is_transit":false,"station_name":"Manggarai","distance":1275},{"station_id":"SUD","transit":false,"i_lat":-6.202263,"i_long":106.822649,"line":1,"station_name":"Sudirman","is_transit":false,"distance":3186,"time":4},{"line":1,"transit":false,"i_long":106.819881,"is_transit":false,"distance":280,"time":1,"station_name":"Sudirman Baru","station_id":"SUDB","i_lat":-6.201433},{"transit":false,"time":1,"is_transit":false,"line":1,"i_long":106.816351,"station_name":"Karet","i_lat":-6.20132,"distance":471,"station_id":"KAT"},{"i_lat":-6.185545,"time":5,"i_long":106.811091,"is_transit":true,"distance":2029,"station_id":"THB","station_name":"Tanah Abang","line":1,"transit":true},{"station_name":"Palmerah","i_lat":-6.207404,"station_id":"PLM","i_long":106.79689,"line":6,"is_transit":false,"transit":false,"distance":3191,"time":6},{"i_lat":-6.237242,"i_long":106.780334,"line":6,"time":7,"distance":3737,"station_id":"KBY","is_transit":false,"transit":false,"station_name":"Kebayoran"},{"time":8,"station_name":"Pondokranji","is_transit":false,"line":6,"i_lat":-6.276362,"i_long":106.74273,"station_id":"PDJ","distance":6218,"transit":false},{"i_long":106.728916,"station_id":"JMU","line":6,"distance":2179,"transit":false,"is_transit":false,"station_name":"Jurangmangu","i_lat":-6.288927,"time":3},{"time":4,"is_transit":false,"transit":false,"station_name":"Sudimara","station_id":"SDM","i_lat":-6.296963,"line":6,"distance":1994,"i_long":106.712277},{"time":6,"station_name":"Rawa Buntu","i_lat":-6.314823,"transit":false,"distance":4566,"is_transit":false,"station_id":"RU","i_long":106.675475,"line":6},{"i_lat":-6.319871,"transit":false,"station_name":"Serpong","is_transit":false,"distance":2413,"station_id":"SRP","time":4,"i_long":106.66566,"line":6}],[{"line":1,"is_transit":false,"time":0,"transit":false,"i_long":106.977657,"station_name":"Kranji","i_lat":-6.224515,"station_id":"KRI","distance":0},{"is_transit":false,"transit":false,"i_long":106.951283,"distance":3097,"station_id":"CUK","time":3,"station_name":"Cakung","i_lat":-6.219053,"line":1},{"distance":1385,"station_name":"Klenderbaru","i_long":106.939679,"i_lat":-6.217455,"line":1,"transit":false,"is_transit":false,"time":8,"station_id":"KLDB"},{"i_lat":-6.215568,"line":1,"distance":1305,"i_long":106.922662,"transit":false,"time":1,"station_id":"BUA","station_name":"Buaran","is_transit":false},{"is_transit":false,"i_long":106.899548,"i_lat":-6.2135,"distance":3100,"time":2,"transit":false,"station_name":"Klender","station_id":"KLD","line":1},{"distance":3395,"time":3,"line":1,"is_transit":true,"transit":true,"i_lat":-6.215091,"station_name":"Jatinegara","station_id":"JNG","i_long":106.86807400000001},{"is_transit":false,"station_id":"POK","station_name":"Pondok Jati","i_long":106.861737,"line":11,"time":2,"distance":1236,"transit":false,"i_lat":-6.209188},{"is_transit":false,"transit":false,"i_long":106.855437,"distance":1829,"i_lat":-6.193792,"line":11,"station_id":"KMT","time":2,"station_name":"Kramat"},{"is_transit":false,"distance":973,"transit":false,"time":1,"station_id":"GST","i_lat":-6.185975,"i_long":106.850107,"line":11,"station_name":"Gang Sentiong"},{"distance":1567,"i_long":106.84368,"line":11,"i_lat":-6.174784,"is_transit":false,"transit":false,"station_name":"Pasar Senen","time":8,"station_id":"PSE"},{"station_id":"KMO","i_long":106.839204,"distance":1436,"transit":false,"station_name":"Kemayoran","line":11,"i_lat":-6.161728,"time":4,"is_transit":false},{"distance":1901,"is_transit":false,"station_name":"Rajawali","time":5,"i_long":106.836569,"transit":false,"i_lat":-6.14505,"station_id":"RJW","line":11},{"i_lat":-6.132549,"transit":true,"station_id":"KPB","i_long":106.826365,"is_transit":true,"distance":1444,"line":4,"time":3,"station_name":"Kampung Bandan"},{"i_long":106.79867,"line":1,"station_id":"AK","transit":false,"time":9,"is_transit":false,"station_name":"Angke","distance":4102,"i_lat":-6.144674},{"station_name":"Duri","station_id":"DU","line":1,"i_lat":-6.155215,"distance":1230,"transit":false,"time":4,"i_long":106.800832,"is_transit":false},{"station_name":"Tanah Abang","distance":3632,"i_long":106.811091,"station_id":"THB","line":1,"transit":true,"is_transit":true,"time":8,"i_lat":-6.185545},{"station_id":"PLM","time":6,"is_transit":false,"i_lat":-6.207404,"station_name":"Palmerah","i_long":106.79689,"line":6,"distance":3191,"transit":false},{"station_id":"KBY","i_long":106.780334,"station_name":"Kebayoran","line":6,"time":7,"transit":false,"i_lat":-6.237242,"is_transit":false,"distance":3737},{"station_id":"PDJ","line":6,"i_long":106.74273,"time":8,"i_lat":-6.276362,"station_name":"Pondokranji","distance":6218,"is_transit":false,"transit":false},{"station_id":"JMU","transit":false,"is_transit":false,"station_name":"Jurangmangu","i_long":106.728916,"distance":2179,"line":6,"time":3,"i_lat":-6.288927},{"transit":false,"station_id":"SDM","station_name":"Sudimara","is_transit":false,"distance":1994,"line":6,"i_long":106.712277,"time":4,"i_lat":-6.296963},{"is_transit":false,"transit":false,"station_name":"Rawa Buntu","i_lat":-6.314823,"line":6,"time":6,"distance":4566,"i_long":106.675475,"station_id":"RU"},{"distance":2413,"time":4,"station_id":"SRP","i_lat":-6.319871,"is_transit":false,"line":6,"i_long":106.66566,"transit":false,"station_name":"Serpong"}],[{"transit":false,"line":1,"i_long":106.977657,"time":0,"station_name":"Kranji","i_lat":-6.224515,"station_id":"KRI","is_transit":false,"distance":0},{"i_lat":-6.219053,"station_name":"Cakung","line":1,"station_id":"CUK","distance":3097,"time":3,"i_long":106.951283,"transit":false,"is_transit":false},{"distance":1385,"i_lat":-6.217455,"transit":false,"is_transit":false,"time":8,"station_name":"Klenderbaru","i_long":106.939679,"station_id":"KLDB","line":1},{"transit":false,"station_id":"BUA","line":1,"station_name":"Buaran","time":1,"i_long":106.922662,"i_lat":-6.215568,"distance":1305,"is_transit":false},{"is_transit":false,"transit":false,"distance":3100,"station_name":"Klender","line":1,"time":2,"station_id":"KLD","i_long":106.899548,"i_lat":-6.2135},{"line":1,"time":3,"station_name":"Jatinegara","i_lat":-6.215091,"distance":3395,"i_long":106.86807400000001,"is_transit":false,"station_id":"JNG","transit":false},{"transit":false,"time":2,"i_long":106.858896,"is_transit":false,"station_id":"MTR","i_lat":-6.212485,"distance":1377,"station_name":"Matraman","line":1},{"station_id":"MRI","i_long":106.84912,"transit":true,"time":2,"i_lat":-6.209883,"line":2,"station_name":"Manggarai","is_transit":true,"distance":1275},{"line":2,"i_lat":-6.198556,"distance":1590,"transit":false,"is_transit":false,"station_id":"CKI","i_long":106.840169,"time":4,"station_name":"Cikini"},{"is_transit":false,"i_lat":-6.186295,"i_long":106.832183,"transit":false,"station_id":"GDD","time":3,"station_name":"Gondangdia","line":2,"distance":1750},{"distance":2015,"transit":false,"is_transit":false,"station_name":"Juanda","time":4,"station_id":"JUA","line":2,"i_long":106.828284,"i_lat":-6.166716},{"distance":1149,"time":2,"is_transit":false,"transit":false,"station_id":"SW","station_name":"Sawah Besar","i_long":106.827103,"line":2,"i_lat":-6.160725},{"is_transit":false,"time":2,"transit":false,"distance":906,"line":2,"i_long":106.82482,"station_name":"Manggabesar","station_id":"MGB","i_lat":-6.149769},{"station_id":"JAY","i_lat":-6.141205,"station_name":"Jayakarta","line":2,"time":2,"distance":1080,"is_transit":false,"transit":false,"i_long":106.820901},{"transit":true,"is_transit":true,"distance":1264,"station_id":"JAKK","station_name":"Jakarta Kota","time":4,"i_long":106.812439,"line":2,"i_lat":-6.137569},{"time":3,"line":4,"i_lat":-6.132549,"i_long":106.826365,"is_transit":true,"distance":1364,"transit":true,"station_id":"KPB","station_name":"Kampung Bandan"},{"i_long":106.79867,"is_transit":false,"station_id":"AK","distance":4102,"line":1,"transit":false,"i_lat":-6.144674,"time":9,"station_name":"Angke"},{"transit":false,"i_long":106.800832,"distance":1230,"station_name":"Duri","line":1,"i_lat":-6.155215,"time":4,"station_id":"DU","is_transit":false},{"is_transit":true,"transit":true,"i_lat":-6.185545,"distance":3632,"line":1,"station_name":"Tanah Abang","time":8,"station_id":"THB","i_long":106.811091},{"station_name":"Palmerah","distance":3191,"time":6,"i_lat":-6.207404,"transit":false,"line":6,"station_id":"PLM","is_transit":false,"i_long":106.79689},{"time":7,"station_id":"KBY","is_transit":false,"station_name":"Kebayoran","i_lat":-6.237242,"line":6,"transit":false,"i_long":106.780334,"distance":3737},{"i_lat":-6.276362,"station_name":"Pondokranji","is_transit":false,"time":8,"transit":false,"distance":6218,"station_id":"PDJ","i_long":106.74273,"line":6},{"i_lat":-6.288927,"i_long":106.728916,"line":6,"is_transit":false,"station_id":"JMU","station_name":"Jurangmangu","time":3,"transit":false,"distance":2179},{"line":6,"is_transit":false,"transit":false,"i_lat":-6.296963,"distance":1994,"time":4,"station_id":"SDM","i_long":106.712277,"station_name":"Sudimara"},{"station_id":"RU","time":6,"i_lat":-6.314823,"i_long":106.675475,"line":6,"distance":4566,"station_name":"Rawa Buntu","is_transit":false,"transit":false},{"i_lat":-6.319871,"station_name":"Serpong","transit":false,"is_transit":false,"station_id":"SRP","i_long":106.66566,"line":6,"distance":2413,"time":4}],[{"time":0,"station_id":"KRI","i_long":106.977657,"distance":0,"i_lat":-6.224515,"line":1,"is_transit":false,"station_name":"Kranji","transit":false},{"transit":false,"distance":3097,"station_id":"CUK","is_transit":false,"station_name":"Cakung","i_lat":-6.219053,"i_long":106.951283,"time":3,"line":1},{"station_id":"KLDB","time":8,"transit":false,"distance":1385,"line":1,"is_transit":false,"station_name":"Klenderbaru","i_lat":-6.217455,"i_long":106.939679},{"is_transit":false,"station_name":"Buaran","transit":false,"i_long":106.922662,"time":1,"distance":1305,"i_lat":-6.215568,"station_id":"BUA","line":1},{"i_lat":-6.2135,"line":1,"distance":3100,"is_transit":false,"transit":false,"time":2,"station_id":"KLD","station_name":"Klender","i_long":106.899548},{"i_lat":-6.215091,"distance":3395,"is_transit":true,"transit":true,"time":3,"line":1,"i_long":106.86807400000001,"station_id":"JNG","station_name":"Jatinegara"},{"time":2,"line":11,"station_id":"POK","distance":1236,"transit":false,"station_name":"Pondok Jati","is_transit":false,"i_long":106.861737,"i_lat":-6.209188},{"time":2,"is_transit":false,"i_lat":-6.193792,"station_id":"KMT","i_long":106.855437,"distance":1829,"transit":false,"station_name":"Kramat","line":11},{"line":11,"station_name":"Gang Sentiong","i_lat":-6.185975,"is_transit":false,"transit":false,"station_id":"GST","distance":973,"i_long":106.850107,"time":1},{"is_transit":false,"i_lat":-6.174784,"i_long":106.84368,"transit":false,"station_id":"PSE","distance":1567,"time":8,"station_name":"Pasar Senen","line":11},{"transit":false,"station_name":"Kemayoran","is_transit":false,"line":11,"time":4,"distance":1436,"i_long":106.839204,"station_id":"KMO","i_lat":-6.161728},{"station_name":"Rajawali","is_transit":false,"distance":1901,"transit":false,"station_id":"RJW","i_lat":-6.14505,"i_long":106.836569,"line":11,"time":5},{"station_id":"KPB","is_transit":true,"transit":true,"time":3,"distance":1444,"i_lat":-6.132549,"i_long":106.826365,"station_name":"Kampung Bandan","line":4},{"time":3,"i_lat":-6.137569,"line":2,"station_id":"JAKK","distance":1364,"transit":true,"station_name":"Jakarta Kota","i_long":106.812439,"is_transit":true},{"is_transit":false,"station_id":"JAY","station_name":"Jayakarta","i_long":106.820901,"time":4,"transit":false,"i_lat":-6.141205,"distance":1264,"line":2},{"transit":false,"i_lat":-6.149769,"station_id":"MGB","i_long":106.82482,"is_transit":false,"line":2,"station_name":"Manggabesar","time":2,"distance":1080},{"i_lat":-6.160725,"line":2,"is_transit":false,"time":2,"i_long":106.827103,"distance":906,"transit":false,"station_name":"Sawah Besar","station_id":"SW"},{"i_lat":-6.166716,"i_long":106.828284,"distance":1149,"time":2,"station_id":"JUA","is_transit":false,"transit":false,"line":2,"station_name":"Juanda"},{"time":4,"is_transit":false,"i_long":106.832183,"distance":2015,"transit":false,"i_lat":-6.186295,"line":2,"station_id":"GDD","station_name":"Gondangdia"},{"i_long":106.840169,"line":2,"station_name":"Cikini","i_lat":-6.198556,"distance":1750,"time":3,"transit":false,"station_id":"CKI","is_transit":false},{"station_name":"Manggarai","time":4,"transit":true,"station_id":"MRI","i_lat":-6.209883,"i_long":106.84912,"line":2,"distance":1590,"is_transit":true},{"is_transit":false,"transit":false,"distance":3186,"i_long":106.822649,"i_lat":-6.202263,"time":4,"station_name":"Sudirman","station_id":"SUD","line":1},{"time":1,"station_name":"Sudirman Baru","distance":280,"is_transit":false,"transit":false,"i_lat":-6.201433,"station_id":"SUDB","line":1,"i_long":106.819881},{"time":1,"is_transit":false,"station_id":"KAT","i_long":106.816351,"transit":false,"station_name":"Karet","i_lat":-6.20132,"distance":471,"line":1},{"is_transit":true,"station_id":"THB","station_name":"Tanah Abang","distance":2029,"i_lat":-6.185545,"line":1,"transit":true,"time":5,"i_long":106.811091},{"distance":3191,"i_lat":-6.207404,"time":6,"transit":false,"station_id":"PLM","i_long":106.79689,"line":6,"station_name":"Palmerah","is_transit":false},{"line":6,"station_id":"KBY","transit":false,"is_transit":false,"time":7,"distance":3737,"station_name":"Kebayoran","i_long":106.780334,"i_lat":-6.237242},{"station_id":"PDJ","time":8,"is_transit":false,"i_lat":-6.276362,"line":6,"station_name":"Pondokranji","i_long":106.74273,"distance":6218,"transit":false},{"time":3,"distance":2179,"station_id":"JMU","i_lat":-6.288927,"line":6,"transit":false,"is_transit":false,"station_name":"Jurangmangu","i_long":106.728916},{"i_lat":-6.296963,"line":6,"time":4,"is_transit":false,"distance":1994,"transit":false,"station_name":"Sudimara","i_long":106.712277,"station_id":"SDM"},{"time":6,"transit":false,"i_long":106.675475,"i_lat":-6.314823,"line":6,"station_name":"Rawa Buntu","distance":4566,"is_transit":false,"station_id":"RU"},{"i_long":106.66566,"i_lat":-6.319871,"time":4,"is_transit":false,"transit":false,"station_name":"Serpong","station_id":"SRP","distance":2413,"line":6}]]}