{"data":[[{"i_long":106.977657,"transit":false,"line":1,"distance":0,"station_name":"Kranji","is_transit":false,"i_lat":-6.224515,"station_id":"KRI","time":0},{"line":1,"station_name":"Cakung","time":3,"distance":3097,"is_transit":false,"station_id":"CUK","i_lat":-6.219053,"i_long":106.951283,"transit":false},{"time":8,"i_long":106.939679,"station_name":"Klenderbaru","transit":false,"station_id":"KLDB","distance":1385,"is_transit":false,"line":1,"i_lat":-6.217455},{"station_name":"Buaran","station_id":"BUA","line":1,"i_long":106.922662,"transit":false,"is_transit":false,"distance":1305,"time":1,"i_lat":-6.215568},{"station_id":"KLD","line":1,"time":2,"i_long":106.899548,"station_name":"Klender","distance":3100,"i_lat":-6.2135,"transit":false,"is_transit":false},{"i_long":106.86807400000001,"time":3,"transit":false,"is_transit":false,"station_name":"Jatinegara","line":1,"i_lat":-6.215091,"distance":3395,"station_id":"JNG"},{"transit":false,"station_name":"Matraman","time":2,"i_lat":-6.212485,"distance":1377,"is_transit":false,"i_long":106.858896,"line":1,"station_id":"MTR"},{"i_long":106.84912,"i_lat":-6.209883,"distance":1275,"station_name":"Manggarai","station_id":"MRI","time":2,"line":2,"transit":true,"is_transit":true},{"is_transit":false,"transit":false,"time":4,"distance":1590,"station_id":"CKI","station_name":"Cikini","i_lat":-6.198556,"i_long":106.840169,"line":2},{"i_lat":-6.186295,"time":3,"line":2,"transit":false,"station_id":"GDD","station_name":"Gondangdia","distance":1750,"is_transit":false,"i_long":106.832183}],[{"station_id":"KRI","is_transit":false,"i_long":106.977657,"distance":0,"time":0,"i_lat":-6.224515,"station_name":"Kranji","transit":false,"line":1},{"station_name":"Cakung","distance":3097,"i_lat":-6.219053,"transit":false,"time":3,"line":1,"is_transit":false,"station_id":"CUK","i_long":106.951283},{"i_long":106.939679,"distance":1385,"is_transit":false,"line":1,"station_name":"Klenderbaru","i_lat":-6.217455,"time":8,"transit":false,"station_id":"KLDB"},{"line":1,"is_transit":false,"station_id":"BUA","i_lat":-6.215568,"transit":false,"i_long":106.922662,"distance":1305,"station_name":"Buaran","time":1},{"station_id":"KLD","time":2,"station_name":"Klender","is_transit":false,"i_lat":-6.2135,"line":1,"i_long":106.899548,"transit":false,"distance":3100},{"line":1,"station_name":"Jatinegara","i_lat":-6.215091,"transit":true,"is_transit":true,"time":3,"station_id":"JNG","distance":3395,"i_long":106.86807400000001},{"i_long":106.861737,"station_id":"POK","is_transit":false,"line":11,"i_lat":-6.209188,"transit":false,"time":2,"distance":1236,"station_name":"Pondok Jati"},{"i_long":106.855437,"is_transit":false,"time":2,"station_id":"KMT","line":11,"transit":false,"station_name":"Kramat","distance":1829,"i_lat":-6.193792},{"transit":false,"distance":973,"is_transit":false,"i_lat":-6.185975,"station_id":"GST","i_long":106.850107,"line":11,"time":1,"station_name":"Gang Sentiong"},{"i_lat":-6.174784,"distance":1567,"time":8,"station_id":"PSE","line":11,"station_name":"Pasar Senen","is_transit":false,"transit":false,"i_long":106.84368},{"transit":false,"is_transit":false,"i_long":106.839204,"line":11,"station_id":"KMO","distance":1436,"station_name":"Kemayoran","time":4,"i_lat":-6.161728},{"station_id":"RJW","transit":false,"i_lat":-6.14505,"distance":1901,"time":5,"is_transit":false,"i_long":106.836569,"line":11,"station_name":"Rajawali"},{"distance":1444,"transit":true,"station_id":"KPB","is_transit":true,"i_long":106.826365,"line":4,"station_name":"Kampung Bandan","i_lat":-6.132549,"time":3},{"transit":true,"time":3,"distance":1364,"station_id":"JAKK","station_name":"Jakarta Kota","is_transit":true,"i_lat":-6.137569,"i_long":106.812439,"line":2},{"distance":1264,"i_lat":-6.141205,"is_transit":false,"station_name":"Jayakarta","line":2,"transit":false,"station_id":"JAY","time":4,"i_long":106.820901},{"station_name":"Manggabesar","is_transit":false,"i_long":106.82482,"line":2,"time":2,"i_lat":-6.149769,"transit":false,"distance":1080,"station_id":"MGB"},{"distance":906,"transit":false,"line":2,"station_id":"SW","time":2,"i_long":106.827103,"station_name":"Sawah Besar","i_lat":-6.160725,"is_transit":false},{"station_id":"JUA","transit":false,"station_name":"Juanda","i_long":106.828284,"is_transit":false,"time":2,"i_lat":-6.166716,"distance":1149,"line":2},{"i_lat":-6.186295,"distance":2015,"station_name":"Gondangdia","is_transit":false,"transit":false,"line":2,"i_long":106.832183,"station_id":"GDD","time":4}],[{"transit":false,"i_long":106.977657,"is_transit":false,"station_id":"KRI","time":0,"distance":0,"i_lat":-6.224515,"station_name":"Kranji","line":1},{"time":3,"line":1,"transit":false,"station_id":"CUK","i_lat":-6.219053,"i_long":106.951283,"distance":3097,"station_name":"Cakung","is_transit":false},{"distance":1385,"station_name":"Klenderbaru","transit":false,"station_id":"KLDB","is_transit":false,"time":8,"i_long":106.939679,"line":1,"i_lat":-6.217455},{"line":1,"station_id":"BUA","time":1,"i_lat":-6.215568,"station_name":"Buaran","distance":1305,"transit":false,"is_transit":false,"i_long":106.922662},{"line":1,"station_name":"Klender","i_long":106.899548,"station_id":"KLD","is_transit":false,"time":2,"i_lat":-6.2135,"distance":3100,"transit":false},{"i_long":106.86807400000001,"time":3,"is_transit":false,"station_id":"JNG","i_lat":-6.215091,"transit":false,"line":1,"station_name":"Jatinegara","distance":3395},{"station_name":"Matraman","i_lat":-6.212485,"i_long":106.858896,"transit":false,"is_transit":false,"line":1,"time":2,"distance":1377,"station_id":"MTR"},{"distance":1275,"time":2,"i_long":106.84912,"transit":false,"i_lat":-6.209883,"is_transit":false,"station_id":"MRI","station_name":"Manggarai","line":2},{"station_name":"Sudirman","distance":3186,"i_lat":-6.202263,"time":4,"transit":false,"station_id":"SUD","i_long":106.822649,"line":1,"is_transit":false},{"distance":280,"i_lat":-6.201433,"transit":false,"time":1,"i_long":106.819881,"is_transit":false,"station_id":"SUDB","line":1,"station_name":"Sudirman Baru"},{"time":1,"station_name":"Karet","i_lat":-6.20132,"transit":false,"i_long":106.816351,"station_id":"KAT","is_transit":false,"line":1,"distance":471},{"station_id":"THB","i_lat":-6.185545,"transit":false,"i_long":106.811091,"time":5,"line":1,"is_transit":false,"station_name":"Tanah Abang","distance":2029},{"station_id":"DU","transit":false,"i_lat":-6.155215,"i_long":106.800832,"line":1,"station_name":"Duri","is_transit":false,"distance":3632,"time":8},{"line":1,"transit":false,"i_long":106.79867,"is_transit":false,"distance":1230,"station_name":"Angke","time":4,"station_id":"AK","i_lat":-6.144674},{"transit":true,"time":9,"is_transit":true,"line":4,"i_long":106.826365,"station_name":"Kampung Bandan","i_lat":-6.132549,"distance":4102,"station_id":"KPB"},{"i_lat":-6.137569,"time":3,"i_long":106.812439,"is_transit":true,"distance":1364,"station_id":"JAKK","station_name":"Jakarta Kota","line":2,"transit":true},{"time":4,"i_lat":-6.141205,"station_id":"JAY","i_long":106.820901,"line":2,"transit":false,"station_name":"Jayakarta","distance":1264,"is_transit":false},{"i_long":106.82482,"line":2,"distance":1080,"station_id":"MGB","station_name":"Manggabesar","transit":false,"is_transit":false,"time":2,"i_lat":-6.149769},{"transit":false,"line":2,"distance":906,"station_id":"SW","is_transit":false,"time":2,"i_long":106.827103,"station_name":"Sawah Besar","i_lat":-6.160725},{"station_name":"Juanda","distance":1149,"transit":false,"is_transit":false,"station_id":"JUA","i_lat":-6.166716,"i_long":106.828284,"time":2,"line":2},{"station_name":"Gondangdia","i_long":106.832183,"distance":2015,"transit":false,"station_id":"GDD","time":4,"i_lat":-6.186295,"is_transit":false,"line":2}],[{"station_name":"Kranji","time":0,"i_lat":-6.224515,"transit":false,"distance":0,"is_transit":false,"station_id":"KRI","i_long":106.977657,"line":1},{"i_lat":-6.219053,"transit":false,"station_name":"Cakung","is_transit":false,"distance":3097,"station_id":"CUK","time":3,"i_long":106.951283,"line":1},{"line":1,"is_transit":false,"time":8,"transit":false,"i_long":106.939679,"station_name":"Klenderbaru","i_lat":-6.217455,"station_id":"KLDB","distance":1385},{"is_transit":false,"transit":false,"i_long":106.922662,"distance":1305,"station_id":"BUA","station_name":"Buaran","time":1,"i_lat":-6.215568,"line":1},{"distance":3100,"station_name":"Klender","i_long":106.899548,"i_lat":-6.2135,"line":1,"transit":false,"station_id":"KLD","is_transit":false,"time":2},{"i_lat":-6.215091,"line":1,"distance":3395,"i_long":106.86807400000001,"transit":true,"time":3,"station_id":"JNG","station_name":"Jatinegara","is_transit":true},{"is_transit":false,"i_long":106.861737,"i_lat":-6.209188,"distance":1236,"time":2,"transit":false,"station_name":"Pondok Jati","station_id":"POK","line":11},{"distance":1829,"time":2,"line":11,"transit":false,"is_transit":false,"i_lat":-6.193792,"station_name":"Kramat","station_id":"KMT","i_long":106.855437},{"station_id":"GST","station_name":"Gang Sentiong","is_transit":false,"i_long":106.850107,"line":11,"time":1,"distance":973,"transit":false,"i_lat":-6.185975},{"is_transit":false,"transit":false,"i_long":106.84368,"distance":1567,"i_lat":-6.174784,"line":11,"station_id":"PSE","station_name":"Pasar Senen","time":8},{"is_transit":false,"distance":1436,"transit":false,"station_id":"KMO","time":4,"i_lat":-6.161728,"i_long":106.839204,"line":11,"station_name":"Kemayoran"},{"distance":1901,"i_long":106.836569,"line":11,"i_lat":-6.14505,"transit":false,"station_name":"Rajawali","is_transit":false,"time":5,"station_id":"RJW"},{"station_id":"KPB","i_long":106.826365,"distance":1444,"transit":true,"station_name":"Kampung Bandan","line":4,"i_lat":-6.132549,"time":3,"is_transit":true},{"distance":4102,"is_transit":false,"station_name":"Angke","time":9,"i_long":106.79867,"transit":false,"i_lat":-6.144674,"station_id":"AK","line":1},{"i_lat":-6.155215,"transit":false,"station_id":"DU","i_long":106.800832,"is_transit":false,"distance":1230,"line":1,"time":4,"station_name":"Duri"},{"i_long":106.811091,"line":1,"station_id":"THB","transit":false,"time":8,"station_name":"Tanah Abang","is_transit":false,"distance":3632,"i_lat":-6.185545},{"station_name":"Karet","station_id":"KAT","line":1,"i_lat":-6.20132,"distance":2029,"transit":false,"time":5,"i_long":106.816351,"is_transit":false},{"transit":false,"station_id":"SUDB","line":1,"distance":471,"time":1,"is_transit":false,"station_name":"Sudirman Baru","i_long":106.819881,"i_lat":-6.201433},{"i_lat":-6.202263,"line":1,"station_id":"SUD","station_name":"Sudirman","i_long":106.822649,"distance":280,"transit":false,"is_transit":false,"time":1},{"station_id":"MRI","i_long":106.84912,"station_name":"Manggarai","line":2,"time":4,"transit":true,"i_lat":-6.209883,"is_transit":true,"distance":3186},{"station_id":"CKI","line":2,"i_long":106.840169,"time":4,"i_lat":-6.198556,"station_name":"Cikini","distance":1590,"transit":false,"is_transit":false},{"station_id":"GDD","transit":false,"station_name":"Gondangdia","is_transit":false,"i_long":106.832183,"distance":1750,"line":2,"time":3,"i_lat":-6.186295}]]}