{"data":[[{"i_long":106.977657,"station_id":"KRI","line":1,"is_transit":false,"transit":false,"station_name":"Kranji","time":0,"i_lat":-6.224515,"distance":0},{"is_transit":false,"line":1,"i_lat":-6.219053,"station_name":"Cakung","time":3,"distance":3097,"station_id":"CUK","i_long":106.951283,"transit":false},{"i_long":106.939679,"transit":false,"is_transit":false,"i_lat":-6.217455,"line":1,"distance":1385,"station_name":"Klenderbaru","station_id":"KLDB","time":8},{"i_long":106.922662,"i_lat":-6.215568,"distance":1305,"time":1,"line":1,"station_id":"BUA","station_name":"Buaran","transit":false,"is_transit":false},{"station_name":"Klender","station_id":"KLD","i_long":106.899548,"i_lat":-6.2135,"transit":false,"time":2,"is_transit":false,"distance":3100,"line":1},{"station_name":"Jatinegara","i_long":106.86807400000001,"i_lat":-6.215091,"distance":3395,"transit":false,"time":3,"is_transit":false,"line":1,"station_id":"JNG"},{"station_name":"Matraman","distance":1377,"transit":false,"station_id":"MTR","i_lat":-6.212485,"is_transit":false,"i_long":106.858896,"line":1,"time":2},{"transit":false,"i_long":106.84912,"station_id":"MRI","is_transit":false,"station_name":"Manggarai","line":2,"time":2,"distance":1275,"i_lat":-6.209883},{"station_id":"SUD","time":4,"distance":3186,"i_lat":-6.202263,"i_long":106.822649,"line":1,"station_name":"Sudirman","transit":false,"is_transit":false},{"i_long":106.819881,"transit":false,"distance":280,"line":1,"station_name":"Sudirman Baru","is_transit":false,"time":1,"station_id":"SUDB","i_lat":-6.201433},{"station_id":"KAT","station_name":"Karet","i_lat":-6.20132,"time":1,"i_long":106.816351,"transit":false,"line":1,"distance":471,"is_transit":false},{"transit":false,"i_lat":-6.185545,"distance":2029,"i_long":106.811091,"is_transit":false,"station_id":"THB","time":5,"station_name":"Tanah Abang","line":1},{"i_long":106.800832,"station_name":"Duri","time":8,"is_transit":true,"station_id":"DU","i_lat":-6.155215,"line":1,"distance":3632,"transit":true},{"i_lat":-6.162021,"i_long":106.788277,"transit":false,"time":3,"is_transit":false,"line":5,"station_id":"GGL","distance":1700,"station_name":"Grogol"},{"i_long":106.771379,"time":2,"line":5,"station_name":"Pesing","is_transit":false,"station_id":"PSG","distance":2036,"i_lat":-6.161433,"transit":false},{"transit":false,"line":5,"i_lat":-6.1587309999999995,"time":2,"station_name":"Taman Kota","station_id":"TKO","i_long":106.756522,"distance":1614,"is_transit":false},{"station_id":"BOI","is_transit":false,"distance":2334,"time":2,"i_long":106.737035,"i_lat":-6.159876,"station_name":"Bojongindah","line":5,"transit":false}],[{"is_transit":false,"distance":0,"time":0,"i_long":106.977657,"line":1,"transit":false,"station_name":"Kranji","station_id":"KRI","i_lat":-6.224515},{"station_name":"Cakung","is_transit":false,"transit":false,"station_id":"CUK","distance":3097,"time":3,"i_lat":-6.219053,"i_long":106.951283,"line":1},{"is_transit":false,"distance":1385,"i_lat":-6.217455,"i_long":106.939679,"transit":false,"station_name":"Klenderbaru","station_id":"KLDB","time":8,"line":1},{"line":1,"station_id":"BUA","is_transit":false,"i_lat":-6.215568,"transit":false,"time":1,"distance":1305,"station_name":"Buaran","i_long":106.922662},{"line":1,"station_id":"KLD","i_lat":-6.2135,"station_name":"Klender","is_transit":false,"time":2,"transit":false,"i_long":106.899548,"distance":3100},{"distance":3395,"station_name":"Jatinegara","i_lat":-6.215091,"time":3,"i_long":106.86807400000001,"station_id":"JNG","line":1,"transit":true,"is_transit":true},{"i_lat":-6.209188,"is_transit":false,"time":2,"i_long":106.861737,"station_name":"Pondok Jati","station_id":"POK","line":11,"transit":false,"distance":1236},{"time":2,"distance":1829,"station_name":"Kramat","is_transit":false,"i_lat":-6.193792,"transit":false,"i_long":106.855437,"line":11,"station_id":"KMT"},{"distance":973,"station_id":"GST","station_name":"Gang Sentiong","i_long":106.850107,"time":1,"i_lat":-6.185975,"line":11,"is_transit":false,"transit":false},{"time":8,"station_name":"Pasar Senen","i_lat":-6.174784,"distance":1567,"i_long":106.84368,"is_transit":false,"line":11,"station_id":"PSE","transit":false},{"is_transit":false,"distance":1436,"i_long":106.839204,"station_id":"KMO","line":11,"time":4,"i_lat":-6.161728,"transit":false,"station_name":"Kemayoran"},{"is_transit":false,"transit":false,"time":5,"i_lat":-6.14505,"station_name":"Rajawali","distance":1901,"i_long":106.836569,"line":11,"station_id":"RJW"},{"distance":1444,"transit":true,"station_name":"Kampung Bandan","line":4,"station_id":"KPB","is_transit":true,"i_long":106.826365,"time":3,"i_lat":-6.132549},{"station_id":"AK","distance":4102,"i_long":106.79867,"line":1,"station_name":"Angke","i_lat":-6.144674,"time":9,"is_transit":false,"transit":false},{"station_id":"DU","time":4,"i_lat":-6.155215,"line":1,"transit":true,"is_transit":true,"station_name":"Duri","distance":1230,"i_long":106.800832},{"is_transit":false,"i_long":106.788277,"line":5,"distance":1700,"time":3,"station_name":"Grogol","station_id":"GGL","transit":false,"i_lat":-6.162021},{"i_lat":-6.161433,"distance":2036,"line":5,"time":2,"station_id":"PSG","i_long":106.771379,"transit":false,"is_transit":false,"station_name":"Pesing"},{"transit":false,"station_id":"TKO","i_lat":-6.1587309999999995,"distance":1614,"i_long":106.756522,"line":5,"is_transit":false,"time":2,"station_name":"Taman Kota"},{"station_name":"Bojongindah","transit":false,"station_id":"BOI","is_transit":false,"i_lat":-6.159876,"distance":2334,"i_long":106.737035,"line":5,"time":2}],[{"station_name":"Kranji","line":1,"transit":false,"station_id":"KRI","is_transit":false,"time":0,"i_lat":-6.224515,"i_long":106.977657,"distance":0},{"station_name":"Cakung","transit":false,"i_long":106.951283,"line":1,"station_id":"CUK","i_lat":-6.219053,"is_transit":false,"time":3,"distance":3097},{"station_name":"Klenderbaru","transit":false,"distance":1385,"is_transit":false,"i_long":106.939679,"line":1,"time":8,"station_id":"KLDB","i_lat":-6.217455},{"station_name":"Buaran","i_long":106.922662,"is_transit":false,"time":1,"line":1,"transit":false,"distance":1305,"i_lat":-6.215568,"station_id":"BUA"},{"i_long":106.899548,"transit":false,"time":2,"distance":3100,"is_transit":false,"line":1,"station_id":"KLD","station_name":"Klender","i_lat":-6.2135},{"i_lat":-6.215091,"line":1,"station_name":"Jatinegara","station_id":"JNG","distance":3395,"i_long":106.86807400000001,"is_transit":false,"transit":false,"time":3},{"time":2,"i_long":106.858896,"is_transit":false,"i_lat":-6.212485,"transit":false,"line":1,"station_id":"MTR","station_name":"Matraman","distance":1377},{"is_transit":true,"station_name":"Manggarai","time":2,"transit":true,"station_id":"MRI","line":2,"i_lat":-6.209883,"distance":1275,"i_long":106.84912},{"distance":1590,"line":2,"transit":false,"station_name":"Cikini","station_id":"CKI","i_lat":-6.198556,"is_transit":false,"i_long":106.840169,"time":4},{"station_name":"Gondangdia","transit":false,"time":3,"line":2,"distance":1750,"station_id":"GDD","i_lat":-6.186295,"i_long":106.832183,"is_transit":false},{"i_lat":-6.166716,"station_name":"Juanda","is_transit":false,"station_id":"JUA","transit":false,"i_long":106.828284,"line":2,"time":4,"distance":2015},{"distance":1149,"i_lat":-6.160725,"line":2,"time":2,"station_name":"Sawah Besar","i_long":106.827103,"transit":false,"station_id":"SW","is_transit":false},{"station_id":"MGB","i_lat":-6.149769,"station_name":"Manggabesar","time":2,"transit":false,"is_transit":false,"distance":906,"i_long":106.82482,"line":2},{"time":2,"i_long":106.820901,"i_lat":-6.141205,"is_transit":false,"distance":1080,"line":2,"station_id":"JAY","station_name":"Jayakarta","transit":false},{"station_id":"JAKK","is_transit":true,"i_lat":-6.137569,"station_name":"Jakarta Kota","time":4,"i_long":106.812439,"transit":true,"distance":1264,"line":2},{"distance":1364,"transit":true,"station_name":"Kampung Bandan","station_id":"KPB","line":4,"time":3,"i_long":106.826365,"is_transit":true,"i_lat":-6.132549},{"station_name":"Angke","transit":false,"is_transit":false,"i_lat":-6.144674,"station_id":"AK","time":9,"i_long":106.79867,"distance":4102,"line":1},{"distance":1230,"transit":true,"station_name":"Duri","station_id":"DU","time":4,"i_lat":-6.155215,"line":1,"is_transit":true,"i_long":106.800832},{"transit":false,"i_long":106.788277,"line":5,"time":3,"i_lat":-6.162021,"distance":1700,"is_transit":false,"station_name":"Grogol","station_id":"GGL"},{"station_name":"Pesing","station_id":"PSG","line":5,"time":2,"i_lat":-6.161433,"is_transit":false,"i_long":106.771379,"distance":2036,"transit":false},{"is_transit":false,"i_lat":-6.1587309999999995,"time":2,"transit":false,"distance":1614,"i_long":106.756522,"station_name":"Taman Kota","station_id":"TKO","line":5},{"distance":2334,"i_long":106.737035,"station_name":"Bojongindah","time":2,"is_transit":false,"i_lat":-6.159876,"transit":false,"station_id":"BOI","line":5}],[{"transit":false,"station_id":"KRI","time":0,"i_long":106.977657,"distance":0,"station_name":"Kranji","is_transit":false,"i_lat":-6.224515,"line":1},{"i_long":106.951283,"station_name":"Cakung","station_id":"CUK","line":1,"is_transit":false,"time":3,"transit":false,"i_lat":-6.219053,"distance":3097},{"is_transit":false,"i_lat":-6.217455,"i_long":106.939679,"transit":false,"distance":1385,"station_name":"Klenderbaru","station_id":"KLDB","line":1,"time":8},{"is_transit":false,"station_id":"BUA","time":1,"i_long":106.922662,"station_name":"Buaran","line":1,"transit":false,"distance":1305,"i_lat":-6.215568},{"is_transit":false,"transit":false,"station_id":"KLD","line":1,"time":2,"distance":3100,"i_long":106.899548,"station_name":"Klender","i_lat":-6.2135},{"i_long":106.86807400000001,"transit":true,"distance":3395,"time":3,"line":1,"is_transit":true,"station_name":"Jatinegara","station_id":"JNG","i_lat":-6.215091},{"is_transit":false,"i_lat":-6.209188,"station_name":"Pondok Jati","time":2,"line":11,"i_long":106.861737,"transit":false,"station_id":"POK","distance":1236},{"station_name":"Kramat","station_id":"KMT","i_long":106.855437,"line":11,"time":2,"transit":false,"i_lat":-6.193792,"distance":1829,"is_transit":false},{"transit":false,"station_id":"GST","time":1,"i_long":106.850107,"line":11,"distance":973,"is_transit":false,"i_lat":-6.185975,"station_name":"Gang Sentiong"},{"station_id":"PSE","line":11,"i_long":106.84368,"time":8,"distance":1567,"station_name":"Pasar Senen","transit":false,"is_transit":false,"i_lat":-6.174784},{"distance":1436,"station_id":"KMO","i_lat":-6.161728,"line":11,"time":4,"is_transit":false,"i_long":106.839204,"station_name":"Kemayoran","transit":false},{"time":5,"i_long":106.836569,"i_lat":-6.14505,"is_transit":false,"distance":1901,"line":11,"transit":false,"station_name":"Rajawali","station_id":"RJW"},{"distance":1444,"transit":true,"line":4,"i_long":106.826365,"is_transit":true,"station_id":"KPB","time":3,"i_lat":-6.132549,"station_name":"Kampung Bandan"},{"time":3,"station_name":"Jakarta Kota","distance":1364,"line":2,"is_transit":true,"i_long":106.812439,"station_id":"JAKK","transit":true,"i_lat":-6.137569},{"distance":1264,"station_name":"Jayakarta","time":4,"i_long":106.820901,"transit":false,"line":2,"i_lat":-6.141205,"station_id":"JAY","is_transit":false},{"distance":1080,"transit":false,"is_transit":false,"station_id":"MGB","station_name":"Manggabesar","i_long":106.82482,"i_lat":-6.149769,"time":2,"line":2},{"time":2,"station_id":"SW","transit":false,"station_name":"Sawah Besar","distance":906,"i_long":106.827103,"line":2,"is_transit":false,"i_lat":-6.160725},{"i_long":106.828284,"i_lat":-6.166716,"line":2,"station_id":"JUA","station_name":"Juanda","time":2,"is_transit":false,"distance":1149,"transit":false},{"distance":2015,"time":4,"i_lat":-6.186295,"line":2,"station_id":"GDD","is_transit":false,"i_long":106.832183,"station_name":"Gondangdia","transit":false},{"station_id":"CKI","i_lat":-6.198556,"station_name":"Cikini","time":3,"is_transit":false,"transit":false,"i_long":106.840169,"distance":1750,"line":2},{"i_lat":-6.209883,"station_id":"MRI","distance":1590,"station_name":"Manggarai","i_long":106.84912,"transit":true,"time":4,"line":2,"is_transit":true},{"is_transit":false,"station_name":"Sudirman","station_id":"SUD","i_long":106.822649,"distance":3186,"line":1,"i_lat":-6.202263,"transit":false,"time":4},{"i_long":106.819881,"line":1,"time":1,"distance":280,"transit":false,"is_transit":false,"station_id":"SUDB","i_lat":-6.201433,"station_name":"Sudirman Baru"},{"transit":false,"station_id":"KAT","distance":471,"i_lat":-6.20132,"line":1,"is_transit":false,"i_long":106.816351,"time":1,"station_name":"Karet"},{"i_long":106.811091,"line":1,"i_lat":-6.185545,"station_id":"THB","transit":false,"time":5,"is_transit":false,"distance":2029,"station_name":"Tanah Abang"},{"transit":true,"line":1,"time":8,"station_name":"Duri","is_transit":true,"distance":3632,"station_id":"DU","i_lat":-6.155215,"i_long":106.800832},{"distance":1700,"line":5,"transit":false,"is_transit":false,"i_lat":-6.162021,"i_long":106.788277,"time":3,"station_id":"GGL","station_name":"Grogol"},{"i_lat":-6.161433,"distance":2036,"time":2,"is_transit":false,"station_id":"PSG","i_long":106.771379,"station_name":"Pesing","line":5,"transit":false},{"station_name":"Taman Kota","station_id":"TKO","distance":1614,"i_lat":-6.1587309999999995,"i_long":106.756522,"line":5,"is_transit":false,"time":2,"transit":false},{"transit":false,"station_name":"Bojongindah","is_transit":false,"time":2,"distance":2334,"i_lat":-6.159876,"i_long":106.737035,"station_id":"BOI","line":5}]]}