{"data":[[{"i_lat":-6.224515,"time":0,"distance":0,"line":1,"station_name":"Kranji","station_id":"KRI","i_long":106.977657,"transit":false,"is_transit":false},{"transit":false,"station_id":"CUK","line":1,"is_transit":false,"station_name":"Cakung","i_lat":-6.219053,"i_long":106.951283,"distance":3097,"time":3},{"line":1,"station_id":"KLDB","time":8,"station_name":"Klenderbaru","transit":false,"is_transit":false,"i_lat":-6.217455,"i_long":106.939679,"distance":1385},{"transit":false,"i_long":106.922662,"station_name":"Buaran","is_transit":false,"distance":1305,"i_lat":-6.215568,"time":1,"station_id":"BUA","line":1},{"i_long":106.899548,"is_transit":false,"distance":3100,"transit":false,"time":2,"i_lat":-6.2135,"line":1,"station_id":"KLD","station_name":"Klender"},{"line":1,"station_id":"JNG","is_transit":false,"i_lat":-6.215091,"i_long":106.86807400000001,"station_name":"Jatinegara","time":3,"transit":false,"distance":3395},{"transit":false,"i_long":106.858896,"time":2,"is_transit":false,"distance":1377,"line":1,"i_lat":-6.212485,"station_name":"Matraman","station_id":"MTR"},{"time":2,"station_id":"MRI","transit":true,"station_name":"Manggarai","distance":1275,"i_lat":-6.209883,"is_transit":true,"i_long":106.84912,"line":2},{"line":2,"station_id":"CKI","distance":1590,"transit":false,"i_lat":-6.198556,"time":4,"station_name":"Cikini","is_transit":false,"i_long":106.840169},{"time":3,"i_lat":-6.186295,"distance":1750,"station_name":"Gondangdia","station_id":"GDD","transit":false,"is_transit":false,"i_long":106.832183,"line":2}],[{"line":1,"station_id":"KRI","i_long":106.977657,"time":0,"station_name":"Kranji","transit":false,"is_transit":false,"distance":0,"i_lat":-6.224515},{"line":1,"i_long":106.951283,"i_lat":-6.219053,"station_id":"CUK","time":3,"is_transit":false,"station_name":"Cakung","transit":false,"distance":3097},{"station_id":"KLDB","is_transit":false,"time":8,"line":1,"transit":false,"station_name":"Klenderbaru","i_lat":-6.217455,"i_long":106.939679,"distance":1385},{"is_transit":false,"transit":false,"distance":1305,"i_lat":-6.215568,"line":1,"station_id":"BUA","time":1,"station_name":"Buaran","i_long":106.922662},{"i_long":106.899548,"line":1,"station_name":"Klender","time":2,"station_id":"KLD","i_lat":-6.2135,"is_transit":false,"transit":false,"distance":3100},{"transit":true,"station_id":"JNG","station_name":"Jatinegara","i_lat":-6.215091,"line":1,"is_transit":true,"i_long":106.86807400000001,"distance":3395,"time":3},{"is_transit":false,"station_id":"POK","station_name":"Pondok Jati","time":2,"distance":1236,"i_lat":-6.209188,"transit":false,"i_long":106.861737,"line":11},{"distance":1829,"is_transit":false,"transit":false,"i_long":106.855437,"line":11,"station_id":"KMT","station_name":"Kramat","i_lat":-6.193792,"time":2},{"station_name":"Gang Sentiong","distance":973,"i_long":106.850107,"line":11,"time":1,"station_id":"GST","transit":false,"is_transit":false,"i_lat":-6.185975},{"time":8,"transit":false,"is_transit":false,"station_id":"PSE","station_name":"Pasar Senen","line":11,"i_lat":-6.174784,"distance":1567,"i_long":106.84368},{"distance":1436,"transit":false,"station_name":"Kemayoran","station_id":"KMO","is_transit":false,"time":4,"i_long":106.839204,"i_lat":-6.161728,"line":11},{"is_transit":false,"distance":1901,"station_id":"RJW","i_lat":-6.14505,"transit":false,"time":5,"line":11,"i_long":106.836569,"station_name":"Rajawali"},{"transit":true,"station_name":"Kampung Bandan","station_id":"KPB","is_transit":true,"i_lat":-6.132549,"line":4,"distance":1444,"time":3,"i_long":106.826365},{"station_id":"JAKK","distance":1364,"time":3,"i_lat":-6.137569,"i_long":106.812439,"transit":true,"station_name":"Jakarta Kota","is_transit":true,"line":2},{"time":4,"distance":1264,"i_long":106.820901,"station_name":"Jayakarta","line":2,"station_id":"JAY","i_lat":-6.141205,"transit":false,"is_transit":false},{"transit":false,"i_lat":-6.149769,"line":2,"station_id":"MGB","i_long":106.82482,"station_name":"Manggabesar","is_transit":false,"time":2,"distance":1080},{"line":2,"is_transit":false,"i_long":106.827103,"station_name":"Sawah Besar","station_id":"SW","time":2,"distance":906,"i_lat":-6.160725,"transit":false},{"is_transit":false,"i_lat":-6.166716,"station_id":"JUA","line":2,"distance":1149,"i_long":106.828284,"station_name":"Juanda","transit":false,"time":2},{"line":2,"transit":false,"i_lat":-6.186295,"is_transit":false,"station_id":"GDD","i_long":106.832183,"station_name":"Gondangdia","distance":2015,"time":4}],[{"i_lat":-6.224515,"transit":false,"i_long":106.977657,"station_id":"KRI","is_transit":false,"line":1,"time":0,"station_name":"Kranji","distance":0},{"station_id":"CUK","distance":3097,"time":3,"transit":false,"is_transit":false,"i_lat":-6.219053,"i_long":106.951283,"line":1,"station_name":"Cakung"},{"is_transit":false,"distance":1385,"line":1,"station_name":"Klenderbaru","station_id":"KLDB","time":8,"i_lat":-6.217455,"transit":false,"i_long":106.939679},{"transit":false,"i_lat":-6.215568,"time":1,"station_id":"BUA","distance":1305,"i_long":106.922662,"line":1,"is_transit":false,"station_name":"Buaran"},{"station_name":"Klender","line":1,"transit":false,"time":2,"distance":3100,"i_lat":-6.2135,"i_long":106.899548,"is_transit":false,"station_id":"KLD"},{"line":1,"time":3,"distance":3395,"i_long":106.86807400000001,"station_name":"Jatinegara","transit":false,"i_lat":-6.215091,"station_id":"JNG","is_transit":false},{"time":2,"line":1,"i_lat":-6.212485,"i_long":106.858896,"transit":false,"is_transit":false,"station_name":"Matraman","distance":1377,"station_id":"MTR"},{"i_long":106.84912,"line":2,"i_lat":-6.209883,"time":2,"station_id":"MRI","transit":false,"is_transit":false,"distance":1275,"station_name":"Manggarai"},{"i_long":106.822649,"i_lat":-6.202263,"station_id":"SUD","transit":false,"distance":3186,"station_name":"Sudirman","time":4,"is_transit":false,"line":1},{"i_lat":-6.201433,"line":1,"distance":280,"transit":false,"is_transit":false,"time":1,"i_long":106.819881,"station_name":"Sudirman Baru","station_id":"SUDB"},{"station_name":"Karet","is_transit":false,"station_id":"KAT","distance":471,"time":1,"i_lat":-6.20132,"line":1,"i_long":106.816351,"transit":false},{"is_transit":false,"station_name":"Tanah Abang","time":5,"transit":false,"distance":2029,"i_lat":-6.185545,"station_id":"THB","i_long":106.811091,"line":1},{"time":8,"is_transit":false,"i_long":106.800832,"station_id":"DU","transit":false,"distance":3632,"station_name":"Duri","line":1,"i_lat":-6.155215},{"time":4,"i_lat":-6.144674,"line":1,"transit":false,"station_name":"Angke","station_id":"AK","i_long":106.79867,"distance":1230,"is_transit":false},{"i_lat":-6.132549,"station_name":"Kampung Bandan","is_transit":true,"distance":4102,"transit":true,"i_long":106.826365,"line":4,"station_id":"KPB","time":9},{"line":2,"time":3,"i_lat":-6.137569,"transit":true,"i_long":106.812439,"station_name":"Jakarta Kota","is_transit":true,"station_id":"JAKK","distance":1364},{"is_transit":false,"distance":1264,"time":4,"line":2,"transit":false,"station_name":"Jayakarta","i_lat":-6.141205,"i_long":106.820901,"station_id":"JAY"},{"station_name":"Manggabesar","distance":1080,"line":2,"transit":false,"time":2,"is_transit":false,"i_long":106.82482,"i_lat":-6.149769,"station_id":"MGB"},{"i_lat":-6.160725,"i_long":106.827103,"line":2,"station_name":"Sawah Besar","is_transit":false,"time":2,"distance":906,"station_id":"SW","transit":false},{"transit":false,"i_lat":-6.166716,"station_id":"JUA","i_long":106.828284,"station_name":"Juanda","line":2,"time":2,"is_transit":false,"distance":1149},{"i_lat":-6.186295,"transit":false,"i_long":106.832183,"station_name":"Gondangdia","distance":2015,"line":2,"station_id":"GDD","is_transit":false,"time":4}],[{"is_transit":false,"transit":false,"line":1,"i_lat":-6.224515,"station_id":"KRI","i_long":106.977657,"distance":0,"time":0,"station_name":"Kranji"},{"i_long":106.951283,"station_id":"CUK","line":1,"is_transit":false,"distance":3097,"transit":false,"i_lat":-6.219053,"station_name":"Cakung","time":3},{"i_lat":-6.217455,"i_long":106.939679,"line":1,"station_name":"Klenderbaru","distance":1385,"transit":false,"station_id":"KLDB","is_transit":false,"time":8},{"i_lat":-6.215568,"line":1,"station_name":"Buaran","station_id":"BUA","is_transit":false,"time":1,"distance":1305,"i_long":106.922662,"transit":false},{"line":1,"transit":false,"i_lat":-6.2135,"distance":3100,"i_long":106.899548,"is_transit":false,"time":2,"station_name":"Klender","station_id":"KLD"},{"station_name":"Jatinegara","station_id":"JNG","is_transit":true,"distance":3395,"line":1,"time":3,"i_long":106.86807400000001,"i_lat":-6.215091,"transit":true},{"time":2,"station_id":"POK","distance":1236,"transit":false,"i_lat":-6.209188,"station_name":"Pondok Jati","is_transit":false,"i_long":106.861737,"line":11},{"line":11,"station_name":"Kramat","i_lat":-6.193792,"is_transit":false,"distance":1829,"station_id":"KMT","transit":false,"time":2,"i_long":106.855437},{"station_name":"Gang Sentiong","distance":973,"transit":false,"is_transit":false,"time":1,"station_id":"GST","line":11,"i_long":106.850107,"i_lat":-6.185975},{"station_id":"PSE","i_lat":-6.174784,"is_transit":false,"time":8,"transit":false,"station_name":"Pasar Senen","line":11,"i_long":106.84368,"distance":1567},{"distance":1436,"station_id":"KMO","i_lat":-6.161728,"station_name":"Kemayoran","time":4,"is_transit":false,"line":11,"transit":false,"i_long":106.839204},{"line":11,"distance":1901,"station_id":"RJW","is_transit":false,"transit":false,"time":5,"i_long":106.836569,"station_name":"Rajawali","i_lat":-6.14505},{"line":4,"station_name":"Kampung Bandan","distance":1444,"transit":true,"i_lat":-6.132549,"is_transit":true,"station_id":"KPB","time":3,"i_long":106.826365},{"line":1,"is_transit":false,"i_long":106.79867,"i_lat":-6.144674,"station_id":"AK","transit":false,"station_name":"Angke","time":9,"distance":4102},{"i_lat":-6.155215,"station_id":"DU","distance":1230,"line":1,"is_transit":false,"time":4,"i_long":106.800832,"transit":false,"station_name":"Duri"},{"station_id":"THB","i_lat":-6.185545,"i_long":106.811091,"distance":3632,"station_name":"Tanah Abang","time":8,"line":1,"transit":false,"is_transit":false},{"line":1,"transit":false,"is_transit":false,"i_lat":-6.20132,"i_long":106.816351,"time":5,"station_id":"KAT","distance":2029,"station_name":"Karet"},{"line":1,"distance":471,"station_id":"SUDB","time":1,"station_name":"Sudirman Baru","transit":false,"i_long":106.819881,"i_lat":-6.201433,"is_transit":false},{"transit":false,"i_lat":-6.202263,"station_id":"SUD","station_name":"Sudirman","time":1,"is_transit":false,"distance":280,"i_long":106.822649,"line":1},{"line":2,"i_lat":-6.209883,"is_transit":true,"station_id":"MRI","distance":3186,"transit":true,"time":4,"station_name":"Manggarai","i_long":106.84912},{"is_transit":false,"i_long":106.840169,"line":2,"i_lat":-6.198556,"station_name":"Cikini","transit":false,"station_id":"CKI","time":4,"distance":1590},{"time":3,"station_id":"GDD","transit":false,"line":2,"distance":1750,"i_lat":-6.186295,"is_transit":false,"station_name":"Gondangdia","i_long":106.832183}]]}