{"data":[[{"transit":false,"distance":0,"time":0,"is_transit":false,"i_lat":-6.224515,"line":1,"station_name":"Kranji","station_id":"KRI","i_long":106.977657},{"i_long":106.951283,"time":3,"station_name":"Cakung","i_lat":-6.219053,"distance":3097,"is_transit":false,"transit":false,"line":0,"station_id":"CUK"},{"time":8,"station_id":"KLDB","i_lat":-6.217455,"station_name":"Klenderbaru","i_long":106.939679,"is_transit":false,"distance":1385,"transit":false,"line":1},{"transit":false,"line":0,"time":1,"i_lat":-6.215568,"i_long":106.922662,"station_name":"Buaran","distance":1305,"station_id":"BUA","is_transit":false},{"time":2,"distance":3100,"is_transit":false,"station_id":"KLD","transit":false,"i_long":106.899548,"station_name":"Klender","i_lat":-6.2135,"line":1},{"time":3,"is_transit":true,"station_id":"JNG","distance":3395,"transit":false,"i_lat":-6.215091,"i_long":106.86807400000001,"line":0,"station_name":"Jatinegara"},{"line":1,"station_name":"Matraman","time":2,"i_long":106.858896,"transit":false,"distance":1377,"station_id":"MTR","is_transit":false,"i_lat":-6.212485},{"distance":1275,"transit":true,"line":0,"i_long":106.84912,"station_name":"Manggarai","is_transit":true,"time":2,"i_lat":-6.209883,"station_id":"MRI"},{"transit":false,"line":0,"station_id":"CKI","distance":1590,"time":4,"i_lat":-6.198556,"station_name":"Cikini","is_transit":false,"i_long":106.840169},{"station_name":"Gondangdia","i_lat":-6.186295,"transit":false,"distance":1750,"station_id":"GDD","is_transit":false,"time":3,"i_long":106.832183,"line":2}],[{"time":0,"station_id":"KRI","station_name":"Kranji","is_transit":false,"transit":false,"i_lat":-6.224515,"i_long":106.977657,"line":1,"distance":0},{"distance":3097,"i_long":106.951283,"station_id":"CUK","transit":false,"line":0,"station_name":"Cakung","i_lat":-6.219053,"is_transit":false,"time":3},{"is_transit":false,"line":1,"time":8,"distance":1385,"i_long":106.939679,"transit":false,"station_id":"KLDB","i_lat":-6.217455,"station_name":"Klenderbaru"},{"transit":false,"time":1,"i_long":106.922662,"line":0,"is_transit":false,"i_lat":-6.215568,"station_id":"BUA","station_name":"Buaran","distance":1305},{"i_lat":-6.2135,"station_name":"Klender","i_long":106.899548,"line":1,"time":2,"station_id":"KLD","transit":false,"is_transit":false,"distance":3100},{"line":0,"time":3,"distance":3395,"i_lat":-6.215091,"transit":true,"station_name":"Jatinegara","station_id":"JNG","is_transit":true,"i_long":106.86807400000001},{"is_transit":false,"station_name":"Pondok Jati","station_id":"POK","transit":false,"i_lat":-6.209188,"i_long":106.861737,"distance":1236,"time":2,"line":11},{"distance":1829,"station_name":"Kramat","is_transit":false,"time":2,"line":11,"station_id":"KMT","i_lat":-6.193792,"i_long":106.855437,"transit":false},{"distance":973,"i_lat":-6.185975,"station_id":"GST","is_transit":false,"i_long":106.850107,"transit":false,"station_name":"Gang Sentiong","time":1,"line":11},{"distance":1567,"transit":false,"i_lat":-6.174784,"line":11,"i_long":106.84368,"station_name":"Pasar Senen","is_transit":false,"time":8,"station_id":"PSE"},{"time":4,"station_id":"KMO","transit":false,"line":11,"station_name":"Kemayoran","is_transit":false,"distance":1436,"i_lat":-6.161728,"i_long":106.839204},{"distance":1901,"station_id":"RJW","station_name":"Rajawali","transit":false,"i_lat":-6.14505,"i_long":106.836569,"is_transit":false,"time":5,"line":11},{"station_name":"Kampung Bandan","transit":true,"station_id":"KPB","line":0,"i_lat":-6.132549,"time":3,"is_transit":true,"i_long":106.826365,"distance":1444},{"distance":1364,"is_transit":true,"transit":true,"station_id":"JAKK","time":3,"station_name":"Jakarta Kota","i_long":106.812439,"line":0,"i_lat":-6.137569},{"i_lat":-6.141205,"station_id":"JAY","time":4,"distance":1264,"transit":false,"is_transit":false,"station_name":"Jayakarta","i_long":106.820901,"line":7},{"is_transit":false,"station_id":"MGB","time":2,"distance":1080,"transit":false,"i_lat":-6.149769,"line":2,"i_long":106.82482,"station_name":"Manggabesar"},{"station_id":"SW","distance":906,"line":2,"time":2,"i_long":106.827103,"is_transit":false,"transit":false,"station_name":"Sawah Besar","i_lat":-6.160725},{"i_long":106.828284,"line":2,"station_name":"Juanda","station_id":"JUA","i_lat":-6.166716,"transit":false,"distance":1149,"time":2,"is_transit":false},{"distance":2015,"line":2,"station_name":"Gondangdia","i_lat":-6.186295,"transit":false,"i_long":106.832183,"is_transit":false,"time":4,"station_id":"GDD"}],[{"line":1,"i_long":106.977657,"transit":false,"time":0,"station_id":"KRI","i_lat":-6.224515,"distance":0,"is_transit":false,"station_name":"Kranji"},{"i_long":106.951283,"line":0,"time":3,"distance":3097,"transit":false,"station_id":"CUK","station_name":"Cakung","i_lat":-6.219053,"is_transit":false},{"is_transit":false,"line":1,"time":8,"i_lat":-6.217455,"transit":false,"i_long":106.939679,"distance":1385,"station_id":"KLDB","station_name":"Klenderbaru"},{"time":1,"distance":1305,"station_id":"BUA","i_long":106.922662,"i_lat":-6.215568,"line":0,"station_name":"Buaran","transit":false,"is_transit":false},{"station_id":"KLD","transit":false,"i_lat":-6.2135,"distance":3100,"station_name":"Klender","time":2,"i_long":106.899548,"line":1,"is_transit":false},{"is_transit":true,"line":0,"i_lat":-6.215091,"distance":3395,"station_id":"JNG","station_name":"Jatinegara","transit":false,"time":3,"i_long":106.86807400000001},{"transit":false,"i_lat":-6.212485,"station_name":"Matraman","station_id":"MTR","time":2,"i_long":106.858896,"line":1,"distance":1377,"is_transit":false},{"station_id":"MRI","i_long":106.84912,"line":0,"i_lat":-6.209883,"time":2,"station_name":"Manggarai","is_transit":true,"transit":false,"distance":1275},{"line":1,"is_transit":false,"time":4,"i_lat":-6.202263,"station_id":"SUD","i_long":106.822649,"transit":false,"station_name":"Sudirman","distance":3186},{"station_id":"SUDB","transit":false,"time":1,"i_long":106.819881,"line":1,"station_name":"Sudirman Baru","i_lat":-6.201433,"is_transit":false,"distance":280},{"station_name":"Karet","i_lat":-6.20132,"distance":471,"transit":false,"station_id":"KAT","time":1,"is_transit":false,"i_long":106.816351,"line":1},{"station_name":"Tanah Abang","distance":2029,"i_long":106.811091,"line":1,"transit":false,"i_lat":-6.185545,"station_id":"THB","is_transit":true,"time":5},{"transit":true,"i_long":106.800832,"is_transit":true,"i_lat":-6.155215,"station_id":"DU","station_name":"Duri","time":8,"line":1,"distance":3632},{"station_id":"AK","time":4,"i_lat":-6.144674,"is_transit":false,"station_name":"Angke","distance":1230,"transit":false,"line":0,"i_long":106.79867},{"i_lat":-6.132549,"transit":false,"i_long":106.826365,"station_name":"Kampung Bandan","time":9,"station_id":"KPB","is_transit":true,"distance":4102,"line":0},{"line":0,"time":3,"i_long":106.812439,"station_id":"JAKK","station_name":"Jakarta Kota","is_transit":true,"transit":true,"i_lat":-6.137569,"distance":1364},{"station_id":"JAY","time":4,"i_lat":-6.141205,"is_transit":false,"transit":false,"distance":1264,"line":7,"station_name":"Jayakarta","i_long":106.820901},{"i_long":106.82482,"station_name":"Manggabesar","distance":1080,"is_transit":false,"station_id":"MGB","time":2,"i_lat":-6.149769,"line":2,"transit":false},{"i_lat":-6.160725,"time":2,"is_transit":false,"transit":false,"distance":906,"station_id":"SW","station_name":"Sawah Besar","i_long":106.827103,"line":2},{"time":2,"transit":false,"line":2,"station_id":"JUA","i_long":106.828284,"station_name":"Juanda","i_lat":-6.166716,"is_transit":false,"distance":1149},{"line":2,"time":4,"i_lat":-6.186295,"station_name":"Gondangdia","distance":2015,"station_id":"GDD","is_transit":false,"i_long":106.832183,"transit":false}],[{"time":0,"i_lat":-6.224515,"line":1,"transit":false,"distance":0,"is_transit":false,"i_long":106.977657,"station_name":"Kranji","station_id":"KRI"},{"station_name":"Cakung","is_transit":false,"transit":false,"distance":3097,"i_long":106.951283,"line":0,"station_id":"CUK","i_lat":-6.219053,"time":3},{"line":1,"is_transit":false,"time":8,"station_id":"KLDB","i_lat":-6.217455,"distance":1385,"i_long":106.939679,"transit":false,"station_name":"Klenderbaru"},{"distance":1305,"transit":false,"is_transit":false,"line":0,"station_name":"Buaran","time":1,"i_lat":-6.215568,"i_long":106.922662,"station_id":"BUA"},{"is_transit":false,"i_long":106.899548,"line":1,"transit":false,"station_id":"KLD","time":2,"i_lat":-6.2135,"station_name":"Klender","distance":3100},{"i_long":106.86807400000001,"line":0,"i_lat":-6.215091,"distance":3395,"station_id":"JNG","transit":true,"time":3,"is_transit":true,"station_name":"Jatinegara"},{"line":11,"station_id":"POK","transit":false,"i_lat":-6.209188,"station_name":"Pondok Jati","is_transit":false,"distance":1236,"i_long":106.861737,"time":2},{"station_name":"Kramat","time":2,"transit":false,"line":11,"distance":1829,"is_transit":false,"i_lat":-6.193792,"i_long":106.855437,"station_id":"KMT"},{"time":1,"line":11,"transit":false,"i_lat":-6.185975,"station_id":"GST","distance":973,"i_long":106.850107,"station_name":"Gang Sentiong","is_transit":false},{"i_long":106.84368,"i_lat":-6.174784,"station_id":"PSE","is_transit":false,"line":11,"distance":1567,"time":8,"transit":false,"station_name":"Pasar Senen"},{"station_name":"Kemayoran","station_id":"KMO","is_transit":false,"time":4,"i_long":106.839204,"line":11,"transit":false,"i_lat":-6.161728,"distance":1436},{"is_transit":false,"station_name":"Rajawali","i_lat":-6.14505,"distance":1901,"transit":false,"time":5,"i_long":106.836569,"line":11,"station_id":"RJW"},{"i_long":106.826365,"station_name":"Kampung Bandan","time":3,"distance":1444,"i_lat":-6.132549,"is_transit":true,"transit":true,"line":0,"station_id":"KPB"},{"distance":4102,"station_name":"Angke","i_long":106.79867,"station_id":"AK","line":0,"time":9,"is_transit":false,"i_lat":-6.144674,"transit":false},{"station_id":"DU","i_lat":-6.155215,"i_long":106.800832,"is_transit":true,"distance":1230,"transit":true,"line":1,"time":4,"station_name":"Duri"},{"station_id":"THB","time":8,"transit":false,"line":1,"station_name":"Tanah Abang","is_transit":true,"i_long":106.811091,"distance":3632,"i_lat":-6.185545},{"time":5,"transit":false,"station_id":"KAT","distance":2029,"i_lat":-6.20132,"station_name":"Karet","is_transit":false,"i_long":106.816351,"line":1},{"i_long":106.819881,"time":1,"i_lat":-6.201433,"line":1,"is_transit":false,"transit":false,"distance":471,"station_id":"SUDB","station_name":"Sudirman Baru"},{"i_lat":-6.202263,"distance":280,"transit":false,"line":1,"time":1,"i_long":106.822649,"station_id":"SUD","station_name":"Sudirman","is_transit":false},{"i_long":106.84912,"line":0,"transit":true,"station_id":"MRI","is_transit":true,"distance":3186,"station_name":"Manggarai","i_lat":-6.209883,"time":4},{"station_name":"Cikini","i_long":106.840169,"i_lat":-6.198556,"time":4,"station_id":"CKI","distance":1590,"transit":false,"line":0,"is_transit":false},{"is_transit":false,"station_id":"GDD","time":3,"station_name":"Gondangdia","transit":false,"i_lat":-6.186295,"distance":1750,"i_long":106.832183,"line":2}]]}