{"data":[[{"transit":false,"i_long":106.977657,"is_transit":false,"time":0,"distance":0,"station_id":"KRI","i_lat":-6.224515,"line":1,"station_name":"Kranji"},{"time":3,"i_long":106.951283,"transit":false,"station_name":"Cakung","distance":3097,"is_transit":false,"line":1,"i_lat":-6.219053,"station_id":"CUK"},{"is_transit":false,"line":1,"transit":false,"distance":1385,"station_id":"KLDB","station_name":"Klenderbaru","i_lat":-6.217455,"time":8,"i_long":106.939679},{"distance":1305,"i_long":106.922662,"transit":false,"line":1,"time":1,"station_id":"BUA","is_transit":false,"station_name":"Buaran","i_lat":-6.215568},{"line":1,"time":2,"i_lat":-6.2135,"i_long":106.899548,"station_id":"KLD","transit":false,"distance":3100,"station_name":"Klender","is_transit":false},{"i_lat":-6.215091,"is_transit":false,"station_name":"Jatinegara","line":1,"distance":3395,"i_long":106.86807400000001,"time":3,"transit":false,"station_id":"JNG"},{"station_id":"MTR","transit":false,"is_transit":false,"i_long":106.858896,"i_lat":-6.212485,"time":2,"station_name":"Matraman","line":1,"distance":1377},{"station_id":"MRI","is_transit":false,"transit":false,"i_lat":-6.209883,"time":2,"i_long":106.84912,"station_name":"Manggarai","distance":1275,"line":2},{"is_transit":false,"station_name":"Sudirman","line":1,"transit":false,"distance":3186,"i_long":106.822649,"i_lat":-6.202263,"station_id":"SUD","time":4},{"transit":false,"i_long":106.819881,"station_id":"SUDB","i_lat":-6.201433,"line":1,"is_transit":false,"distance":280,"station_name":"Sudirman Baru","time":1},{"transit":false,"distance":471,"station_name":"Karet","i_lat":-6.20132,"station_id":"KAT","line":1,"is_transit":false,"time":1,"i_long":106.816351},{"time":5,"i_long":106.811091,"transit":true,"is_transit":true,"distance":2029,"station_name":"Tanah Abang","line":1,"station_id":"THB","i_lat":-6.185545},{"time":6,"station_id":"PLM","station_name":"Palmerah","transit":false,"i_lat":-6.207404,"distance":3191,"line":6,"is_transit":false,"i_long":106.79689},{"line":6,"station_name":"Kebayoran","i_lat":-6.237242,"station_id":"KBY","i_long":106.780334,"time":7,"is_transit":false,"distance":3737,"transit":false},{"station_name":"Pondokranji","i_long":106.74273,"time":8,"distance":6218,"is_transit":false,"transit":false,"i_lat":-6.276362,"line":6,"station_id":"PDJ"},{"time":3,"distance":2179,"station_name":"Jurangmangu","is_transit":false,"transit":false,"station_id":"JMU","i_long":106.728916,"line":6,"i_lat":-6.288927},{"distance":1994,"time":4,"station_id":"SDM","is_transit":false,"line":6,"i_long":106.712277,"station_name":"Sudimara","transit":false,"i_lat":-6.296963},{"distance":4566,"transit":false,"station_id":"RU","i_lat":-6.314823,"line":6,"time":6,"is_transit":false,"i_long":106.675475,"station_name":"Rawa Buntu"},{"transit":false,"time":4,"station_name":"Serpong","station_id":"SRP","line":6,"distance":2413,"is_transit":false,"i_long":106.66566,"i_lat":-6.319871},{"station_id":"CSK","is_transit":false,"distance":1784,"time":4,"transit":false,"station_name":"Cisauk","i_long":106.640411,"line":3,"i_lat":-6.32484},{"station_id":"CC","station_name":"Cicayur","i_long":106.617853,"transit":false,"is_transit":false,"distance":2519,"line":3,"time":4,"i_lat":-6.329547},{"transit":false,"i_long":106.568863,"distance":5968,"station_id":"PRP","is_transit":false,"time":8,"line":6,"station_name":"Parung Panjang","i_lat":-6.3441410000000005},{"transit":false,"station_name":"Cilejit","station_id":"CJT","time":9,"i_lat":-6.354349,"line":3,"distance":7025,"is_transit":false,"i_long":106.508482},{"i_lat":-6.338021,"distance":2675,"is_transit":false,"station_id":"DAR","time":6,"line":0,"i_long":106.491338,"transit":false,"station_name":"Daru"},{"i_lat":-6.327251,"is_transit":false,"station_id":"TEJ","i_long":106.460812,"distance":3902,"time":5,"line":6,"transit":false,"station_name":"Tenjo"},{"distance":2974,"station_name":"Tigaraksa","transit":false,"station_id":"TGS","i_lat":-6.328533,"is_transit":false,"line":6,"time":5,"i_long":106.425991}],[{"line":1,"distance":0,"transit":false,"time":0,"i_long":106.977657,"station_name":"Kranji","station_id":"KRI","is_transit":false,"i_lat":-6.224515},{"i_long":106.951283,"station_name":"Cakung","line":1,"distance":3097,"is_transit":false,"station_id":"CUK","transit":false,"i_lat":-6.219053,"time":3},{"station_id":"KLDB","is_transit":false,"i_long":106.939679,"time":8,"line":1,"station_name":"Klenderbaru","distance":1385,"i_lat":-6.217455,"transit":false},{"line":1,"i_lat":-6.215568,"station_id":"BUA","time":1,"distance":1305,"station_name":"Buaran","i_long":106.922662,"transit":false,"is_transit":false},{"station_id":"KLD","distance":3100,"station_name":"Klender","is_transit":false,"i_lat":-6.2135,"line":1,"time":2,"transit":false,"i_long":106.899548},{"station_id":"JNG","is_transit":true,"transit":true,"time":3,"distance":3395,"line":1,"station_name":"Jatinegara","i_lat":-6.215091,"i_long":106.86807400000001},{"station_name":"Pondok Jati","station_id":"POK","time":2,"distance":1236,"is_transit":false,"transit":false,"i_lat":-6.209188,"line":11,"i_long":106.861737},{"distance":1829,"transit":false,"is_transit":false,"line":11,"station_name":"Kramat","i_lat":-6.193792,"station_id":"KMT","i_long":106.855437,"time":2},{"station_name":"Gang Sentiong","station_id":"GST","is_transit":false,"i_long":106.850107,"time":1,"line":11,"i_lat":-6.185975,"distance":973,"transit":false},{"station_name":"Pasar Senen","line":11,"i_lat":-6.174784,"i_long":106.84368,"distance":1567,"is_transit":false,"time":8,"transit":false,"station_id":"PSE"},{"i_long":106.839204,"distance":1436,"station_id":"KMO","line":11,"i_lat":-6.161728,"time":4,"is_transit":false,"transit":false,"station_name":"Kemayoran"},{"i_long":106.836569,"line":11,"is_transit":false,"station_name":"Rajawali","transit":false,"station_id":"RJW","time":5,"i_lat":-6.14505,"distance":1901},{"time":3,"line":4,"is_transit":true,"distance":1444,"transit":true,"station_name":"Kampung Bandan","station_id":"KPB","i_lat":-6.132549,"i_long":106.826365},{"i_lat":-6.144674,"i_long":106.79867,"line":1,"is_transit":false,"time":9,"distance":4102,"station_name":"Angke","transit":false,"station_id":"AK"},{"is_transit":false,"i_lat":-6.155215,"i_long":106.800832,"line":1,"distance":1230,"transit":false,"station_id":"DU","station_name":"Duri","time":4},{"station_name":"Tanah Abang","time":8,"distance":3632,"is_transit":true,"line":1,"transit":true,"station_id":"THB","i_lat":-6.185545,"i_long":106.811091},{"station_id":"PLM","i_lat":-6.207404,"line":6,"i_long":106.79689,"time":6,"is_transit":false,"station_name":"Palmerah","distance":3191,"transit":false},{"transit":false,"time":7,"station_id":"KBY","i_lat":-6.237242,"i_long":106.780334,"line":6,"is_transit":false,"distance":3737,"station_name":"Kebayoran"},{"station_name":"Pondokranji","i_lat":-6.276362,"i_long":106.74273,"station_id":"PDJ","is_transit":false,"distance":6218,"time":8,"transit":false,"line":6},{"station_id":"JMU","i_lat":-6.288927,"distance":2179,"line":6,"time":3,"i_long":106.728916,"station_name":"Jurangmangu","is_transit":false,"transit":false},{"station_name":"Sudimara","i_long":106.712277,"i_lat":-6.296963,"transit":false,"time":4,"line":6,"is_transit":false,"station_id":"SDM","distance":1994},{"station_id":"RU","transit":false,"station_name":"Rawa Buntu","distance":4566,"is_transit":false,"i_long":106.675475,"line":6,"time":6,"i_lat":-6.314823},{"is_transit":false,"i_long":106.66566,"time":4,"station_name":"Serpong","distance":2413,"transit":false,"station_id":"SRP","line":6,"i_lat":-6.319871},{"transit":false,"distance":1784,"i_lat":-6.32484,"time":4,"line":3,"station_id":"CSK","is_transit":false,"station_name":"Cisauk","i_long":106.640411},{"line":3,"station_id":"CC","distance":2519,"station_name":"Cicayur","is_transit":false,"i_long":106.617853,"i_lat":-6.329547,"transit":false,"time":4},{"station_id":"PRP","time":8,"distance":5968,"line":6,"transit":false,"i_long":106.568863,"i_lat":-6.3441410000000005,"is_transit":false,"station_name":"Parung Panjang"},{"station_id":"CJT","station_name":"Cilejit","i_lat":-6.354349,"i_long":106.508482,"is_transit":false,"transit":false,"time":9,"line":3,"distance":7025},{"transit":false,"distance":2675,"station_name":"Daru","i_long":106.491338,"station_id":"DAR","i_lat":-6.338021,"line":0,"time":6,"is_transit":false},{"transit":false,"i_long":106.460812,"i_lat":-6.327251,"distance":3902,"station_name":"Tenjo","is_transit":false,"station_id":"TEJ","time":5,"line":6},{"station_id":"TGS","line":6,"transit":false,"is_transit":false,"time":5,"i_lat":-6.328533,"i_long":106.425991,"distance":2974,"station_name":"Tigaraksa"}],[{"time":0,"station_name":"Kranji","i_long":106.977657,"transit":false,"is_transit":false,"distance":0,"station_id":"KRI","i_lat":-6.224515,"line":1},{"station_name":"Cakung","line":1,"station_id":"CUK","distance":3097,"i_lat":-6.219053,"is_transit":false,"i_long":106.951283,"transit":false,"time":3},{"i_long":106.939679,"time":8,"station_name":"Klenderbaru","transit":false,"distance":1385,"line":1,"station_id":"KLDB","is_transit":false,"i_lat":-6.217455},{"distance":1305,"transit":false,"is_transit":false,"line":1,"station_name":"Buaran","time":1,"station_id":"BUA","i_lat":-6.215568,"i_long":106.922662},{"distance":3100,"station_id":"KLD","station_name":"Klender","i_lat":-6.2135,"transit":false,"i_long":106.899548,"is_transit":false,"time":2,"line":1},{"transit":false,"station_id":"JNG","distance":3395,"station_name":"Jatinegara","line":1,"is_transit":false,"time":3,"i_lat":-6.215091,"i_long":106.86807400000001},{"transit":false,"station_id":"MTR","i_lat":-6.212485,"is_transit":false,"distance":1377,"line":1,"station_name":"Matraman","time":2,"i_long":106.858896},{"distance":1275,"is_transit":true,"line":2,"station_name":"Manggarai","i_long":106.84912,"station_id":"MRI","transit":true,"time":2,"i_lat":-6.209883},{"transit":false,"is_transit":false,"time":4,"i_lat":-6.198556,"station_id":"CKI","station_name":"Cikini","distance":1590,"i_long":106.840169,"line":2},{"time":3,"transit":false,"distance":1750,"station_id":"GDD","is_transit":false,"i_lat":-6.186295,"i_long":106.832183,"line":2,"station_name":"Gondangdia"},{"time":4,"distance":2015,"is_transit":false,"station_name":"Juanda","transit":false,"i_lat":-6.166716,"station_id":"JUA","line":2,"i_long":106.828284},{"transit":false,"is_transit":false,"time":2,"i_lat":-6.160725,"station_name":"Sawah Besar","i_long":106.827103,"distance":1149,"station_id":"SW","line":2},{"station_name":"Manggabesar","distance":906,"i_lat":-6.149769,"station_id":"MGB","i_long":106.82482,"is_transit":false,"transit":false,"line":2,"time":2},{"i_long":106.820901,"station_id":"JAY","station_name":"Jayakarta","is_transit":false,"distance":1080,"i_lat":-6.141205,"transit":false,"time":2,"line":2},{"i_lat":-6.137569,"distance":1264,"i_long":106.812439,"line":2,"station_id":"JAKK","transit":true,"station_name":"Jakarta Kota","time":4,"is_transit":true},{"i_lat":-6.132549,"line":4,"i_long":106.826365,"distance":1364,"time":3,"is_transit":true,"transit":true,"station_name":"Kampung Bandan","station_id":"KPB"},{"is_transit":false,"i_lat":-6.144674,"distance":4102,"line":1,"station_id":"AK","time":9,"transit":false,"i_long":106.79867,"station_name":"Angke"},{"i_long":106.800832,"i_lat":-6.155215,"line":1,"station_id":"DU","distance":1230,"time":4,"station_name":"Duri","transit":false,"is_transit":false},{"distance":3632,"station_id":"THB","is_transit":true,"station_name":"Tanah Abang","i_long":106.811091,"line":1,"transit":true,"time":8,"i_lat":-6.185545},{"i_lat":-6.207404,"station_name":"Palmerah","line":6,"station_id":"PLM","is_transit":false,"i_long":106.79689,"transit":false,"distance":3191,"time":6},{"i_long":106.780334,"i_lat":-6.237242,"distance":3737,"is_transit":false,"time":7,"transit":false,"line":6,"station_id":"KBY","station_name":"Kebayoran"},{"is_transit":false,"i_long":106.74273,"i_lat":-6.276362,"station_name":"Pondokranji","station_id":"PDJ","time":8,"distance":6218,"transit":false,"line":6},{"i_long":106.728916,"line":6,"distance":2179,"station_id":"JMU","station_name":"Jurangmangu","transit":false,"is_transit":false,"time":3,"i_lat":-6.288927},{"i_long":106.712277,"is_transit":false,"distance":1994,"transit":false,"i_lat":-6.296963,"line":6,"station_name":"Sudimara","time":4,"station_id":"SDM"},{"transit":false,"station_id":"RU","station_name":"Rawa Buntu","time":6,"i_lat":-6.314823,"i_long":106.675475,"line":6,"distance":4566,"is_transit":false},{"station_id":"SRP","transit":false,"is_transit":false,"time":4,"i_lat":-6.319871,"distance":2413,"station_name":"Serpong","i_long":106.66566,"line":6},{"time":4,"i_lat":-6.32484,"station_name":"Cisauk","station_id":"CSK","i_long":106.640411,"line":3,"distance":1784,"transit":false,"is_transit":false},{"station_id":"CC","time":4,"i_lat":-6.329547,"is_transit":false,"i_long":106.617853,"line":3,"distance":2519,"station_name":"Cicayur","transit":false},{"station_id":"PRP","distance":5968,"station_name":"Parung Panjang","transit":false,"is_transit":false,"time":8,"i_long":106.568863,"i_lat":-6.3441410000000005,"line":6},{"is_transit":false,"time":9,"i_lat":-6.354349,"i_long":106.508482,"distance":7025,"station_id":"CJT","station_name":"Cilejit","transit":false,"line":3},{"station_name":"Daru","transit":false,"distance":2675,"line":0,"i_long":106.491338,"time":6,"station_id":"DAR","is_transit":false,"i_lat":-6.338021},{"station_id":"TEJ","i_long":106.460812,"line":6,"distance":3902,"time":5,"transit":false,"is_transit":false,"i_lat":-6.327251,"station_name":"Tenjo"},{"i_long":106.425991,"line":6,"distance":2974,"station_id":"TGS","station_name":"Tigaraksa","transit":false,"time":5,"is_transit":false,"i_lat":-6.328533}],[{"i_lat":-6.224515,"distance":0,"transit":false,"station_name":"Kranji","is_transit":false,"time":0,"station_id":"KRI","i_long":106.977657,"line":1},{"transit":false,"is_transit":false,"station_id":"CUK","line":1,"i_long":106.951283,"i_lat":-6.219053,"distance":3097,"station_name":"Cakung","time":3},{"i_long":106.939679,"distance":1385,"i_lat":-6.217455,"station_name":"Klenderbaru","time":8,"transit":false,"is_transit":false,"station_id":"KLDB","line":1},{"i_lat":-6.215568,"line":1,"distance":1305,"station_name":"Buaran","time":1,"i_long":106.922662,"transit":false,"station_id":"BUA","is_transit":false},{"time":2,"station_name":"Klender","is_transit":false,"i_lat":-6.2135,"line":1,"distance":3100,"station_id":"KLD","transit":false,"i_long":106.899548},{"transit":true,"i_lat":-6.215091,"distance":3395,"time":3,"i_long":106.86807400000001,"line":1,"station_id":"JNG","is_transit":true,"station_name":"Jatinegara"},{"line":11,"i_long":106.861737,"transit":false,"station_id":"POK","i_lat":-6.209188,"station_name":"Pondok Jati","distance":1236,"is_transit":false,"time":2},{"i_long":106.855437,"distance":1829,"station_name":"Kramat","line":11,"i_lat":-6.193792,"time":2,"station_id":"KMT","transit":false,"is_transit":false},{"transit":false,"station_name":"Gang Sentiong","station_id":"GST","time":1,"i_long":106.850107,"distance":973,"line":11,"i_lat":-6.185975,"is_transit":false},{"is_transit":false,"transit":false,"i_lat":-6.174784,"station_id":"PSE","time":8,"station_name":"Pasar Senen","distance":1567,"i_long":106.84368,"line":11},{"is_transit":false,"transit":false,"station_id":"KMO","station_name":"Kemayoran","i_long":106.839204,"distance":1436,"line":11,"time":4,"i_lat":-6.161728},{"time":5,"distance":1901,"i_long":106.836569,"transit":false,"station_name":"Rajawali","station_id":"RJW","i_lat":-6.14505,"line":11,"is_transit":false},{"station_name":"Kampung Bandan","line":4,"is_transit":true,"i_long":106.826365,"time":3,"station_id":"KPB","distance":1444,"i_lat":-6.132549,"transit":true},{"transit":true,"station_name":"Jakarta Kota","station_id":"JAKK","i_long":106.812439,"line":2,"i_lat":-6.137569,"distance":1364,"time":3,"is_transit":true},{"station_id":"JAY","time":4,"transit":false,"station_name":"Jayakarta","i_long":106.820901,"line":2,"distance":1264,"i_lat":-6.141205,"is_transit":false},{"is_transit":false,"transit":false,"i_long":106.82482,"time":2,"station_name":"Manggabesar","i_lat":-6.149769,"station_id":"MGB","line":2,"distance":1080},{"is_transit":false,"distance":906,"i_lat":-6.160725,"i_long":106.827103,"time":2,"line":2,"station_name":"Sawah Besar","station_id":"SW","transit":false},{"station_id":"JUA","is_transit":false,"station_name":"Juanda","time":2,"i_long":106.828284,"transit":false,"line":2,"distance":1149,"i_lat":-6.166716},{"station_id":"GDD","i_long":106.832183,"time":4,"distance":2015,"line":2,"transit":false,"i_lat":-6.186295,"station_name":"Gondangdia","is_transit":false},{"station_id":"CKI","transit":false,"station_name":"Cikini","time":3,"i_long":106.840169,"is_transit":false,"i_lat":-6.198556,"distance":1750,"line":2},{"distance":1590,"i_long":106.84912,"station_id":"MRI","time":4,"line":2,"station_name":"Manggarai","is_transit":true,"transit":true,"i_lat":-6.209883},{"transit":false,"i_lat":-6.202263,"is_transit":false,"i_long":106.822649,"line":1,"station_id":"SUD","distance":3186,"station_name":"Sudirman","time":4},{"station_name":"Sudirman Baru","distance":280,"station_id":"SUDB","is_transit":false,"time":1,"i_lat":-6.201433,"i_long":106.819881,"line":1,"transit":false},{"station_id":"KAT","i_long":106.816351,"time":1,"distance":471,"station_name":"Karet","is_transit":false,"line":1,"transit":false,"i_lat":-6.20132},{"i_lat":-6.185545,"i_long":106.811091,"line":1,"is_transit":true,"distance":2029,"station_id":"THB","time":5,"station_name":"Tanah Abang","transit":true},{"transit":false,"line":6,"i_long":106.79689,"station_id":"PLM","is_transit":false,"i_lat":-6.207404,"distance":3191,"station_name":"Palmerah","time":6},{"line":6,"is_transit":false,"station_name":"Kebayoran","transit":false,"time":7,"i_lat":-6.237242,"station_id":"KBY","distance":3737,"i_long":106.780334},{"is_transit":false,"i_long":106.74273,"i_lat":-6.276362,"line":6,"station_id":"PDJ","distance":6218,"station_name":"Pondokranji","transit":false,"time":8},{"i_long":106.728916,"station_id":"JMU","is_transit":false,"transit":false,"time":3,"distance":2179,"line":6,"i_lat":-6.288927,"station_name":"Jurangmangu"},{"i_lat":-6.296963,"distance":1994,"is_transit":false,"line":6,"i_long":106.712277,"transit":false,"time":4,"station_id":"SDM","station_name":"Sudimara"},{"transit":false,"station_id":"RU","i_lat":-6.314823,"distance":4566,"is_transit":false,"time":6,"i_long":106.675475,"line":6,"station_name":"Rawa Buntu"},{"distance":2413,"station_id":"SRP","station_name":"Serpong","is_transit":false,"time":4,"line":6,"i_long":106.66566,"i_lat":-6.319871,"transit":false},{"is_transit":false,"i_lat":-6.32484,"distance":1784,"line":3,"station_name":"Cisauk","station_id":"CSK","transit":false,"time":4,"i_long":106.640411},{"distance":2519,"station_name":"Cicayur","transit":false,"time":4,"i_long":106.617853,"station_id":"CC","line":3,"is_transit":false,"i_lat":-6.329547},{"station_name":"Parung Panjang","time":8,"distance":5968,"i_lat":-6.3441410000000005,"is_transit":false,"i_long":106.568863,"line":6,"transit":false,"station_id":"PRP"},{"station_id":"CJT","distance":7025,"time":9,"i_long":106.508482,"transit":false,"station_name":"Cilejit","is_transit":false,"i_lat":-6.354349,"line":3},{"station_name":"Daru","time":6,"station_id":"DAR","transit":false,"line":0,"is_transit":false,"i_long":106.491338,"distance":2675,"i_lat":-6.338021},{"transit":false,"station_name":"Tenjo","is_transit":false,"i_long":106.460812,"time":5,"line":6,"station_id":"TEJ","distance":3902,"i_lat":-6.327251},{"i_long":106.425991,"line":6,"is_transit":false,"i_lat":-6.328533,"distance":2974,"transit":false,"station_id":"TGS","station_name":"Tigaraksa","time":5}]]}