{"data":[[{"is_transit":false,"station_name":"Kranji","i_long":106.977657,"i_lat":-6.224515,"distance":0,"line":1,"transit":false,"time":0,"station_id":"KRI"},{"is_transit":false,"station_name":"Cakung","distance":3097,"transit":false,"i_long":106.951283,"line":0,"time":3,"station_id":"CUK","i_lat":-6.219053},{"i_long":106.939679,"distance":1385,"time":8,"station_name":"Klenderbaru","i_lat":-6.217455,"line":1,"station_id":"KLDB","is_transit":false,"transit":false},{"station_id":"BUA","is_transit":false,"time":1,"station_name":"Buaran","i_lat":-6.215568,"transit":false,"line":0,"distance":1305,"i_long":106.922662},{"line":1,"time":2,"distance":3100,"i_long":106.899548,"station_id":"KLD","station_name":"Klender","is_transit":false,"transit":false,"i_lat":-6.2135},{"is_transit":true,"station_name":"Jatinegara","distance":3395,"i_long":106.86807400000001,"transit":false,"time":3,"line":0,"station_id":"JNG","i_lat":-6.215091},{"station_id":"MTR","i_lat":-6.212485,"station_name":"Matraman","distance":1377,"time":2,"transit":false,"line":1,"i_long":106.858896,"is_transit":false},{"is_transit":true,"transit":true,"distance":1275,"time":2,"station_name":"Manggarai","i_lat":-6.209883,"line":0,"i_long":106.84912,"station_id":"MRI"},{"station_name":"Tebet","distance":2610,"station_id":"TEB","is_transit":false,"time":4,"transit":false,"i_long":106.857948,"line":2,"i_lat":-6.226659},{"i_lat":-6.242512,"i_long":106.856607,"line":0,"station_name":"Cawang","is_transit":false,"distance":1230,"transit":false,"station_id":"CW","time":2},{"transit":false,"time":3,"station_name":"Duren Kalibata","line":0,"station_id":"DRN","distance":1546,"is_transit":false,"i_long":106.85449,"i_lat":-6.255332},{"line":2,"distance":824,"i_long":106.851577,"station_name":"Pasar Minggu Baru","is_transit":false,"time":2,"station_id":"PSMB","transit":false,"i_lat":-6.263214},{"i_lat":-6.2842400000000005,"station_id":"PSM","is_transit":false,"i_long":106.843999,"time":2,"station_name":"Pasar Minggu","distance":2380,"transit":false,"line":2},{"distance":2820,"line":2,"transit":false,"station_name":"Tanjung Barat","i_long":106.838896,"time":4,"is_transit":false,"i_lat":-6.3080680000000005,"station_id":"TNT"},{"i_lat":-6.330363,"distance":2671,"is_transit":false,"i_long":106.832616,"station_id":"LNA","time":3,"station_name":"Lenteng Agung","line":2,"transit":false},{"distance":1029,"i_long":106.834175,"i_lat":-6.339291,"transit":false,"is_transit":false,"station_id":"UP","time":2,"line":2,"station_name":"Univ. Pancasila"},{"transit":false,"line":2,"station_name":"Univ. Indonesia","i_long":106.831474,"i_lat":-6.360749,"distance":2264,"time":3,"is_transit":false,"station_id":"UI"}],[{"i_lat":-6.224515,"i_long":106.977657,"station_name":"Kranji","line":1,"time":0,"station_id":"KRI","distance":0,"is_transit":false,"transit":false},{"line":0,"is_transit":false,"i_lat":-6.219053,"transit":false,"station_id":"CUK","station_name":"Cakung","time":3,"i_long":106.951283,"distance":3097},{"station_name":"Klenderbaru","line":1,"distance":1385,"time":8,"is_transit":false,"i_long":106.939679,"transit":false,"i_lat":-6.217455,"station_id":"KLDB"},{"i_lat":-6.215568,"i_long":106.922662,"is_transit":false,"line":0,"distance":1305,"station_name":"Buaran","transit":false,"station_id":"BUA","time":1},{"is_transit":false,"distance":3100,"line":1,"i_long":106.899548,"time":2,"i_lat":-6.2135,"transit":false,"station_id":"KLD","station_name":"Klender"},{"distance":3395,"is_transit":true,"transit":true,"station_id":"JNG","station_name":"Jatinegara","line":0,"time":3,"i_lat":-6.215091,"i_long":106.86807400000001},{"station_id":"POK","station_name":"Pondok Jati","is_transit":false,"transit":false,"line":11,"i_long":106.861737,"i_lat":-6.209188,"time":2,"distance":1236},{"i_lat":-6.193792,"time":2,"station_name":"Kramat","is_transit":false,"station_id":"KMT","i_long":106.855437,"line":11,"transit":false,"distance":1829},{"i_long":106.850107,"line":11,"time":1,"transit":false,"distance":973,"station_name":"Gang Sentiong","station_id":"GST","is_transit":false,"i_lat":-6.185975},{"station_name":"Pasar Senen","distance":1567,"is_transit":false,"transit":false,"i_lat":-6.174784,"station_id":"PSE","i_long":106.84368,"line":11,"time":8},{"i_long":106.839204,"i_lat":-6.161728,"time":4,"line":11,"station_name":"Kemayoran","distance":1436,"station_id":"KMO","transit":false,"is_transit":false},{"is_transit":false,"distance":1901,"station_name":"Rajawali","i_lat":-6.14505,"i_long":106.836569,"transit":false,"station_id":"RJW","line":11,"time":5},{"station_name":"Kampung Bandan","time":3,"distance":1444,"transit":true,"i_long":106.826365,"i_lat":-6.132549,"is_transit":true,"line":0,"station_id":"KPB"},{"distance":4102,"time":9,"is_transit":false,"line":0,"i_lat":-6.144674,"station_id":"AK","transit":false,"i_long":106.79867,"station_name":"Angke"},{"time":4,"station_id":"DU","i_lat":-6.155215,"transit":true,"i_long":106.800832,"station_name":"Duri","distance":1230,"line":1,"is_transit":true},{"transit":false,"i_lat":-6.185545,"i_long":106.811091,"time":8,"line":1,"station_name":"Tanah Abang","station_id":"THB","distance":3632,"is_transit":true},{"time":5,"i_lat":-6.20132,"is_transit":false,"i_long":106.816351,"station_name":"Karet","line":1,"station_id":"KAT","distance":2029,"transit":false},{"is_transit":false,"station_id":"SUDB","station_name":"Sudirman Baru","distance":471,"line":1,"time":1,"transit":false,"i_long":106.819881,"i_lat":-6.201433},{"station_id":"SUD","distance":280,"line":1,"transit":false,"station_name":"Sudirman","is_transit":false,"time":1,"i_lat":-6.202263,"i_long":106.822649},{"time":4,"is_transit":true,"i_long":106.84912,"station_name":"Manggarai","transit":true,"distance":3186,"line":0,"station_id":"MRI","i_lat":-6.209883},{"time":4,"i_lat":-6.226659,"i_long":106.857948,"line":2,"station_name":"Tebet","is_transit":false,"station_id":"TEB","distance":2610,"transit":false},{"is_transit":false,"transit":false,"i_long":106.856607,"time":2,"station_id":"CW","line":0,"distance":1230,"station_name":"Cawang","i_lat":-6.242512},{"station_id":"DRN","station_name":"Duren Kalibata","i_long":106.85449,"time":3,"i_lat":-6.255332,"is_transit":false,"distance":1546,"transit":false,"line":0},{"i_long":106.851577,"station_id":"PSMB","time":2,"station_name":"Pasar Minggu Baru","is_transit":false,"line":2,"transit":false,"distance":824,"i_lat":-6.263214},{"transit":false,"station_name":"Pasar Minggu","station_id":"PSM","is_transit":false,"time":2,"distance":2380,"i_long":106.843999,"line":2,"i_lat":-6.2842400000000005},{"i_long":106.838896,"distance":2820,"i_lat":-6.3080680000000005,"line":2,"station_name":"Tanjung Barat","transit":false,"is_transit":false,"station_id":"TNT","time":4},{"distance":2671,"i_lat":-6.330363,"time":3,"is_transit":false,"i_long":106.832616,"station_id":"LNA","transit":false,"line":2,"station_name":"Lenteng Agung"},{"station_name":"Univ. Pancasila","i_long":106.834175,"time":2,"distance":1029,"station_id":"UP","is_transit":false,"transit":false,"line":2,"i_lat":-6.339291},{"station_id":"UI","i_long":106.831474,"i_lat":-6.360749,"time":3,"station_name":"Univ. Indonesia","is_transit":false,"distance":2264,"transit":false,"line":2}],[{"is_transit":false,"time":0,"i_lat":-6.224515,"station_name":"Kranji","i_long":106.977657,"line":1,"station_id":"KRI","transit":false,"distance":0},{"transit":false,"time":3,"i_lat":-6.219053,"i_long":106.951283,"line":0,"distance":3097,"is_transit":false,"station_name":"Cakung","station_id":"CUK"},{"distance":1385,"is_transit":false,"time":8,"transit":false,"i_long":106.939679,"line":1,"i_lat":-6.217455,"station_id":"KLDB","station_name":"Klenderbaru"},{"is_transit":false,"station_name":"Buaran","transit":false,"line":0,"i_long":106.922662,"i_lat":-6.215568,"station_id":"BUA","distance":1305,"time":1},{"is_transit":false,"station_id":"KLD","distance":3100,"transit":false,"line":1,"i_long":106.899548,"i_lat":-6.2135,"time":2,"station_name":"Klender"},{"time":3,"line":0,"station_id":"JNG","distance":3395,"station_name":"Jatinegara","is_transit":true,"i_long":106.86807400000001,"transit":true,"i_lat":-6.215091},{"station_name":"Pondok Jati","station_id":"POK","time":2,"distance":1236,"transit":false,"line":11,"is_transit":false,"i_lat":-6.209188,"i_long":106.861737},{"i_long":106.855437,"station_id":"KMT","station_name":"Kramat","is_transit":false,"time":2,"transit":false,"i_lat":-6.193792,"distance":1829,"line":11},{"station_name":"Gang Sentiong","transit":false,"i_lat":-6.185975,"distance":973,"station_id":"GST","i_long":106.850107,"is_transit":false,"line":11,"time":1},{"transit":false,"station_name":"Pasar Senen","i_long":106.84368,"station_id":"PSE","i_lat":-6.174784,"line":11,"time":8,"is_transit":false,"distance":1567},{"i_long":106.839204,"station_id":"KMO","line":11,"station_name":"Kemayoran","is_transit":false,"i_lat":-6.161728,"time":4,"distance":1436,"transit":false},{"is_transit":false,"distance":1901,"i_lat":-6.14505,"i_long":106.836569,"line":11,"time":5,"transit":false,"station_id":"RJW","station_name":"Rajawali"},{"distance":1444,"station_id":"KPB","is_transit":true,"transit":true,"i_long":106.826365,"time":3,"station_name":"Kampung Bandan","line":0,"i_lat":-6.132549},{"i_lat":-6.137569,"transit":true,"distance":1364,"time":3,"i_long":106.812439,"station_name":"Jakarta Kota","station_id":"JAKK","is_transit":true,"line":0},{"transit":false,"i_lat":-6.141205,"station_id":"JAY","is_transit":false,"distance":1264,"station_name":"Jayakarta","line":7,"time":4,"i_long":106.820901},{"time":2,"line":2,"distance":1080,"i_lat":-6.149769,"station_id":"MGB","is_transit":false,"station_name":"Manggabesar","i_long":106.82482,"transit":false},{"i_long":106.827103,"time":2,"is_transit":false,"line":2,"transit":false,"station_name":"Sawah Besar","i_lat":-6.160725,"station_id":"SW","distance":906},{"station_id":"JUA","time":2,"transit":false,"distance":1149,"i_lat":-6.166716,"is_transit":false,"i_long":106.828284,"station_name":"Juanda","line":2},{"i_lat":-6.186295,"station_name":"Gondangdia","station_id":"GDD","line":2,"time":4,"distance":2015,"is_transit":false,"transit":false,"i_long":106.832183},{"station_id":"CKI","i_long":106.840169,"distance":1750,"transit":false,"time":3,"is_transit":false,"station_name":"Cikini","i_lat":-6.198556,"line":0},{"time":4,"i_lat":-6.209883,"distance":1590,"i_long":106.84912,"is_transit":true,"station_id":"MRI","line":0,"transit":true,"station_name":"Manggarai"},{"is_transit":false,"i_long":106.857948,"line":2,"station_name":"Tebet","station_id":"TEB","distance":2610,"time":4,"transit":false,"i_lat":-6.226659},{"station_name":"Cawang","transit":false,"line":0,"i_long":106.856607,"is_transit":false,"distance":1230,"i_lat":-6.242512,"time":2,"station_id":"CW"},{"station_name":"Duren Kalibata","time":3,"i_long":106.85449,"is_transit":false,"distance":1546,"transit":false,"station_id":"DRN","i_lat":-6.255332,"line":0},{"station_name":"Pasar Minggu Baru","station_id":"PSMB","is_transit":false,"i_long":106.851577,"time":2,"transit":false,"line":2,"i_lat":-6.263214,"distance":824},{"is_transit":false,"i_lat":-6.2842400000000005,"i_long":106.843999,"line":2,"time":2,"distance":2380,"transit":false,"station_id":"PSM","station_name":"Pasar Minggu"},{"transit":false,"line":2,"station_name":"Tanjung Barat","time":4,"distance":2820,"station_id":"TNT","i_long":106.838896,"is_transit":false,"i_lat":-6.3080680000000005},{"i_long":106.832616,"i_lat":-6.330363,"station_name":"Lenteng Agung","line":2,"time":3,"transit":false,"is_transit":false,"distance":2671,"station_id":"LNA"},{"station_id":"UP","is_transit":false,"time":2,"distance":1029,"line":2,"station_name":"Univ. Pancasila","i_long":106.834175,"i_lat":-6.339291,"transit":false},{"i_lat":-6.360749,"transit":false,"station_id":"UI","line":2,"station_name":"Univ. Indonesia","time":3,"distance":2264,"i_long":106.831474,"is_transit":false}]]}