{"data":[[{"station_id":"KRI","distance":0,"transit":false,"i_long":106.977657,"station_name":"Kranji","line":1,"is_transit":false,"i_lat":-6.224515,"time":0},{"is_transit":false,"distance":3097,"i_long":106.951283,"line":1,"i_lat":-6.219053,"station_name":"Cakung","transit":false,"time":3,"station_id":"CUK"},{"station_id":"KLDB","is_transit":false,"transit":false,"station_name":"Klenderbaru","distance":1385,"i_long":106.939679,"line":1,"i_lat":-6.217455,"time":8},{"station_id":"BUA","i_lat":-6.215568,"transit":false,"line":1,"distance":1305,"station_name":"Buaran","is_transit":false,"time":1,"i_long":106.922662},{"station_name":"Klender","station_id":"KLD","is_transit":false,"distance":3100,"i_long":106.899548,"time":2,"line":1,"transit":false,"i_lat":-6.2135},{"station_id":"JNG","is_transit":false,"time":3,"distance":3395,"i_long":106.86807400000001,"line":1,"station_name":"Jatinegara","i_lat":-6.215091,"transit":false},{"station_id":"MTR","time":2,"i_lat":-6.212485,"station_name":"Matraman","is_transit":false,"transit":false,"distance":1377,"i_long":106.858896,"line":1},{"station_id":"MRI","transit":false,"i_long":106.84912,"line":2,"i_lat":-6.209883,"distance":1275,"station_name":"Manggarai","is_transit":false,"time":2},{"station_name":"Sudirman","line":1,"time":4,"i_lat":-6.202263,"transit":false,"is_transit":false,"i_long":106.822649,"station_id":"SUD","distance":3186},{"station_id":"SUDB","i_lat":-6.201433,"i_long":106.819881,"time":1,"transit":false,"line":1,"is_transit":false,"station_name":"Sudirman Baru","distance":280},{"i_lat":-6.20132,"station_id":"KAT","i_long":106.816351,"time":1,"line":1,"distance":471,"station_name":"Karet","transit":false,"is_transit":false},{"i_long":106.811091,"line":1,"time":5,"station_name":"Tanah Abang","distance":2029,"transit":false,"i_lat":-6.185545,"station_id":"THB","is_transit":false},{"station_id":"DU","i_long":106.800832,"line":1,"transit":true,"station_name":"Duri","distance":3632,"i_lat":-6.155215,"is_transit":true,"time":8},{"distance":1700,"i_lat":-6.162021,"station_id":"GRG","transit":false,"i_long":106.788277,"line":5,"is_transit":false,"station_name":"Grogol","time":3},{"station_id":"PSG","transit":false,"station_name":"Pesing","i_lat":-6.161433,"i_long":106.771379,"distance":2036,"line":5,"time":2,"is_transit":false},{"line":5,"time":2,"i_long":106.756522,"transit":false,"is_transit":false,"station_id":"TKO","distance":1614,"station_name":"Taman Kota","i_lat":-6.1587309999999995},{"time":2,"i_lat":-6.159876,"station_name":"Bojongindah","transit":false,"line":5,"i_long":106.737035,"station_id":"BOI","is_transit":false,"distance":2334}],[{"station_id":"KRI","line":1,"station_name":"Kranji","time":0,"i_lat":-6.224515,"i_long":106.977657,"transit":false,"distance":0,"is_transit":false},{"distance":3097,"transit":false,"station_name":"Cakung","line":1,"time":3,"i_long":106.951283,"station_id":"CUK","i_lat":-6.219053,"is_transit":false},{"line":1,"is_transit":false,"time":8,"station_name":"Klenderbaru","distance":1385,"i_long":106.939679,"transit":false,"station_id":"KLDB","i_lat":-6.217455},{"distance":1305,"station_id":"BUA","time":1,"i_lat":-6.215568,"i_long":106.922662,"transit":false,"line":1,"station_name":"Buaran","is_transit":false},{"is_transit":false,"distance":3100,"i_long":106.899548,"transit":false,"line":1,"time":2,"station_id":"KLD","station_name":"Klender","i_lat":-6.2135},{"line":1,"time":3,"distance":3395,"transit":true,"station_id":"JNG","station_name":"Jatinegara","i_lat":-6.215091,"i_long":106.86807400000001,"is_transit":true},{"station_name":"Pondok Jati","transit":false,"i_long":106.861737,"line":11,"is_transit":false,"distance":1236,"time":2,"i_lat":-6.209188,"station_id":"POK"},{"i_long":106.855437,"transit":false,"line":11,"station_name":"Kramat","station_id":"KMT","distance":1829,"time":2,"i_lat":-6.193792,"is_transit":false},{"station_id":"GST","i_lat":-6.185975,"distance":973,"is_transit":false,"time":1,"line":11,"transit":false,"station_name":"Gang Sentiong","i_long":106.850107},{"station_id":"PSE","transit":false,"distance":1567,"is_transit":false,"station_name":"Pasar Senen","time":8,"i_lat":-6.174784,"line":11,"i_long":106.84368},{"distance":1436,"station_name":"Kemayoran","station_id":"KMO","time":4,"i_lat":-6.161728,"is_transit":false,"transit":false,"line":11,"i_long":106.839204},{"time":5,"i_lat":-6.14505,"line":11,"is_transit":false,"station_name":"Rajawali","station_id":"RJW","i_long":106.836569,"distance":1901,"transit":false},{"time":3,"i_long":106.826365,"transit":true,"station_id":"KPB","i_lat":-6.132549,"is_transit":true,"station_name":"Kampung Bandan","distance":1444,"line":4},{"station_name":"Angke","time":9,"station_id":"AK","i_long":106.79867,"transit":false,"i_lat":-6.144674,"is_transit":false,"line":1,"distance":4102},{"station_id":"DU","station_name":"Duri","distance":1230,"is_transit":true,"time":4,"transit":true,"i_lat":-6.155215,"i_long":106.800832,"line":1},{"station_id":"GRG","i_long":106.788277,"i_lat":-6.162021,"time":3,"is_transit":false,"station_name":"Grogol","distance":1700,"line":5,"transit":false},{"is_transit":false,"time":2,"station_name":"Pesing","station_id":"PSG","distance":2036,"transit":false,"i_lat":-6.161433,"i_long":106.771379,"line":5},{"station_id":"TKO","is_transit":false,"distance":1614,"i_lat":-6.1587309999999995,"station_name":"Taman Kota","line":5,"transit":false,"time":2,"i_long":106.756522},{"line":5,"distance":2334,"station_id":"BOI","is_transit":false,"time":2,"i_lat":-6.159876,"i_long":106.737035,"transit":false,"station_name":"Bojongindah"}],[{"i_lat":-6.224515,"distance":0,"time":0,"station_name":"Kranji","transit":false,"station_id":"KRI","i_long":106.977657,"is_transit":false,"line":1},{"line":1,"station_name":"Cakung","distance":3097,"is_transit":false,"i_long":106.951283,"station_id":"CUK","time":3,"transit":false,"i_lat":-6.219053},{"i_long":106.939679,"distance":1385,"station_name":"Klenderbaru","is_transit":false,"transit":false,"i_lat":-6.217455,"line":1,"station_id":"KLDB","time":8},{"time":1,"station_name":"Buaran","i_long":106.922662,"distance":1305,"i_lat":-6.215568,"transit":false,"station_id":"BUA","line":1,"is_transit":false},{"is_transit":false,"i_lat":-6.2135,"line":1,"station_id":"KLD","distance":3100,"transit":false,"i_long":106.899548,"time":2,"station_name":"Klender"},{"distance":3395,"i_lat":-6.215091,"i_long":106.86807400000001,"line":1,"station_id":"JNG","station_name":"Jatinegara","is_transit":false,"transit":false,"time":3},{"transit":false,"station_id":"MTR","time":2,"i_lat":-6.212485,"distance":1377,"station_name":"Matraman","line":1,"is_transit":false,"i_long":106.858896},{"station_id":"MRI","time":2,"i_long":106.84912,"station_name":"Manggarai","line":2,"is_transit":true,"i_lat":-6.209883,"distance":1275,"transit":true},{"station_name":"Cikini","i_lat":-6.198556,"transit":false,"i_long":106.840169,"is_transit":false,"time":4,"station_id":"CKI","line":2,"distance":1590},{"station_name":"Gondangdia","i_long":106.832183,"transit":false,"station_id":"GDD","distance":1750,"i_lat":-6.186295,"is_transit":false,"time":3,"line":2},{"transit":false,"distance":2015,"i_lat":-6.166716,"i_long":106.828284,"time":4,"is_transit":false,"station_id":"JUA","line":2,"station_name":"Juanda"},{"i_lat":-6.160725,"transit":false,"station_id":"SW","station_name":"Sawah Besar","i_long":106.827103,"distance":1149,"time":2,"line":2,"is_transit":false},{"distance":906,"time":2,"station_name":"Manggabesar","i_long":106.82482,"i_lat":-6.149769,"station_id":"MGB","line":2,"transit":false,"is_transit":false},{"i_long":106.820901,"station_id":"JAY","line":2,"is_transit":false,"distance":1080,"transit":false,"station_name":"Jayakarta","time":2,"i_lat":-6.141205},{"station_id":"JAKK","transit":true,"time":4,"is_transit":true,"i_lat":-6.137569,"i_long":106.812439,"line":2,"distance":1264,"station_name":"Jakarta Kota"},{"station_name":"Kampung Bandan","i_long":106.826365,"transit":true,"is_transit":true,"i_lat":-6.132549,"station_id":"KPB","distance":1364,"time":3,"line":4},{"station_id":"AK","line":1,"is_transit":false,"time":9,"transit":false,"station_name":"Angke","i_lat":-6.144674,"i_long":106.79867,"distance":4102},{"line":1,"time":4,"station_name":"Duri","is_transit":true,"i_long":106.800832,"i_lat":-6.155215,"distance":1230,"transit":true,"station_id":"DU"},{"distance":1700,"station_name":"Grogol","time":3,"i_long":106.788277,"station_id":"GRG","transit":false,"is_transit":false,"i_lat":-6.162021,"line":5},{"line":5,"time":2,"station_name":"Pesing","transit":false,"is_transit":false,"i_lat":-6.161433,"station_id":"PSG","i_long":106.771379,"distance":2036},{"i_lat":-6.1587309999999995,"is_transit":false,"transit":false,"distance":1614,"station_id":"TKO","line":5,"time":2,"i_long":106.756522,"station_name":"Taman Kota"},{"station_name":"Bojongindah","station_id":"BOI","i_long":106.737035,"line":5,"transit":false,"time":2,"i_lat":-6.159876,"is_transit":false,"distance":2334}],[{"distance":0,"transit":false,"station_id":"KRI","time":0,"i_long":106.977657,"station_name":"Kranji","is_transit":false,"i_lat":-6.224515,"line":1},{"i_lat":-6.219053,"distance":3097,"station_id":"CUK","station_name":"Cakung","time":3,"i_long":106.951283,"transit":false,"is_transit":false,"line":1},{"transit":false,"i_lat":-6.217455,"time":8,"is_transit":false,"station_id":"KLDB","distance":1385,"line":1,"station_name":"Klenderbaru","i_long":106.939679},{"station_id":"BUA","i_lat":-6.215568,"line":1,"station_name":"Buaran","distance":1305,"time":1,"i_long":106.922662,"is_transit":false,"transit":false},{"station_id":"KLD","i_long":106.899548,"is_transit":false,"transit":false,"line":1,"time":2,"station_name":"Klender","distance":3100,"i_lat":-6.2135},{"distance":3395,"is_transit":true,"i_long":106.86807400000001,"station_id":"JNG","line":1,"transit":true,"station_name":"Jatinegara","time":3,"i_lat":-6.215091},{"transit":false,"station_name":"Pondok Jati","i_long":106.861737,"time":2,"i_lat":-6.209188,"distance":1236,"station_id":"POK","line":11,"is_transit":false},{"station_name":"Kramat","station_id":"KMT","distance":1829,"time":2,"is_transit":false,"i_long":106.855437,"line":11,"transit":false,"i_lat":-6.193792},{"distance":973,"transit":false,"time":1,"i_lat":-6.185975,"station_id":"GST","i_long":106.850107,"line":11,"is_transit":false,"station_name":"Gang Sentiong"},{"station_id":"PSE","distance":1567,"line":11,"transit":false,"is_transit":false,"time":8,"i_lat":-6.174784,"i_long":106.84368,"station_name":"Pasar Senen"},{"time":4,"i_lat":-6.161728,"station_id":"KMO","i_long":106.839204,"station_name":"Kemayoran","transit":false,"distance":1436,"is_transit":false,"line":11},{"station_name":"Rajawali","is_transit":false,"i_lat":-6.14505,"transit":false,"time":5,"distance":1901,"station_id":"RJW","i_long":106.836569,"line":11},{"station_name":"Kampung Bandan","i_lat":-6.132549,"i_long":106.826365,"is_transit":true,"time":3,"line":4,"distance":1444,"transit":true,"station_id":"KPB"},{"i_long":106.812439,"is_transit":true,"line":2,"station_id":"JAKK","transit":true,"distance":1364,"station_name":"Jakarta Kota","time":3,"i_lat":-6.137569},{"is_transit":false,"line":2,"transit":false,"distance":1264,"station_name":"Jayakarta","i_long":106.820901,"station_id":"JAY","i_lat":-6.141205,"time":4},{"station_name":"Manggabesar","is_transit":false,"i_lat":-6.149769,"transit":false,"line":2,"time":2,"station_id":"MGB","distance":1080,"i_long":106.82482},{"time":2,"distance":906,"i_lat":-6.160725,"station_name":"Sawah Besar","transit":false,"is_transit":false,"i_long":106.827103,"station_id":"SW","line":2},{"station_id":"JUA","i_lat":-6.166716,"transit":false,"i_long":106.828284,"station_name":"Juanda","time":2,"line":2,"is_transit":false,"distance":1149},{"transit":false,"time":4,"is_transit":false,"station_name":"Gondangdia","station_id":"GDD","i_long":106.832183,"distance":2015,"i_lat":-6.186295,"line":2},{"line":2,"i_lat":-6.198556,"time":3,"transit":false,"i_long":106.840169,"distance":1750,"station_name":"Cikini","station_id":"CKI","is_transit":false},{"is_transit":true,"transit":true,"station_name":"Manggarai","time":4,"i_lat":-6.209883,"line":2,"station_id":"MRI","i_long":106.84912,"distance":1590},{"transit":false,"line":1,"is_transit":false,"distance":3186,"i_lat":-6.202263,"station_id":"SUD","time":4,"station_name":"Sudirman","i_long":106.822649},{"station_name":"Sudirman Baru","distance":280,"i_long":106.819881,"station_id":"SUDB","is_transit":false,"time":1,"line":1,"transit":false,"i_lat":-6.201433},{"station_id":"KAT","distance":471,"is_transit":false,"i_long":106.816351,"line":1,"transit":false,"i_lat":-6.20132,"time":1,"station_name":"Karet"},{"distance":2029,"is_transit":false,"time":5,"transit":false,"station_id":"THB","line":1,"station_name":"Tanah Abang","i_lat":-6.185545,"i_long":106.811091},{"line":1,"station_name":"Duri","i_long":106.800832,"distance":3632,"i_lat":-6.155215,"time":8,"transit":true,"station_id":"DU","is_transit":true},{"transit":false,"time":3,"distance":1700,"station_id":"GRG","station_name":"Grogol","i_long":106.788277,"i_lat":-6.162021,"line":5,"is_transit":false},{"distance":2036,"line":5,"is_transit":false,"station_name":"Pesing","i_lat":-6.161433,"time":2,"i_long":106.771379,"station_id":"PSG","transit":false},{"station_name":"Taman Kota","distance":1614,"transit":false,"line":5,"i_lat":-6.1587309999999995,"time":2,"is_transit":false,"station_id":"TKO","i_long":106.756522},{"i_lat":-6.159876,"transit":false,"time":2,"is_transit":false,"i_long":106.737035,"distance":2334,"station_id":"BOI","station_name":"Bojongindah","line":5}]]}