{"data":[[{"transit":false,"is_transit":false,"distance":0,"station_name":"Kranji","i_lat":-6.224515,"i_long":106.977657,"station_id":"KRI","line":1,"time":0},{"time":3,"distance":3097,"i_lat":-6.219053,"i_long":106.951283,"station_name":"Cakung","transit":false,"is_transit":false,"station_id":"CUK","line":0},{"i_lat":-6.217455,"line":1,"is_transit":false,"distance":1385,"transit":false,"i_long":106.939679,"station_id":"KLDB","time":8,"station_name":"Klenderbaru"},{"station_name":"Buaran","i_lat":-6.215568,"distance":1305,"station_id":"BUA","is_transit":false,"transit":false,"i_long":106.922662,"time":1,"line":0},{"i_long":106.899548,"i_lat":-6.2135,"line":1,"station_name":"Klender","is_transit":false,"transit":false,"time":2,"station_id":"KLD","distance":3100},{"station_id":"JNG","i_lat":-6.215091,"is_transit":true,"i_long":106.86807400000001,"time":3,"transit":false,"distance":3395,"station_name":"Jatinegara","line":0},{"station_name":"Matraman","time":2,"station_id":"MTR","distance":1377,"i_lat":-6.212485,"line":1,"is_transit":false,"transit":false,"i_long":106.858896},{"transit":false,"line":0,"i_lat":-6.209883,"station_id":"MRI","station_name":"Manggarai","i_long":106.84912,"time":2,"is_transit":true,"distance":1275},{"station_name":"Sudirman","distance":3186,"i_lat":-6.202263,"i_long":106.822649,"line":1,"time":4,"station_id":"SUD","transit":false,"is_transit":false},{"distance":280,"line":1,"time":1,"is_transit":false,"i_lat":-6.201433,"transit":false,"station_name":"Sudirman Baru","i_long":106.819881,"station_id":"SUDB"},{"is_transit":false,"i_long":106.816351,"station_name":"Karet","time":1,"i_lat":-6.20132,"distance":471,"transit":false,"line":1,"station_id":"KAT"},{"i_long":106.811091,"station_name":"Tanah Abang","time":5,"line":1,"station_id":"THB","is_transit":true,"distance":2029,"i_lat":-6.185545,"transit":true},{"line":6,"i_long":106.79689,"distance":3191,"i_lat":-6.207404,"time":6,"station_id":"PLM","station_name":"Palmerah","is_transit":false,"transit":false},{"station_name":"Kebayoran","station_id":"KBY","is_transit":false,"i_long":106.780334,"distance":3737,"i_lat":-6.237242,"line":6,"transit":false,"time":7},{"distance":6218,"time":8,"station_name":"Pondokranji","transit":false,"i_lat":-6.276362,"station_id":"PDJ","i_long":106.74273,"is_transit":false,"line":6},{"distance":2179,"line":6,"is_transit":false,"station_name":"Jurangmangu","station_id":"JMU","time":3,"i_long":106.728916,"i_lat":-6.288927,"transit":false},{"station_id":"SDM","is_transit":false,"station_name":"Sudimara","time":4,"transit":false,"i_lat":-6.296963,"distance":1994,"i_long":106.712277,"line":6},{"i_lat":-6.314823,"station_name":"Rawa Buntu","line":6,"is_transit":false,"i_long":106.675475,"time":6,"station_id":"RU","transit":false,"distance":4566},{"i_long":106.66566,"i_lat":-6.319871,"station_id":"SRP","station_name":"Serpong","distance":2413,"line":6,"is_transit":false,"transit":false,"time":4},{"station_id":"CSK","station_name":"Cisauk","time":4,"distance":1784,"i_lat":-6.32484,"transit":false,"is_transit":false,"i_long":106.640411,"line":0},{"i_lat":-6.329547,"transit":false,"time":4,"distance":2519,"is_transit":false,"station_id":"CC","station_name":"Cicayur","i_long":106.617853,"line":0},{"station_id":"PRP","station_name":"Parung Panjang","distance":5968,"i_lat":-6.3441410000000005,"line":6,"transit":false,"i_long":106.568863,"is_transit":false,"time":8},{"transit":false,"distance":7025,"station_id":"CJT","i_long":106.508482,"time":9,"station_name":"Cilejit","i_lat":-6.354349,"line":0,"is_transit":false},{"station_name":"Daru","line":0,"i_long":106.491338,"i_lat":-6.338021,"time":6,"is_transit":false,"transit":false,"distance":2675,"station_id":"DAR"},{"time":5,"distance":3902,"i_lat":-6.327251,"station_id":"TEJ","transit":false,"line":6,"station_name":"Tenjo","is_transit":false,"i_long":106.460812}],[{"is_transit":false,"station_id":"KRI","distance":0,"transit":false,"i_lat":-6.224515,"time":0,"station_name":"Kranji","line":1,"i_long":106.977657},{"station_id":"CUK","distance":3097,"station_name":"Cakung","is_transit":false,"i_lat":-6.219053,"time":3,"transit":false,"i_long":106.951283,"line":0},{"station_name":"Klenderbaru","is_transit":false,"i_lat":-6.217455,"distance":1385,"i_long":106.939679,"line":1,"station_id":"KLDB","transit":false,"time":8},{"is_transit":false,"distance":1305,"line":0,"station_id":"BUA","station_name":"Buaran","transit":false,"time":1,"i_long":106.922662,"i_lat":-6.215568},{"time":2,"distance":3100,"is_transit":false,"station_id":"KLD","transit":false,"i_lat":-6.2135,"station_name":"Klender","i_long":106.899548,"line":1},{"is_transit":true,"i_lat":-6.215091,"station_id":"JNG","transit":true,"line":0,"station_name":"Jatinegara","distance":3395,"time":3,"i_long":106.86807400000001},{"transit":false,"i_lat":-6.209188,"station_name":"Pondok Jati","distance":1236,"i_long":106.861737,"line":11,"is_transit":false,"time":2,"station_id":"POK"},{"station_id":"KMT","station_name":"Kramat","distance":1829,"i_lat":-6.193792,"line":11,"is_transit":false,"time":2,"transit":false,"i_long":106.855437},{"i_long":106.850107,"station_name":"Gang Sentiong","time":1,"distance":973,"line":11,"is_transit":false,"station_id":"GST","transit":false,"i_lat":-6.185975},{"time":8,"i_lat":-6.174784,"station_id":"PSE","i_long":106.84368,"line":11,"transit":false,"distance":1567,"is_transit":false,"station_name":"Pasar Senen"},{"line":11,"station_name":"Kemayoran","distance":1436,"i_lat":-6.161728,"i_long":106.839204,"is_transit":false,"time":4,"transit":false,"station_id":"KMO"},{"station_id":"RJW","i_lat":-6.14505,"line":11,"station_name":"Rajawali","transit":false,"is_transit":false,"i_long":106.836569,"distance":1901,"time":5},{"station_id":"KPB","is_transit":true,"transit":true,"i_lat":-6.132549,"line":0,"time":3,"station_name":"Kampung Bandan","i_long":106.826365,"distance":1444},{"is_transit":false,"distance":4102,"time":9,"station_id":"AK","station_name":"Angke","i_long":106.79867,"line":0,"i_lat":-6.144674,"transit":false},{"station_id":"DU","station_name":"Duri","line":1,"distance":1230,"time":4,"is_transit":true,"transit":true,"i_lat":-6.155215,"i_long":106.800832},{"i_long":106.811091,"transit":true,"is_transit":true,"distance":3632,"line":1,"station_name":"Tanah Abang","i_lat":-6.185545,"station_id":"THB","time":8},{"line":6,"transit":false,"i_lat":-6.207404,"time":6,"station_id":"PLM","is_transit":false,"station_name":"Palmerah","distance":3191,"i_long":106.79689},{"station_name":"Kebayoran","time":7,"transit":false,"i_lat":-6.237242,"line":6,"is_transit":false,"i_long":106.780334,"distance":3737,"station_id":"KBY"},{"line":6,"station_id":"PDJ","transit":false,"i_lat":-6.276362,"station_name":"Pondokranji","time":8,"is_transit":false,"distance":6218,"i_long":106.74273},{"i_lat":-6.288927,"transit":false,"distance":2179,"i_long":106.728916,"station_id":"JMU","station_name":"Jurangmangu","is_transit":false,"line":6,"time":3},{"is_transit":false,"time":4,"station_id":"SDM","distance":1994,"transit":false,"i_lat":-6.296963,"i_long":106.712277,"station_name":"Sudimara","line":6},{"i_lat":-6.314823,"station_name":"Rawa Buntu","station_id":"RU","distance":4566,"transit":false,"i_long":106.675475,"is_transit":false,"time":6,"line":6},{"distance":2413,"transit":false,"line":6,"is_transit":false,"station_name":"Serpong","station_id":"SRP","time":4,"i_long":106.66566,"i_lat":-6.319871},{"station_id":"CSK","transit":false,"i_lat":-6.32484,"station_name":"Cisauk","i_long":106.640411,"line":0,"is_transit":false,"time":4,"distance":1784},{"i_long":106.617853,"transit":false,"i_lat":-6.329547,"line":0,"station_id":"CC","station_name":"Cicayur","time":4,"is_transit":false,"distance":2519},{"transit":false,"i_lat":-6.3441410000000005,"line":6,"distance":5968,"time":8,"is_transit":false,"station_id":"PRP","i_long":106.568863,"station_name":"Parung Panjang"},{"distance":7025,"line":0,"i_long":106.508482,"i_lat":-6.354349,"station_id":"CJT","station_name":"Cilejit","time":9,"transit":false,"is_transit":false},{"station_id":"DAR","distance":2675,"time":6,"transit":false,"i_lat":-6.338021,"i_long":106.491338,"line":0,"station_name":"Daru","is_transit":false},{"transit":false,"i_long":106.460812,"station_id":"TEJ","i_lat":-6.327251,"station_name":"Tenjo","time":5,"distance":3902,"line":6,"is_transit":false}],[{"distance":0,"i_long":106.977657,"station_id":"KRI","is_transit":false,"time":0,"station_name":"Kranji","transit":false,"line":1,"i_lat":-6.224515},{"line":0,"is_transit":false,"distance":3097,"transit":false,"station_id":"CUK","time":3,"i_lat":-6.219053,"i_long":106.951283,"station_name":"Cakung"},{"i_lat":-6.217455,"station_id":"KLDB","station_name":"Klenderbaru","i_long":106.939679,"distance":1385,"line":1,"transit":false,"is_transit":false,"time":8},{"time":1,"i_long":106.922662,"transit":false,"line":0,"is_transit":false,"i_lat":-6.215568,"station_name":"Buaran","station_id":"BUA","distance":1305},{"time":2,"transit":false,"i_lat":-6.2135,"distance":3100,"is_transit":false,"station_name":"Klender","line":1,"i_long":106.899548,"station_id":"KLD"},{"i_lat":-6.215091,"station_name":"Jatinegara","station_id":"JNG","is_transit":true,"i_long":106.86807400000001,"distance":3395,"time":3,"transit":false,"line":0},{"distance":1377,"transit":false,"is_transit":false,"station_id":"MTR","i_lat":-6.212485,"i_long":106.858896,"station_name":"Matraman","line":1,"time":2},{"station_name":"Manggarai","station_id":"MRI","i_lat":-6.209883,"i_long":106.84912,"line":0,"distance":1275,"time":2,"transit":true,"is_transit":true},{"line":0,"i_long":106.840169,"time":4,"transit":false,"station_id":"CKI","station_name":"Cikini","distance":1590,"i_lat":-6.198556,"is_transit":false},{"is_transit":false,"transit":false,"distance":1750,"station_name":"Gondangdia","line":2,"station_id":"GDD","i_long":106.832183,"i_lat":-6.186295,"time":3},{"transit":false,"line":2,"i_lat":-6.166716,"station_name":"Juanda","distance":2015,"station_id":"JUA","is_transit":false,"time":4,"i_long":106.828284},{"time":2,"distance":1149,"station_id":"SW","transit":false,"i_lat":-6.160725,"line":2,"station_name":"Sawah Besar","is_transit":false,"i_long":106.827103},{"transit":false,"i_long":106.82482,"station_id":"MGB","is_transit":false,"distance":906,"time":2,"line":2,"station_name":"Manggabesar","i_lat":-6.149769},{"i_long":106.820901,"time":2,"distance":1080,"line":7,"station_name":"Jayakarta","transit":false,"i_lat":-6.141205,"station_id":"JAY","is_transit":false},{"i_long":106.812439,"time":4,"station_id":"JAKK","distance":1264,"station_name":"Jakarta Kota","is_transit":true,"i_lat":-6.137569,"transit":true,"line":0},{"station_id":"KPB","i_long":106.826365,"i_lat":-6.132549,"transit":false,"station_name":"Kampung Bandan","is_transit":true,"distance":1364,"time":3,"line":0},{"is_transit":false,"station_name":"Angke","distance":4102,"station_id":"AK","line":0,"time":9,"transit":false,"i_lat":-6.144674,"i_long":106.79867},{"is_transit":true,"line":1,"time":4,"station_name":"Duri","i_long":106.800832,"distance":1230,"i_lat":-6.155215,"transit":true,"station_id":"DU"},{"i_long":106.811091,"station_name":"Tanah Abang","distance":3632,"line":1,"station_id":"THB","is_transit":true,"transit":true,"time":8,"i_lat":-6.185545},{"station_id":"PLM","transit":false,"i_lat":-6.207404,"i_long":106.79689,"time":6,"station_name":"Palmerah","is_transit":false,"line":6,"distance":3191},{"i_long":106.780334,"station_name":"Kebayoran","line":6,"is_transit":false,"transit":false,"time":7,"distance":3737,"station_id":"KBY","i_lat":-6.237242},{"station_id":"PDJ","i_lat":-6.276362,"i_long":106.74273,"transit":false,"time":8,"is_transit":false,"station_name":"Pondokranji","line":6,"distance":6218},{"line":6,"time":3,"i_long":106.728916,"i_lat":-6.288927,"is_transit":false,"distance":2179,"station_id":"JMU","station_name":"Jurangmangu","transit":false},{"i_lat":-6.296963,"station_id":"SDM","is_transit":false,"time":4,"transit":false,"i_long":106.712277,"line":6,"station_name":"Sudimara","distance":1994},{"station_id":"RU","distance":4566,"i_long":106.675475,"line":6,"time":6,"transit":false,"station_name":"Rawa Buntu","is_transit":false,"i_lat":-6.314823},{"time":4,"distance":2413,"transit":false,"station_id":"SRP","station_name":"Serpong","is_transit":false,"i_lat":-6.319871,"i_long":106.66566,"line":6},{"line":0,"is_transit":false,"station_name":"Cisauk","time":4,"station_id":"CSK","distance":1784,"i_long":106.640411,"transit":false,"i_lat":-6.32484},{"distance":2519,"i_lat":-6.329547,"transit":false,"i_long":106.617853,"line":0,"is_transit":false,"station_id":"CC","station_name":"Cicayur","time":4},{"line":6,"time":8,"i_long":106.568863,"station_id":"PRP","station_name":"Parung Panjang","is_transit":false,"distance":5968,"transit":false,"i_lat":-6.3441410000000005},{"distance":7025,"i_long":106.508482,"time":9,"station_id":"CJT","i_lat":-6.354349,"transit":false,"line":0,"is_transit":false,"station_name":"Cilejit"},{"station_id":"DAR","time":6,"distance":2675,"station_name":"Daru","is_transit":false,"transit":false,"i_long":106.491338,"i_lat":-6.338021,"line":0},{"distance":3902,"time":5,"station_id":"TEJ","station_name":"Tenjo","is_transit":false,"transit":false,"i_lat":-6.327251,"line":6,"i_long":106.460812}],[{"station_id":"KRI","station_name":"Kranji","time":0,"transit":false,"i_long":106.977657,"distance":0,"i_lat":-6.224515,"line":1,"is_transit":false},{"line":0,"station_name":"Cakung","is_transit":false,"transit":false,"i_lat":-6.219053,"i_long":106.951283,"time":3,"distance":3097,"station_id":"CUK"},{"time":8,"i_long":106.939679,"is_transit":false,"station_name":"Klenderbaru","distance":1385,"i_lat":-6.217455,"transit":false,"line":1,"station_id":"KLDB"},{"distance":1305,"transit":false,"i_lat":-6.215568,"line":0,"is_transit":false,"station_id":"BUA","time":1,"station_name":"Buaran","i_long":106.922662},{"time":2,"transit":false,"i_long":106.899548,"station_id":"KLD","i_lat":-6.2135,"distance":3100,"line":1,"is_transit":false,"station_name":"Klender"},{"station_id":"JNG","distance":3395,"i_lat":-6.215091,"i_long":106.86807400000001,"time":3,"is_transit":true,"line":0,"station_name":"Jatinegara","transit":true},{"station_id":"POK","distance":1236,"i_lat":-6.209188,"transit":false,"i_long":106.861737,"time":2,"line":11,"is_transit":false,"station_name":"Pondok Jati"},{"time":2,"station_name":"Kramat","distance":1829,"transit":false,"line":11,"i_lat":-6.193792,"i_long":106.855437,"station_id":"KMT","is_transit":false},{"station_name":"Gang Sentiong","distance":973,"i_long":106.850107,"time":1,"line":11,"i_lat":-6.185975,"is_transit":false,"station_id":"GST","transit":false},{"i_long":106.84368,"is_transit":false,"time":8,"station_id":"PSE","distance":1567,"transit":false,"i_lat":-6.174784,"station_name":"Pasar Senen","line":11},{"time":4,"line":11,"distance":1436,"transit":false,"i_lat":-6.161728,"is_transit":false,"station_id":"KMO","station_name":"Kemayoran","i_long":106.839204},{"i_lat":-6.14505,"station_id":"RJW","line":11,"time":5,"transit":false,"distance":1901,"i_long":106.836569,"station_name":"Rajawali","is_transit":false},{"time":3,"i_long":106.826365,"station_name":"Kampung Bandan","station_id":"KPB","distance":1444,"i_lat":-6.132549,"line":0,"is_transit":true,"transit":true},{"i_lat":-6.137569,"i_long":106.812439,"transit":true,"line":0,"is_transit":true,"time":3,"station_name":"Jakarta Kota","distance":1364,"station_id":"JAKK"},{"line":7,"is_transit":false,"i_lat":-6.141205,"time":4,"station_id":"JAY","distance":1264,"transit":false,"station_name":"Jayakarta","i_long":106.820901},{"distance":1080,"transit":false,"station_id":"MGB","station_name":"Manggabesar","time":2,"i_lat":-6.149769,"i_long":106.82482,"line":2,"is_transit":false},{"station_name":"Sawah Besar","time":2,"transit":false,"line":2,"is_transit":false,"i_lat":-6.160725,"station_id":"SW","i_long":106.827103,"distance":906},{"time":2,"station_name":"Juanda","i_long":106.828284,"line":2,"distance":1149,"is_transit":false,"transit":false,"station_id":"JUA","i_lat":-6.166716},{"i_long":106.832183,"station_name":"Gondangdia","line":2,"i_lat":-6.186295,"transit":false,"distance":2015,"station_id":"GDD","is_transit":false,"time":4},{"line":0,"time":3,"transit":false,"station_name":"Cikini","is_transit":false,"distance":1750,"station_id":"CKI","i_long":106.840169,"i_lat":-6.198556},{"line":0,"time":4,"i_lat":-6.209883,"is_transit":true,"i_long":106.84912,"station_id":"MRI","distance":1590,"station_name":"Manggarai","transit":true},{"station_id":"SUD","station_name":"Sudirman","i_lat":-6.202263,"line":1,"i_long":106.822649,"time":4,"distance":3186,"is_transit":false,"transit":false},{"is_transit":false,"station_id":"SUDB","transit":false,"distance":280,"i_long":106.819881,"station_name":"Sudirman Baru","time":1,"i_lat":-6.201433,"line":1},{"transit":false,"distance":471,"station_name":"Karet","i_lat":-6.20132,"line":1,"i_long":106.816351,"station_id":"KAT","time":1,"is_transit":false},{"i_long":106.811091,"time":5,"station_name":"Tanah Abang","distance":2029,"station_id":"THB","line":1,"transit":true,"is_transit":true,"i_lat":-6.185545},{"station_name":"Palmerah","i_lat":-6.207404,"station_id":"PLM","i_long":106.79689,"is_transit":false,"time":6,"distance":3191,"transit":false,"line":6},{"i_lat":-6.237242,"station_name":"Kebayoran","is_transit":false,"i_long":106.780334,"station_id":"KBY","distance":3737,"transit":false,"time":7,"line":6},{"line":6,"i_lat":-6.276362,"station_name":"Pondokranji","station_id":"PDJ","transit":false,"i_long":106.74273,"time":8,"distance":6218,"is_transit":false},{"station_id":"JMU","is_transit":false,"i_lat":-6.288927,"station_name":"Jurangmangu","distance":2179,"transit":false,"line":6,"i_long":106.728916,"time":3},{"line":6,"transit":false,"i_lat":-6.296963,"station_id":"SDM","is_transit":false,"i_long":106.712277,"distance":1994,"time":4,"station_name":"Sudimara"},{"distance":4566,"line":6,"is_transit":false,"time":6,"i_lat":-6.314823,"transit":false,"station_name":"Rawa Buntu","i_long":106.675475,"station_id":"RU"},{"i_lat":-6.319871,"transit":false,"distance":2413,"i_long":106.66566,"time":4,"line":6,"is_transit":false,"station_name":"Serpong","station_id":"SRP"},{"station_name":"Cisauk","i_long":106.640411,"i_lat":-6.32484,"distance":1784,"is_transit":false,"time":4,"line":0,"station_id":"CSK","transit":false},{"distance":2519,"time":4,"line":0,"i_long":106.617853,"station_id":"CC","is_transit":false,"i_lat":-6.329547,"station_name":"Cicayur","transit":false},{"i_lat":-6.3441410000000005,"station_name":"Parung Panjang","distance":5968,"line":6,"station_id":"PRP","transit":false,"time":8,"is_transit":false,"i_long":106.568863},{"i_long":106.508482,"is_transit":false,"distance":7025,"line":0,"transit":false,"station_name":"Cilejit","station_id":"CJT","time":9,"i_lat":-6.354349},{"time":6,"station_name":"Daru","distance":2675,"station_id":"DAR","is_transit":false,"transit":false,"line":0,"i_long":106.491338,"i_lat":-6.338021},{"is_transit":false,"station_name":"Tenjo","i_long":106.460812,"line":6,"i_lat":-6.327251,"transit":false,"time":5,"distance":3902,"station_id":"TEJ"}]]}