{"data":[[{"transit":false,"station_name":"Kranji","line":1,"i_lat":-6.224515,"i_long":106.977657,"station_id":"KRI","time":0,"distance":0,"is_transit":false},{"line":1,"station_id":"CUK","transit":false,"time":3,"is_transit":false,"station_name":"Cakung","i_lat":-6.219053,"i_long":106.951283,"distance":3097},{"station_id":"KLDB","distance":1385,"i_lat":-6.217455,"station_name":"Klenderbaru","line":1,"time":8,"is_transit":false,"i_long":106.939679,"transit":false},{"line":1,"i_lat":-6.215568,"transit":false,"is_transit":false,"station_name":"Buaran","distance":1305,"station_id":"BUA","time":1,"i_long":106.922662},{"transit":false,"i_lat":-6.2135,"line":1,"station_name":"Klender","time":2,"station_id":"KLD","is_transit":false,"distance":3100,"i_long":106.899548},{"station_name":"Jatinegara","i_lat":-6.215091,"station_id":"JNG","line":1,"distance":3395,"i_long":106.86807400000001,"transit":false,"is_transit":false,"time":3},{"station_name":"Matraman","i_long":106.858896,"distance":1377,"i_lat":-6.212485,"line":1,"transit":false,"station_id":"MTR","is_transit":false,"time":2},{"transit":false,"i_long":106.84912,"is_transit":false,"station_id":"MRI","station_name":"Manggarai","distance":1275,"line":2,"i_lat":-6.209883,"time":2},{"station_name":"Sudirman","transit":false,"time":4,"line":1,"i_lat":-6.202263,"i_long":106.822649,"distance":3186,"is_transit":false,"station_id":"SUD"},{"i_lat":-6.201433,"is_transit":false,"distance":280,"station_id":"SUDB","station_name":"Sudirman Baru","transit":false,"i_long":106.819881,"line":1,"time":1},{"station_name":"Karet","transit":false,"is_transit":false,"i_lat":-6.20132,"distance":471,"station_id":"KAT","time":1,"i_long":106.816351,"line":1},{"station_name":"Tanah Abang","i_lat":-6.185545,"transit":true,"station_id":"THB","is_transit":true,"time":5,"line":1,"distance":2029,"i_long":106.811091},{"time":6,"i_lat":-6.207404,"i_long":106.79689,"station_name":"Palmerah","transit":false,"is_transit":false,"distance":3191,"line":6,"station_id":"PLM"},{"i_lat":-6.237242,"line":6,"i_long":106.780334,"is_transit":false,"transit":false,"station_name":"Kebayoran","station_id":"KBY","time":7,"distance":3737},{"line":6,"station_name":"Pondokranji","i_long":106.74273,"transit":false,"distance":6218,"time":8,"station_id":"PDJ","is_transit":false,"i_lat":-6.276362}],[{"is_transit":false,"i_long":106.977657,"i_lat":-6.224515,"transit":false,"station_name":"Kranji","station_id":"KRI","distance":0,"time":0,"line":1},{"i_lat":-6.219053,"time":3,"transit":false,"station_id":"CUK","is_transit":false,"line":1,"distance":3097,"station_name":"Cakung","i_long":106.951283},{"line":1,"station_name":"Klenderbaru","transit":false,"station_id":"KLDB","i_long":106.939679,"distance":1385,"i_lat":-6.217455,"time":8,"is_transit":false},{"time":1,"station_id":"BUA","is_transit":false,"i_lat":-6.215568,"transit":false,"station_name":"Buaran","distance":1305,"i_long":106.922662,"line":1},{"transit":false,"distance":3100,"i_long":106.899548,"line":1,"station_name":"Klender","station_id":"KLD","is_transit":false,"time":2,"i_lat":-6.2135},{"transit":true,"station_name":"Jatinegara","i_long":106.86807400000001,"i_lat":-6.215091,"distance":3395,"is_transit":true,"line":1,"station_id":"JNG","time":3},{"transit":false,"distance":1236,"station_name":"Pondok Jati","i_long":106.861737,"station_id":"POK","is_transit":false,"time":2,"line":11,"i_lat":-6.209188},{"station_id":"KMT","transit":false,"distance":1829,"i_long":106.855437,"line":11,"is_transit":false,"time":2,"station_name":"Kramat","i_lat":-6.193792},{"line":11,"station_id":"GST","station_name":"Gang Sentiong","is_transit":false,"time":1,"distance":973,"i_lat":-6.185975,"i_long":106.850107,"transit":false},{"time":8,"transit":false,"distance":1567,"i_long":106.84368,"line":11,"station_name":"Pasar Senen","i_lat":-6.174784,"station_id":"PSE","is_transit":false},{"distance":1436,"line":11,"transit":false,"station_id":"KMO","is_transit":false,"i_lat":-6.161728,"i_long":106.839204,"time":4,"station_name":"Kemayoran"},{"i_lat":-6.14505,"station_name":"Rajawali","i_long":106.836569,"is_transit":false,"line":11,"station_id":"RJW","time":5,"distance":1901,"transit":false},{"station_id":"KPB","station_name":"Kampung Bandan","i_lat":-6.132549,"line":4,"transit":true,"is_transit":true,"time":3,"distance":1444,"i_long":106.826365},{"i_lat":-6.144674,"distance":4102,"station_name":"Angke","station_id":"AK","line":1,"transit":false,"i_long":106.79867,"is_transit":false,"time":9},{"i_lat":-6.155215,"time":4,"is_transit":false,"transit":false,"station_name":"Duri","line":1,"distance":1230,"station_id":"DU","i_long":106.800832},{"station_id":"THB","station_name":"Tanah Abang","i_long":106.811091,"is_transit":true,"transit":true,"i_lat":-6.185545,"distance":3632,"time":8,"line":1},{"station_id":"PLM","is_transit":false,"station_name":"Palmerah","distance":3191,"i_lat":-6.207404,"transit":false,"line":6,"i_long":106.79689,"time":6},{"i_long":106.780334,"line":6,"time":7,"station_name":"Kebayoran","station_id":"KBY","transit":false,"is_transit":false,"distance":3737,"i_lat":-6.237242},{"transit":false,"is_transit":false,"i_lat":-6.276362,"line":6,"station_name":"Pondokranji","time":8,"distance":6218,"i_long":106.74273,"station_id":"PDJ"}],[{"time":0,"i_long":106.977657,"is_transit":false,"line":1,"station_id":"KRI","transit":false,"station_name":"Kranji","i_lat":-6.224515,"distance":0},{"transit":false,"is_transit":false,"line":1,"i_lat":-6.219053,"distance":3097,"station_name":"Cakung","time":3,"station_id":"CUK","i_long":106.951283},{"line":1,"distance":1385,"station_name":"Klenderbaru","is_transit":false,"i_lat":-6.217455,"time":8,"transit":false,"station_id":"KLDB","i_long":106.939679},{"is_transit":false,"i_lat":-6.215568,"line":1,"station_id":"BUA","i_long":106.922662,"time":1,"transit":false,"station_name":"Buaran","distance":1305},{"is_transit":false,"distance":3100,"time":2,"transit":false,"station_id":"KLD","station_name":"Klender","i_long":106.899548,"line":1,"i_lat":-6.2135},{"line":1,"distance":3395,"station_id":"JNG","time":3,"i_lat":-6.215091,"station_name":"Jatinegara","transit":false,"is_transit":false,"i_long":106.86807400000001},{"station_id":"MTR","is_transit":false,"transit":false,"distance":1377,"line":1,"time":2,"i_long":106.858896,"i_lat":-6.212485,"station_name":"Matraman"},{"i_long":106.84912,"station_name":"Manggarai","i_lat":-6.209883,"distance":1275,"time":2,"transit":true,"station_id":"MRI","line":2,"is_transit":true},{"time":4,"transit":false,"station_name":"Cikini","i_lat":-6.198556,"is_transit":false,"station_id":"CKI","line":2,"distance":1590,"i_long":106.840169},{"i_lat":-6.186295,"i_long":106.832183,"is_transit":false,"station_id":"GDD","time":3,"station_name":"Gondangdia","distance":1750,"transit":false,"line":2},{"i_long":106.828284,"i_lat":-6.166716,"station_id":"JUA","transit":false,"is_transit":false,"time":4,"line":2,"distance":2015,"station_name":"Juanda"},{"is_transit":false,"i_lat":-6.160725,"distance":1149,"i_long":106.827103,"station_name":"Sawah Besar","station_id":"SW","line":2,"time":2,"transit":false},{"line":2,"is_transit":false,"distance":906,"station_id":"MGB","i_lat":-6.149769,"i_long":106.82482,"station_name":"Manggabesar","time":2,"transit":false},{"transit":false,"i_lat":-6.141205,"time":2,"is_transit":false,"distance":1080,"i_long":106.820901,"station_name":"Jayakarta","station_id":"JAY","line":2},{"is_transit":true,"i_long":106.812439,"transit":true,"station_id":"JAKK","line":2,"station_name":"Jakarta Kota","i_lat":-6.137569,"time":4,"distance":1264},{"is_transit":true,"transit":true,"time":3,"station_name":"Kampung Bandan","i_long":106.826365,"i_lat":-6.132549,"station_id":"KPB","distance":1364,"line":4},{"station_id":"AK","i_long":106.79867,"is_transit":false,"station_name":"Angke","transit":false,"i_lat":-6.144674,"time":9,"distance":4102,"line":1},{"station_name":"Duri","i_lat":-6.155215,"is_transit":false,"station_id":"DU","distance":1230,"line":1,"transit":false,"time":4,"i_long":106.800832},{"distance":3632,"i_lat":-6.185545,"transit":true,"station_id":"THB","time":8,"is_transit":true,"station_name":"Tanah Abang","i_long":106.811091,"line":1},{"station_name":"Palmerah","is_transit":false,"i_long":106.79689,"time":6,"distance":3191,"station_id":"PLM","line":6,"i_lat":-6.207404,"transit":false},{"i_lat":-6.237242,"station_name":"Kebayoran","is_transit":false,"distance":3737,"transit":false,"time":7,"i_long":106.780334,"line":6,"station_id":"KBY"},{"is_transit":false,"station_id":"PDJ","transit":false,"station_name":"Pondokranji","distance":6218,"line":6,"i_lat":-6.276362,"i_long":106.74273,"time":8}],[{"is_transit":false,"station_name":"Kranji","station_id":"KRI","time":0,"distance":0,"line":1,"i_lat":-6.224515,"transit":false,"i_long":106.977657},{"i_long":106.951283,"is_transit":false,"station_id":"CUK","time":3,"i_lat":-6.219053,"transit":false,"station_name":"Cakung","line":1,"distance":3097},{"i_lat":-6.217455,"transit":false,"i_long":106.939679,"distance":1385,"is_transit":false,"line":1,"station_name":"Klenderbaru","station_id":"KLDB","time":8},{"is_transit":false,"i_long":106.922662,"time":1,"distance":1305,"i_lat":-6.215568,"station_name":"Buaran","line":1,"transit":false,"station_id":"BUA"},{"transit":false,"time":2,"distance":3100,"i_lat":-6.2135,"is_transit":false,"i_long":106.899548,"line":1,"station_name":"Klender","station_id":"KLD"},{"i_lat":-6.215091,"i_long":106.86807400000001,"line":1,"distance":3395,"time":3,"is_transit":true,"station_id":"JNG","transit":true,"station_name":"Jatinegara"},{"distance":1236,"station_id":"POK","transit":false,"time":2,"i_lat":-6.209188,"line":11,"station_name":"Pondok Jati","i_long":106.861737,"is_transit":false},{"station_name":"Kramat","line":11,"is_transit":false,"transit":false,"time":2,"distance":1829,"i_lat":-6.193792,"i_long":106.855437,"station_id":"KMT"},{"time":1,"i_long":106.850107,"transit":false,"line":11,"i_lat":-6.185975,"is_transit":false,"station_id":"GST","distance":973,"station_name":"Gang Sentiong"},{"time":8,"is_transit":false,"station_id":"PSE","transit":false,"i_lat":-6.174784,"distance":1567,"station_name":"Pasar Senen","line":11,"i_long":106.84368},{"is_transit":false,"distance":1436,"i_long":106.839204,"i_lat":-6.161728,"line":11,"transit":false,"station_id":"KMO","station_name":"Kemayoran","time":4},{"i_lat":-6.14505,"transit":false,"is_transit":false,"time":5,"station_name":"Rajawali","line":11,"i_long":106.836569,"station_id":"RJW","distance":1901},{"is_transit":true,"i_lat":-6.132549,"station_id":"KPB","line":4,"i_long":106.826365,"time":3,"distance":1444,"transit":true,"station_name":"Kampung Bandan"},{"station_id":"JAKK","i_long":106.812439,"distance":1364,"transit":true,"time":3,"i_lat":-6.137569,"station_name":"Jakarta Kota","is_transit":true,"line":2},{"transit":false,"distance":1264,"i_lat":-6.141205,"line":2,"station_name":"Jayakarta","station_id":"JAY","is_transit":false,"time":4,"i_long":106.820901},{"i_lat":-6.149769,"time":2,"line":2,"distance":1080,"i_long":106.82482,"transit":false,"is_transit":false,"station_id":"MGB","station_name":"Manggabesar"},{"time":2,"station_name":"Sawah Besar","is_transit":false,"i_lat":-6.160725,"distance":906,"i_long":106.827103,"station_id":"SW","transit":false,"line":2},{"station_id":"JUA","i_lat":-6.166716,"distance":1149,"is_transit":false,"i_long":106.828284,"station_name":"Juanda","line":2,"time":2,"transit":false},{"station_id":"GDD","station_name":"Gondangdia","distance":2015,"line":2,"transit":false,"is_transit":false,"time":4,"i_long":106.832183,"i_lat":-6.186295},{"time":3,"transit":false,"distance":1750,"i_lat":-6.198556,"i_long":106.840169,"station_name":"Cikini","line":2,"is_transit":false,"station_id":"CKI"},{"transit":true,"i_lat":-6.209883,"station_id":"MRI","is_transit":true,"time":4,"line":2,"station_name":"Manggarai","distance":1590,"i_long":106.84912},{"station_id":"SUD","i_long":106.822649,"time":4,"is_transit":false,"i_lat":-6.202263,"distance":3186,"line":1,"transit":false,"station_name":"Sudirman"},{"time":1,"is_transit":false,"transit":false,"station_name":"Sudirman Baru","i_long":106.819881,"station_id":"SUDB","distance":280,"i_lat":-6.201433,"line":1},{"line":1,"is_transit":false,"i_long":106.816351,"station_id":"KAT","i_lat":-6.20132,"station_name":"Karet","transit":false,"time":1,"distance":471},{"station_id":"THB","station_name":"Tanah Abang","is_transit":true,"line":1,"time":5,"transit":true,"distance":2029,"i_lat":-6.185545,"i_long":106.811091},{"distance":3191,"is_transit":false,"station_name":"Palmerah","station_id":"PLM","time":6,"transit":false,"i_lat":-6.207404,"i_long":106.79689,"line":6},{"transit":false,"i_long":106.780334,"is_transit":false,"i_lat":-6.237242,"distance":3737,"line":6,"time":7,"station_id":"KBY","station_name":"Kebayoran"},{"station_name":"Pondokranji","line":6,"i_lat":-6.276362,"station_id":"PDJ","transit":false,"is_transit":false,"distance":6218,"i_long":106.74273,"time":8}]]}