{"data":[[{"distance":0,"line":1,"i_long":106.977657,"station_name":"Kranji","i_lat":-6.224515,"station_id":"KRI","time":0,"transit":false,"is_transit":false},{"station_id":"CUK","station_name":"Cakung","line":1,"is_transit":false,"transit":false,"time":3,"distance":3097,"i_lat":-6.219053,"i_long":106.951283},{"i_lat":-6.217455,"station_name":"Klenderbaru","time":8,"i_long":106.939679,"station_id":"KLDB","is_transit":false,"line":1,"distance":1385,"transit":false},{"station_id":"BUA","is_transit":false,"station_name":"Buaran","i_lat":-6.215568,"time":1,"i_long":106.922662,"distance":1305,"line":1,"transit":false},{"is_transit":false,"transit":false,"i_lat":-6.2135,"distance":3100,"station_id":"KLD","i_long":106.899548,"line":1,"station_name":"Klender","time":2},{"station_name":"Jatinegara","line":1,"i_lat":-6.215091,"distance":3395,"time":3,"station_id":"JNG","i_long":106.86807400000001,"is_transit":false,"transit":false},{"is_transit":false,"distance":1377,"station_id":"MTR","station_name":"Matraman","i_long":106.858896,"transit":false,"line":1,"time":2,"i_lat":-6.212485},{"time":2,"station_name":"Manggarai","distance":1275,"transit":true,"station_id":"MRI","i_lat":-6.209883,"i_long":106.84912,"line":2,"is_transit":true},{"i_long":106.857948,"station_name":"Tebet","transit":false,"is_transit":false,"station_id":"TEB","distance":2610,"line":2,"time":4,"i_lat":-6.226659},{"line":2,"distance":1230,"i_long":106.856607,"transit":false,"i_lat":-6.242512,"is_transit":false,"time":2,"station_id":"CW","station_name":"Cawang"},{"transit":false,"i_lat":-6.255332,"line":2,"time":3,"station_name":"Duren Kalibata","i_long":106.85449,"distance":1546,"station_id":"DRN","is_transit":false},{"station_id":"PSMB","station_name":"Pasar Minggu Baru","i_long":106.851577,"line":2,"transit":false,"is_transit":false,"i_lat":-6.263214,"distance":824,"time":2},{"i_lat":-6.2842400000000005,"distance":2380,"station_id":"PSM","is_transit":false,"line":2,"station_name":"Pasar Minggu","time":2,"i_long":106.843999,"transit":false},{"transit":false,"distance":2820,"i_long":106.838896,"station_id":"TNT","station_name":"Tanjung Barat","is_transit":false,"time":4,"i_lat":-6.3080680000000005,"line":2}],[{"is_transit":false,"i_lat":-6.224515,"i_long":106.977657,"station_name":"Kranji","transit":false,"line":1,"distance":0,"station_id":"KRI","time":0},{"time":3,"i_lat":-6.219053,"line":1,"station_name":"Cakung","is_transit":false,"distance":3097,"station_id":"CUK","transit":false,"i_long":106.951283},{"transit":false,"line":1,"distance":1385,"time":8,"i_lat":-6.217455,"is_transit":false,"station_id":"KLDB","i_long":106.939679,"station_name":"Klenderbaru"},{"transit":false,"distance":1305,"line":1,"i_long":106.922662,"time":1,"i_lat":-6.215568,"is_transit":false,"station_name":"Buaran","station_id":"BUA"},{"distance":3100,"is_transit":false,"i_lat":-6.2135,"line":1,"station_name":"Klender","time":2,"transit":false,"station_id":"KLD","i_long":106.899548},{"station_name":"Jatinegara","time":3,"transit":true,"is_transit":true,"distance":3395,"line":1,"i_lat":-6.215091,"station_id":"JNG","i_long":106.86807400000001},{"station_id":"POK","i_lat":-6.209188,"distance":1236,"is_transit":false,"time":2,"station_name":"Pondok Jati","i_long":106.861737,"transit":false,"line":11},{"station_name":"Kramat","i_lat":-6.193792,"station_id":"KMT","i_long":106.855437,"transit":false,"distance":1829,"is_transit":false,"time":2,"line":11},{"is_transit":false,"transit":false,"station_id":"GST","station_name":"Gang Sentiong","distance":973,"i_lat":-6.185975,"i_long":106.850107,"time":1,"line":11},{"i_long":106.84368,"i_lat":-6.174784,"transit":false,"line":11,"station_name":"Pasar Senen","is_transit":false,"distance":1567,"station_id":"PSE","time":8},{"transit":false,"i_long":106.839204,"i_lat":-6.161728,"station_id":"KMO","time":4,"is_transit":false,"distance":1436,"line":11,"station_name":"Kemayoran"},{"distance":1901,"station_name":"Rajawali","time":5,"transit":false,"i_lat":-6.14505,"station_id":"RJW","line":11,"i_long":106.836569,"is_transit":false},{"time":3,"station_name":"Kampung Bandan","i_lat":-6.132549,"line":4,"i_long":106.826365,"transit":true,"is_transit":true,"distance":1444,"station_id":"KPB"},{"is_transit":false,"time":9,"line":1,"station_id":"AK","distance":4102,"i_long":106.79867,"i_lat":-6.144674,"transit":false,"station_name":"Angke"},{"i_lat":-6.155215,"i_long":106.800832,"station_id":"DU","line":1,"transit":false,"station_name":"Duri","is_transit":false,"distance":1230,"time":4},{"transit":false,"station_id":"THB","station_name":"Tanah Abang","time":8,"distance":3632,"i_lat":-6.185545,"i_long":106.811091,"line":1,"is_transit":false},{"station_id":"KAT","time":5,"i_lat":-6.20132,"i_long":106.816351,"line":1,"transit":false,"is_transit":false,"distance":2029,"station_name":"Karet"},{"is_transit":false,"line":1,"time":1,"station_id":"SUDB","i_long":106.819881,"transit":false,"distance":471,"i_lat":-6.201433,"station_name":"Sudirman Baru"},{"transit":false,"station_id":"SUD","time":1,"i_lat":-6.202263,"is_transit":false,"station_name":"Sudirman","distance":280,"i_long":106.822649,"line":1},{"transit":true,"distance":3186,"station_id":"MRI","line":2,"i_lat":-6.209883,"is_transit":true,"time":4,"station_name":"Manggarai","i_long":106.84912},{"station_name":"Tebet","distance":2610,"station_id":"TEB","is_transit":false,"i_lat":-6.226659,"line":2,"transit":false,"time":4,"i_long":106.857948},{"is_transit":false,"transit":false,"distance":1230,"time":2,"i_lat":-6.242512,"station_id":"CW","line":2,"station_name":"Cawang","i_long":106.856607},{"transit":false,"station_name":"Duren Kalibata","i_lat":-6.255332,"is_transit":false,"line":2,"time":3,"i_long":106.85449,"distance":1546,"station_id":"DRN"},{"i_long":106.851577,"distance":824,"i_lat":-6.263214,"station_id":"PSMB","time":2,"is_transit":false,"line":2,"station_name":"Pasar Minggu Baru","transit":false},{"distance":2380,"line":2,"station_id":"PSM","time":2,"is_transit":false,"station_name":"Pasar Minggu","transit":false,"i_lat":-6.2842400000000005,"i_long":106.843999},{"time":4,"station_name":"Tanjung Barat","i_long":106.838896,"station_id":"TNT","is_transit":false,"distance":2820,"line":2,"i_lat":-6.3080680000000005,"transit":false}],[{"distance":0,"transit":false,"is_transit":false,"i_lat":-6.224515,"station_id":"KRI","line":1,"station_name":"Kranji","time":0,"i_long":106.977657},{"is_transit":false,"i_lat":-6.219053,"station_name":"Cakung","distance":3097,"time":3,"transit":false,"station_id":"CUK","i_long":106.951283,"line":1},{"station_id":"KLDB","transit":false,"i_lat":-6.217455,"is_transit":false,"distance":1385,"i_long":106.939679,"station_name":"Klenderbaru","line":1,"time":8},{"i_lat":-6.215568,"i_long":106.922662,"station_id":"BUA","distance":1305,"transit":false,"time":1,"is_transit":false,"line":1,"station_name":"Buaran"},{"transit":false,"station_id":"KLD","is_transit":false,"distance":3100,"i_long":106.899548,"station_name":"Klender","time":2,"line":1,"i_lat":-6.2135},{"i_long":106.86807400000001,"distance":3395,"station_name":"Jatinegara","time":3,"line":1,"is_transit":true,"transit":true,"station_id":"JNG","i_lat":-6.215091},{"is_transit":false,"station_name":"Pondok Jati","transit":false,"time":2,"distance":1236,"i_lat":-6.209188,"i_long":106.861737,"station_id":"POK","line":11},{"station_id":"KMT","distance":1829,"station_name":"Kramat","i_long":106.855437,"transit":false,"time":2,"i_lat":-6.193792,"line":11,"is_transit":false},{"is_transit":false,"transit":false,"station_name":"Gang Sentiong","i_long":106.850107,"station_id":"GST","distance":973,"time":1,"line":11,"i_lat":-6.185975},{"time":8,"i_lat":-6.174784,"station_id":"PSE","i_long":106.84368,"station_name":"Pasar Senen","line":11,"is_transit":false,"transit":false,"distance":1567},{"station_name":"Kemayoran","transit":false,"i_lat":-6.161728,"distance":1436,"time":4,"line":11,"is_transit":false,"station_id":"KMO","i_long":106.839204},{"i_lat":-6.14505,"is_transit":false,"station_id":"RJW","transit":false,"time":5,"station_name":"Rajawali","distance":1901,"i_long":106.836569,"line":11},{"i_long":106.826365,"distance":1444,"is_transit":true,"i_lat":-6.132549,"transit":true,"line":4,"station_id":"KPB","station_name":"Kampung Bandan","time":3},{"station_id":"JAKK","i_long":106.812439,"distance":1364,"is_transit":true,"transit":true,"i_lat":-6.137569,"station_name":"Jakarta Kota","time":3,"line":2},{"station_id":"JAY","i_lat":-6.141205,"time":4,"i_long":106.820901,"station_name":"Jayakarta","is_transit":false,"distance":1264,"transit":false,"line":2},{"station_name":"Manggabesar","i_lat":-6.149769,"is_transit":false,"transit":false,"line":2,"station_id":"MGB","time":2,"distance":1080,"i_long":106.82482},{"is_transit":false,"station_name":"Sawah Besar","i_long":106.827103,"distance":906,"transit":false,"line":2,"i_lat":-6.160725,"time":2,"station_id":"SW"},{"i_lat":-6.166716,"station_id":"JUA","time":2,"i_long":106.828284,"distance":1149,"transit":false,"station_name":"Juanda","is_transit":false,"line":2},{"i_long":106.832183,"line":2,"transit":false,"station_id":"GDD","is_transit":false,"time":4,"distance":2015,"station_name":"Gondangdia","i_lat":-6.186295},{"transit":false,"time":3,"i_lat":-6.198556,"station_id":"CKI","distance":1750,"i_long":106.840169,"line":2,"is_transit":false,"station_name":"Cikini"},{"i_lat":-6.209883,"station_name":"Manggarai","is_transit":false,"station_id":"MRI","transit":false,"time":4,"i_long":106.84912,"distance":1590,"line":2},{"station_id":"TEB","transit":false,"i_lat":-6.226659,"distance":2610,"station_name":"Tebet","i_long":106.857948,"is_transit":false,"line":2,"time":4},{"transit":false,"station_name":"Cawang","station_id":"CW","i_long":106.856607,"line":2,"is_transit":false,"i_lat":-6.242512,"distance":1230,"time":2},{"station_id":"DRN","transit":false,"i_lat":-6.255332,"is_transit":false,"station_name":"Duren Kalibata","line":2,"distance":1546,"time":3,"i_long":106.85449},{"distance":824,"i_lat":-6.263214,"is_transit":false,"i_long":106.851577,"line":2,"transit":false,"station_id":"PSMB","time":2,"station_name":"Pasar Minggu Baru"},{"i_long":106.843999,"transit":false,"is_transit":false,"time":2,"line":2,"i_lat":-6.2842400000000005,"station_id":"PSM","distance":2380,"station_name":"Pasar Minggu"},{"transit":false,"station_name":"Tanjung Barat","line":2,"station_id":"TNT","time":4,"distance":2820,"i_long":106.838896,"is_transit":false,"i_lat":-6.3080680000000005}]]}