{"data":[[{"transit":false,"is_transit":false,"line":1,"i_long":106.977657,"time":0,"station_id":"KRI","distance":0,"i_lat":-6.224515,"station_name":"Kranji"},{"time":3,"transit":false,"line":0,"station_id":"CUK","is_transit":false,"i_lat":-6.219053,"station_name":"Cakung","distance":3097,"i_long":106.951283},{"station_id":"KLDB","time":8,"is_transit":false,"distance":1385,"i_lat":-6.217455,"i_long":106.939679,"line":1,"station_name":"Klenderbaru","transit":false},{"transit":false,"i_long":106.922662,"time":1,"line":0,"i_lat":-6.215568,"station_name":"Buaran","station_id":"BUA","is_transit":false,"distance":1305},{"is_transit":false,"time":2,"line":1,"station_id":"KLD","distance":3100,"i_lat":-6.2135,"transit":false,"i_long":106.899548,"station_name":"Klender"},{"station_id":"JNG","line":0,"distance":3395,"i_long":106.86807400000001,"station_name":"Jatinegara","is_transit":true,"transit":false,"time":3,"i_lat":-6.215091},{"station_name":"Matraman","distance":1377,"line":1,"station_id":"MTR","i_long":106.858896,"is_transit":false,"i_lat":-6.212485,"time":2,"transit":false},{"distance":1275,"time":2,"is_transit":true,"transit":true,"line":0,"station_id":"MRI","i_long":106.84912,"station_name":"Manggarai","i_lat":-6.209883},{"transit":false,"is_transit":false,"i_lat":-6.198556,"station_id":"CKI","time":4,"line":0,"distance":1590,"station_name":"Cikini","i_long":106.840169},{"transit":false,"i_lat":-6.186295,"station_id":"GDD","i_long":106.832183,"station_name":"Gondangdia","is_transit":false,"time":3,"distance":1750,"line":2},{"is_transit":false,"station_id":"JUA","i_lat":-6.166716,"time":4,"line":2,"station_name":"Juanda","distance":2015,"transit":false,"i_long":106.828284},{"i_long":106.827103,"time":2,"station_name":"Sawah Besar","transit":false,"station_id":"SW","i_lat":-6.160725,"line":2,"distance":1149,"is_transit":false},{"time":2,"i_lat":-6.149769,"i_long":106.82482,"station_id":"MGB","line":2,"is_transit":false,"distance":906,"station_name":"Manggabesar","transit":false}],[{"station_name":"Kranji","station_id":"KRI","transit":false,"distance":0,"line":1,"i_lat":-6.224515,"is_transit":false,"time":0,"i_long":106.977657},{"station_name":"Cakung","is_transit":false,"i_long":106.951283,"line":0,"station_id":"CUK","transit":false,"i_lat":-6.219053,"time":3,"distance":3097},{"station_id":"KLDB","transit":false,"is_transit":false,"station_name":"Klenderbaru","distance":1385,"line":1,"i_lat":-6.217455,"i_long":106.939679,"time":8},{"time":1,"i_lat":-6.215568,"line":0,"is_transit":false,"station_name":"Buaran","distance":1305,"transit":false,"i_long":106.922662,"station_id":"BUA"},{"i_lat":-6.2135,"station_id":"KLD","line":1,"distance":3100,"i_long":106.899548,"station_name":"Klender","transit":false,"time":2,"is_transit":false},{"transit":true,"i_lat":-6.215091,"distance":3395,"line":0,"time":3,"station_id":"JNG","station_name":"Jatinegara","is_transit":true,"i_long":106.86807400000001},{"line":11,"station_name":"Pondok Jati","i_lat":-6.209188,"i_long":106.861737,"time":2,"station_id":"POK","distance":1236,"is_transit":false,"transit":false},{"i_long":106.855437,"time":2,"distance":1829,"transit":false,"station_name":"Kramat","station_id":"KMT","i_lat":-6.193792,"is_transit":false,"line":11},{"transit":false,"time":1,"i_lat":-6.185975,"is_transit":false,"line":11,"i_long":106.850107,"station_id":"GST","distance":973,"station_name":"Gang Sentiong"},{"time":8,"line":11,"transit":false,"station_name":"Pasar Senen","i_lat":-6.174784,"i_long":106.84368,"station_id":"PSE","is_transit":false,"distance":1567},{"i_lat":-6.161728,"station_name":"Kemayoran","is_transit":false,"transit":false,"line":11,"station_id":"KMO","time":4,"distance":1436,"i_long":106.839204},{"station_name":"Rajawali","i_long":106.836569,"is_transit":false,"transit":false,"line":11,"time":5,"i_lat":-6.14505,"distance":1901,"station_id":"RJW"},{"i_long":106.826365,"line":0,"time":3,"distance":1444,"transit":true,"i_lat":-6.132549,"station_id":"KPB","station_name":"Kampung Bandan","is_transit":true},{"line":0,"i_lat":-6.137569,"station_name":"Jakarta Kota","time":3,"is_transit":true,"distance":1364,"transit":true,"station_id":"JAKK","i_long":106.812439},{"is_transit":false,"time":4,"distance":1264,"i_lat":-6.141205,"station_name":"Jayakarta","transit":false,"station_id":"JAY","i_long":106.820901,"line":7},{"station_name":"Manggabesar","time":2,"is_transit":false,"transit":false,"i_long":106.82482,"distance":1080,"line":2,"i_lat":-6.149769,"station_id":"MGB"}],[{"distance":0,"transit":false,"line":1,"station_id":"KRI","time":0,"station_name":"Kranji","i_lat":-6.224515,"is_transit":false,"i_long":106.977657},{"time":3,"i_lat":-6.219053,"distance":3097,"transit":false,"i_long":106.951283,"station_id":"CUK","is_transit":false,"station_name":"Cakung","line":0},{"time":8,"is_transit":false,"station_name":"Klenderbaru","distance":1385,"station_id":"KLDB","transit":false,"i_lat":-6.217455,"i_long":106.939679,"line":1},{"distance":1305,"station_name":"Buaran","i_lat":-6.215568,"is_transit":false,"station_id":"BUA","line":0,"transit":false,"time":1,"i_long":106.922662},{"station_id":"KLD","transit":false,"i_lat":-6.2135,"time":2,"line":1,"distance":3100,"is_transit":false,"i_long":106.899548,"station_name":"Klender"},{"line":0,"station_name":"Jatinegara","is_transit":true,"time":3,"i_long":106.86807400000001,"transit":false,"distance":3395,"station_id":"JNG","i_lat":-6.215091},{"distance":1377,"transit":false,"i_lat":-6.212485,"i_long":106.858896,"line":1,"is_transit":false,"time":2,"station_name":"Matraman","station_id":"MTR"},{"time":2,"transit":false,"i_long":106.84912,"is_transit":true,"station_id":"MRI","station_name":"Manggarai","distance":1275,"i_lat":-6.209883,"line":0},{"transit":false,"station_id":"SUD","is_transit":false,"i_long":106.822649,"distance":3186,"line":1,"station_name":"Sudirman","i_lat":-6.202263,"time":4},{"line":1,"distance":280,"transit":false,"station_id":"SUDB","station_name":"Sudirman Baru","i_lat":-6.201433,"is_transit":false,"time":1,"i_long":106.819881},{"transit":false,"time":1,"i_lat":-6.20132,"line":1,"station_name":"Karet","station_id":"KAT","distance":471,"is_transit":false,"i_long":106.816351},{"line":1,"transit":false,"station_id":"THB","station_name":"Tanah Abang","distance":2029,"i_lat":-6.185545,"is_transit":true,"i_long":106.811091,"time":5},{"transit":true,"i_long":106.800832,"i_lat":-6.155215,"time":8,"station_id":"DU","is_transit":true,"distance":3632,"line":1,"station_name":"Duri"},{"distance":1230,"i_long":106.79867,"station_name":"Angke","is_transit":false,"station_id":"AK","time":4,"transit":false,"line":0,"i_lat":-6.144674},{"station_id":"KPB","station_name":"Kampung Bandan","transit":false,"is_transit":true,"time":9,"i_lat":-6.132549,"i_long":106.826365,"line":0,"distance":4102},{"station_id":"JAKK","line":0,"i_long":106.812439,"i_lat":-6.137569,"is_transit":true,"time":3,"distance":1364,"transit":true,"station_name":"Jakarta Kota"},{"time":4,"distance":1264,"station_name":"Jayakarta","is_transit":false,"station_id":"JAY","i_long":106.820901,"transit":false,"i_lat":-6.141205,"line":7},{"i_lat":-6.149769,"station_id":"MGB","transit":false,"line":2,"i_long":106.82482,"distance":1080,"is_transit":false,"station_name":"Manggabesar","time":2}],[{"transit":false,"station_name":"Kranji","i_long":106.977657,"i_lat":-6.224515,"line":1,"distance":0,"time":0,"station_id":"KRI","is_transit":false},{"transit":false,"line":0,"i_long":106.951283,"is_transit":false,"time":3,"distance":3097,"i_lat":-6.219053,"station_id":"CUK","station_name":"Cakung"},{"transit":false,"station_id":"KLDB","i_lat":-6.217455,"station_name":"Klenderbaru","distance":1385,"is_transit":false,"i_long":106.939679,"line":1,"time":8},{"station_name":"Buaran","is_transit":false,"transit":false,"i_lat":-6.215568,"i_long":106.922662,"station_id":"BUA","distance":1305,"line":0,"time":1},{"transit":false,"distance":3100,"i_long":106.899548,"i_lat":-6.2135,"line":1,"station_name":"Klender","time":2,"station_id":"KLD","is_transit":false},{"is_transit":true,"station_name":"Jatinegara","time":3,"i_lat":-6.215091,"station_id":"JNG","distance":3395,"i_long":106.86807400000001,"transit":true,"line":0},{"distance":1236,"time":2,"is_transit":false,"i_long":106.861737,"station_id":"POK","station_name":"Pondok Jati","i_lat":-6.209188,"transit":false,"line":11},{"i_long":106.855437,"is_transit":false,"time":2,"station_name":"Kramat","i_lat":-6.193792,"distance":1829,"station_id":"KMT","line":11,"transit":false},{"line":11,"is_transit":false,"i_long":106.850107,"time":1,"station_id":"GST","station_name":"Gang Sentiong","transit":false,"distance":973,"i_lat":-6.185975},{"time":8,"line":11,"is_transit":false,"distance":1567,"station_name":"Pasar Senen","station_id":"PSE","transit":false,"i_lat":-6.174784,"i_long":106.84368},{"line":11,"transit":false,"is_transit":false,"i_lat":-6.161728,"time":4,"distance":1436,"i_long":106.839204,"station_name":"Kemayoran","station_id":"KMO"},{"station_id":"RJW","i_lat":-6.14505,"station_name":"Rajawali","is_transit":false,"line":11,"distance":1901,"transit":false,"i_long":106.836569,"time":5},{"transit":true,"station_name":"Kampung Bandan","time":3,"is_transit":true,"i_long":106.826365,"station_id":"KPB","line":0,"i_lat":-6.132549,"distance":1444},{"i_long":106.79867,"line":0,"station_id":"AK","time":9,"is_transit":false,"i_lat":-6.144674,"station_name":"Angke","distance":4102,"transit":false},{"transit":true,"i_lat":-6.155215,"i_long":106.800832,"line":1,"station_name":"Duri","is_transit":true,"time":4,"station_id":"DU","distance":1230},{"time":8,"transit":false,"i_long":106.811091,"station_name":"Tanah Abang","is_transit":true,"distance":3632,"station_id":"THB","i_lat":-6.185545,"line":1},{"time":5,"i_long":106.816351,"distance":2029,"transit":false,"is_transit":false,"station_id":"KAT","i_lat":-6.20132,"line":1,"station_name":"Karet"},{"station_name":"Sudirman Baru","distance":471,"is_transit":false,"station_id":"SUDB","time":1,"transit":false,"i_long":106.819881,"i_lat":-6.201433,"line":1},{"line":1,"station_name":"Sudirman","transit":false,"is_transit":false,"time":1,"distance":280,"i_lat":-6.202263,"i_long":106.822649,"station_id":"SUD"},{"station_id":"MRI","is_transit":true,"time":4,"transit":true,"station_name":"Manggarai","distance":3186,"i_long":106.84912,"i_lat":-6.209883,"line":0},{"time":4,"distance":1590,"is_transit":false,"station_id":"CKI","station_name":"Cikini","transit":false,"i_lat":-6.198556,"i_long":106.840169,"line":0},{"line":2,"station_name":"Gondangdia","time":3,"is_transit":false,"station_id":"GDD","i_long":106.832183,"distance":1750,"transit":false,"i_lat":-6.186295},{"station_name":"Juanda","distance":2015,"time":4,"i_lat":-6.166716,"i_long":106.828284,"station_id":"JUA","is_transit":false,"line":2,"transit":false},{"distance":1149,"is_transit":false,"station_id":"SW","transit":false,"i_lat":-6.160725,"station_name":"Sawah Besar","i_long":106.827103,"time":2,"line":2},{"time":2,"is_transit":false,"station_id":"MGB","transit":false,"i_lat":-6.149769,"i_long":106.82482,"line":2,"station_name":"Manggabesar","distance":906}]]}