{"data":[[{"line":1,"i_lat":-6.224515,"station_id":"KRI","is_transit":false,"distance":0,"station_name":"Kranji","transit":false,"time":0,"i_long":106.977657},{"station_id":"CUK","i_lat":-6.219053,"station_name":"Cakung","i_long":106.951283,"transit":false,"time":3,"distance":3097,"is_transit":false,"line":1},{"i_lat":-6.217455,"transit":false,"time":8,"station_id":"KLDB","i_long":106.939679,"line":1,"distance":1385,"is_transit":false,"station_name":"Klenderbaru"},{"transit":false,"station_name":"Buaran","time":1,"is_transit":false,"i_long":106.922662,"station_id":"BUA","i_lat":-6.215568,"line":1,"distance":1305},{"time":2,"distance":3100,"i_lat":-6.2135,"transit":false,"station_name":"Klender","i_long":106.899548,"line":1,"is_transit":false,"station_id":"KLD"},{"i_lat":-6.215091,"distance":3395,"time":3,"i_long":106.86807400000001,"station_name":"Jatinegara","transit":false,"station_id":"JNG","line":1,"is_transit":false},{"transit":false,"line":1,"distance":1377,"station_id":"MTR","station_name":"Matraman","i_lat":-6.212485,"is_transit":false,"i_long":106.858896,"time":2},{"time":2,"distance":1275,"station_id":"MRI","i_long":106.84912,"line":2,"i_lat":-6.209883,"transit":false,"is_transit":false,"station_name":"Manggarai"},{"line":1,"transit":false,"is_transit":false,"distance":3186,"station_name":"Sudirman","time":4,"station_id":"SUD","i_lat":-6.202263,"i_long":106.822649},{"transit":false,"i_lat":-6.201433,"i_long":106.819881,"line":1,"is_transit":false,"distance":280,"station_name":"Sudirman Baru","station_id":"SUDB","time":1},{"station_name":"Karet","distance":471,"transit":false,"is_transit":false,"station_id":"KAT","i_lat":-6.20132,"i_long":106.816351,"line":1,"time":1},{"station_name":"Tanah Abang","transit":true,"station_id":"THB","is_transit":true,"line":1,"time":5,"i_lat":-6.185545,"i_long":106.811091,"distance":2029},{"i_lat":-6.207404,"line":6,"distance":3191,"i_long":106.79689,"is_transit":false,"time":6,"station_id":"PLM","transit":false,"station_name":"Palmerah"}],[{"i_lat":-6.224515,"time":0,"is_transit":false,"station_name":"Kranji","i_long":106.977657,"station_id":"KRI","transit":false,"distance":0,"line":1},{"transit":false,"distance":3097,"line":1,"i_lat":-6.219053,"i_long":106.951283,"station_name":"Cakung","station_id":"CUK","is_transit":false,"time":3},{"time":8,"transit":false,"is_transit":false,"station_name":"Klenderbaru","i_long":106.939679,"station_id":"KLDB","distance":1385,"i_lat":-6.217455,"line":1},{"station_id":"BUA","i_lat":-6.215568,"is_transit":false,"i_long":106.922662,"line":1,"station_name":"Buaran","transit":false,"time":1,"distance":1305},{"i_long":106.899548,"time":2,"i_lat":-6.2135,"station_id":"KLD","station_name":"Klender","is_transit":false,"transit":false,"distance":3100,"line":1},{"line":1,"station_id":"JNG","time":3,"is_transit":true,"distance":3395,"i_lat":-6.215091,"i_long":106.86807400000001,"station_name":"Jatinegara","transit":true},{"is_transit":false,"distance":1236,"line":11,"station_id":"POK","i_lat":-6.209188,"transit":false,"station_name":"Pondok Jati","i_long":106.861737,"time":2},{"transit":false,"is_transit":false,"station_id":"KMT","station_name":"Kramat","time":2,"i_long":106.855437,"distance":1829,"i_lat":-6.193792,"line":11},{"i_lat":-6.185975,"station_id":"GST","line":11,"time":1,"transit":false,"is_transit":false,"station_name":"Gang Sentiong","distance":973,"i_long":106.850107},{"transit":false,"is_transit":false,"line":11,"distance":1567,"station_name":"Pasar Senen","station_id":"PSE","i_lat":-6.174784,"i_long":106.84368,"time":8},{"station_id":"KMO","time":4,"station_name":"Kemayoran","is_transit":false,"i_lat":-6.161728,"i_long":106.839204,"line":11,"distance":1436,"transit":false},{"transit":false,"station_id":"RJW","is_transit":false,"i_lat":-6.14505,"distance":1901,"line":11,"station_name":"Rajawali","time":5,"i_long":106.836569},{"distance":1444,"i_lat":-6.132549,"time":3,"is_transit":true,"transit":true,"station_id":"KPB","station_name":"Kampung Bandan","i_long":106.826365,"line":4},{"line":1,"is_transit":false,"station_id":"AK","station_name":"Angke","transit":false,"time":9,"i_lat":-6.144674,"i_long":106.79867,"distance":4102},{"i_long":106.800832,"time":4,"i_lat":-6.155215,"line":1,"station_name":"Duri","is_transit":false,"distance":1230,"transit":false,"station_id":"DU"},{"time":8,"i_long":106.811091,"station_name":"Tanah Abang","line":1,"station_id":"THB","transit":true,"distance":3632,"i_lat":-6.185545,"is_transit":true},{"time":6,"transit":false,"is_transit":false,"station_id":"PLM","i_lat":-6.207404,"i_long":106.79689,"distance":3191,"station_name":"Palmerah","line":6}],[{"i_lat":-6.224515,"line":1,"station_id":"KRI","distance":0,"i_long":106.977657,"station_name":"Kranji","transit":false,"is_transit":false,"time":0},{"i_long":106.951283,"i_lat":-6.219053,"transit":false,"is_transit":false,"distance":3097,"station_id":"CUK","station_name":"Cakung","time":3,"line":1},{"transit":false,"i_lat":-6.217455,"distance":1385,"station_name":"Klenderbaru","is_transit":false,"station_id":"KLDB","line":1,"time":8,"i_long":106.939679},{"station_id":"BUA","is_transit":false,"line":1,"distance":1305,"i_long":106.922662,"transit":false,"station_name":"Buaran","time":1,"i_lat":-6.215568},{"time":2,"i_lat":-6.2135,"station_name":"Klender","i_long":106.899548,"line":1,"station_id":"KLD","transit":false,"is_transit":false,"distance":3100},{"is_transit":false,"station_name":"Jatinegara","i_lat":-6.215091,"station_id":"JNG","distance":3395,"time":3,"line":1,"transit":false,"i_long":106.86807400000001},{"transit":false,"is_transit":false,"i_lat":-6.212485,"station_id":"MTR","distance":1377,"station_name":"Matraman","time":2,"line":1,"i_long":106.858896},{"transit":true,"is_transit":true,"line":2,"station_id":"MRI","i_lat":-6.209883,"station_name":"Manggarai","time":2,"i_long":106.84912,"distance":1275},{"station_id":"CKI","transit":false,"station_name":"Cikini","line":2,"time":4,"i_lat":-6.198556,"i_long":106.840169,"distance":1590,"is_transit":false},{"time":3,"i_lat":-6.186295,"transit":false,"is_transit":false,"distance":1750,"i_long":106.832183,"station_id":"GDD","line":2,"station_name":"Gondangdia"},{"i_long":106.828284,"distance":2015,"line":2,"station_id":"JUA","transit":false,"station_name":"Juanda","is_transit":false,"time":4,"i_lat":-6.166716},{"transit":false,"station_name":"Sawah Besar","distance":1149,"i_lat":-6.160725,"i_long":106.827103,"is_transit":false,"station_id":"SW","time":2,"line":2},{"is_transit":false,"i_lat":-6.149769,"i_long":106.82482,"line":2,"station_id":"MGB","transit":false,"distance":906,"station_name":"Manggabesar","time":2},{"is_transit":false,"station_id":"JAY","distance":1080,"station_name":"Jayakarta","time":2,"line":2,"i_lat":-6.141205,"i_long":106.820901,"transit":false},{"transit":true,"i_lat":-6.137569,"station_id":"JAKK","time":4,"station_name":"Jakarta Kota","is_transit":true,"line":2,"distance":1264,"i_long":106.812439},{"transit":true,"time":3,"i_long":106.826365,"station_id":"KPB","distance":1364,"i_lat":-6.132549,"station_name":"Kampung Bandan","line":4,"is_transit":true},{"is_transit":false,"station_name":"Angke","i_long":106.79867,"time":9,"transit":false,"i_lat":-6.144674,"distance":4102,"station_id":"AK","line":1},{"time":4,"distance":1230,"i_lat":-6.155215,"station_name":"Duri","i_long":106.800832,"line":1,"is_transit":false,"transit":false,"station_id":"DU"},{"time":8,"i_long":106.811091,"transit":true,"station_id":"THB","is_transit":true,"line":1,"station_name":"Tanah Abang","i_lat":-6.185545,"distance":3632},{"distance":3191,"transit":false,"station_name":"Palmerah","i_long":106.79689,"station_id":"PLM","is_transit":false,"time":6,"i_lat":-6.207404,"line":6}],[{"distance":0,"station_id":"KRI","i_lat":-6.224515,"i_long":106.977657,"time":0,"transit":false,"line":1,"station_name":"Kranji","is_transit":false},{"is_transit":false,"transit":false,"i_long":106.951283,"line":1,"distance":3097,"i_lat":-6.219053,"station_name":"Cakung","time":3,"station_id":"CUK"},{"transit":false,"distance":1385,"i_long":106.939679,"time":8,"station_name":"Klenderbaru","line":1,"is_transit":false,"station_id":"KLDB","i_lat":-6.217455},{"is_transit":false,"station_name":"Buaran","station_id":"BUA","time":1,"i_long":106.922662,"transit":false,"distance":1305,"i_lat":-6.215568,"line":1},{"distance":3100,"line":1,"transit":false,"i_lat":-6.2135,"is_transit":false,"i_long":106.899548,"station_id":"KLD","time":2,"station_name":"Klender"},{"time":3,"i_long":106.86807400000001,"i_lat":-6.215091,"transit":true,"station_id":"JNG","is_transit":true,"distance":3395,"line":1,"station_name":"Jatinegara"},{"line":11,"time":2,"i_lat":-6.209188,"transit":false,"station_name":"Pondok Jati","distance":1236,"i_long":106.861737,"station_id":"POK","is_transit":false},{"transit":false,"distance":1829,"station_name":"Kramat","line":11,"i_long":106.855437,"station_id":"KMT","time":2,"is_transit":false,"i_lat":-6.193792},{"line":11,"is_transit":false,"station_name":"Gang Sentiong","station_id":"GST","time":1,"i_long":106.850107,"transit":false,"distance":973,"i_lat":-6.185975},{"is_transit":false,"i_long":106.84368,"transit":false,"station_id":"PSE","i_lat":-6.174784,"distance":1567,"time":8,"line":11,"station_name":"Pasar Senen"},{"transit":false,"distance":1436,"is_transit":false,"station_id":"KMO","station_name":"Kemayoran","i_long":106.839204,"i_lat":-6.161728,"time":4,"line":11},{"line":11,"transit":false,"is_transit":false,"i_long":106.836569,"station_id":"RJW","i_lat":-6.14505,"distance":1901,"time":5,"station_name":"Rajawali"},{"i_long":106.826365,"distance":1444,"transit":true,"station_id":"KPB","line":4,"is_transit":true,"station_name":"Kampung Bandan","time":3,"i_lat":-6.132549},{"station_name":"Jakarta Kota","line":2,"station_id":"JAKK","i_lat":-6.137569,"is_transit":true,"distance":1364,"time":3,"transit":true,"i_long":106.812439},{"transit":false,"i_long":106.820901,"station_name":"Jayakarta","time":4,"station_id":"JAY","i_lat":-6.141205,"is_transit":false,"distance":1264,"line":2},{"i_long":106.82482,"transit":false,"time":2,"i_lat":-6.149769,"station_id":"MGB","distance":1080,"line":2,"is_transit":false,"station_name":"Manggabesar"},{"time":2,"is_transit":false,"i_lat":-6.160725,"distance":906,"i_long":106.827103,"station_name":"Sawah Besar","line":2,"station_id":"SW","transit":false},{"i_long":106.828284,"line":2,"i_lat":-6.166716,"distance":1149,"station_id":"JUA","is_transit":false,"station_name":"Juanda","time":2,"transit":false},{"time":4,"i_lat":-6.186295,"station_id":"GDD","distance":2015,"i_long":106.832183,"line":2,"station_name":"Gondangdia","transit":false,"is_transit":false},{"i_long":106.840169,"distance":1750,"station_id":"CKI","station_name":"Cikini","i_lat":-6.198556,"is_transit":false,"transit":false,"line":2,"time":3},{"transit":true,"distance":1590,"is_transit":true,"i_lat":-6.209883,"station_name":"Manggarai","i_long":106.84912,"station_id":"MRI","line":2,"time":4},{"transit":false,"is_transit":false,"line":1,"station_id":"SUD","station_name":"Sudirman","distance":3186,"i_long":106.822649,"time":4,"i_lat":-6.202263},{"time":1,"station_id":"SUDB","distance":280,"i_long":106.819881,"is_transit":false,"line":1,"transit":false,"station_name":"Sudirman Baru","i_lat":-6.201433},{"station_id":"KAT","is_transit":false,"distance":471,"i_long":106.816351,"station_name":"Karet","time":1,"line":1,"transit":false,"i_lat":-6.20132},{"station_id":"THB","i_long":106.811091,"line":1,"distance":2029,"is_transit":true,"i_lat":-6.185545,"station_name":"Tanah Abang","time":5,"transit":true},{"station_id":"PLM","is_transit":false,"transit":false,"distance":3191,"i_long":106.79689,"line":6,"station_name":"Palmerah","i_lat":-6.207404,"time":6}]]}