{"data":[[{"line":1,"station_name":"Kranji","station_id":"KRI","distance":0,"i_long":106.977657,"transit":false,"time":0,"i_lat":-6.224515,"is_transit":false},{"is_transit":false,"line":0,"time":3,"i_long":106.951283,"station_name":"Cakung","distance":3097,"station_id":"CUK","transit":false,"i_lat":-6.219053},{"i_lat":-6.217455,"line":1,"distance":1385,"station_name":"Klenderbaru","station_id":"KLDB","time":8,"i_long":106.939679,"is_transit":false,"transit":false},{"station_id":"BUA","time":1,"station_name":"Buaran","i_long":106.922662,"line":0,"transit":false,"distance":1305,"is_transit":false,"i_lat":-6.215568},{"transit":false,"i_lat":-6.2135,"line":1,"station_id":"KLD","station_name":"Klender","is_transit":false,"time":2,"distance":3100,"i_long":106.899548},{"transit":false,"distance":3395,"i_long":106.86807400000001,"line":0,"station_id":"JNG","i_lat":-6.215091,"is_transit":true,"time":3,"station_name":"Jatinegara"},{"line":1,"distance":1377,"transit":false,"i_long":106.858896,"is_transit":false,"time":2,"i_lat":-6.212485,"station_id":"MTR","station_name":"Matraman"},{"transit":false,"i_lat":-6.209883,"line":0,"distance":1275,"time":2,"station_name":"Manggarai","i_long":106.84912,"is_transit":true,"station_id":"MRI"},{"line":1,"is_transit":false,"i_lat":-6.202263,"time":4,"transit":false,"station_id":"SUD","station_name":"Sudirman","distance":3186,"i_long":106.822649},{"station_id":"SUDB","station_name":"Sudirman Baru","is_transit":false,"transit":false,"i_long":106.819881,"distance":280,"line":1,"i_lat":-6.201433,"time":1}],[{"station_name":"Kranji","station_id":"KRI","is_transit":false,"transit":false,"time":0,"i_lat":-6.224515,"i_long":106.977657,"line":1,"distance":0},{"is_transit":false,"line":0,"distance":3097,"transit":false,"i_long":106.951283,"station_name":"Cakung","station_id":"CUK","time":3,"i_lat":-6.219053},{"line":1,"station_id":"KLDB","station_name":"Klenderbaru","is_transit":false,"time":8,"distance":1385,"transit":false,"i_lat":-6.217455,"i_long":106.939679},{"line":0,"is_transit":false,"transit":false,"station_id":"BUA","i_lat":-6.215568,"i_long":106.922662,"time":1,"distance":1305,"station_name":"Buaran"},{"station_id":"KLD","station_name":"Klender","is_transit":false,"i_long":106.899548,"transit":false,"distance":3100,"i_lat":-6.2135,"time":2,"line":1},{"time":3,"station_id":"JNG","distance":3395,"i_lat":-6.215091,"is_transit":true,"line":0,"transit":true,"station_name":"Jatinegara","i_long":106.86807400000001},{"transit":false,"line":11,"i_lat":-6.209188,"station_id":"POK","station_name":"Pondok Jati","is_transit":false,"time":2,"distance":1236,"i_long":106.861737},{"time":2,"station_name":"Kramat","distance":1829,"i_long":106.855437,"i_lat":-6.193792,"line":11,"transit":false,"is_transit":false,"station_id":"KMT"},{"distance":973,"line":11,"station_id":"GST","time":1,"transit":false,"i_long":106.850107,"station_name":"Gang Sentiong","i_lat":-6.185975,"is_transit":false},{"time":8,"distance":1567,"i_long":106.84368,"station_id":"PSE","is_transit":false,"transit":false,"i_lat":-6.174784,"line":11,"station_name":"Pasar Senen"},{"transit":false,"i_long":106.839204,"is_transit":false,"distance":1436,"line":11,"station_id":"KMO","time":4,"station_name":"Kemayoran","i_lat":-6.161728},{"station_name":"Rajawali","i_lat":-6.14505,"is_transit":false,"time":5,"distance":1901,"transit":false,"station_id":"RJW","line":11,"i_long":106.836569},{"station_name":"Kampung Bandan","time":3,"distance":1444,"line":0,"is_transit":true,"i_lat":-6.132549,"transit":true,"i_long":106.826365,"station_id":"KPB"},{"line":0,"i_long":106.79867,"distance":4102,"time":9,"station_id":"AK","station_name":"Angke","is_transit":false,"i_lat":-6.144674,"transit":false},{"transit":true,"is_transit":true,"distance":1230,"i_long":106.800832,"station_name":"Duri","i_lat":-6.155215,"time":4,"station_id":"DU","line":1},{"station_id":"THB","distance":3632,"station_name":"Tanah Abang","is_transit":true,"time":8,"transit":false,"i_lat":-6.185545,"line":1,"i_long":106.811091},{"i_long":106.816351,"is_transit":false,"time":5,"line":1,"station_name":"Karet","transit":false,"station_id":"KAT","i_lat":-6.20132,"distance":2029},{"i_lat":-6.201433,"transit":false,"i_long":106.819881,"station_id":"SUDB","time":1,"distance":471,"is_transit":false,"station_name":"Sudirman Baru","line":1}],[{"i_long":106.977657,"is_transit":false,"station_name":"Kranji","time":0,"transit":false,"distance":0,"i_lat":-6.224515,"line":1,"station_id":"KRI"},{"station_id":"CUK","distance":3097,"time":3,"station_name":"Cakung","is_transit":false,"i_long":106.951283,"transit":false,"i_lat":-6.219053,"line":0},{"station_id":"KLDB","time":8,"i_long":106.939679,"i_lat":-6.217455,"is_transit":false,"distance":1385,"station_name":"Klenderbaru","line":1,"transit":false},{"time":1,"station_name":"Buaran","transit":false,"i_long":106.922662,"line":0,"station_id":"BUA","i_lat":-6.215568,"distance":1305,"is_transit":false},{"is_transit":false,"station_id":"KLD","time":2,"transit":false,"i_long":106.899548,"i_lat":-6.2135,"distance":3100,"line":1,"station_name":"Klender"},{"i_long":106.86807400000001,"station_name":"Jatinegara","station_id":"JNG","i_lat":-6.215091,"line":0,"is_transit":true,"time":3,"distance":3395,"transit":false},{"station_id":"MTR","station_name":"Matraman","distance":1377,"transit":false,"is_transit":false,"i_long":106.858896,"line":1,"time":2,"i_lat":-6.212485},{"transit":true,"i_lat":-6.209883,"station_id":"MRI","is_transit":true,"distance":1275,"station_name":"Manggarai","i_long":106.84912,"line":0,"time":2},{"station_name":"Cikini","time":4,"distance":1590,"transit":false,"is_transit":false,"station_id":"CKI","i_lat":-6.198556,"i_long":106.840169,"line":0},{"distance":1750,"i_long":106.832183,"station_name":"Gondangdia","time":3,"is_transit":false,"transit":false,"line":2,"station_id":"GDD","i_lat":-6.186295},{"is_transit":false,"i_lat":-6.166716,"station_id":"JUA","time":4,"distance":2015,"i_long":106.828284,"station_name":"Juanda","transit":false,"line":2},{"line":2,"i_long":106.827103,"i_lat":-6.160725,"time":2,"is_transit":false,"station_name":"Sawah Besar","station_id":"SW","distance":1149,"transit":false},{"i_long":106.82482,"station_name":"Manggabesar","is_transit":false,"line":2,"transit":false,"station_id":"MGB","time":2,"distance":906,"i_lat":-6.149769},{"station_name":"Jayakarta","i_long":106.820901,"distance":1080,"station_id":"JAY","i_lat":-6.141205,"is_transit":false,"time":2,"transit":false,"line":7},{"distance":1264,"station_id":"JAKK","i_lat":-6.137569,"station_name":"Jakarta Kota","is_transit":true,"i_long":106.812439,"line":0,"time":4,"transit":true},{"is_transit":true,"distance":1364,"transit":false,"time":3,"station_id":"KPB","i_lat":-6.132549,"station_name":"Kampung Bandan","i_long":106.826365,"line":0},{"is_transit":false,"transit":false,"i_long":106.79867,"station_id":"AK","time":9,"distance":4102,"i_lat":-6.144674,"station_name":"Angke","line":0},{"station_name":"Duri","time":4,"distance":1230,"transit":true,"i_lat":-6.155215,"is_transit":true,"station_id":"DU","line":1,"i_long":106.800832},{"distance":3632,"is_transit":true,"station_id":"THB","line":1,"i_long":106.811091,"station_name":"Tanah Abang","time":8,"transit":false,"i_lat":-6.185545},{"time":5,"station_name":"Karet","is_transit":false,"i_long":106.816351,"distance":2029,"transit":false,"i_lat":-6.20132,"line":1,"station_id":"KAT"},{"station_name":"Sudirman Baru","distance":471,"is_transit":false,"time":1,"station_id":"SUDB","i_long":106.819881,"transit":false,"line":1,"i_lat":-6.201433}],[{"i_lat":-6.224515,"distance":0,"i_long":106.977657,"transit":false,"is_transit":false,"time":0,"station_name":"Kranji","station_id":"KRI","line":1},{"i_lat":-6.219053,"station_id":"CUK","i_long":106.951283,"station_name":"Cakung","is_transit":false,"distance":3097,"transit":false,"line":0,"time":3},{"is_transit":false,"station_id":"KLDB","i_long":106.939679,"transit":false,"distance":1385,"time":8,"i_lat":-6.217455,"station_name":"Klenderbaru","line":1},{"station_name":"Buaran","i_lat":-6.215568,"i_long":106.922662,"station_id":"BUA","is_transit":false,"transit":false,"distance":1305,"line":0,"time":1},{"i_lat":-6.2135,"i_long":106.899548,"transit":false,"station_name":"Klender","time":2,"distance":3100,"line":1,"is_transit":false,"station_id":"KLD"},{"transit":true,"station_name":"Jatinegara","line":0,"station_id":"JNG","is_transit":true,"time":3,"distance":3395,"i_lat":-6.215091,"i_long":106.86807400000001},{"transit":false,"station_name":"Pondok Jati","station_id":"POK","is_transit":false,"distance":1236,"time":2,"line":11,"i_lat":-6.209188,"i_long":106.861737},{"i_long":106.855437,"station_name":"Kramat","station_id":"KMT","is_transit":false,"distance":1829,"transit":false,"i_lat":-6.193792,"line":11,"time":2},{"station_id":"GST","time":1,"is_transit":false,"i_long":106.850107,"distance":973,"transit":false,"i_lat":-6.185975,"line":11,"station_name":"Gang Sentiong"},{"line":11,"station_id":"PSE","i_long":106.84368,"distance":1567,"station_name":"Pasar Senen","is_transit":false,"transit":false,"time":8,"i_lat":-6.174784},{"is_transit":false,"distance":1436,"i_long":106.839204,"transit":false,"i_lat":-6.161728,"line":11,"station_id":"KMO","station_name":"Kemayoran","time":4},{"time":5,"transit":false,"i_lat":-6.14505,"station_id":"RJW","i_long":106.836569,"line":11,"distance":1901,"station_name":"Rajawali","is_transit":false},{"station_name":"Kampung Bandan","i_long":106.826365,"distance":1444,"time":3,"line":0,"is_transit":true,"i_lat":-6.132549,"station_id":"KPB","transit":true},{"station_id":"JAKK","transit":true,"distance":1364,"is_transit":true,"i_lat":-6.137569,"time":3,"station_name":"Jakarta Kota","i_long":106.812439,"line":0},{"transit":false,"time":4,"distance":1264,"station_id":"JAY","is_transit":false,"line":7,"i_lat":-6.141205,"station_name":"Jayakarta","i_long":106.820901},{"station_name":"Manggabesar","is_transit":false,"i_lat":-6.149769,"line":2,"transit":false,"time":2,"station_id":"MGB","distance":1080,"i_long":106.82482},{"station_id":"SW","line":2,"transit":false,"time":2,"i_lat":-6.160725,"station_name":"Sawah Besar","is_transit":false,"distance":906,"i_long":106.827103},{"transit":false,"line":2,"station_id":"JUA","time":2,"distance":1149,"station_name":"Juanda","i_long":106.828284,"is_transit":false,"i_lat":-6.166716},{"i_lat":-6.186295,"distance":2015,"line":2,"is_transit":false,"station_id":"GDD","time":4,"station_name":"Gondangdia","transit":false,"i_long":106.832183},{"i_long":106.840169,"station_name":"Cikini","is_transit":false,"distance":1750,"transit":false,"station_id":"CKI","time":3,"line":0,"i_lat":-6.198556},{"time":4,"distance":1590,"line":0,"is_transit":true,"i_lat":-6.209883,"i_long":106.84912,"station_name":"Manggarai","transit":true,"station_id":"MRI"},{"station_id":"SUD","station_name":"Sudirman","i_lat":-6.202263,"time":4,"line":1,"distance":3186,"transit":false,"i_long":106.822649,"is_transit":false},{"station_name":"Sudirman Baru","station_id":"SUDB","distance":280,"transit":false,"time":1,"i_long":106.819881,"is_transit":false,"i_lat":-6.201433,"line":1}]]}