{"data":[[{"time":0,"station_name":"Kranji","station_id":"KRI","line":1,"distance":0,"i_lat":-6.224515,"is_transit":false,"transit":false,"i_long":106.977657},{"station_id":"CUK","i_lat":-6.219053,"distance":3097,"transit":false,"station_name":"Cakung","i_long":106.951283,"time":3,"line":1,"is_transit":false},{"i_long":106.939679,"station_id":"KLDB","distance":1385,"i_lat":-6.217455,"line":1,"is_transit":false,"transit":false,"station_name":"Klenderbaru","time":8},{"time":1,"distance":1305,"station_id":"BUA","transit":false,"i_lat":-6.215568,"station_name":"Buaran","is_transit":false,"i_long":106.922662,"line":1},{"is_transit":false,"line":1,"i_lat":-6.2135,"time":2,"i_long":106.899548,"transit":false,"station_name":"Klender","station_id":"KLD","distance":3100},{"transit":false,"time":3,"i_lat":-6.215091,"i_long":106.86807400000001,"line":1,"station_name":"Jatinegara","distance":3395,"is_transit":false,"station_id":"JNG"},{"distance":1377,"station_id":"MTR","i_lat":-6.212485,"is_transit":false,"line":1,"transit":false,"station_name":"Matraman","time":2,"i_long":106.858896},{"i_lat":-6.209883,"station_id":"MRI","is_transit":true,"i_long":106.84912,"line":2,"station_name":"Manggarai","distance":1275,"transit":true,"time":2},{"time":4,"i_lat":-6.226659,"station_name":"Tebet","is_transit":false,"line":2,"station_id":"TEB","i_long":106.857948,"transit":false,"distance":2610},{"station_name":"Cawang","time":2,"distance":1230,"station_id":"CW","i_lat":-6.242512,"i_long":106.856607,"is_transit":false,"transit":false,"line":2},{"i_long":106.85449,"is_transit":false,"station_id":"DRN","station_name":"Duren Kalibata","time":3,"i_lat":-6.255332,"line":2,"distance":1546,"transit":false},{"line":2,"station_id":"PSMB","distance":824,"station_name":"Pasar Minggu Baru","is_transit":false,"transit":false,"time":2,"i_long":106.851577,"i_lat":-6.263214},{"transit":false,"line":2,"is_transit":false,"station_id":"PSM","i_lat":-6.2842400000000005,"station_name":"Pasar Minggu","distance":2380,"i_long":106.843999,"time":2},{"station_name":"Tanjung Barat","i_long":106.838896,"station_id":"TNT","time":4,"distance":2820,"i_lat":-6.3080680000000005,"is_transit":false,"transit":false,"line":2},{"i_long":106.832616,"station_id":"LNA","line":2,"is_transit":false,"transit":false,"i_lat":-6.330363,"distance":2671,"time":3,"station_name":"Lenteng Agung"},{"line":2,"is_transit":false,"time":2,"i_lat":-6.339291,"station_name":"Univ. Pancasila","transit":false,"station_id":"UP","distance":1029,"i_long":106.834175},{"i_long":106.831474,"transit":false,"time":3,"station_name":"Univ. Indonesia","line":2,"i_lat":-6.360749,"distance":2264,"station_id":"UI","is_transit":false},{"transit":false,"distance":1109,"i_lat":-6.369073,"station_name":"Pondok Cina","i_long":106.831114,"line":2,"is_transit":false,"station_id":"POC","time":2},{"station_name":"Depokbaru","is_transit":false,"station_id":"DPB","distance":2727,"transit":false,"time":4,"i_lat":-6.391065,"i_long":106.819451,"line":2},{"line":2,"transit":false,"i_lat":-6.405256,"station_id":"DP","is_transit":false,"distance":1584,"time":3,"station_name":"Depok","i_long":106.816926},{"station_id":"CTA","station_name":"Citayam","transit":true,"i_lat":-6.448811,"i_long":106.800298,"line":2,"distance":5084,"is_transit":true,"time":6},{"line":21,"is_transit":false,"station_id":"PDRG","time":0,"distance":0,"station_name":"Pondok Rajeg","i_lat":-6.460735,"transit":false,"i_long":106.824374},{"station_id":"CBN","distance":0,"line":21,"is_transit":false,"station_name":"Cibinong","transit":false,"i_lat":-6.46424,"i_long":106.851978,"time":0}],[{"i_lat":-6.224515,"station_name":"Kranji","station_id":"KRI","distance":0,"i_long":106.977657,"time":0,"is_transit":false,"transit":false,"line":1},{"distance":3097,"transit":false,"i_lat":-6.219053,"station_id":"CUK","station_name":"Cakung","line":1,"is_transit":false,"time":3,"i_long":106.951283},{"distance":1385,"transit":false,"i_lat":-6.217455,"i_long":106.939679,"station_name":"Klenderbaru","is_transit":false,"station_id":"KLDB","time":8,"line":1},{"i_lat":-6.215568,"is_transit":false,"transit":false,"time":1,"line":1,"station_name":"Buaran","distance":1305,"station_id":"BUA","i_long":106.922662},{"distance":3100,"is_transit":false,"time":2,"station_name":"Klender","i_lat":-6.2135,"i_long":106.899548,"transit":false,"line":1,"station_id":"KLD"},{"station_id":"JNG","is_transit":true,"transit":true,"station_name":"Jatinegara","time":3,"distance":3395,"i_lat":-6.215091,"i_long":106.86807400000001,"line":1},{"transit":false,"station_id":"POK","is_transit":false,"distance":1236,"i_lat":-6.209188,"time":2,"station_name":"Pondok Jati","i_long":106.861737,"line":11},{"transit":false,"is_transit":false,"station_id":"KMT","i_lat":-6.193792,"line":11,"station_name":"Kramat","i_long":106.855437,"distance":1829,"time":2},{"distance":973,"station_name":"Gang Sentiong","time":1,"i_long":106.850107,"is_transit":false,"transit":false,"line":11,"station_id":"GST","i_lat":-6.185975},{"distance":1567,"station_name":"Pasar Senen","line":11,"i_long":106.84368,"transit":false,"is_transit":false,"time":8,"station_id":"PSE","i_lat":-6.174784},{"is_transit":false,"station_id":"KMO","distance":1436,"line":11,"transit":false,"time":4,"station_name":"Kemayoran","i_long":106.839204,"i_lat":-6.161728},{"time":5,"distance":1901,"transit":false,"is_transit":false,"i_lat":-6.14505,"i_long":106.836569,"station_id":"RJW","station_name":"Rajawali","line":11},{"time":3,"station_id":"KPB","i_long":106.826365,"station_name":"Kampung Bandan","distance":1444,"i_lat":-6.132549,"line":4,"is_transit":true,"transit":true},{"station_id":"AK","station_name":"Angke","i_long":106.79867,"transit":false,"time":9,"i_lat":-6.144674,"is_transit":false,"distance":4102,"line":1},{"distance":1230,"time":4,"i_lat":-6.155215,"station_name":"Duri","transit":false,"i_long":106.800832,"line":1,"is_transit":false,"station_id":"DU"},{"station_name":"Tanah Abang","time":8,"transit":false,"is_transit":false,"i_long":106.811091,"line":1,"distance":3632,"station_id":"THB","i_lat":-6.185545},{"i_lat":-6.20132,"line":1,"distance":2029,"transit":false,"station_id":"KAT","i_long":106.816351,"is_transit":false,"station_name":"Karet","time":5},{"transit":false,"time":1,"i_lat":-6.201433,"line":1,"station_id":"SUDB","is_transit":false,"i_long":106.819881,"station_name":"Sudirman Baru","distance":471},{"time":1,"station_name":"Sudirman","transit":false,"line":1,"distance":280,"station_id":"SUD","i_long":106.822649,"is_transit":false,"i_lat":-6.202263},{"line":2,"is_transit":true,"station_id":"MRI","time":4,"distance":3186,"i_lat":-6.209883,"i_long":106.84912,"station_name":"Manggarai","transit":true},{"station_id":"TEB","is_transit":false,"distance":2610,"i_long":106.857948,"transit":false,"line":2,"time":4,"station_name":"Tebet","i_lat":-6.226659},{"station_name":"Cawang","line":2,"station_id":"CW","i_long":106.856607,"transit":false,"distance":1230,"is_transit":false,"time":2,"i_lat":-6.242512},{"station_name":"Duren Kalibata","station_id":"DRN","time":3,"i_lat":-6.255332,"i_long":106.85449,"distance":1546,"line":2,"transit":false,"is_transit":false},{"is_transit":false,"distance":824,"line":2,"station_id":"PSMB","station_name":"Pasar Minggu Baru","time":2,"transit":false,"i_long":106.851577,"i_lat":-6.263214},{"station_name":"Pasar Minggu","transit":false,"line":2,"station_id":"PSM","i_lat":-6.2842400000000005,"i_long":106.843999,"is_transit":false,"distance":2380,"time":2},{"i_lat":-6.3080680000000005,"line":2,"i_long":106.838896,"transit":false,"station_id":"TNT","time":4,"station_name":"Tanjung Barat","is_transit":false,"distance":2820},{"transit":false,"distance":2671,"line":2,"i_lat":-6.330363,"i_long":106.832616,"is_transit":false,"time":3,"station_id":"LNA","station_name":"Lenteng Agung"},{"is_transit":false,"transit":false,"time":2,"i_long":106.834175,"line":2,"distance":1029,"station_name":"Univ. Pancasila","i_lat":-6.339291,"station_id":"UP"},{"transit":false,"i_lat":-6.360749,"time":3,"station_name":"Univ. Indonesia","i_long":106.831474,"is_transit":false,"distance":2264,"station_id":"UI","line":2},{"i_long":106.831114,"distance":1109,"line":2,"is_transit":false,"station_id":"POC","transit":false,"time":2,"station_name":"Pondok Cina","i_lat":-6.369073},{"station_name":"Depokbaru","i_long":106.819451,"i_lat":-6.391065,"distance":2727,"transit":false,"station_id":"DPB","line":2,"time":4,"is_transit":false},{"is_transit":false,"distance":1584,"line":2,"i_lat":-6.405256,"transit":false,"station_name":"Depok","station_id":"DP","time":3,"i_long":106.816926},{"is_transit":true,"station_name":"Citayam","distance":5084,"transit":true,"station_id":"CTA","time":6,"i_lat":-6.448811,"line":2,"i_long":106.800298},{"distance":0,"i_lat":-6.460735,"i_long":106.824374,"line":21,"station_id":"PDRG","station_name":"Pondok Rajeg","is_transit":false,"time":0,"transit":false},{"distance":0,"station_id":"CBN","is_transit":false,"time":0,"i_lat":-6.46424,"station_name":"Cibinong","line":21,"transit":false,"i_long":106.851978}],[{"i_lat":-6.224515,"i_long":106.977657,"time":0,"station_name":"Kranji","station_id":"KRI","transit":false,"line":1,"is_transit":false,"distance":0},{"i_long":106.951283,"line":1,"station_name":"Cakung","is_transit":false,"i_lat":-6.219053,"transit":false,"distance":3097,"station_id":"CUK","time":3},{"line":1,"transit":false,"station_id":"KLDB","is_transit":false,"time":8,"distance":1385,"i_long":106.939679,"i_lat":-6.217455,"station_name":"Klenderbaru"},{"transit":false,"distance":1305,"is_transit":false,"i_lat":-6.215568,"i_long":106.922662,"line":1,"station_name":"Buaran","station_id":"BUA","time":1},{"distance":3100,"line":1,"i_lat":-6.2135,"is_transit":false,"station_id":"KLD","i_long":106.899548,"time":2,"transit":false,"station_name":"Klender"},{"distance":3395,"station_name":"Jatinegara","i_long":106.86807400000001,"time":3,"i_lat":-6.215091,"transit":true,"line":1,"station_id":"JNG","is_transit":true},{"i_long":106.861737,"station_id":"POK","time":2,"distance":1236,"i_lat":-6.209188,"line":11,"station_name":"Pondok Jati","transit":false,"is_transit":false},{"station_name":"Kramat","is_transit":false,"i_lat":-6.193792,"transit":false,"station_id":"KMT","line":11,"time":2,"distance":1829,"i_long":106.855437},{"transit":false,"i_long":106.850107,"line":11,"station_name":"Gang Sentiong","is_transit":false,"station_id":"GST","i_lat":-6.185975,"distance":973,"time":1},{"station_name":"Pasar Senen","time":8,"i_lat":-6.174784,"transit":false,"is_transit":false,"i_long":106.84368,"station_id":"PSE","distance":1567,"line":11},{"transit":false,"distance":1436,"i_lat":-6.161728,"station_name":"Kemayoran","time":4,"station_id":"KMO","is_transit":false,"i_long":106.839204,"line":11},{"line":11,"station_id":"RJW","transit":false,"i_long":106.836569,"station_name":"Rajawali","time":5,"is_transit":false,"distance":1901,"i_lat":-6.14505},{"is_transit":true,"distance":1444,"line":4,"station_id":"KPB","transit":true,"i_long":106.826365,"station_name":"Kampung Bandan","i_lat":-6.132549,"time":3},{"station_name":"Jakarta Kota","i_lat":-6.137569,"i_long":106.812439,"distance":1364,"time":3,"transit":true,"station_id":"JAKK","line":2,"is_transit":true},{"transit":false,"station_name":"Jayakarta","distance":1264,"i_long":106.820901,"time":4,"line":2,"i_lat":-6.141205,"station_id":"JAY","is_transit":false},{"i_long":106.82482,"station_name":"Manggabesar","time":2,"distance":1080,"i_lat":-6.149769,"line":2,"transit":false,"station_id":"MGB","is_transit":false},{"station_id":"SW","i_long":106.827103,"time":2,"line":2,"station_name":"Sawah Besar","is_transit":false,"i_lat":-6.160725,"distance":906,"transit":false},{"i_lat":-6.166716,"station_name":"Juanda","i_long":106.828284,"transit":false,"is_transit":false,"line":2,"distance":1149,"time":2,"station_id":"JUA"},{"is_transit":false,"distance":2015,"transit":false,"time":4,"i_long":106.832183,"i_lat":-6.186295,"station_id":"GDD","station_name":"Gondangdia","line":2},{"i_lat":-6.198556,"station_name":"Cikini","station_id":"CKI","is_transit":false,"distance":1750,"i_long":106.840169,"line":2,"transit":false,"time":3},{"distance":1590,"i_long":106.84912,"is_transit":false,"station_name":"Manggarai","station_id":"MRI","i_lat":-6.209883,"line":2,"transit":false,"time":4},{"station_name":"Tebet","time":4,"i_lat":-6.226659,"i_long":106.857948,"station_id":"TEB","distance":2610,"is_transit":false,"line":2,"transit":false},{"transit":false,"i_long":106.856607,"is_transit":false,"station_name":"Cawang","station_id":"CW","distance":1230,"i_lat":-6.242512,"time":2,"line":2},{"station_name":"Duren Kalibata","station_id":"DRN","line":2,"transit":false,"i_lat":-6.255332,"is_transit":false,"i_long":106.85449,"time":3,"distance":1546},{"i_lat":-6.263214,"time":2,"station_id":"PSMB","station_name":"Pasar Minggu Baru","distance":824,"transit":false,"is_transit":false,"i_long":106.851577,"line":2},{"i_long":106.843999,"station_id":"PSM","station_name":"Pasar Minggu","is_transit":false,"distance":2380,"line":2,"time":2,"i_lat":-6.2842400000000005,"transit":false},{"station_name":"Tanjung Barat","i_long":106.838896,"transit":false,"time":4,"i_lat":-6.3080680000000005,"station_id":"TNT","line":2,"is_transit":false,"distance":2820},{"time":3,"station_name":"Lenteng Agung","i_long":106.832616,"transit":false,"is_transit":false,"distance":2671,"line":2,"i_lat":-6.330363,"station_id":"LNA"},{"transit":false,"distance":1029,"station_name":"Univ. Pancasila","station_id":"UP","line":2,"i_long":106.834175,"is_transit":false,"i_lat":-6.339291,"time":2},{"time":3,"line":2,"i_long":106.831474,"distance":2264,"transit":false,"i_lat":-6.360749,"station_name":"Univ. Indonesia","is_transit":false,"station_id":"UI"},{"transit":false,"station_name":"Pondok Cina","time":2,"station_id":"POC","distance":1109,"i_long":106.831114,"i_lat":-6.369073,"is_transit":false,"line":2},{"distance":2727,"is_transit":false,"transit":false,"station_id":"DPB","i_lat":-6.391065,"i_long":106.819451,"time":4,"station_name":"Depokbaru","line":2},{"transit":false,"i_lat":-6.405256,"station_id":"DP","line":2,"is_transit":false,"i_long":106.816926,"station_name":"Depok","time":3,"distance":1584},{"transit":true,"is_transit":true,"line":2,"i_lat":-6.448811,"distance":5084,"station_name":"Citayam","time":6,"station_id":"CTA","i_long":106.800298},{"line":21,"distance":0,"station_name":"Pondok Rajeg","is_transit":false,"i_lat":-6.460735,"time":0,"transit":false,"station_id":"PDRG","i_long":106.824374},{"is_transit":false,"i_lat":-6.46424,"line":21,"station_id":"CBN","i_long":106.851978,"time":0,"transit":false,"station_name":"Cibinong","distance":0}]]}