{"data":[[{"transit":false,"station_id":"KRI","i_lat":-6.224515,"station_name":"Kranji","time":0,"i_long":106.977657,"distance":0,"line":1,"is_transit":false},{"station_name":"Cakung","i_lat":-6.219053,"is_transit":false,"i_long":106.951283,"line":1,"distance":3097,"station_id":"CUK","transit":false,"time":3},{"station_id":"KLDB","line":1,"i_long":106.939679,"station_name":"Klenderbaru","is_transit":false,"time":8,"distance":1385,"i_lat":-6.217455,"transit":false},{"time":1,"is_transit":false,"station_id":"BUA","line":1,"i_long":106.922662,"distance":1305,"transit":false,"station_name":"Buaran","i_lat":-6.215568},{"is_transit":false,"i_long":106.899548,"time":2,"distance":3100,"line":1,"transit":false,"station_id":"KLD","i_lat":-6.2135,"station_name":"Klender"},{"time":3,"transit":false,"station_id":"JNG","station_name":"Jatinegara","is_transit":false,"distance":3395,"i_long":106.86807400000001,"line":1,"i_lat":-6.215091},{"i_long":106.858896,"line":1,"time":2,"station_id":"MTR","i_lat":-6.212485,"is_transit":false,"transit":false,"station_name":"Matraman","distance":1377},{"line":2,"transit":false,"station_name":"Manggarai","is_transit":false,"station_id":"MRI","i_long":106.84912,"distance":1275,"time":2,"i_lat":-6.209883},{"time":4,"i_long":106.822649,"line":1,"transit":false,"station_id":"SUD","distance":3186,"i_lat":-6.202263,"station_name":"Sudirman","is_transit":false},{"station_id":"SUDB","is_transit":false,"time":1,"transit":false,"distance":280,"i_long":106.819881,"station_name":"Sudirman Baru","line":1,"i_lat":-6.201433},{"is_transit":false,"transit":false,"time":1,"i_lat":-6.20132,"i_long":106.816351,"distance":471,"station_name":"Karet","station_id":"KAT","line":1},{"distance":2029,"transit":true,"i_long":106.811091,"line":1,"station_name":"Tanah Abang","is_transit":true,"time":5,"i_lat":-6.185545,"station_id":"THB"},{"i_long":106.79689,"transit":false,"time":6,"distance":3191,"station_id":"PLM","i_lat":-6.207404,"station_name":"Palmerah","is_transit":false,"line":6},{"distance":3737,"transit":false,"station_name":"Kebayoran","time":7,"station_id":"KBY","is_transit":false,"i_long":106.780334,"line":6,"i_lat":-6.237242},{"time":8,"distance":6218,"station_id":"PDJ","i_long":106.74273,"transit":false,"station_name":"Pondokranji","line":6,"i_lat":-6.276362,"is_transit":false},{"i_long":106.728916,"i_lat":-6.288927,"transit":false,"station_id":"JMU","line":6,"time":3,"is_transit":false,"distance":2179,"station_name":"Jurangmangu"},{"time":4,"distance":1994,"line":6,"station_name":"Sudimara","transit":false,"station_id":"SDM","i_long":106.712277,"is_transit":false,"i_lat":-6.296963},{"i_long":106.675475,"is_transit":false,"i_lat":-6.314823,"line":6,"station_id":"RU","transit":false,"distance":4566,"station_name":"Rawa Buntu","time":6},{"time":4,"line":6,"station_name":"Serpong","station_id":"SRP","distance":2413,"transit":false,"i_lat":-6.319871,"i_long":106.66566,"is_transit":false},{"i_lat":-6.32484,"station_name":"Cisauk","transit":false,"is_transit":false,"distance":1784,"time":4,"station_id":"CSK","i_long":106.640411,"line":3},{"is_transit":false,"transit":false,"time":4,"distance":2519,"i_lat":-6.329547,"i_long":106.617853,"line":3,"station_name":"Cicayur","station_id":"CC"},{"i_lat":-6.3441410000000005,"is_transit":false,"time":8,"transit":false,"line":6,"i_long":106.568863,"station_name":"Parung Panjang","distance":5968,"station_id":"PRP"},{"distance":7025,"i_long":106.508482,"time":9,"transit":false,"station_name":"Cilejit","i_lat":-6.354349,"station_id":"CJT","is_transit":false,"line":3},{"time":6,"is_transit":false,"i_long":106.491338,"transit":false,"station_name":"Daru","station_id":"DAR","line":0,"i_lat":-6.338021,"distance":2675},{"station_name":"Tenjo","distance":3902,"i_lat":-6.327251,"line":6,"i_long":106.460812,"is_transit":false,"transit":false,"station_id":"TEJ","time":5},{"transit":false,"distance":2974,"i_lat":-6.328533,"line":6,"station_name":"Tigaraksa","time":5,"station_id":"TGS","is_transit":false,"i_long":106.425991}],[{"i_lat":-6.224515,"time":0,"is_transit":false,"station_id":"KRI","distance":0,"transit":false,"i_long":106.977657,"line":1,"station_name":"Kranji"},{"i_long":106.951283,"i_lat":-6.219053,"line":1,"station_id":"CUK","is_transit":false,"time":3,"transit":false,"distance":3097,"station_name":"Cakung"},{"line":1,"transit":false,"i_lat":-6.217455,"station_id":"KLDB","time":8,"distance":1385,"i_long":106.939679,"station_name":"Klenderbaru","is_transit":false},{"transit":false,"distance":1305,"i_lat":-6.215568,"i_long":106.922662,"line":1,"is_transit":false,"station_id":"BUA","station_name":"Buaran","time":1},{"transit":false,"station_name":"Klender","i_lat":-6.2135,"distance":3100,"i_long":106.899548,"station_id":"KLD","time":2,"line":1,"is_transit":false},{"line":1,"station_name":"Jatinegara","is_transit":true,"station_id":"JNG","transit":true,"distance":3395,"i_long":106.86807400000001,"time":3,"i_lat":-6.215091},{"i_long":106.861737,"is_transit":false,"station_id":"POK","line":11,"transit":false,"distance":1236,"station_name":"Pondok Jati","i_lat":-6.209188,"time":2},{"is_transit":false,"transit":false,"i_lat":-6.193792,"station_name":"Kramat","time":2,"line":11,"distance":1829,"i_long":106.855437,"station_id":"KMT"},{"station_name":"Gang Sentiong","i_long":106.850107,"i_lat":-6.185975,"transit":false,"line":11,"is_transit":false,"time":1,"station_id":"GST","distance":973},{"station_id":"PSE","is_transit":false,"i_long":106.84368,"transit":false,"line":11,"distance":1567,"station_name":"Pasar Senen","time":8,"i_lat":-6.174784},{"is_transit":false,"i_lat":-6.161728,"i_long":106.839204,"station_id":"KMO","distance":1436,"line":11,"time":4,"transit":false,"station_name":"Kemayoran"},{"station_name":"Rajawali","i_lat":-6.14505,"station_id":"RJW","is_transit":false,"time":5,"transit":false,"distance":1901,"line":11,"i_long":106.836569},{"i_long":106.826365,"is_transit":true,"i_lat":-6.132549,"line":4,"time":3,"distance":1444,"transit":true,"station_name":"Kampung Bandan","station_id":"KPB"},{"i_lat":-6.144674,"transit":false,"is_transit":false,"station_name":"Angke","i_long":106.79867,"distance":4102,"time":9,"line":1,"station_id":"AK"},{"station_name":"Duri","i_lat":-6.155215,"is_transit":false,"station_id":"DU","transit":false,"time":4,"distance":1230,"i_long":106.800832,"line":1},{"is_transit":true,"distance":3632,"i_long":106.811091,"line":1,"time":8,"i_lat":-6.185545,"station_name":"Tanah Abang","transit":true,"station_id":"THB"},{"distance":3191,"transit":false,"time":6,"i_lat":-6.207404,"i_long":106.79689,"line":6,"station_name":"Palmerah","station_id":"PLM","is_transit":false},{"station_id":"KBY","i_long":106.780334,"time":7,"station_name":"Kebayoran","transit":false,"i_lat":-6.237242,"distance":3737,"line":6,"is_transit":false},{"i_lat":-6.276362,"station_id":"PDJ","line":6,"station_name":"Pondokranji","distance":6218,"is_transit":false,"transit":false,"time":8,"i_long":106.74273},{"is_transit":false,"transit":false,"i_long":106.728916,"time":3,"line":6,"i_lat":-6.288927,"station_name":"Jurangmangu","distance":2179,"station_id":"JMU"},{"is_transit":false,"line":6,"station_name":"Sudimara","distance":1994,"i_lat":-6.296963,"station_id":"SDM","time":4,"i_long":106.712277,"transit":false},{"transit":false,"station_id":"RU","is_transit":false,"i_long":106.675475,"station_name":"Rawa Buntu","time":6,"distance":4566,"i_lat":-6.314823,"line":6},{"line":6,"station_id":"SRP","time":4,"i_lat":-6.319871,"station_name":"Serpong","transit":false,"is_transit":false,"distance":2413,"i_long":106.66566},{"station_id":"CSK","distance":1784,"i_lat":-6.32484,"transit":false,"station_name":"Cisauk","time":4,"line":3,"is_transit":false,"i_long":106.640411},{"transit":false,"time":4,"station_id":"CC","is_transit":false,"i_lat":-6.329547,"i_long":106.617853,"station_name":"Cicayur","line":3,"distance":2519},{"distance":5968,"i_long":106.568863,"transit":false,"is_transit":false,"i_lat":-6.3441410000000005,"station_id":"PRP","station_name":"Parung Panjang","time":8,"line":6},{"station_name":"Cilejit","transit":false,"is_transit":false,"distance":7025,"i_lat":-6.354349,"station_id":"CJT","time":9,"i_long":106.508482,"line":3},{"is_transit":false,"time":6,"distance":2675,"station_name":"Daru","station_id":"DAR","i_lat":-6.338021,"i_long":106.491338,"line":0,"transit":false},{"distance":3902,"transit":false,"i_lat":-6.327251,"time":5,"i_long":106.460812,"station_id":"TEJ","station_name":"Tenjo","line":6,"is_transit":false},{"i_lat":-6.328533,"station_id":"TGS","i_long":106.425991,"line":6,"station_name":"Tigaraksa","distance":2974,"transit":false,"time":5,"is_transit":false}],[{"i_long":106.977657,"distance":0,"time":0,"i_lat":-6.224515,"line":1,"transit":false,"is_transit":false,"station_name":"Kranji","station_id":"KRI"},{"time":3,"is_transit":false,"distance":3097,"transit":false,"line":1,"station_id":"CUK","i_long":106.951283,"i_lat":-6.219053,"station_name":"Cakung"},{"transit":false,"station_id":"KLDB","time":8,"i_lat":-6.217455,"station_name":"Klenderbaru","line":1,"distance":1385,"i_long":106.939679,"is_transit":false},{"is_transit":false,"distance":1305,"i_lat":-6.215568,"i_long":106.922662,"line":1,"station_name":"Buaran","station_id":"BUA","transit":false,"time":1},{"is_transit":false,"transit":false,"station_id":"KLD","time":2,"i_long":106.899548,"line":1,"station_name":"Klender","distance":3100,"i_lat":-6.2135},{"station_name":"Jatinegara","distance":3395,"is_transit":false,"i_long":106.86807400000001,"i_lat":-6.215091,"time":3,"line":1,"station_id":"JNG","transit":false},{"transit":false,"station_name":"Matraman","i_long":106.858896,"station_id":"MTR","distance":1377,"time":2,"i_lat":-6.212485,"line":1,"is_transit":false},{"station_name":"Manggarai","i_lat":-6.209883,"transit":true,"time":2,"station_id":"MRI","distance":1275,"i_long":106.84912,"line":2,"is_transit":true},{"is_transit":false,"time":4,"i_long":106.840169,"distance":1590,"transit":false,"station_name":"Cikini","i_lat":-6.198556,"line":2,"station_id":"CKI"},{"i_long":106.832183,"line":2,"i_lat":-6.186295,"is_transit":false,"transit":false,"distance":1750,"station_id":"GDD","time":3,"station_name":"Gondangdia"},{"distance":2015,"station_id":"JUA","transit":false,"time":4,"i_lat":-6.166716,"i_long":106.828284,"station_name":"Juanda","line":2,"is_transit":false},{"transit":false,"station_id":"SW","i_long":106.827103,"station_name":"Sawah Besar","distance":1149,"i_lat":-6.160725,"time":2,"is_transit":false,"line":2},{"line":2,"station_name":"Manggabesar","station_id":"MGB","transit":false,"is_transit":false,"distance":906,"i_long":106.82482,"i_lat":-6.149769,"time":2},{"transit":false,"station_id":"JAY","is_transit":false,"distance":1080,"line":2,"time":2,"i_long":106.820901,"station_name":"Jayakarta","i_lat":-6.141205},{"transit":true,"time":4,"station_name":"Jakarta Kota","station_id":"JAKK","is_transit":true,"distance":1264,"i_lat":-6.137569,"line":2,"i_long":106.812439},{"station_id":"KPB","line":4,"transit":true,"i_lat":-6.132549,"i_long":106.826365,"distance":1364,"station_name":"Kampung Bandan","time":3,"is_transit":true},{"i_lat":-6.144674,"time":9,"transit":false,"station_name":"Angke","station_id":"AK","distance":4102,"line":1,"is_transit":false,"i_long":106.79867},{"is_transit":false,"i_lat":-6.155215,"station_id":"DU","i_long":106.800832,"line":1,"time":4,"station_name":"Duri","transit":false,"distance":1230},{"time":8,"line":1,"i_long":106.811091,"i_lat":-6.185545,"station_name":"Tanah Abang","is_transit":true,"transit":true,"distance":3632,"station_id":"THB"},{"distance":3191,"station_name":"Palmerah","line":6,"station_id":"PLM","i_long":106.79689,"transit":false,"is_transit":false,"time":6,"i_lat":-6.207404},{"station_id":"KBY","is_transit":false,"station_name":"Kebayoran","i_long":106.780334,"line":6,"transit":false,"time":7,"i_lat":-6.237242,"distance":3737},{"i_lat":-6.276362,"line":6,"i_long":106.74273,"station_id":"PDJ","station_name":"Pondokranji","transit":false,"is_transit":false,"time":8,"distance":6218},{"line":6,"i_long":106.728916,"i_lat":-6.288927,"station_id":"JMU","is_transit":false,"time":3,"station_name":"Jurangmangu","distance":2179,"transit":false},{"time":4,"distance":1994,"i_long":106.712277,"transit":false,"is_transit":false,"station_name":"Sudimara","line":6,"i_lat":-6.296963,"station_id":"SDM"},{"transit":false,"station_id":"RU","line":6,"distance":4566,"is_transit":false,"i_lat":-6.314823,"station_name":"Rawa Buntu","i_long":106.675475,"time":6},{"i_lat":-6.319871,"is_transit":false,"station_name":"Serpong","station_id":"SRP","time":4,"distance":2413,"i_long":106.66566,"line":6,"transit":false},{"line":3,"i_lat":-6.32484,"station_name":"Cisauk","i_long":106.640411,"time":4,"transit":false,"station_id":"CSK","distance":1784,"is_transit":false},{"station_name":"Cicayur","distance":2519,"i_long":106.617853,"transit":false,"is_transit":false,"station_id":"CC","i_lat":-6.329547,"time":4,"line":3},{"station_id":"PRP","distance":5968,"i_lat":-6.3441410000000005,"line":6,"station_name":"Parung Panjang","is_transit":false,"i_long":106.568863,"time":8,"transit":false},{"i_lat":-6.354349,"distance":7025,"i_long":106.508482,"time":9,"station_name":"Cilejit","is_transit":false,"line":3,"station_id":"CJT","transit":false},{"line":0,"transit":false,"i_lat":-6.338021,"station_name":"Daru","station_id":"DAR","time":6,"distance":2675,"i_long":106.491338,"is_transit":false},{"i_lat":-6.327251,"is_transit":false,"i_long":106.460812,"line":6,"time":5,"distance":3902,"transit":false,"station_name":"Tenjo","station_id":"TEJ"},{"transit":false,"line":6,"distance":2974,"i_lat":-6.328533,"i_long":106.425991,"station_name":"Tigaraksa","station_id":"TGS","is_transit":false,"time":5}],[{"transit":false,"is_transit":false,"i_lat":-6.224515,"distance":0,"time":0,"line":1,"i_long":106.977657,"station_id":"KRI","station_name":"Kranji"},{"station_name":"Cakung","time":3,"transit":false,"line":1,"distance":3097,"i_long":106.951283,"is_transit":false,"i_lat":-6.219053,"station_id":"CUK"},{"time":8,"station_name":"Klenderbaru","is_transit":false,"i_lat":-6.217455,"line":1,"station_id":"KLDB","transit":false,"i_long":106.939679,"distance":1385},{"station_name":"Buaran","distance":1305,"i_lat":-6.215568,"line":1,"time":1,"i_long":106.922662,"is_transit":false,"transit":false,"station_id":"BUA"},{"station_name":"Klender","distance":3100,"i_long":106.899548,"line":1,"station_id":"KLD","transit":false,"time":2,"is_transit":false,"i_lat":-6.2135},{"station_id":"JNG","distance":3395,"i_long":106.86807400000001,"station_name":"Jatinegara","is_transit":true,"line":1,"transit":true,"time":3,"i_lat":-6.215091},{"station_id":"POK","station_name":"Pondok Jati","is_transit":false,"distance":1236,"i_lat":-6.209188,"transit":false,"i_long":106.861737,"time":2,"line":11},{"line":11,"transit":false,"time":2,"station_id":"KMT","is_transit":false,"distance":1829,"i_lat":-6.193792,"station_name":"Kramat","i_long":106.855437},{"distance":973,"station_name":"Gang Sentiong","transit":false,"station_id":"GST","time":1,"line":11,"is_transit":false,"i_lat":-6.185975,"i_long":106.850107},{"time":8,"i_long":106.84368,"transit":false,"i_lat":-6.174784,"distance":1567,"line":11,"station_id":"PSE","station_name":"Pasar Senen","is_transit":false},{"is_transit":false,"i_long":106.839204,"station_name":"Kemayoran","i_lat":-6.161728,"station_id":"KMO","time":4,"distance":1436,"transit":false,"line":11},{"i_long":106.836569,"time":5,"distance":1901,"transit":false,"is_transit":false,"i_lat":-6.14505,"station_id":"RJW","station_name":"Rajawali","line":11},{"time":3,"distance":1444,"station_name":"Kampung Bandan","is_transit":true,"i_lat":-6.132549,"line":4,"station_id":"KPB","transit":true,"i_long":106.826365},{"i_lat":-6.137569,"transit":true,"station_name":"Jakarta Kota","distance":1364,"is_transit":true,"line":2,"time":3,"station_id":"JAKK","i_long":106.812439},{"time":4,"i_long":106.820901,"line":2,"distance":1264,"station_name":"Jayakarta","i_lat":-6.141205,"is_transit":false,"station_id":"JAY","transit":false},{"station_id":"MGB","i_lat":-6.149769,"time":2,"station_name":"Manggabesar","transit":false,"line":2,"i_long":106.82482,"distance":1080,"is_transit":false},{"transit":false,"station_id":"SW","is_transit":false,"station_name":"Sawah Besar","time":2,"distance":906,"i_lat":-6.160725,"i_long":106.827103,"line":2},{"i_long":106.828284,"station_name":"Juanda","station_id":"JUA","time":2,"distance":1149,"i_lat":-6.166716,"line":2,"is_transit":false,"transit":false},{"i_lat":-6.186295,"i_long":106.832183,"line":2,"transit":false,"station_name":"Gondangdia","station_id":"GDD","is_transit":false,"time":4,"distance":2015},{"time":3,"station_id":"CKI","i_lat":-6.198556,"i_long":106.840169,"transit":false,"distance":1750,"is_transit":false,"station_name":"Cikini","line":2},{"distance":1590,"i_long":106.84912,"i_lat":-6.209883,"transit":true,"station_id":"MRI","time":4,"line":2,"is_transit":true,"station_name":"Manggarai"},{"line":1,"time":4,"station_name":"Sudirman","is_transit":false,"station_id":"SUD","i_long":106.822649,"transit":false,"distance":3186,"i_lat":-6.202263},{"is_transit":false,"transit":false,"time":1,"distance":280,"i_lat":-6.201433,"station_name":"Sudirman Baru","line":1,"station_id":"SUDB","i_long":106.819881},{"station_id":"KAT","station_name":"Karet","i_lat":-6.20132,"distance":471,"i_long":106.816351,"time":1,"transit":false,"is_transit":false,"line":1},{"transit":true,"i_lat":-6.185545,"line":1,"station_name":"Tanah Abang","station_id":"THB","is_transit":true,"i_long":106.811091,"time":5,"distance":2029},{"station_name":"Palmerah","i_lat":-6.207404,"station_id":"PLM","transit":false,"is_transit":false,"distance":3191,"line":6,"time":6,"i_long":106.79689},{"transit":false,"station_id":"KBY","line":6,"distance":3737,"is_transit":false,"i_long":106.780334,"station_name":"Kebayoran","i_lat":-6.237242,"time":7},{"i_long":106.74273,"distance":6218,"station_name":"Pondokranji","time":8,"line":6,"is_transit":false,"i_lat":-6.276362,"transit":false,"station_id":"PDJ"},{"i_lat":-6.288927,"station_name":"Jurangmangu","is_transit":false,"station_id":"JMU","line":6,"transit":false,"time":3,"distance":2179,"i_long":106.728916},{"distance":1994,"transit":false,"station_name":"Sudimara","time":4,"is_transit":false,"i_long":106.712277,"station_id":"SDM","i_lat":-6.296963,"line":6},{"line":6,"i_lat":-6.314823,"is_transit":false,"station_name":"Rawa Buntu","i_long":106.675475,"time":6,"distance":4566,"station_id":"RU","transit":false},{"transit":false,"station_id":"SRP","i_long":106.66566,"is_transit":false,"i_lat":-6.319871,"distance":2413,"station_name":"Serpong","time":4,"line":6},{"station_id":"CSK","station_name":"Cisauk","transit":false,"line":3,"i_long":106.640411,"distance":1784,"is_transit":false,"time":4,"i_lat":-6.32484},{"line":3,"distance":2519,"station_name":"Cicayur","time":4,"transit":false,"i_lat":-6.329547,"i_long":106.617853,"station_id":"CC","is_transit":false},{"i_lat":-6.3441410000000005,"line":6,"i_long":106.568863,"time":8,"distance":5968,"station_id":"PRP","station_name":"Parung Panjang","is_transit":false,"transit":false},{"station_id":"CJT","time":9,"station_name":"Cilejit","i_long":106.508482,"transit":false,"line":3,"is_transit":false,"distance":7025,"i_lat":-6.354349},{"transit":false,"station_name":"Daru","line":0,"i_lat":-6.338021,"distance":2675,"time":6,"is_transit":false,"i_long":106.491338,"station_id":"DAR"},{"station_id":"TEJ","time":5,"station_name":"Tenjo","i_lat":-6.327251,"i_long":106.460812,"line":6,"transit":false,"distance":3902,"is_transit":false},{"station_name":"Tigaraksa","i_long":106.425991,"transit":false,"line":6,"station_id":"TGS","i_lat":-6.328533,"time":5,"distance":2974,"is_transit":false}]]}