{"data":[[{"transit":false,"i_lat":-6.224515,"distance":0,"line":1,"i_long":106.977657,"time":0,"station_name":"Kranji","station_id":"KRI","is_transit":false},{"is_transit":false,"distance":3097,"line":1,"transit":false,"i_lat":-6.219053,"station_id":"CUK","i_long":106.951283,"time":3,"station_name":"Cakung"},{"is_transit":false,"distance":1385,"i_long":106.939679,"line":1,"i_lat":-6.217455,"transit":false,"time":8,"station_id":"KLDB","station_name":"Klenderbaru"},{"is_transit":false,"i_lat":-6.215568,"transit":false,"time":1,"station_name":"Buaran","station_id":"BUA","i_long":106.922662,"line":1,"distance":1305},{"transit":false,"time":2,"line":1,"is_transit":false,"station_name":"Klender","station_id":"KLD","i_lat":-6.2135,"i_long":106.899548,"distance":3100},{"line":1,"station_name":"Jatinegara","is_transit":false,"i_lat":-6.215091,"time":3,"i_long":106.86807400000001,"distance":3395,"station_id":"JNG","transit":false},{"i_lat":-6.212485,"station_id":"MTR","i_long":106.858896,"time":2,"station_name":"Matraman","distance":1377,"is_transit":false,"line":1,"transit":false},{"is_transit":false,"i_long":106.84912,"i_lat":-6.209883,"transit":false,"station_id":"MRI","line":2,"time":2,"distance":1275,"station_name":"Manggarai"},{"station_name":"Sudirman","transit":false,"station_id":"SUD","is_transit":false,"i_lat":-6.202263,"i_long":106.822649,"line":1,"time":4,"distance":3186},{"station_name":"Sudirman Baru","station_id":"SUDB","line":1,"i_lat":-6.201433,"distance":280,"i_long":106.819881,"transit":false,"time":1,"is_transit":false}],[{"i_long":106.977657,"line":1,"time":0,"station_name":"Kranji","transit":false,"station_id":"KRI","distance":0,"i_lat":-6.224515,"is_transit":false},{"station_id":"CUK","time":3,"line":1,"transit":false,"station_name":"Cakung","is_transit":false,"distance":3097,"i_lat":-6.219053,"i_long":106.951283},{"time":8,"line":1,"station_id":"KLDB","i_lat":-6.217455,"transit":false,"i_long":106.939679,"distance":1385,"station_name":"Klenderbaru","is_transit":false},{"line":1,"transit":false,"station_name":"Buaran","station_id":"BUA","is_transit":false,"i_long":106.922662,"i_lat":-6.215568,"distance":1305,"time":1},{"transit":false,"is_transit":false,"line":1,"distance":3100,"station_id":"KLD","i_lat":-6.2135,"time":2,"station_name":"Klender","i_long":106.899548},{"line":1,"transit":true,"time":3,"station_name":"Jatinegara","station_id":"JNG","i_long":106.86807400000001,"is_transit":true,"i_lat":-6.215091,"distance":3395},{"station_id":"POK","i_lat":-6.209188,"i_long":106.861737,"line":11,"distance":1236,"time":2,"is_transit":false,"station_name":"Pondok Jati","transit":false},{"station_id":"KMT","time":2,"line":11,"transit":false,"i_lat":-6.193792,"distance":1829,"is_transit":false,"station_name":"Kramat","i_long":106.855437},{"time":1,"station_id":"GST","is_transit":false,"distance":973,"i_lat":-6.185975,"station_name":"Gang Sentiong","transit":false,"i_long":106.850107,"line":11},{"transit":false,"i_long":106.84368,"station_id":"PSE","i_lat":-6.174784,"time":8,"line":11,"is_transit":false,"station_name":"Pasar Senen","distance":1567},{"station_id":"KMO","line":11,"i_lat":-6.161728,"distance":1436,"i_long":106.839204,"transit":false,"is_transit":false,"time":4,"station_name":"Kemayoran"},{"i_lat":-6.14505,"is_transit":false,"distance":1901,"i_long":106.836569,"station_id":"RJW","transit":false,"time":5,"line":11,"station_name":"Rajawali"},{"i_long":106.826365,"is_transit":true,"station_id":"KPB","station_name":"Kampung Bandan","transit":true,"time":3,"distance":1444,"i_lat":-6.132549,"line":4},{"distance":4102,"station_name":"Angke","time":9,"is_transit":false,"i_lat":-6.144674,"i_long":106.79867,"line":1,"transit":false,"station_id":"AK"},{"station_name":"Duri","is_transit":false,"time":4,"distance":1230,"i_long":106.800832,"line":1,"station_id":"DU","i_lat":-6.155215,"transit":false},{"is_transit":false,"station_name":"Tanah Abang","i_lat":-6.185545,"station_id":"THB","i_long":106.811091,"line":1,"time":8,"transit":false,"distance":3632},{"time":5,"transit":false,"i_long":106.816351,"distance":2029,"station_name":"Karet","i_lat":-6.20132,"station_id":"KAT","line":1,"is_transit":false},{"distance":471,"time":1,"station_name":"Sudirman Baru","i_long":106.819881,"transit":false,"line":1,"i_lat":-6.201433,"is_transit":false,"station_id":"SUDB"}],[{"time":0,"transit":false,"line":1,"distance":0,"station_name":"Kranji","i_lat":-6.224515,"station_id":"KRI","i_long":106.977657,"is_transit":false},{"time":3,"i_lat":-6.219053,"station_name":"Cakung","distance":3097,"i_long":106.951283,"line":1,"transit":false,"station_id":"CUK","is_transit":false},{"distance":1385,"station_name":"Klenderbaru","station_id":"KLDB","i_lat":-6.217455,"transit":false,"i_long":106.939679,"line":1,"is_transit":false,"time":8},{"station_id":"BUA","i_lat":-6.215568,"is_transit":false,"station_name":"Buaran","i_long":106.922662,"distance":1305,"transit":false,"time":1,"line":1},{"time":2,"station_id":"KLD","i_lat":-6.2135,"i_long":106.899548,"station_name":"Klender","distance":3100,"line":1,"is_transit":false,"transit":false},{"i_lat":-6.215091,"time":3,"i_long":106.86807400000001,"station_name":"Jatinegara","transit":false,"is_transit":false,"station_id":"JNG","distance":3395,"line":1},{"i_long":106.858896,"is_transit":false,"distance":1377,"time":2,"transit":false,"station_name":"Matraman","station_id":"MTR","i_lat":-6.212485,"line":1},{"station_id":"MRI","is_transit":true,"transit":true,"distance":1275,"time":2,"station_name":"Manggarai","i_lat":-6.209883,"line":2,"i_long":106.84912},{"station_name":"Cikini","line":2,"distance":1590,"station_id":"CKI","i_long":106.840169,"is_transit":false,"time":4,"transit":false,"i_lat":-6.198556},{"station_id":"GDD","station_name":"Gondangdia","distance":1750,"is_transit":false,"i_long":106.832183,"line":2,"time":3,"i_lat":-6.186295,"transit":false},{"station_name":"Juanda","distance":2015,"line":2,"i_lat":-6.166716,"time":4,"transit":false,"is_transit":false,"i_long":106.828284,"station_id":"JUA"},{"line":2,"i_lat":-6.160725,"distance":1149,"station_name":"Sawah Besar","i_long":106.827103,"transit":false,"station_id":"SW","is_transit":false,"time":2},{"is_transit":false,"transit":false,"station_name":"Manggabesar","i_lat":-6.149769,"station_id":"MGB","time":2,"i_long":106.82482,"distance":906,"line":2},{"distance":1080,"time":2,"line":2,"station_id":"JAY","i_long":106.820901,"station_name":"Jayakarta","transit":false,"i_lat":-6.141205,"is_transit":false},{"station_name":"Jakarta Kota","line":2,"transit":true,"distance":1264,"station_id":"JAKK","i_lat":-6.137569,"i_long":106.812439,"is_transit":true,"time":4},{"transit":true,"is_transit":true,"line":4,"i_lat":-6.132549,"time":3,"distance":1364,"station_name":"Kampung Bandan","station_id":"KPB","i_long":106.826365},{"line":1,"is_transit":false,"station_id":"AK","transit":false,"distance":4102,"i_lat":-6.144674,"i_long":106.79867,"time":9,"station_name":"Angke"},{"is_transit":false,"line":1,"transit":false,"station_name":"Duri","station_id":"DU","distance":1230,"i_lat":-6.155215,"i_long":106.800832,"time":4},{"distance":3632,"time":8,"transit":false,"station_name":"Tanah Abang","i_long":106.811091,"is_transit":false,"station_id":"THB","line":1,"i_lat":-6.185545},{"station_id":"KAT","time":5,"transit":false,"is_transit":false,"line":1,"i_lat":-6.20132,"i_long":106.816351,"station_name":"Karet","distance":2029},{"station_name":"Sudirman Baru","i_lat":-6.201433,"transit":false,"line":1,"is_transit":false,"distance":471,"time":1,"i_long":106.819881,"station_id":"SUDB"}],[{"i_long":106.977657,"station_id":"KRI","station_name":"Kranji","transit":false,"time":0,"distance":0,"is_transit":false,"i_lat":-6.224515,"line":1},{"distance":3097,"is_transit":false,"line":1,"time":3,"i_lat":-6.219053,"transit":false,"station_id":"CUK","i_long":106.951283,"station_name":"Cakung"},{"transit":false,"distance":1385,"i_long":106.939679,"station_id":"KLDB","time":8,"line":1,"is_transit":false,"station_name":"Klenderbaru","i_lat":-6.217455},{"station_name":"Buaran","time":1,"distance":1305,"is_transit":false,"i_lat":-6.215568,"station_id":"BUA","transit":false,"i_long":106.922662,"line":1},{"i_long":106.899548,"transit":false,"time":2,"station_name":"Klender","is_transit":false,"line":1,"distance":3100,"i_lat":-6.2135,"station_id":"KLD"},{"station_name":"Jatinegara","distance":3395,"station_id":"JNG","i_long":106.86807400000001,"i_lat":-6.215091,"is_transit":true,"time":3,"line":1,"transit":true},{"distance":1236,"station_id":"POK","is_transit":false,"i_lat":-6.209188,"time":2,"station_name":"Pondok Jati","transit":false,"line":11,"i_long":106.861737},{"station_name":"Kramat","i_lat":-6.193792,"is_transit":false,"distance":1829,"i_long":106.855437,"line":11,"transit":false,"station_id":"KMT","time":2},{"i_long":106.850107,"time":1,"station_id":"GST","is_transit":false,"transit":false,"station_name":"Gang Sentiong","i_lat":-6.185975,"line":11,"distance":973},{"i_lat":-6.174784,"transit":false,"time":8,"i_long":106.84368,"distance":1567,"station_name":"Pasar Senen","is_transit":false,"station_id":"PSE","line":11},{"station_name":"Kemayoran","i_lat":-6.161728,"distance":1436,"transit":false,"line":11,"time":4,"i_long":106.839204,"is_transit":false,"station_id":"KMO"},{"i_lat":-6.14505,"time":5,"line":11,"is_transit":false,"distance":1901,"transit":false,"station_name":"Rajawali","i_long":106.836569,"station_id":"RJW"},{"is_transit":true,"line":4,"i_long":106.826365,"station_name":"Kampung Bandan","i_lat":-6.132549,"transit":true,"time":3,"distance":1444,"station_id":"KPB"},{"line":2,"i_long":106.812439,"distance":1364,"transit":true,"time":3,"i_lat":-6.137569,"is_transit":true,"station_name":"Jakarta Kota","station_id":"JAKK"},{"station_name":"Jayakarta","line":2,"is_transit":false,"transit":false,"time":4,"distance":1264,"i_long":106.820901,"station_id":"JAY","i_lat":-6.141205},{"station_id":"MGB","is_transit":false,"i_long":106.82482,"time":2,"line":2,"transit":false,"station_name":"Manggabesar","i_lat":-6.149769,"distance":1080},{"i_long":106.827103,"transit":false,"station_id":"SW","time":2,"i_lat":-6.160725,"line":2,"distance":906,"is_transit":false,"station_name":"Sawah Besar"},{"line":2,"time":2,"i_long":106.828284,"i_lat":-6.166716,"is_transit":false,"distance":1149,"transit":false,"station_id":"JUA","station_name":"Juanda"},{"transit":false,"station_id":"GDD","i_lat":-6.186295,"station_name":"Gondangdia","time":4,"line":2,"i_long":106.832183,"is_transit":false,"distance":2015},{"is_transit":false,"time":3,"transit":false,"station_name":"Cikini","line":2,"distance":1750,"i_lat":-6.198556,"station_id":"CKI","i_long":106.840169},{"distance":1590,"station_id":"MRI","time":4,"station_name":"Manggarai","i_lat":-6.209883,"transit":true,"is_transit":true,"line":2,"i_long":106.84912},{"transit":false,"i_lat":-6.202263,"line":1,"time":4,"station_name":"Sudirman","i_long":106.822649,"distance":3186,"is_transit":false,"station_id":"SUD"},{"i_long":106.819881,"time":1,"transit":false,"station_name":"Sudirman Baru","distance":280,"line":1,"is_transit":false,"station_id":"SUDB","i_lat":-6.201433}]]}