{"data":[[{"is_transit":false,"i_long":106.977657,"distance":0,"transit":false,"station_name":"Kranji","i_lat":-6.224515,"line":1,"time":0,"station_id":"KRI"},{"station_name":"Cakung","is_transit":false,"i_long":106.951283,"transit":false,"i_lat":-6.219053,"station_id":"CUK","line":1,"distance":3097,"time":3},{"i_lat":-6.217455,"station_name":"Klenderbaru","i_long":106.939679,"line":1,"distance":1385,"transit":false,"station_id":"KLDB","is_transit":false,"time":8},{"distance":1305,"transit":false,"station_name":"Buaran","i_lat":-6.215568,"station_id":"BUA","time":1,"is_transit":false,"line":1,"i_long":106.922662},{"i_lat":-6.2135,"is_transit":false,"i_long":106.899548,"distance":3100,"time":2,"station_name":"Klender","line":1,"station_id":"KLD","transit":false},{"line":1,"is_transit":false,"station_name":"Jatinegara","time":3,"transit":false,"station_id":"JNG","distance":3395,"i_long":106.86807400000001,"i_lat":-6.215091},{"distance":1377,"station_name":"Matraman","is_transit":false,"i_lat":-6.212485,"i_long":106.858896,"line":1,"time":2,"transit":false,"station_id":"MTR"},{"station_id":"MRI","transit":false,"i_lat":-6.209883,"distance":1275,"i_long":106.84912,"time":2,"line":2,"station_name":"Manggarai","is_transit":false},{"line":1,"i_long":106.822649,"station_id":"SUD","station_name":"Sudirman","time":4,"transit":false,"i_lat":-6.202263,"distance":3186,"is_transit":false},{"i_lat":-6.201433,"station_name":"Sudirman Baru","is_transit":false,"time":1,"transit":false,"i_long":106.819881,"line":1,"distance":280,"station_id":"SUDB"},{"station_id":"KAT","i_lat":-6.20132,"distance":471,"time":1,"line":1,"transit":false,"station_name":"Karet","is_transit":false,"i_long":106.816351},{"station_id":"THB","time":5,"transit":true,"i_lat":-6.185545,"station_name":"Tanah Abang","is_transit":true,"i_long":106.811091,"distance":2029,"line":1},{"station_id":"PLM","i_lat":-6.207404,"i_long":106.79689,"line":6,"distance":3191,"time":6,"is_transit":false,"station_name":"Palmerah","transit":false},{"station_name":"Kebayoran","is_transit":false,"i_lat":-6.237242,"station_id":"KBY","i_long":106.780334,"distance":3737,"time":7,"transit":false,"line":6},{"time":8,"distance":6218,"station_id":"PDJ","station_name":"Pondokranji","line":6,"transit":false,"is_transit":false,"i_lat":-6.276362,"i_long":106.74273},{"distance":2179,"time":3,"station_id":"JMU","is_transit":false,"transit":false,"i_lat":-6.288927,"line":6,"i_long":106.728916,"station_name":"Jurangmangu"},{"station_name":"Sudimara","line":6,"time":4,"transit":false,"distance":1994,"i_long":106.712277,"i_lat":-6.296963,"is_transit":false,"station_id":"SDM"},{"i_lat":-6.314823,"i_long":106.675475,"station_name":"Rawa Buntu","station_id":"RU","time":6,"distance":4566,"line":6,"is_transit":false,"transit":false},{"time":4,"transit":false,"line":6,"station_name":"Serpong","is_transit":false,"station_id":"SRP","distance":2413,"i_long":106.66566,"i_lat":-6.319871},{"distance":1784,"i_long":106.640411,"station_name":"Cisauk","transit":false,"time":4,"station_id":"CSK","line":3,"i_lat":-6.32484,"is_transit":false},{"station_id":"CC","station_name":"Cicayur","time":4,"is_transit":false,"transit":false,"distance":2519,"i_lat":-6.329547,"i_long":106.617853,"line":3},{"station_name":"Parung Panjang","transit":false,"i_lat":-6.3441410000000005,"time":8,"station_id":"PRP","is_transit":false,"distance":5968,"i_long":106.568863,"line":6},{"i_lat":-6.354349,"line":3,"i_long":106.508482,"station_id":"CJT","station_name":"Cilejit","distance":7025,"transit":false,"time":9,"is_transit":false},{"i_lat":-6.338021,"transit":false,"station_name":"Daru","station_id":"DAR","line":0,"i_long":106.491338,"time":6,"is_transit":false,"distance":2675},{"i_long":106.460812,"line":6,"time":5,"is_transit":false,"i_lat":-6.327251,"transit":false,"station_id":"TEJ","distance":3902,"station_name":"Tenjo"},{"i_long":106.425991,"transit":false,"is_transit":false,"time":5,"distance":2974,"station_id":"TGS","station_name":"Tigaraksa","i_lat":-6.328533,"line":6}],[{"is_transit":false,"i_long":106.977657,"station_name":"Kranji","transit":false,"i_lat":-6.224515,"station_id":"KRI","time":0,"line":1,"distance":0},{"distance":3097,"station_name":"Cakung","i_long":106.951283,"time":3,"station_id":"CUK","i_lat":-6.219053,"line":1,"is_transit":false,"transit":false},{"station_name":"Klenderbaru","line":1,"is_transit":false,"transit":false,"time":8,"distance":1385,"i_long":106.939679,"station_id":"KLDB","i_lat":-6.217455},{"station_id":"BUA","is_transit":false,"time":1,"distance":1305,"i_long":106.922662,"station_name":"Buaran","transit":false,"i_lat":-6.215568,"line":1},{"distance":3100,"transit":false,"line":1,"time":2,"station_id":"KLD","i_long":106.899548,"is_transit":false,"station_name":"Klender","i_lat":-6.2135},{"line":1,"i_long":106.86807400000001,"station_name":"Jatinegara","transit":true,"i_lat":-6.215091,"distance":3395,"time":3,"is_transit":true,"station_id":"JNG"},{"line":11,"station_id":"POK","is_transit":false,"transit":false,"time":2,"i_long":106.861737,"distance":1236,"station_name":"Pondok Jati","i_lat":-6.209188},{"time":2,"i_lat":-6.193792,"transit":false,"station_name":"Kramat","distance":1829,"is_transit":false,"station_id":"KMT","i_long":106.855437,"line":11},{"time":1,"distance":973,"station_id":"GST","is_transit":false,"i_long":106.850107,"line":11,"i_lat":-6.185975,"station_name":"Gang Sentiong","transit":false},{"transit":false,"i_lat":-6.174784,"is_transit":false,"station_name":"Pasar Senen","line":11,"time":8,"i_long":106.84368,"station_id":"PSE","distance":1567},{"distance":1436,"station_name":"Kemayoran","is_transit":false,"time":4,"i_long":106.839204,"line":11,"transit":false,"i_lat":-6.161728,"station_id":"KMO"},{"distance":1901,"time":5,"i_long":106.836569,"transit":false,"station_name":"Rajawali","is_transit":false,"station_id":"RJW","i_lat":-6.14505,"line":11},{"is_transit":true,"i_lat":-6.132549,"transit":true,"distance":1444,"line":4,"station_id":"KPB","i_long":106.826365,"time":3,"station_name":"Kampung Bandan"},{"station_id":"AK","i_lat":-6.144674,"station_name":"Angke","i_long":106.79867,"is_transit":false,"time":9,"distance":4102,"transit":false,"line":1},{"i_long":106.800832,"transit":false,"station_name":"Duri","time":4,"is_transit":false,"distance":1230,"line":1,"station_id":"DU","i_lat":-6.155215},{"i_long":106.811091,"transit":true,"station_name":"Tanah Abang","station_id":"THB","i_lat":-6.185545,"time":8,"is_transit":true,"line":1,"distance":3632},{"transit":false,"time":6,"station_name":"Palmerah","is_transit":false,"line":6,"i_lat":-6.207404,"station_id":"PLM","i_long":106.79689,"distance":3191},{"line":6,"i_lat":-6.237242,"station_name":"Kebayoran","time":7,"transit":false,"i_long":106.780334,"is_transit":false,"station_id":"KBY","distance":3737},{"is_transit":false,"distance":6218,"line":6,"station_name":"Pondokranji","time":8,"i_lat":-6.276362,"station_id":"PDJ","i_long":106.74273,"transit":false},{"i_long":106.728916,"time":3,"i_lat":-6.288927,"line":6,"station_id":"JMU","distance":2179,"is_transit":false,"transit":false,"station_name":"Jurangmangu"},{"station_id":"SDM","distance":1994,"line":6,"i_lat":-6.296963,"transit":false,"i_long":106.712277,"time":4,"is_transit":false,"station_name":"Sudimara"},{"station_name":"Rawa Buntu","transit":false,"is_transit":false,"distance":4566,"i_long":106.675475,"line":6,"time":6,"station_id":"RU","i_lat":-6.314823},{"transit":false,"station_id":"SRP","i_long":106.66566,"is_transit":false,"line":6,"i_lat":-6.319871,"distance":2413,"time":4,"station_name":"Serpong"},{"transit":false,"distance":1784,"line":3,"station_name":"Cisauk","station_id":"CSK","i_lat":-6.32484,"is_transit":false,"time":4,"i_long":106.640411},{"line":3,"i_long":106.617853,"transit":false,"station_name":"Cicayur","station_id":"CC","is_transit":false,"distance":2519,"i_lat":-6.329547,"time":4},{"station_id":"PRP","distance":5968,"i_long":106.568863,"time":8,"is_transit":false,"i_lat":-6.3441410000000005,"line":6,"transit":false,"station_name":"Parung Panjang"},{"time":9,"i_lat":-6.354349,"transit":false,"station_id":"CJT","distance":7025,"line":3,"station_name":"Cilejit","is_transit":false,"i_long":106.508482},{"line":0,"distance":2675,"i_lat":-6.338021,"station_name":"Daru","is_transit":false,"station_id":"DAR","time":6,"i_long":106.491338,"transit":false},{"station_name":"Tenjo","line":6,"i_lat":-6.327251,"time":5,"distance":3902,"transit":false,"is_transit":false,"station_id":"TEJ","i_long":106.460812},{"station_name":"Tigaraksa","i_long":106.425991,"is_transit":false,"line":6,"distance":2974,"station_id":"TGS","transit":false,"time":5,"i_lat":-6.328533}],[{"distance":0,"line":1,"i_long":106.977657,"transit":false,"is_transit":false,"i_lat":-6.224515,"station_id":"KRI","station_name":"Kranji","time":0},{"i_long":106.951283,"transit":false,"distance":3097,"is_transit":false,"time":3,"station_name":"Cakung","station_id":"CUK","i_lat":-6.219053,"line":1},{"station_id":"KLDB","line":1,"transit":false,"time":8,"i_long":106.939679,"i_lat":-6.217455,"station_name":"Klenderbaru","distance":1385,"is_transit":false},{"line":1,"i_long":106.922662,"distance":1305,"time":1,"transit":false,"i_lat":-6.215568,"station_name":"Buaran","is_transit":false,"station_id":"BUA"},{"station_name":"Klender","is_transit":false,"distance":3100,"i_lat":-6.2135,"line":1,"time":2,"i_long":106.899548,"station_id":"KLD","transit":false},{"distance":3395,"line":1,"station_name":"Jatinegara","transit":false,"station_id":"JNG","time":3,"i_lat":-6.215091,"i_long":106.86807400000001,"is_transit":false},{"is_transit":false,"time":2,"line":1,"station_id":"MTR","transit":false,"i_lat":-6.212485,"i_long":106.858896,"station_name":"Matraman","distance":1377},{"time":2,"station_id":"MRI","is_transit":true,"transit":true,"i_long":106.84912,"distance":1275,"line":2,"station_name":"Manggarai","i_lat":-6.209883},{"line":2,"station_id":"CKI","time":4,"station_name":"Cikini","is_transit":false,"transit":false,"distance":1590,"i_long":106.840169,"i_lat":-6.198556},{"i_long":106.832183,"line":2,"is_transit":false,"transit":false,"i_lat":-6.186295,"time":3,"distance":1750,"station_id":"GDD","station_name":"Gondangdia"},{"is_transit":false,"line":2,"distance":2015,"i_long":106.828284,"transit":false,"station_id":"JUA","time":4,"i_lat":-6.166716,"station_name":"Juanda"},{"i_long":106.827103,"time":2,"i_lat":-6.160725,"station_id":"SW","line":2,"transit":false,"station_name":"Sawah Besar","distance":1149,"is_transit":false},{"time":2,"station_name":"Manggabesar","distance":906,"station_id":"MGB","transit":false,"i_long":106.82482,"line":2,"i_lat":-6.149769,"is_transit":false},{"station_name":"Jayakarta","is_transit":false,"i_lat":-6.141205,"i_long":106.820901,"distance":1080,"transit":false,"station_id":"JAY","time":2,"line":2},{"station_id":"JAKK","time":4,"line":2,"station_name":"Jakarta Kota","transit":true,"i_lat":-6.137569,"distance":1264,"i_long":106.812439,"is_transit":true},{"transit":true,"line":4,"time":3,"i_lat":-6.132549,"station_name":"Kampung Bandan","station_id":"KPB","distance":1364,"i_long":106.826365,"is_transit":true},{"distance":4102,"i_lat":-6.144674,"station_name":"Angke","i_long":106.79867,"line":1,"station_id":"AK","time":9,"transit":false,"is_transit":false},{"station_name":"Duri","is_transit":false,"time":4,"line":1,"station_id":"DU","distance":1230,"i_long":106.800832,"transit":false,"i_lat":-6.155215},{"time":8,"transit":true,"station_name":"Tanah Abang","station_id":"THB","is_transit":true,"distance":3632,"i_lat":-6.185545,"i_long":106.811091,"line":1},{"i_lat":-6.207404,"station_name":"Palmerah","is_transit":false,"station_id":"PLM","distance":3191,"time":6,"i_long":106.79689,"line":6,"transit":false},{"time":7,"is_transit":false,"distance":3737,"transit":false,"station_name":"Kebayoran","i_lat":-6.237242,"i_long":106.780334,"line":6,"station_id":"KBY"},{"distance":6218,"i_lat":-6.276362,"station_name":"Pondokranji","time":8,"is_transit":false,"station_id":"PDJ","transit":false,"i_long":106.74273,"line":6},{"time":3,"line":6,"is_transit":false,"distance":2179,"i_lat":-6.288927,"i_long":106.728916,"station_name":"Jurangmangu","station_id":"JMU","transit":false},{"time":4,"line":6,"is_transit":false,"transit":false,"station_id":"SDM","station_name":"Sudimara","i_lat":-6.296963,"distance":1994,"i_long":106.712277},{"station_name":"Rawa Buntu","is_transit":false,"i_lat":-6.314823,"transit":false,"time":6,"i_long":106.675475,"distance":4566,"station_id":"RU","line":6},{"distance":2413,"line":6,"i_lat":-6.319871,"station_id":"SRP","time":4,"transit":false,"i_long":106.66566,"is_transit":false,"station_name":"Serpong"},{"transit":false,"station_name":"Cisauk","i_lat":-6.32484,"distance":1784,"time":4,"i_long":106.640411,"station_id":"CSK","line":3,"is_transit":false},{"time":4,"i_long":106.617853,"station_name":"Cicayur","line":3,"transit":false,"is_transit":false,"station_id":"CC","distance":2519,"i_lat":-6.329547},{"i_long":106.568863,"line":6,"station_name":"Parung Panjang","i_lat":-6.3441410000000005,"transit":false,"time":8,"distance":5968,"is_transit":false,"station_id":"PRP"},{"line":3,"transit":false,"time":9,"is_transit":false,"i_lat":-6.354349,"i_long":106.508482,"station_name":"Cilejit","distance":7025,"station_id":"CJT"},{"line":0,"station_name":"Daru","distance":2675,"i_lat":-6.338021,"time":6,"transit":false,"station_id":"DAR","is_transit":false,"i_long":106.491338},{"i_long":106.460812,"station_id":"TEJ","is_transit":false,"station_name":"Tenjo","distance":3902,"i_lat":-6.327251,"line":6,"time":5,"transit":false},{"time":5,"station_id":"TGS","i_lat":-6.328533,"i_long":106.425991,"line":6,"is_transit":false,"station_name":"Tigaraksa","transit":false,"distance":2974}],[{"transit":false,"station_id":"KRI","line":1,"station_name":"Kranji","distance":0,"is_transit":false,"time":0,"i_lat":-6.224515,"i_long":106.977657},{"time":3,"distance":3097,"transit":false,"i_long":106.951283,"i_lat":-6.219053,"station_id":"CUK","line":1,"station_name":"Cakung","is_transit":false},{"line":1,"transit":false,"distance":1385,"time":8,"station_id":"KLDB","is_transit":false,"i_lat":-6.217455,"i_long":106.939679,"station_name":"Klenderbaru"},{"transit":false,"station_id":"BUA","distance":1305,"i_lat":-6.215568,"time":1,"is_transit":false,"i_long":106.922662,"station_name":"Buaran","line":1},{"station_id":"KLD","i_lat":-6.2135,"station_name":"Klender","is_transit":false,"transit":false,"time":2,"distance":3100,"i_long":106.899548,"line":1},{"time":3,"i_lat":-6.215091,"distance":3395,"line":1,"is_transit":true,"i_long":106.86807400000001,"station_name":"Jatinegara","transit":true,"station_id":"JNG"},{"distance":1236,"station_id":"POK","station_name":"Pondok Jati","i_lat":-6.209188,"line":11,"transit":false,"time":2,"i_long":106.861737,"is_transit":false},{"i_long":106.855437,"transit":false,"i_lat":-6.193792,"line":11,"station_name":"Kramat","station_id":"KMT","time":2,"is_transit":false,"distance":1829},{"station_name":"Gang Sentiong","station_id":"GST","is_transit":false,"distance":973,"transit":false,"i_lat":-6.185975,"i_long":106.850107,"time":1,"line":11},{"is_transit":false,"station_id":"PSE","distance":1567,"i_long":106.84368,"transit":false,"line":11,"time":8,"i_lat":-6.174784,"station_name":"Pasar Senen"},{"station_id":"KMO","distance":1436,"i_long":106.839204,"is_transit":false,"transit":false,"time":4,"station_name":"Kemayoran","line":11,"i_lat":-6.161728},{"is_transit":false,"time":5,"i_long":106.836569,"line":11,"distance":1901,"station_id":"RJW","station_name":"Rajawali","transit":false,"i_lat":-6.14505},{"station_id":"KPB","time":3,"is_transit":true,"distance":1444,"i_lat":-6.132549,"i_long":106.826365,"line":4,"station_name":"Kampung Bandan","transit":true},{"is_transit":true,"distance":1364,"time":3,"transit":true,"station_name":"Jakarta Kota","station_id":"JAKK","i_lat":-6.137569,"i_long":106.812439,"line":2},{"line":2,"transit":false,"i_lat":-6.141205,"station_name":"Jayakarta","distance":1264,"i_long":106.820901,"station_id":"JAY","is_transit":false,"time":4},{"station_id":"MGB","is_transit":false,"transit":false,"i_lat":-6.149769,"station_name":"Manggabesar","line":2,"i_long":106.82482,"time":2,"distance":1080},{"is_transit":false,"line":2,"station_id":"SW","distance":906,"station_name":"Sawah Besar","i_lat":-6.160725,"transit":false,"time":2,"i_long":106.827103},{"station_id":"JUA","time":2,"distance":1149,"line":2,"i_long":106.828284,"is_transit":false,"i_lat":-6.166716,"transit":false,"station_name":"Juanda"},{"is_transit":false,"distance":2015,"line":2,"transit":false,"time":4,"station_id":"GDD","i_lat":-6.186295,"i_long":106.832183,"station_name":"Gondangdia"},{"distance":1750,"i_lat":-6.198556,"station_id":"CKI","is_transit":false,"time":3,"line":2,"station_name":"Cikini","transit":false,"i_long":106.840169},{"distance":1590,"transit":true,"station_name":"Manggarai","i_long":106.84912,"i_lat":-6.209883,"is_transit":true,"line":2,"station_id":"MRI","time":4},{"station_id":"SUD","is_transit":false,"time":4,"i_long":106.822649,"line":1,"distance":3186,"transit":false,"i_lat":-6.202263,"station_name":"Sudirman"},{"distance":280,"i_lat":-6.201433,"i_long":106.819881,"station_name":"Sudirman Baru","line":1,"station_id":"SUDB","time":1,"is_transit":false,"transit":false},{"transit":false,"i_lat":-6.20132,"i_long":106.816351,"station_id":"KAT","line":1,"station_name":"Karet","distance":471,"is_transit":false,"time":1},{"i_long":106.811091,"time":5,"transit":true,"line":1,"distance":2029,"is_transit":true,"station_name":"Tanah Abang","station_id":"THB","i_lat":-6.185545},{"i_lat":-6.207404,"station_id":"PLM","station_name":"Palmerah","is_transit":false,"distance":3191,"line":6,"i_long":106.79689,"time":6,"transit":false},{"i_lat":-6.237242,"transit":false,"is_transit":false,"i_long":106.780334,"distance":3737,"station_id":"KBY","station_name":"Kebayoran","time":7,"line":6},{"distance":6218,"station_name":"Pondokranji","i_long":106.74273,"is_transit":false,"transit":false,"time":8,"station_id":"PDJ","i_lat":-6.276362,"line":6},{"transit":false,"is_transit":false,"distance":2179,"time":3,"station_name":"Jurangmangu","i_long":106.728916,"i_lat":-6.288927,"line":6,"station_id":"JMU"},{"i_lat":-6.296963,"time":4,"i_long":106.712277,"station_id":"SDM","line":6,"is_transit":false,"transit":false,"distance":1994,"station_name":"Sudimara"},{"station_name":"Rawa Buntu","station_id":"RU","is_transit":false,"i_long":106.675475,"line":6,"i_lat":-6.314823,"distance":4566,"time":6,"transit":false},{"time":4,"i_long":106.66566,"line":6,"i_lat":-6.319871,"distance":2413,"station_name":"Serpong","transit":false,"station_id":"SRP","is_transit":false},{"line":3,"time":4,"i_lat":-6.32484,"station_id":"CSK","i_long":106.640411,"is_transit":false,"transit":false,"station_name":"Cisauk","distance":1784},{"distance":2519,"line":3,"station_name":"Cicayur","i_lat":-6.329547,"i_long":106.617853,"is_transit":false,"station_id":"CC","time":4,"transit":false},{"station_name":"Parung Panjang","transit":false,"i_long":106.568863,"line":6,"distance":5968,"time":8,"station_id":"PRP","i_lat":-6.3441410000000005,"is_transit":false},{"transit":false,"time":9,"line":3,"i_lat":-6.354349,"station_name":"Cilejit","i_long":106.508482,"distance":7025,"is_transit":false,"station_id":"CJT"},{"time":6,"i_long":106.491338,"line":0,"distance":2675,"i_lat":-6.338021,"transit":false,"station_id":"DAR","station_name":"Daru","is_transit":false},{"is_transit":false,"transit":false,"time":5,"i_lat":-6.327251,"i_long":106.460812,"station_id":"TEJ","line":6,"station_name":"Tenjo","distance":3902},{"line":6,"station_id":"TGS","distance":2974,"i_lat":-6.328533,"is_transit":false,"transit":false,"station_name":"Tigaraksa","time":5,"i_long":106.425991}]]}