{"data":[[{"time":0,"station_id":"KRI","i_long":106.977657,"line":1,"is_transit":false,"i_lat":-6.224515,"distance":0,"transit":false,"station_name":"Kranji"},{"station_name":"Cakung","i_long":106.951283,"transit":false,"i_lat":-6.219053,"line":1,"is_transit":false,"station_id":"CUK","distance":3097,"time":3},{"is_transit":false,"station_name":"Klenderbaru","distance":1385,"time":8,"transit":false,"station_id":"KLDB","i_lat":-6.217455,"line":1,"i_long":106.939679},{"station_id":"BUA","i_lat":-6.215568,"i_long":106.922662,"distance":1305,"station_name":"Buaran","time":1,"line":1,"transit":false,"is_transit":false},{"line":1,"i_long":106.899548,"is_transit":false,"station_name":"Klender","time":2,"station_id":"KLD","i_lat":-6.2135,"distance":3100,"transit":false},{"time":3,"is_transit":true,"i_long":106.86807400000001,"station_name":"Jatinegara","station_id":"JNG","distance":3395,"i_lat":-6.215091,"line":1,"transit":true},{"i_long":106.861737,"is_transit":false,"line":11,"time":2,"distance":1236,"i_lat":-6.209188,"station_name":"Pondok Jati","station_id":"POK","transit":false},{"transit":false,"is_transit":false,"distance":1829,"line":11,"i_long":106.855437,"time":2,"i_lat":-6.193792,"station_name":"Kramat","station_id":"KMT"},{"transit":false,"station_name":"Gang Sentiong","distance":973,"station_id":"GST","i_lat":-6.185975,"line":11,"is_transit":false,"i_long":106.850107,"time":1},{"transit":false,"station_id":"PSE","station_name":"Pasar Senen","i_lat":-6.174784,"is_transit":false,"distance":1567,"i_long":106.84368,"time":8,"line":11},{"i_lat":-6.161728,"transit":false,"i_long":106.839204,"is_transit":false,"station_name":"Kemayoran","line":11,"time":4,"station_id":"KMO","distance":1436},{"transit":false,"line":11,"time":5,"is_transit":false,"i_long":106.836569,"i_lat":-6.14505,"station_id":"RJW","station_name":"Rajawali","distance":1901}],[{"station_id":"KRI","i_long":106.977657,"i_lat":-6.224515,"is_transit":false,"time":0,"transit":false,"line":1,"distance":0,"station_name":"Kranji"},{"distance":3097,"is_transit":false,"station_name":"Cakung","transit":false,"line":1,"station_id":"CUK","i_lat":-6.219053,"i_long":106.951283,"time":3},{"line":1,"station_name":"Klenderbaru","transit":false,"distance":1385,"time":8,"station_id":"KLDB","is_transit":false,"i_lat":-6.217455,"i_long":106.939679},{"transit":false,"i_long":106.922662,"distance":1305,"line":1,"time":1,"station_name":"Buaran","i_lat":-6.215568,"station_id":"BUA","is_transit":false},{"station_id":"KLD","is_transit":false,"station_name":"Klender","distance":3100,"line":1,"i_long":106.899548,"transit":false,"time":2,"i_lat":-6.2135},{"distance":3395,"station_id":"JNG","transit":false,"i_lat":-6.215091,"time":3,"is_transit":false,"station_name":"Jatinegara","i_long":106.86807400000001,"line":1},{"station_name":"Matraman","station_id":"MTR","distance":1377,"is_transit":false,"i_lat":-6.212485,"time":2,"transit":false,"line":1,"i_long":106.858896},{"time":2,"transit":false,"i_long":106.84912,"distance":1275,"station_name":"Manggarai","i_lat":-6.209883,"line":2,"station_id":"MRI","is_transit":false},{"station_id":"SUD","transit":false,"distance":3186,"i_long":106.822649,"time":4,"station_name":"Sudirman","i_lat":-6.202263,"is_transit":false,"line":1},{"is_transit":false,"transit":false,"i_long":106.819881,"station_name":"Sudirman Baru","time":1,"distance":280,"i_lat":-6.201433,"station_id":"SUDB","line":1},{"i_long":106.816351,"is_transit":false,"station_id":"KAT","station_name":"Karet","distance":471,"i_lat":-6.20132,"transit":false,"time":1,"line":1},{"time":5,"station_name":"Tanah Abang","line":1,"station_id":"THB","is_transit":false,"distance":2029,"i_lat":-6.185545,"transit":false,"i_long":106.811091},{"i_long":106.800832,"station_name":"Duri","station_id":"DU","transit":false,"is_transit":false,"distance":3632,"i_lat":-6.155215,"line":1,"time":8},{"transit":false,"is_transit":false,"distance":1230,"time":4,"station_name":"Angke","i_lat":-6.144674,"line":1,"i_long":106.79867,"station_id":"AK"},{"is_transit":true,"station_id":"KPB","transit":true,"i_long":106.826365,"time":9,"distance":4102,"i_lat":-6.132549,"line":4,"station_name":"Kampung Bandan"},{"distance":1444,"line":11,"i_long":106.836569,"time":3,"station_id":"RJW","is_transit":false,"transit":false,"i_lat":-6.14505,"station_name":"Rajawali"}],[{"is_transit":false,"station_name":"Kranji","distance":0,"station_id":"KRI","transit":false,"i_lat":-6.224515,"i_long":106.977657,"line":1,"time":0},{"station_name":"Cakung","line":1,"distance":3097,"time":3,"i_long":106.951283,"station_id":"CUK","i_lat":-6.219053,"transit":false,"is_transit":false},{"station_name":"Klenderbaru","transit":false,"distance":1385,"time":8,"i_long":106.939679,"line":1,"station_id":"KLDB","is_transit":false,"i_lat":-6.217455},{"is_transit":false,"i_lat":-6.215568,"i_long":106.922662,"line":1,"station_id":"BUA","time":1,"station_name":"Buaran","transit":false,"distance":1305},{"station_id":"KLD","i_long":106.899548,"line":1,"time":2,"is_transit":false,"distance":3100,"transit":false,"i_lat":-6.2135,"station_name":"Klender"},{"transit":false,"i_lat":-6.215091,"station_name":"Jatinegara","station_id":"JNG","time":3,"is_transit":false,"distance":3395,"line":1,"i_long":106.86807400000001},{"i_long":106.858896,"line":1,"station_id":"MTR","station_name":"Matraman","time":2,"distance":1377,"is_transit":false,"transit":false,"i_lat":-6.212485},{"line":2,"station_name":"Manggarai","is_transit":true,"transit":true,"distance":1275,"time":2,"i_lat":-6.209883,"station_id":"MRI","i_long":106.84912},{"time":4,"station_id":"CKI","is_transit":false,"transit":false,"station_name":"Cikini","distance":1590,"i_lat":-6.198556,"line":2,"i_long":106.840169},{"i_long":106.832183,"line":2,"station_name":"Gondangdia","time":3,"station_id":"GDD","is_transit":false,"transit":false,"distance":1750,"i_lat":-6.186295},{"station_name":"Juanda","time":4,"station_id":"JUA","i_lat":-6.166716,"line":2,"is_transit":false,"distance":2015,"i_long":106.828284,"transit":false},{"i_long":106.827103,"station_name":"Sawah Besar","time":2,"is_transit":false,"station_id":"SW","transit":false,"i_lat":-6.160725,"line":2,"distance":1149},{"time":2,"transit":false,"is_transit":false,"i_long":106.82482,"station_id":"MGB","station_name":"Manggabesar","distance":906,"i_lat":-6.149769,"line":2},{"time":2,"station_id":"JAY","transit":false,"distance":1080,"i_lat":-6.141205,"i_long":106.820901,"line":2,"station_name":"Jayakarta","is_transit":false},{"line":2,"distance":1264,"i_long":106.812439,"time":4,"is_transit":true,"transit":true,"station_name":"Jakarta Kota","i_lat":-6.137569,"station_id":"JAKK"},{"is_transit":true,"station_name":"Kampung Bandan","i_lat":-6.132549,"line":4,"distance":1364,"i_long":106.826365,"station_id":"KPB","transit":true,"time":3},{"station_id":"RJW","transit":false,"station_name":"Rajawali","distance":1444,"i_lat":-6.14505,"line":11,"time":3,"is_transit":false,"i_long":106.836569}]]}