{"data":[[{"is_transit":false,"distance":0,"i_lat":-6.224515,"station_id":"KRI","transit":false,"station_name":"Kranji","time":0,"i_long":106.977657,"line":1},{"station_name":"Cakung","distance":3097,"i_lat":-6.219053,"transit":false,"line":1,"is_transit":false,"time":3,"i_long":106.951283,"station_id":"CUK"},{"transit":false,"i_lat":-6.217455,"line":1,"is_transit":false,"station_id":"KLDB","station_name":"Klenderbaru","distance":1385,"i_long":106.939679,"time":8},{"station_name":"Buaran","time":1,"is_transit":false,"distance":1305,"i_lat":-6.215568,"i_long":106.922662,"line":1,"transit":false,"station_id":"BUA"},{"station_name":"Klender","is_transit":false,"distance":3100,"i_long":106.899548,"station_id":"KLD","line":1,"transit":false,"time":2,"i_lat":-6.2135},{"station_id":"JNG","station_name":"Jatinegara","time":3,"i_lat":-6.215091,"i_long":106.86807400000001,"distance":3395,"transit":false,"line":1,"is_transit":false},{"is_transit":false,"i_lat":-6.212485,"i_long":106.858896,"station_name":"Matraman","time":2,"station_id":"MTR","distance":1377,"transit":false,"line":1},{"station_name":"Manggarai","station_id":"MRI","distance":1275,"i_lat":-6.209883,"is_transit":true,"i_long":106.84912,"time":2,"transit":true,"line":2},{"station_id":"TEB","time":4,"distance":2610,"i_long":106.857948,"is_transit":false,"line":2,"i_lat":-6.226659,"transit":false,"station_name":"Tebet"},{"i_long":106.856607,"line":2,"station_name":"Cawang","transit":false,"station_id":"CW","is_transit":false,"time":2,"i_lat":-6.242512,"distance":1230}],[{"station_name":"Kranji","line":1,"station_id":"KRI","i_long":106.977657,"is_transit":false,"transit":false,"distance":0,"time":0,"i_lat":-6.224515},{"i_lat":-6.219053,"i_long":106.951283,"line":1,"is_transit":false,"station_id":"CUK","time":3,"distance":3097,"transit":false,"station_name":"Cakung"},{"distance":1385,"i_long":106.939679,"line":1,"transit":false,"i_lat":-6.217455,"is_transit":false,"station_name":"Klenderbaru","time":8,"station_id":"KLDB"},{"line":1,"time":1,"station_name":"Buaran","transit":false,"distance":1305,"is_transit":false,"station_id":"BUA","i_lat":-6.215568,"i_long":106.922662},{"distance":3100,"station_id":"KLD","is_transit":false,"i_long":106.899548,"transit":false,"station_name":"Klender","time":2,"line":1,"i_lat":-6.2135},{"is_transit":true,"i_long":106.86807400000001,"transit":true,"distance":3395,"line":1,"station_name":"Jatinegara","i_lat":-6.215091,"station_id":"JNG","time":3},{"station_id":"POK","time":2,"i_lat":-6.209188,"i_long":106.861737,"line":11,"transit":false,"station_name":"Pondok Jati","is_transit":false,"distance":1236},{"station_name":"Kramat","line":11,"distance":1829,"transit":false,"is_transit":false,"time":2,"i_long":106.855437,"station_id":"KMT","i_lat":-6.193792},{"time":1,"i_lat":-6.185975,"distance":973,"is_transit":false,"station_id":"GST","i_long":106.850107,"line":11,"station_name":"Gang Sentiong","transit":false},{"time":8,"i_lat":-6.174784,"line":11,"i_long":106.84368,"station_id":"PSE","station_name":"Pasar Senen","distance":1567,"transit":false,"is_transit":false},{"i_lat":-6.161728,"station_name":"Kemayoran","i_long":106.839204,"time":4,"distance":1436,"line":11,"transit":false,"is_transit":false,"station_id":"KMO"},{"station_id":"RJW","line":11,"station_name":"Rajawali","is_transit":false,"transit":false,"distance":1901,"i_lat":-6.14505,"i_long":106.836569,"time":5},{"line":4,"station_name":"Kampung Bandan","time":3,"distance":1444,"transit":true,"is_transit":true,"i_long":106.826365,"station_id":"KPB","i_lat":-6.132549},{"station_name":"Angke","station_id":"AK","time":9,"line":1,"distance":4102,"transit":false,"i_long":106.79867,"i_lat":-6.144674,"is_transit":false},{"station_id":"DU","is_transit":false,"i_lat":-6.155215,"transit":false,"time":4,"i_long":106.800832,"station_name":"Duri","line":1,"distance":1230},{"distance":3632,"line":1,"station_id":"THB","transit":false,"station_name":"Tanah Abang","is_transit":false,"i_lat":-6.185545,"time":8,"i_long":106.811091},{"line":1,"is_transit":false,"station_id":"KAT","transit":false,"distance":2029,"station_name":"Karet","i_lat":-6.20132,"time":5,"i_long":106.816351},{"station_name":"Sudirman Baru","i_long":106.819881,"transit":false,"station_id":"SUDB","distance":471,"i_lat":-6.201433,"time":1,"is_transit":false,"line":1},{"transit":false,"distance":280,"i_lat":-6.202263,"i_long":106.822649,"time":1,"is_transit":false,"station_id":"SUD","line":1,"station_name":"Sudirman"},{"i_lat":-6.209883,"transit":true,"station_name":"Manggarai","station_id":"MRI","i_long":106.84912,"distance":3186,"time":4,"line":2,"is_transit":true},{"distance":2610,"time":4,"station_name":"Tebet","i_long":106.857948,"i_lat":-6.226659,"station_id":"TEB","line":2,"transit":false,"is_transit":false},{"i_long":106.856607,"station_id":"CW","line":2,"is_transit":false,"distance":1230,"transit":false,"station_name":"Cawang","time":2,"i_lat":-6.242512}],[{"station_id":"KRI","transit":false,"time":0,"is_transit":false,"i_lat":-6.224515,"i_long":106.977657,"line":1,"distance":0,"station_name":"Kranji"},{"station_name":"Cakung","i_long":106.951283,"transit":false,"is_transit":false,"i_lat":-6.219053,"station_id":"CUK","distance":3097,"time":3,"line":1},{"station_id":"KLDB","line":1,"is_transit":false,"time":8,"transit":false,"station_name":"Klenderbaru","i_lat":-6.217455,"i_long":106.939679,"distance":1385},{"station_id":"BUA","distance":1305,"line":1,"i_lat":-6.215568,"i_long":106.922662,"transit":false,"station_name":"Buaran","time":1,"is_transit":false},{"station_name":"Klender","is_transit":false,"line":1,"time":2,"distance":3100,"i_lat":-6.2135,"station_id":"KLD","transit":false,"i_long":106.899548},{"line":1,"transit":true,"distance":3395,"station_name":"Jatinegara","i_lat":-6.215091,"i_long":106.86807400000001,"time":3,"is_transit":true,"station_id":"JNG"},{"is_transit":false,"line":11,"station_name":"Pondok Jati","station_id":"POK","i_lat":-6.209188,"i_long":106.861737,"distance":1236,"transit":false,"time":2},{"line":11,"transit":false,"i_long":106.855437,"station_id":"KMT","distance":1829,"station_name":"Kramat","time":2,"is_transit":false,"i_lat":-6.193792},{"station_name":"Gang Sentiong","distance":973,"transit":false,"i_long":106.850107,"time":1,"station_id":"GST","i_lat":-6.185975,"line":11,"is_transit":false},{"i_long":106.84368,"i_lat":-6.174784,"is_transit":false,"station_id":"PSE","time":8,"line":11,"station_name":"Pasar Senen","distance":1567,"transit":false},{"i_long":106.839204,"distance":1436,"i_lat":-6.161728,"line":11,"station_id":"KMO","is_transit":false,"time":4,"transit":false,"station_name":"Kemayoran"},{"line":11,"station_name":"Rajawali","distance":1901,"time":5,"is_transit":false,"i_long":106.836569,"station_id":"RJW","transit":false,"i_lat":-6.14505},{"station_id":"KPB","time":3,"line":4,"transit":true,"is_transit":true,"i_long":106.826365,"distance":1444,"i_lat":-6.132549,"station_name":"Kampung Bandan"},{"station_id":"JAKK","time":3,"is_transit":true,"station_name":"Jakarta Kota","i_long":106.812439,"transit":true,"i_lat":-6.137569,"line":2,"distance":1364},{"i_long":106.820901,"is_transit":false,"i_lat":-6.141205,"time":4,"station_id":"JAY","station_name":"Jayakarta","distance":1264,"line":2,"transit":false},{"i_long":106.82482,"transit":false,"time":2,"station_id":"MGB","is_transit":false,"line":2,"distance":1080,"station_name":"Manggabesar","i_lat":-6.149769},{"line":2,"transit":false,"i_lat":-6.160725,"time":2,"i_long":106.827103,"station_name":"Sawah Besar","is_transit":false,"station_id":"SW","distance":906},{"station_id":"JUA","distance":1149,"line":2,"transit":false,"is_transit":false,"time":2,"i_lat":-6.166716,"i_long":106.828284,"station_name":"Juanda"},{"time":4,"i_lat":-6.186295,"station_id":"GDD","i_long":106.832183,"station_name":"Gondangdia","transit":false,"distance":2015,"is_transit":false,"line":2},{"station_name":"Cikini","is_transit":false,"i_lat":-6.198556,"transit":false,"time":3,"distance":1750,"station_id":"CKI","i_long":106.840169,"line":2},{"station_name":"Manggarai","i_lat":-6.209883,"i_long":106.84912,"time":4,"is_transit":false,"line":2,"distance":1590,"transit":false,"station_id":"MRI"},{"i_long":106.857948,"is_transit":false,"line":2,"station_id":"TEB","transit":false,"distance":2610,"station_name":"Tebet","time":4,"i_lat":-6.226659},{"is_transit":false,"line":2,"transit":false,"distance":1230,"station_name":"Cawang","i_long":106.856607,"station_id":"CW","i_lat":-6.242512,"time":2}]]}