{"data":[[{"station_id":"KRI","i_long":106.977657,"time":0,"station_name":"Kranji","transit":false,"i_lat":-6.224515,"is_transit":false,"distance":0,"line":1},{"time":3,"station_name":"Cakung","line":1,"distance":3097,"is_transit":false,"transit":false,"i_lat":-6.219053,"i_long":106.951283,"station_id":"CUK"},{"i_long":106.939679,"transit":false,"is_transit":false,"line":1,"time":8,"station_name":"Klenderbaru","station_id":"KLDB","i_lat":-6.217455,"distance":1385},{"station_id":"BUA","is_transit":false,"transit":false,"distance":1305,"station_name":"Buaran","line":1,"i_lat":-6.215568,"time":1,"i_long":106.922662},{"time":2,"distance":3100,"is_transit":false,"station_id":"KLD","station_name":"Klender","transit":false,"i_lat":-6.2135,"i_long":106.899548,"line":1},{"i_long":106.86807400000001,"time":3,"station_id":"JNG","i_lat":-6.215091,"station_name":"Jatinegara","line":1,"distance":3395,"transit":false,"is_transit":false},{"i_lat":-6.212485,"is_transit":false,"station_name":"Matraman","station_id":"MTR","i_long":106.858896,"time":2,"line":1,"transit":false,"distance":1377},{"i_long":106.84912,"line":2,"station_id":"MRI","transit":true,"is_transit":true,"time":2,"i_lat":-6.209883,"distance":1275,"station_name":"Manggarai"},{"station_name":"Tebet","i_lat":-6.226659,"i_long":106.857948,"is_transit":false,"distance":2610,"transit":false,"station_id":"TEB","time":4,"line":2},{"line":2,"is_transit":false,"station_id":"CW","time":2,"station_name":"Cawang","transit":false,"distance":1230,"i_lat":-6.242512,"i_long":106.856607},{"station_id":"DRN","i_lat":-6.255332,"is_transit":false,"line":2,"station_name":"Duren Kalibata","distance":1546,"transit":false,"time":3,"i_long":106.85449},{"distance":824,"i_lat":-6.263214,"is_transit":false,"time":2,"station_id":"PSMB","station_name":"Pasar Minggu Baru","line":2,"i_long":106.851577,"transit":false},{"line":2,"transit":false,"i_lat":-6.2842400000000005,"station_name":"Pasar Minggu","time":2,"i_long":106.843999,"is_transit":false,"station_id":"PSM","distance":2380},{"station_id":"TNT","time":4,"distance":2820,"station_name":"Tanjung Barat","i_lat":-6.3080680000000005,"transit":false,"is_transit":false,"line":2,"i_long":106.838896},{"station_id":"LNA","transit":false,"i_long":106.832616,"line":2,"is_transit":false,"time":3,"i_lat":-6.330363,"distance":2671,"station_name":"Lenteng Agung"},{"time":2,"distance":1029,"station_name":"Univ. Pancasila","transit":false,"i_lat":-6.339291,"is_transit":false,"i_long":106.834175,"station_id":"UP","line":2},{"time":3,"i_lat":-6.360749,"station_name":"Univ. Indonesia","is_transit":false,"station_id":"UI","transit":false,"line":2,"distance":2264,"i_long":106.831474}],[{"i_lat":-6.224515,"station_name":"Kranji","line":1,"station_id":"KRI","i_long":106.977657,"transit":false,"is_transit":false,"time":0,"distance":0},{"line":1,"i_long":106.951283,"station_name":"Cakung","i_lat":-6.219053,"transit":false,"is_transit":false,"time":3,"distance":3097,"station_id":"CUK"},{"station_name":"Klenderbaru","transit":false,"station_id":"KLDB","is_transit":false,"distance":1385,"i_long":106.939679,"i_lat":-6.217455,"time":8,"line":1},{"line":1,"transit":false,"is_transit":false,"time":1,"i_lat":-6.215568,"station_name":"Buaran","distance":1305,"i_long":106.922662,"station_id":"BUA"},{"i_long":106.899548,"is_transit":false,"distance":3100,"station_id":"KLD","transit":false,"time":2,"station_name":"Klender","i_lat":-6.2135,"line":1},{"transit":true,"station_id":"JNG","line":1,"time":3,"station_name":"Jatinegara","i_long":106.86807400000001,"distance":3395,"is_transit":true,"i_lat":-6.215091},{"line":11,"is_transit":false,"i_lat":-6.209188,"i_long":106.861737,"transit":false,"station_name":"Pondok Jati","time":2,"distance":1236,"station_id":"POK"},{"i_long":106.855437,"line":11,"station_id":"KMT","transit":false,"is_transit":false,"time":2,"i_lat":-6.193792,"distance":1829,"station_name":"Kramat"},{"is_transit":false,"station_id":"GST","time":1,"i_lat":-6.185975,"distance":973,"line":11,"i_long":106.850107,"station_name":"Gang Sentiong","transit":false},{"is_transit":false,"station_name":"Pasar Senen","distance":1567,"time":8,"i_long":106.84368,"i_lat":-6.174784,"station_id":"PSE","transit":false,"line":11},{"i_long":106.839204,"line":11,"i_lat":-6.161728,"distance":1436,"is_transit":false,"station_id":"KMO","transit":false,"station_name":"Kemayoran","time":4},{"i_lat":-6.14505,"time":5,"station_name":"Rajawali","line":11,"transit":false,"i_long":106.836569,"is_transit":false,"distance":1901,"station_id":"RJW"},{"line":4,"transit":true,"time":3,"station_id":"KPB","is_transit":true,"station_name":"Kampung Bandan","i_lat":-6.132549,"distance":1444,"i_long":106.826365},{"station_name":"Angke","is_transit":false,"station_id":"AK","i_lat":-6.144674,"transit":false,"i_long":106.79867,"time":9,"distance":4102,"line":1},{"transit":false,"distance":1230,"is_transit":false,"station_id":"DU","station_name":"Duri","line":1,"i_lat":-6.155215,"time":4,"i_long":106.800832},{"time":8,"distance":3632,"transit":false,"i_lat":-6.185545,"is_transit":false,"i_long":106.811091,"station_id":"THB","station_name":"Tanah Abang","line":1},{"time":5,"i_long":106.816351,"line":1,"is_transit":false,"station_id":"KAT","transit":false,"distance":2029,"station_name":"Karet","i_lat":-6.20132},{"time":1,"station_id":"SUDB","line":1,"station_name":"Sudirman Baru","i_lat":-6.201433,"i_long":106.819881,"distance":471,"transit":false,"is_transit":false},{"is_transit":false,"line":1,"time":1,"distance":280,"i_lat":-6.202263,"i_long":106.822649,"station_id":"SUD","station_name":"Sudirman","transit":false},{"is_transit":true,"distance":3186,"line":2,"time":4,"station_id":"MRI","i_long":106.84912,"i_lat":-6.209883,"station_name":"Manggarai","transit":true},{"time":4,"i_lat":-6.226659,"transit":false,"is_transit":false,"i_long":106.857948,"line":2,"station_name":"Tebet","station_id":"TEB","distance":2610},{"line":2,"time":2,"station_name":"Cawang","transit":false,"is_transit":false,"station_id":"CW","distance":1230,"i_lat":-6.242512,"i_long":106.856607},{"is_transit":false,"station_id":"DRN","time":3,"distance":1546,"i_lat":-6.255332,"station_name":"Duren Kalibata","i_long":106.85449,"line":2,"transit":false},{"distance":824,"i_long":106.851577,"line":2,"is_transit":false,"time":2,"station_id":"PSMB","i_lat":-6.263214,"station_name":"Pasar Minggu Baru","transit":false},{"station_name":"Pasar Minggu","is_transit":false,"i_long":106.843999,"distance":2380,"i_lat":-6.2842400000000005,"line":2,"station_id":"PSM","time":2,"transit":false},{"station_id":"TNT","is_transit":false,"station_name":"Tanjung Barat","time":4,"i_long":106.838896,"i_lat":-6.3080680000000005,"line":2,"transit":false,"distance":2820},{"line":2,"distance":2671,"station_name":"Lenteng Agung","transit":false,"i_long":106.832616,"i_lat":-6.330363,"station_id":"LNA","time":3,"is_transit":false},{"is_transit":false,"distance":1029,"i_long":106.834175,"station_name":"Univ. Pancasila","transit":false,"i_lat":-6.339291,"line":2,"time":2,"station_id":"UP"},{"station_name":"Univ. Indonesia","transit":false,"line":2,"is_transit":false,"i_lat":-6.360749,"station_id":"UI","time":3,"i_long":106.831474,"distance":2264}],[{"distance":0,"transit":false,"time":0,"station_id":"KRI","i_long":106.977657,"station_name":"Kranji","line":1,"i_lat":-6.224515,"is_transit":false},{"is_transit":false,"line":1,"i_lat":-6.219053,"time":3,"i_long":106.951283,"station_id":"CUK","transit":false,"station_name":"Cakung","distance":3097},{"time":8,"distance":1385,"is_transit":false,"station_id":"KLDB","i_lat":-6.217455,"i_long":106.939679,"station_name":"Klenderbaru","transit":false,"line":1},{"distance":1305,"line":1,"transit":false,"station_name":"Buaran","i_lat":-6.215568,"is_transit":false,"time":1,"i_long":106.922662,"station_id":"BUA"},{"station_id":"KLD","line":1,"i_long":106.899548,"is_transit":false,"station_name":"Klender","distance":3100,"i_lat":-6.2135,"transit":false,"time":2},{"transit":true,"i_long":106.86807400000001,"i_lat":-6.215091,"station_id":"JNG","is_transit":true,"distance":3395,"station_name":"Jatinegara","time":3,"line":1},{"line":11,"station_id":"POK","transit":false,"i_lat":-6.209188,"time":2,"station_name":"Pondok Jati","distance":1236,"is_transit":false,"i_long":106.861737},{"i_lat":-6.193792,"station_name":"Kramat","transit":false,"is_transit":false,"station_id":"KMT","i_long":106.855437,"time":2,"line":11,"distance":1829},{"station_id":"GST","time":1,"transit":false,"station_name":"Gang Sentiong","line":11,"is_transit":false,"i_long":106.850107,"distance":973,"i_lat":-6.185975},{"is_transit":false,"station_id":"PSE","station_name":"Pasar Senen","line":11,"i_long":106.84368,"i_lat":-6.174784,"distance":1567,"time":8,"transit":false},{"station_name":"Kemayoran","is_transit":false,"distance":1436,"line":11,"i_lat":-6.161728,"station_id":"KMO","time":4,"transit":false,"i_long":106.839204},{"station_name":"Rajawali","transit":false,"distance":1901,"i_long":106.836569,"is_transit":false,"time":5,"station_id":"RJW","line":11,"i_lat":-6.14505},{"i_lat":-6.132549,"transit":true,"distance":1444,"is_transit":true,"station_name":"Kampung Bandan","line":4,"time":3,"station_id":"KPB","i_long":106.826365},{"line":2,"i_lat":-6.137569,"transit":true,"station_id":"JAKK","time":3,"station_name":"Jakarta Kota","distance":1364,"is_transit":true,"i_long":106.812439},{"station_id":"JAY","station_name":"Jayakarta","i_lat":-6.141205,"distance":1264,"line":2,"is_transit":false,"time":4,"transit":false,"i_long":106.820901},{"i_long":106.82482,"station_name":"Manggabesar","station_id":"MGB","i_lat":-6.149769,"line":2,"time":2,"is_transit":false,"distance":1080,"transit":false},{"line":2,"distance":906,"transit":false,"station_id":"SW","station_name":"Sawah Besar","i_long":106.827103,"is_transit":false,"i_lat":-6.160725,"time":2},{"transit":false,"time":2,"i_lat":-6.166716,"i_long":106.828284,"is_transit":false,"distance":1149,"station_name":"Juanda","line":2,"station_id":"JUA"},{"is_transit":false,"distance":2015,"station_name":"Gondangdia","line":2,"station_id":"GDD","i_long":106.832183,"time":4,"i_lat":-6.186295,"transit":false},{"i_long":106.840169,"station_id":"CKI","station_name":"Cikini","i_lat":-6.198556,"time":3,"is_transit":false,"line":2,"distance":1750,"transit":false},{"is_transit":false,"line":2,"time":4,"distance":1590,"i_lat":-6.209883,"station_id":"MRI","station_name":"Manggarai","i_long":106.84912,"transit":false},{"is_transit":false,"station_id":"TEB","i_long":106.857948,"time":4,"station_name":"Tebet","transit":false,"i_lat":-6.226659,"line":2,"distance":2610},{"distance":1230,"station_id":"CW","is_transit":false,"station_name":"Cawang","i_lat":-6.242512,"i_long":106.856607,"transit":false,"time":2,"line":2},{"time":3,"station_name":"Duren Kalibata","line":2,"distance":1546,"station_id":"DRN","transit":false,"i_long":106.85449,"i_lat":-6.255332,"is_transit":false},{"is_transit":false,"i_lat":-6.263214,"distance":824,"station_name":"Pasar Minggu Baru","i_long":106.851577,"time":2,"line":2,"transit":false,"station_id":"PSMB"},{"distance":2380,"i_long":106.843999,"line":2,"transit":false,"is_transit":false,"station_name":"Pasar Minggu","time":2,"station_id":"PSM","i_lat":-6.2842400000000005},{"i_lat":-6.3080680000000005,"transit":false,"i_long":106.838896,"time":4,"station_name":"Tanjung Barat","line":2,"distance":2820,"station_id":"TNT","is_transit":false},{"station_name":"Lenteng Agung","time":3,"station_id":"LNA","distance":2671,"i_lat":-6.330363,"transit":false,"i_long":106.832616,"line":2,"is_transit":false},{"i_long":106.834175,"is_transit":false,"i_lat":-6.339291,"transit":false,"station_name":"Univ. Pancasila","line":2,"time":2,"station_id":"UP","distance":1029},{"time":3,"is_transit":false,"i_lat":-6.360749,"station_id":"UI","line":2,"distance":2264,"station_name":"Univ. Indonesia","transit":false,"i_long":106.831474}]]}