{"data":[[{"is_transit":false,"distance":0,"i_long":106.977657,"i_lat":-6.224515,"line":1,"time":0,"transit":false,"station_name":"Kranji","station_id":"KRI"},{"distance":3097,"i_lat":-6.219053,"i_long":106.951283,"is_transit":false,"time":3,"line":1,"station_id":"CUK","station_name":"Cakung","transit":false},{"transit":false,"is_transit":false,"i_lat":-6.217455,"station_name":"Klenderbaru","line":1,"distance":1385,"i_long":106.939679,"time":8,"station_id":"KLDB"},{"is_transit":false,"distance":1305,"line":1,"station_id":"BUA","i_lat":-6.215568,"station_name":"Buaran","transit":false,"time":1,"i_long":106.922662},{"i_long":106.899548,"distance":3100,"station_name":"Klender","station_id":"KLD","is_transit":false,"time":2,"line":1,"transit":false,"i_lat":-6.2135},{"time":3,"is_transit":false,"transit":false,"distance":3395,"station_id":"JNG","line":1,"i_lat":-6.215091,"station_name":"Jatinegara","i_long":106.86807400000001},{"station_id":"MTR","time":2,"transit":false,"is_transit":false,"i_lat":-6.212485,"station_name":"Matraman","i_long":106.858896,"line":1,"distance":1377},{"is_transit":false,"transit":false,"distance":1275,"line":2,"i_lat":-6.209883,"time":2,"station_id":"MRI","station_name":"Manggarai","i_long":106.84912},{"time":4,"station_id":"SUD","station_name":"Sudirman","is_transit":false,"transit":false,"i_lat":-6.202263,"line":1,"distance":3186,"i_long":106.822649},{"i_lat":-6.201433,"distance":280,"is_transit":false,"i_long":106.819881,"station_id":"SUDB","station_name":"Sudirman Baru","transit":false,"time":1,"line":1}],[{"station_name":"Kranji","is_transit":false,"i_long":106.977657,"transit":false,"distance":0,"time":0,"i_lat":-6.224515,"line":1,"station_id":"KRI"},{"distance":3097,"i_long":106.951283,"i_lat":-6.219053,"is_transit":false,"transit":false,"line":1,"time":3,"station_id":"CUK","station_name":"Cakung"},{"time":8,"i_lat":-6.217455,"i_long":106.939679,"station_name":"Klenderbaru","transit":false,"distance":1385,"station_id":"KLDB","is_transit":false,"line":1},{"station_id":"BUA","time":1,"i_lat":-6.215568,"i_long":106.922662,"station_name":"Buaran","is_transit":false,"line":1,"transit":false,"distance":1305},{"station_name":"Klender","line":1,"time":2,"i_long":106.899548,"is_transit":false,"station_id":"KLD","i_lat":-6.2135,"distance":3100,"transit":false},{"i_long":106.86807400000001,"station_id":"JNG","i_lat":-6.215091,"line":1,"time":3,"distance":3395,"station_name":"Jatinegara","is_transit":true,"transit":true},{"station_name":"Pondok Jati","distance":1236,"transit":false,"is_transit":false,"station_id":"POK","i_lat":-6.209188,"i_long":106.861737,"time":2,"line":11},{"time":2,"distance":1829,"i_lat":-6.193792,"line":11,"station_name":"Kramat","i_long":106.855437,"station_id":"KMT","is_transit":false,"transit":false},{"is_transit":false,"line":11,"distance":973,"station_id":"GST","i_lat":-6.185975,"transit":false,"station_name":"Gang Sentiong","time":1,"i_long":106.850107},{"i_lat":-6.174784,"i_long":106.84368,"distance":1567,"is_transit":false,"station_id":"PSE","station_name":"Pasar Senen","transit":false,"time":8,"line":11},{"is_transit":false,"i_lat":-6.161728,"distance":1436,"time":4,"i_long":106.839204,"line":11,"station_name":"Kemayoran","station_id":"KMO","transit":false},{"station_id":"RJW","transit":false,"station_name":"Rajawali","i_lat":-6.14505,"i_long":106.836569,"line":11,"distance":1901,"time":5,"is_transit":false},{"transit":true,"distance":1444,"i_lat":-6.132549,"station_name":"Kampung Bandan","i_long":106.826365,"station_id":"KPB","time":3,"line":4,"is_transit":true},{"distance":4102,"station_name":"Angke","station_id":"AK","time":9,"i_long":106.79867,"is_transit":false,"transit":false,"i_lat":-6.144674,"line":1},{"line":1,"i_long":106.800832,"station_id":"DU","transit":false,"is_transit":false,"time":4,"i_lat":-6.155215,"station_name":"Duri","distance":1230},{"distance":3632,"is_transit":false,"i_long":106.811091,"station_name":"Tanah Abang","time":8,"transit":false,"i_lat":-6.185545,"station_id":"THB","line":1},{"i_lat":-6.20132,"line":1,"time":5,"transit":false,"station_id":"KAT","station_name":"Karet","distance":2029,"is_transit":false,"i_long":106.816351},{"station_name":"Sudirman Baru","time":1,"distance":471,"i_long":106.819881,"is_transit":false,"transit":false,"i_lat":-6.201433,"line":1,"station_id":"SUDB"}],[{"line":1,"station_id":"KRI","station_name":"Kranji","transit":false,"time":0,"distance":0,"is_transit":false,"i_lat":-6.224515,"i_long":106.977657},{"transit":false,"station_id":"CUK","i_lat":-6.219053,"time":3,"station_name":"Cakung","i_long":106.951283,"line":1,"is_transit":false,"distance":3097},{"transit":false,"line":1,"distance":1385,"station_name":"Klenderbaru","i_long":106.939679,"i_lat":-6.217455,"time":8,"station_id":"KLDB","is_transit":false},{"distance":1305,"transit":false,"is_transit":false,"i_lat":-6.215568,"station_name":"Buaran","line":1,"time":1,"station_id":"BUA","i_long":106.922662},{"i_lat":-6.2135,"is_transit":false,"station_id":"KLD","i_long":106.899548,"time":2,"transit":false,"station_name":"Klender","line":1,"distance":3100},{"station_name":"Jatinegara","transit":false,"line":1,"is_transit":false,"time":3,"i_lat":-6.215091,"i_long":106.86807400000001,"station_id":"JNG","distance":3395},{"station_name":"Matraman","transit":false,"i_long":106.858896,"line":1,"time":2,"station_id":"MTR","distance":1377,"is_transit":false,"i_lat":-6.212485},{"line":2,"station_id":"MRI","time":2,"distance":1275,"is_transit":true,"transit":true,"station_name":"Manggarai","i_lat":-6.209883,"i_long":106.84912},{"line":2,"station_name":"Cikini","i_long":106.840169,"is_transit":false,"station_id":"CKI","transit":false,"distance":1590,"i_lat":-6.198556,"time":4},{"station_id":"GDD","distance":1750,"i_long":106.832183,"station_name":"Gondangdia","i_lat":-6.186295,"line":2,"time":3,"is_transit":false,"transit":false},{"station_name":"Juanda","station_id":"JUA","i_long":106.828284,"line":2,"i_lat":-6.166716,"is_transit":false,"time":4,"transit":false,"distance":2015},{"distance":1149,"station_name":"Sawah Besar","i_lat":-6.160725,"i_long":106.827103,"is_transit":false,"line":2,"time":2,"station_id":"SW","transit":false},{"station_name":"Manggabesar","i_lat":-6.149769,"time":2,"i_long":106.82482,"distance":906,"transit":false,"station_id":"MGB","is_transit":false,"line":2},{"station_name":"Jayakarta","i_lat":-6.141205,"i_long":106.820901,"is_transit":false,"transit":false,"line":2,"distance":1080,"time":2,"station_id":"JAY"},{"station_id":"JAKK","i_long":106.812439,"time":4,"transit":true,"i_lat":-6.137569,"distance":1264,"line":2,"station_name":"Jakarta Kota","is_transit":true},{"is_transit":true,"station_id":"KPB","i_long":106.826365,"station_name":"Kampung Bandan","line":4,"time":3,"distance":1364,"i_lat":-6.132549,"transit":true},{"i_lat":-6.144674,"transit":false,"station_name":"Angke","distance":4102,"line":1,"time":9,"is_transit":false,"i_long":106.79867,"station_id":"AK"},{"line":1,"is_transit":false,"time":4,"station_id":"DU","distance":1230,"transit":false,"station_name":"Duri","i_lat":-6.155215,"i_long":106.800832},{"i_lat":-6.185545,"line":1,"time":8,"transit":false,"is_transit":false,"station_id":"THB","i_long":106.811091,"distance":3632,"station_name":"Tanah Abang"},{"i_long":106.816351,"i_lat":-6.20132,"station_id":"KAT","transit":false,"distance":2029,"time":5,"station_name":"Karet","line":1,"is_transit":false},{"time":1,"i_lat":-6.201433,"line":1,"is_transit":false,"i_long":106.819881,"distance":471,"station_id":"SUDB","station_name":"Sudirman Baru","transit":false}],[{"is_transit":false,"transit":false,"station_id":"KRI","distance":0,"i_long":106.977657,"i_lat":-6.224515,"line":1,"time":0,"station_name":"Kranji"},{"i_long":106.951283,"station_id":"CUK","station_name":"Cakung","time":3,"is_transit":false,"distance":3097,"i_lat":-6.219053,"line":1,"transit":false},{"i_lat":-6.217455,"line":1,"transit":false,"time":8,"i_long":106.939679,"distance":1385,"station_name":"Klenderbaru","station_id":"KLDB","is_transit":false},{"transit":false,"i_lat":-6.215568,"is_transit":false,"station_id":"BUA","time":1,"distance":1305,"line":1,"station_name":"Buaran","i_long":106.922662},{"i_lat":-6.2135,"time":2,"distance":3100,"is_transit":false,"station_name":"Klender","i_long":106.899548,"station_id":"KLD","line":1,"transit":false},{"distance":3395,"is_transit":true,"station_id":"JNG","time":3,"transit":true,"station_name":"Jatinegara","i_lat":-6.215091,"i_long":106.86807400000001,"line":1},{"distance":1236,"time":2,"i_lat":-6.209188,"i_long":106.861737,"station_id":"POK","station_name":"Pondok Jati","line":11,"transit":false,"is_transit":false},{"station_id":"KMT","line":11,"station_name":"Kramat","i_lat":-6.193792,"distance":1829,"time":2,"i_long":106.855437,"transit":false,"is_transit":false},{"is_transit":false,"transit":false,"i_long":106.850107,"distance":973,"station_id":"GST","time":1,"i_lat":-6.185975,"line":11,"station_name":"Gang Sentiong"},{"time":8,"station_id":"PSE","i_lat":-6.174784,"i_long":106.84368,"is_transit":false,"station_name":"Pasar Senen","distance":1567,"transit":false,"line":11},{"line":11,"distance":1436,"time":4,"station_name":"Kemayoran","i_lat":-6.161728,"i_long":106.839204,"station_id":"KMO","transit":false,"is_transit":false},{"i_lat":-6.14505,"i_long":106.836569,"line":11,"station_id":"RJW","distance":1901,"is_transit":false,"time":5,"station_name":"Rajawali","transit":false},{"time":3,"i_lat":-6.132549,"i_long":106.826365,"line":4,"station_name":"Kampung Bandan","distance":1444,"transit":true,"station_id":"KPB","is_transit":true},{"is_transit":true,"line":2,"distance":1364,"i_lat":-6.137569,"i_long":106.812439,"station_id":"JAKK","transit":true,"station_name":"Jakarta Kota","time":3},{"distance":1264,"station_id":"JAY","transit":false,"time":4,"line":2,"station_name":"Jayakarta","is_transit":false,"i_lat":-6.141205,"i_long":106.820901},{"is_transit":false,"station_name":"Manggabesar","distance":1080,"line":2,"station_id":"MGB","transit":false,"time":2,"i_lat":-6.149769,"i_long":106.82482},{"transit":false,"station_id":"SW","is_transit":false,"i_long":106.827103,"time":2,"distance":906,"i_lat":-6.160725,"line":2,"station_name":"Sawah Besar"},{"i_long":106.828284,"transit":false,"distance":1149,"line":2,"station_id":"JUA","i_lat":-6.166716,"is_transit":false,"time":2,"station_name":"Juanda"},{"station_name":"Gondangdia","i_long":106.832183,"i_lat":-6.186295,"distance":2015,"station_id":"GDD","line":2,"is_transit":false,"transit":false,"time":4},{"time":3,"transit":false,"is_transit":false,"i_lat":-6.198556,"station_name":"Cikini","line":2,"i_long":106.840169,"station_id":"CKI","distance":1750},{"time":4,"station_name":"Manggarai","transit":true,"distance":1590,"station_id":"MRI","line":2,"i_lat":-6.209883,"i_long":106.84912,"is_transit":true},{"distance":3186,"i_long":106.822649,"time":4,"station_name":"Sudirman","line":1,"is_transit":false,"i_lat":-6.202263,"transit":false,"station_id":"SUD"},{"is_transit":false,"time":1,"i_long":106.819881,"transit":false,"i_lat":-6.201433,"station_name":"Sudirman Baru","station_id":"SUDB","distance":280,"line":1}]]}