{"data":[[{"distance":0,"i_lat":-6.224515,"station_name":"Kranji","is_transit":false,"station_id":"KRI","i_long":106.977657,"line":1,"transit":false,"time":0},{"time":3,"distance":3097,"station_name":"Cakung","transit":false,"is_transit":false,"station_id":"CUK","i_lat":-6.219053,"i_long":106.951283,"line":1},{"is_transit":false,"i_long":106.939679,"distance":1385,"station_name":"Klenderbaru","time":8,"i_lat":-6.217455,"line":1,"transit":false,"station_id":"KLDB"},{"station_id":"BUA","i_lat":-6.215568,"time":1,"i_long":106.922662,"station_name":"Buaran","distance":1305,"line":1,"is_transit":false,"transit":false},{"i_lat":-6.2135,"is_transit":false,"station_id":"KLD","station_name":"Klender","i_long":106.899548,"line":1,"distance":3100,"transit":false,"time":2},{"i_long":106.86807400000001,"line":1,"is_transit":true,"time":3,"distance":3395,"transit":true,"i_lat":-6.215091,"station_id":"JNG","station_name":"Jatinegara"},{"i_lat":-6.209188,"distance":1236,"line":11,"station_id":"POK","i_long":106.861737,"transit":false,"station_name":"Pondok Jati","time":2,"is_transit":false},{"i_long":106.855437,"i_lat":-6.193792,"is_transit":false,"line":11,"time":2,"transit":false,"station_name":"Kramat","station_id":"KMT","distance":1829},{"time":1,"station_id":"GST","station_name":"Gang Sentiong","transit":false,"i_long":106.850107,"is_transit":false,"distance":973,"i_lat":-6.185975,"line":11},{"transit":false,"distance":1567,"line":11,"i_long":106.84368,"is_transit":false,"station_id":"PSE","time":8,"i_lat":-6.174784,"station_name":"Pasar Senen"},{"station_id":"KMO","i_lat":-6.161728,"transit":false,"time":4,"is_transit":false,"distance":1436,"i_long":106.839204,"station_name":"Kemayoran","line":11},{"i_long":106.836569,"line":11,"is_transit":false,"i_lat":-6.14505,"distance":1901,"transit":false,"station_id":"RJW","station_name":"Rajawali","time":5},{"station_id":"KPB","is_transit":false,"time":3,"i_lat":-6.132549,"station_name":"Kampung Bandan","i_long":106.826365,"line":4,"distance":1444,"transit":false}],[{"distance":0,"transit":false,"station_name":"Kranji","i_long":106.977657,"line":1,"is_transit":false,"i_lat":-6.224515,"station_id":"KRI","time":0},{"line":1,"transit":false,"is_transit":false,"i_long":106.951283,"distance":3097,"station_id":"CUK","i_lat":-6.219053,"station_name":"Cakung","time":3},{"station_name":"Klenderbaru","time":8,"station_id":"KLDB","line":1,"transit":false,"i_long":106.939679,"is_transit":false,"i_lat":-6.217455,"distance":1385},{"transit":false,"distance":1305,"line":1,"is_transit":false,"time":1,"i_lat":-6.215568,"station_id":"BUA","station_name":"Buaran","i_long":106.922662},{"station_id":"KLD","line":1,"i_lat":-6.2135,"transit":false,"time":2,"distance":3100,"i_long":106.899548,"is_transit":false,"station_name":"Klender"},{"is_transit":false,"i_lat":-6.215091,"i_long":106.86807400000001,"line":1,"distance":3395,"transit":false,"station_name":"Jatinegara","time":3,"station_id":"JNG"},{"station_id":"MTR","time":2,"transit":false,"i_long":106.858896,"distance":1377,"i_lat":-6.212485,"is_transit":false,"line":1,"station_name":"Matraman"},{"i_lat":-6.209883,"line":2,"i_long":106.84912,"station_name":"Manggarai","transit":false,"is_transit":false,"station_id":"MRI","time":2,"distance":1275},{"station_id":"SUD","distance":3186,"i_long":106.822649,"is_transit":false,"i_lat":-6.202263,"station_name":"Sudirman","line":1,"transit":false,"time":4},{"station_name":"Sudirman Baru","time":1,"i_lat":-6.201433,"i_long":106.819881,"station_id":"SUDB","is_transit":false,"line":1,"transit":false,"distance":280},{"distance":471,"station_name":"Karet","line":1,"i_long":106.816351,"is_transit":false,"i_lat":-6.20132,"time":1,"transit":false,"station_id":"KAT"},{"distance":2029,"i_lat":-6.185545,"transit":false,"is_transit":false,"time":5,"i_long":106.811091,"station_name":"Tanah Abang","line":1,"station_id":"THB"},{"distance":3632,"line":1,"i_long":106.800832,"station_name":"Duri","time":8,"i_lat":-6.155215,"station_id":"DU","transit":false,"is_transit":false},{"time":4,"station_id":"AK","i_long":106.79867,"distance":1230,"line":1,"transit":false,"i_lat":-6.144674,"is_transit":false,"station_name":"Angke"},{"transit":false,"station_id":"KPB","distance":4102,"i_long":106.826365,"is_transit":false,"i_lat":-6.132549,"line":4,"time":9,"station_name":"Kampung Bandan"}],[{"i_long":106.977657,"time":0,"transit":false,"station_id":"KRI","distance":0,"line":1,"i_lat":-6.224515,"station_name":"Kranji","is_transit":false},{"station_id":"CUK","i_long":106.951283,"i_lat":-6.219053,"distance":3097,"line":1,"time":3,"transit":false,"station_name":"Cakung","is_transit":false},{"time":8,"is_transit":false,"i_long":106.939679,"station_id":"KLDB","distance":1385,"line":1,"transit":false,"i_lat":-6.217455,"station_name":"Klenderbaru"},{"station_id":"BUA","time":1,"is_transit":false,"i_lat":-6.215568,"i_long":106.922662,"line":1,"distance":1305,"station_name":"Buaran","transit":false},{"station_name":"Klender","time":2,"station_id":"KLD","distance":3100,"i_lat":-6.2135,"transit":false,"i_long":106.899548,"line":1,"is_transit":false},{"is_transit":false,"i_long":106.86807400000001,"station_name":"Jatinegara","line":1,"station_id":"JNG","i_lat":-6.215091,"distance":3395,"transit":false,"time":3},{"transit":false,"station_id":"MTR","i_long":106.858896,"i_lat":-6.212485,"line":1,"station_name":"Matraman","time":2,"distance":1377,"is_transit":false},{"station_id":"MRI","i_lat":-6.209883,"line":2,"i_long":106.84912,"time":2,"is_transit":true,"distance":1275,"station_name":"Manggarai","transit":true},{"is_transit":false,"line":2,"station_id":"CKI","time":4,"transit":false,"i_lat":-6.198556,"i_long":106.840169,"distance":1590,"station_name":"Cikini"},{"line":2,"distance":1750,"is_transit":false,"transit":false,"station_id":"GDD","station_name":"Gondangdia","i_lat":-6.186295,"i_long":106.832183,"time":3},{"i_long":106.828284,"distance":2015,"is_transit":false,"transit":false,"station_name":"Juanda","station_id":"JUA","line":2,"i_lat":-6.166716,"time":4},{"station_id":"SW","distance":1149,"line":2,"station_name":"Sawah Besar","is_transit":false,"i_long":106.827103,"i_lat":-6.160725,"transit":false,"time":2},{"station_id":"MGB","line":2,"time":2,"is_transit":false,"distance":906,"transit":false,"station_name":"Manggabesar","i_lat":-6.149769,"i_long":106.82482},{"time":2,"station_name":"Jayakarta","distance":1080,"i_long":106.820901,"station_id":"JAY","line":2,"transit":false,"is_transit":false,"i_lat":-6.141205},{"station_id":"JAKK","time":4,"station_name":"Jakarta Kota","is_transit":true,"i_lat":-6.137569,"i_long":106.812439,"distance":1264,"line":2,"transit":true},{"transit":false,"i_lat":-6.132549,"is_transit":false,"line":4,"station_id":"KPB","station_name":"Kampung Bandan","time":3,"distance":1364,"i_long":106.826365}]]}