{"data":[[{"time":0,"distance":0,"is_transit":false,"station_id":"KRI","i_long":106.977657,"line":1,"i_lat":-6.224515,"transit":false,"station_name":"Kranji"},{"i_lat":-6.219053,"line":1,"i_long":106.951283,"distance":3097,"station_id":"CUK","station_name":"Cakung","transit":false,"is_transit":false,"time":3},{"station_name":"Klenderbaru","time":8,"is_transit":false,"i_long":106.939679,"i_lat":-6.217455,"transit":false,"station_id":"KLDB","line":1,"distance":1385},{"i_long":106.922662,"time":1,"i_lat":-6.215568,"transit":false,"distance":1305,"is_transit":false,"station_name":"Buaran","station_id":"BUA","line":1},{"transit":false,"station_id":"KLD","line":1,"is_transit":false,"distance":3100,"station_name":"Klender","i_long":106.899548,"i_lat":-6.2135,"time":2},{"is_transit":true,"i_long":106.86807400000001,"station_id":"JNG","time":3,"transit":true,"line":1,"station_name":"Jatinegara","i_lat":-6.215091,"distance":3395},{"distance":1236,"time":2,"line":11,"i_long":106.861737,"i_lat":-6.209188,"is_transit":false,"station_name":"Pondok Jati","transit":false,"station_id":"POK"},{"time":2,"station_id":"KMT","transit":false,"distance":1829,"i_lat":-6.193792,"station_name":"Kramat","is_transit":false,"i_long":106.855437,"line":11},{"time":1,"station_id":"GST","distance":973,"i_lat":-6.185975,"station_name":"Gang Sentiong","line":11,"i_long":106.850107,"transit":false,"is_transit":false},{"i_long":106.84368,"station_name":"Pasar Senen","is_transit":false,"station_id":"PSE","distance":1567,"transit":false,"time":8,"i_lat":-6.174784,"line":11},{"is_transit":false,"station_id":"KMO","line":11,"time":4,"station_name":"Kemayoran","i_lat":-6.161728,"transit":false,"i_long":106.839204,"distance":1436},{"distance":1901,"i_long":106.836569,"line":11,"station_id":"RJW","i_lat":-6.14505,"transit":false,"is_transit":false,"time":5,"station_name":"Rajawali"}],[{"is_transit":false,"line":1,"station_id":"KRI","time":0,"distance":0,"i_long":106.977657,"transit":false,"station_name":"Kranji","i_lat":-6.224515},{"time":3,"i_lat":-6.219053,"line":1,"transit":false,"station_name":"Cakung","is_transit":false,"station_id":"CUK","distance":3097,"i_long":106.951283},{"i_lat":-6.217455,"line":1,"i_long":106.939679,"station_id":"KLDB","is_transit":false,"station_name":"Klenderbaru","time":8,"distance":1385,"transit":false},{"distance":1305,"station_name":"Buaran","transit":false,"line":1,"station_id":"BUA","time":1,"i_lat":-6.215568,"is_transit":false,"i_long":106.922662},{"station_name":"Klender","is_transit":false,"i_long":106.899548,"station_id":"KLD","time":2,"distance":3100,"transit":false,"i_lat":-6.2135,"line":1},{"distance":3395,"transit":false,"i_lat":-6.215091,"station_name":"Jatinegara","i_long":106.86807400000001,"station_id":"JNG","line":1,"is_transit":false,"time":3},{"distance":1377,"i_long":106.858896,"i_lat":-6.212485,"is_transit":false,"line":1,"transit":false,"station_name":"Matraman","station_id":"MTR","time":2},{"time":2,"i_long":106.84912,"station_name":"Manggarai","station_id":"MRI","is_transit":false,"i_lat":-6.209883,"transit":false,"distance":1275,"line":2},{"station_id":"SUD","is_transit":false,"i_long":106.822649,"distance":3186,"time":4,"i_lat":-6.202263,"line":1,"station_name":"Sudirman","transit":false},{"i_lat":-6.201433,"time":1,"station_id":"SUDB","transit":false,"station_name":"Sudirman Baru","distance":280,"line":1,"is_transit":false,"i_long":106.819881},{"station_id":"KAT","transit":false,"i_lat":-6.20132,"station_name":"Karet","i_long":106.816351,"time":1,"is_transit":false,"distance":471,"line":1},{"i_long":106.811091,"transit":false,"is_transit":false,"distance":2029,"time":5,"i_lat":-6.185545,"station_name":"Tanah Abang","line":1,"station_id":"THB"},{"i_lat":-6.155215,"time":8,"line":1,"transit":false,"i_long":106.800832,"distance":3632,"is_transit":false,"station_name":"Duri","station_id":"DU"},{"station_name":"Angke","station_id":"AK","transit":false,"i_lat":-6.144674,"distance":1230,"i_long":106.79867,"time":4,"is_transit":false,"line":1},{"time":9,"station_id":"KPB","i_lat":-6.132549,"distance":4102,"line":4,"station_name":"Kampung Bandan","i_long":106.826365,"transit":true,"is_transit":true},{"time":3,"transit":false,"i_long":106.836569,"i_lat":-6.14505,"line":11,"is_transit":false,"station_name":"Rajawali","distance":1444,"station_id":"RJW"}],[{"distance":0,"station_id":"KRI","i_lat":-6.224515,"station_name":"Kranji","i_long":106.977657,"transit":false,"line":1,"is_transit":false,"time":0},{"transit":false,"time":3,"i_lat":-6.219053,"distance":3097,"line":1,"station_name":"Cakung","station_id":"CUK","i_long":106.951283,"is_transit":false},{"is_transit":false,"i_long":106.939679,"line":1,"transit":false,"i_lat":-6.217455,"time":8,"station_name":"Klenderbaru","station_id":"KLDB","distance":1385},{"transit":false,"station_id":"BUA","is_transit":false,"time":1,"line":1,"i_lat":-6.215568,"distance":1305,"i_long":106.922662,"station_name":"Buaran"},{"station_id":"KLD","distance":3100,"i_lat":-6.2135,"line":1,"is_transit":false,"station_name":"Klender","i_long":106.899548,"transit":false,"time":2},{"station_id":"JNG","is_transit":false,"distance":3395,"i_lat":-6.215091,"line":1,"time":3,"station_name":"Jatinegara","transit":false,"i_long":106.86807400000001},{"i_lat":-6.212485,"i_long":106.858896,"transit":false,"station_id":"MTR","station_name":"Matraman","distance":1377,"time":2,"is_transit":false,"line":1},{"transit":true,"i_lat":-6.209883,"line":2,"station_id":"MRI","station_name":"Manggarai","distance":1275,"is_transit":true,"i_long":106.84912,"time":2},{"distance":1590,"station_name":"Cikini","transit":false,"station_id":"CKI","i_long":106.840169,"is_transit":false,"time":4,"i_lat":-6.198556,"line":2},{"time":3,"i_long":106.832183,"line":2,"i_lat":-6.186295,"station_name":"Gondangdia","is_transit":false,"station_id":"GDD","transit":false,"distance":1750},{"time":4,"distance":2015,"is_transit":false,"line":2,"i_lat":-6.166716,"i_long":106.828284,"station_id":"JUA","transit":false,"station_name":"Juanda"},{"station_id":"SW","transit":false,"i_long":106.827103,"line":2,"i_lat":-6.160725,"is_transit":false,"time":2,"distance":1149,"station_name":"Sawah Besar"},{"time":2,"is_transit":false,"i_long":106.82482,"i_lat":-6.149769,"line":2,"station_id":"MGB","distance":906,"transit":false,"station_name":"Manggabesar"},{"station_id":"JAY","is_transit":false,"station_name":"Jayakarta","time":2,"i_lat":-6.141205,"transit":false,"i_long":106.820901,"line":2,"distance":1080},{"i_long":106.812439,"line":2,"station_name":"Jakarta Kota","time":4,"is_transit":true,"i_lat":-6.137569,"station_id":"JAKK","transit":true,"distance":1264},{"is_transit":true,"i_long":106.826365,"i_lat":-6.132549,"station_id":"KPB","time":3,"station_name":"Kampung Bandan","line":4,"distance":1364,"transit":true},{"i_long":106.836569,"line":11,"time":3,"transit":false,"distance":1444,"station_name":"Rajawali","station_id":"RJW","is_transit":false,"i_lat":-6.14505}]]}