{"data":[[{"distance":0,"transit":false,"i_lat":-6.224515,"line":1,"i_long":106.977657,"station_id":"KRI","station_name":"Kranji","is_transit":false,"time":0},{"i_lat":-6.219053,"time":3,"distance":3097,"transit":false,"i_long":106.951283,"is_transit":false,"station_name":"Cakung","line":1,"station_id":"CUK"},{"distance":1385,"transit":false,"station_name":"Klenderbaru","line":1,"is_transit":false,"i_lat":-6.217455,"station_id":"KLDB","time":8,"i_long":106.939679},{"transit":false,"i_lat":-6.215568,"i_long":106.922662,"station_name":"Buaran","station_id":"BUA","line":1,"distance":1305,"time":1,"is_transit":false},{"transit":false,"i_long":106.899548,"distance":3100,"line":1,"station_name":"Klender","station_id":"KLD","time":2,"is_transit":false,"i_lat":-6.2135},{"station_id":"JNG","is_transit":false,"station_name":"Jatinegara","i_long":106.86807400000001,"transit":false,"i_lat":-6.215091,"line":1,"time":3,"distance":3395},{"distance":1377,"station_name":"Matraman","is_transit":false,"transit":false,"time":2,"line":1,"station_id":"MTR","i_lat":-6.212485,"i_long":106.858896},{"is_transit":true,"distance":1275,"time":2,"i_lat":-6.209883,"i_long":106.84912,"station_name":"Manggarai","line":2,"transit":true,"station_id":"MRI"},{"i_lat":-6.226659,"station_name":"Tebet","distance":2610,"i_long":106.857948,"line":2,"transit":false,"station_id":"TEB","is_transit":false,"time":4},{"i_lat":-6.242512,"station_name":"Cawang","transit":false,"station_id":"CW","time":2,"distance":1230,"i_long":106.856607,"line":2,"is_transit":false}],[{"i_long":106.977657,"time":0,"line":1,"is_transit":false,"station_name":"Kranji","distance":0,"transit":false,"station_id":"KRI","i_lat":-6.224515},{"station_id":"CUK","station_name":"Cakung","is_transit":false,"i_lat":-6.219053,"i_long":106.951283,"transit":false,"line":1,"time":3,"distance":3097},{"transit":false,"station_id":"KLDB","station_name":"Klenderbaru","distance":1385,"i_lat":-6.217455,"line":1,"is_transit":false,"time":8,"i_long":106.939679},{"i_long":106.922662,"is_transit":false,"i_lat":-6.215568,"station_id":"BUA","station_name":"Buaran","transit":false,"time":1,"distance":1305,"line":1},{"i_lat":-6.2135,"distance":3100,"line":1,"station_id":"KLD","is_transit":false,"i_long":106.899548,"transit":false,"station_name":"Klender","time":2},{"distance":3395,"is_transit":true,"transit":true,"time":3,"station_name":"Jatinegara","station_id":"JNG","i_lat":-6.215091,"line":1,"i_long":106.86807400000001},{"is_transit":false,"i_lat":-6.209188,"i_long":106.861737,"transit":false,"time":2,"distance":1236,"station_name":"Pondok Jati","line":11,"station_id":"POK"},{"station_id":"KMT","is_transit":false,"i_lat":-6.193792,"line":11,"transit":false,"station_name":"Kramat","i_long":106.855437,"time":2,"distance":1829},{"station_id":"GST","distance":973,"line":11,"transit":false,"i_long":106.850107,"is_transit":false,"i_lat":-6.185975,"station_name":"Gang Sentiong","time":1},{"station_id":"PSE","is_transit":false,"station_name":"Pasar Senen","i_long":106.84368,"i_lat":-6.174784,"distance":1567,"line":11,"time":8,"transit":false},{"station_name":"Kemayoran","is_transit":false,"transit":false,"station_id":"KMO","i_lat":-6.161728,"line":11,"i_long":106.839204,"distance":1436,"time":4},{"i_lat":-6.14505,"station_id":"RJW","i_long":106.836569,"transit":false,"line":11,"station_name":"Rajawali","time":5,"distance":1901,"is_transit":false},{"line":4,"distance":1444,"i_lat":-6.132549,"station_id":"KPB","time":3,"transit":true,"is_transit":true,"i_long":106.826365,"station_name":"Kampung Bandan"},{"time":9,"is_transit":false,"distance":4102,"station_name":"Angke","line":1,"i_long":106.79867,"station_id":"AK","transit":false,"i_lat":-6.144674},{"station_id":"DU","i_long":106.800832,"distance":1230,"time":4,"line":1,"i_lat":-6.155215,"is_transit":false,"transit":false,"station_name":"Duri"},{"line":1,"station_id":"THB","station_name":"Tanah Abang","is_transit":false,"i_lat":-6.185545,"transit":false,"i_long":106.811091,"time":8,"distance":3632},{"station_name":"Karet","distance":2029,"is_transit":false,"i_long":106.816351,"line":1,"time":5,"transit":false,"i_lat":-6.20132,"station_id":"KAT"},{"time":1,"i_long":106.819881,"transit":false,"station_name":"Sudirman Baru","is_transit":false,"station_id":"SUDB","line":1,"distance":471,"i_lat":-6.201433},{"i_long":106.822649,"transit":false,"station_name":"Sudirman","line":1,"is_transit":false,"station_id":"SUD","time":1,"distance":280,"i_lat":-6.202263},{"i_lat":-6.209883,"station_name":"Manggarai","transit":true,"is_transit":true,"time":4,"distance":3186,"i_long":106.84912,"line":2,"station_id":"MRI"},{"line":2,"station_id":"TEB","time":4,"is_transit":false,"i_lat":-6.226659,"distance":2610,"station_name":"Tebet","i_long":106.857948,"transit":false},{"transit":false,"is_transit":false,"i_long":106.856607,"line":2,"station_id":"CW","time":2,"station_name":"Cawang","i_lat":-6.242512,"distance":1230}],[{"line":1,"i_long":106.977657,"distance":0,"station_id":"KRI","transit":false,"station_name":"Kranji","is_transit":false,"time":0,"i_lat":-6.224515},{"transit":false,"station_name":"Cakung","time":3,"i_long":106.951283,"is_transit":false,"distance":3097,"station_id":"CUK","i_lat":-6.219053,"line":1},{"distance":1385,"station_name":"Klenderbaru","line":1,"time":8,"i_long":106.939679,"i_lat":-6.217455,"is_transit":false,"transit":false,"station_id":"KLDB"},{"station_id":"BUA","distance":1305,"i_long":106.922662,"transit":false,"i_lat":-6.215568,"is_transit":false,"line":1,"station_name":"Buaran","time":1},{"i_long":106.899548,"is_transit":false,"distance":3100,"station_id":"KLD","transit":false,"time":2,"station_name":"Klender","line":1,"i_lat":-6.2135},{"distance":3395,"i_lat":-6.215091,"is_transit":true,"line":1,"i_long":106.86807400000001,"transit":true,"time":3,"station_name":"Jatinegara","station_id":"JNG"},{"i_long":106.861737,"station_name":"Pondok Jati","transit":false,"station_id":"POK","distance":1236,"line":11,"is_transit":false,"time":2,"i_lat":-6.209188},{"time":2,"distance":1829,"station_id":"KMT","transit":false,"i_lat":-6.193792,"i_long":106.855437,"is_transit":false,"station_name":"Kramat","line":11},{"line":11,"station_name":"Gang Sentiong","time":1,"distance":973,"is_transit":false,"transit":false,"station_id":"GST","i_lat":-6.185975,"i_long":106.850107},{"line":11,"is_transit":false,"distance":1567,"station_id":"PSE","i_lat":-6.174784,"i_long":106.84368,"transit":false,"station_name":"Pasar Senen","time":8},{"time":4,"transit":false,"distance":1436,"station_id":"KMO","line":11,"station_name":"Kemayoran","i_long":106.839204,"i_lat":-6.161728,"is_transit":false},{"distance":1901,"i_long":106.836569,"station_name":"Rajawali","line":11,"i_lat":-6.14505,"station_id":"RJW","is_transit":false,"time":5,"transit":false},{"time":3,"i_long":106.826365,"station_id":"KPB","transit":true,"i_lat":-6.132549,"station_name":"Kampung Bandan","line":4,"distance":1444,"is_transit":true},{"is_transit":true,"line":2,"transit":true,"time":3,"i_lat":-6.137569,"station_name":"Jakarta Kota","i_long":106.812439,"station_id":"JAKK","distance":1364},{"station_id":"JAY","i_lat":-6.141205,"is_transit":false,"i_long":106.820901,"line":2,"transit":false,"distance":1264,"station_name":"Jayakarta","time":4},{"distance":1080,"transit":false,"line":2,"time":2,"i_lat":-6.149769,"station_id":"MGB","is_transit":false,"i_long":106.82482,"station_name":"Manggabesar"},{"i_lat":-6.160725,"i_long":106.827103,"line":2,"time":2,"station_id":"SW","is_transit":false,"station_name":"Sawah Besar","transit":false,"distance":906},{"i_long":106.828284,"time":2,"is_transit":false,"line":2,"station_id":"JUA","station_name":"Juanda","transit":false,"distance":1149,"i_lat":-6.166716},{"station_id":"GDD","transit":false,"station_name":"Gondangdia","is_transit":false,"time":4,"distance":2015,"i_lat":-6.186295,"i_long":106.832183,"line":2},{"i_long":106.840169,"transit":false,"station_id":"CKI","station_name":"Cikini","time":3,"distance":1750,"line":2,"is_transit":false,"i_lat":-6.198556},{"time":4,"station_id":"MRI","transit":false,"distance":1590,"i_long":106.84912,"line":2,"i_lat":-6.209883,"station_name":"Manggarai","is_transit":false},{"is_transit":false,"transit":false,"line":2,"distance":2610,"i_lat":-6.226659,"station_name":"Tebet","i_long":106.857948,"time":4,"station_id":"TEB"},{"transit":false,"i_lat":-6.242512,"line":2,"distance":1230,"station_name":"Cawang","is_transit":false,"station_id":"CW","time":2,"i_long":106.856607}]]}