{"data":[[{"line":1,"station_name":"Kranji","distance":0,"time":0,"i_long":106.977657,"transit":false,"i_lat":-6.224515,"is_transit":false,"station_id":"KRI"},{"transit":false,"time":3,"distance":3097,"i_lat":-6.219053,"is_transit":false,"i_long":106.951283,"station_name":"Cakung","station_id":"CUK","line":1},{"station_name":"Klenderbaru","distance":1385,"i_long":106.939679,"transit":false,"is_transit":false,"time":8,"i_lat":-6.217455,"station_id":"KLDB","line":1},{"station_id":"BUA","line":1,"station_name":"Buaran","is_transit":false,"time":1,"i_long":106.922662,"i_lat":-6.215568,"distance":1305,"transit":false},{"station_name":"Klender","station_id":"KLD","time":2,"transit":false,"distance":3100,"i_long":106.899548,"i_lat":-6.2135,"line":1,"is_transit":false},{"distance":3395,"time":3,"i_lat":-6.215091,"i_long":106.86807400000001,"transit":false,"is_transit":false,"station_id":"JNG","line":1,"station_name":"Jatinegara"},{"station_id":"MTR","time":2,"station_name":"Matraman","is_transit":false,"i_long":106.858896,"line":1,"transit":false,"distance":1377,"i_lat":-6.212485},{"transit":false,"line":2,"station_name":"Manggarai","distance":1275,"is_transit":false,"time":2,"station_id":"MRI","i_lat":-6.209883,"i_long":106.84912},{"line":1,"time":4,"i_long":106.822649,"distance":3186,"station_id":"SUD","i_lat":-6.202263,"station_name":"Sudirman","is_transit":false,"transit":false},{"transit":false,"i_lat":-6.201433,"i_long":106.819881,"is_transit":false,"station_id":"SUDB","station_name":"Sudirman Baru","time":1,"distance":280,"line":1},{"time":1,"station_id":"KAT","station_name":"Karet","distance":471,"line":1,"i_long":106.816351,"is_transit":false,"transit":false,"i_lat":-6.20132},{"i_long":106.811091,"line":1,"i_lat":-6.185545,"station_name":"Tanah Abang","station_id":"THB","transit":false,"is_transit":false,"time":5,"distance":2029},{"i_long":106.800832,"is_transit":true,"station_name":"Duri","distance":3632,"time":8,"line":1,"transit":true,"station_id":"DU","i_lat":-6.155215},{"i_long":106.788277,"line":5,"is_transit":false,"distance":1700,"station_id":"GGL","station_name":"Grogol","transit":false,"time":3,"i_lat":-6.162021},{"i_lat":-6.161433,"time":2,"transit":false,"station_name":"Pesing","i_long":106.771379,"line":5,"is_transit":false,"station_id":"PSG","distance":2036},{"station_id":"TKO","line":5,"i_lat":-6.1587309999999995,"is_transit":false,"distance":1614,"i_long":106.756522,"station_name":"Taman Kota","transit":false,"time":2},{"transit":false,"station_name":"Bojongindah","time":2,"is_transit":false,"i_long":106.737035,"line":5,"distance":2334,"i_lat":-6.159876,"station_id":"BOI"},{"i_long":106.723064,"transit":false,"line":5,"station_id":"RW","time":4,"i_lat":-6.162758,"is_transit":false,"distance":1152,"station_name":"Rawa Buaya"},{"is_transit":false,"time":3,"station_name":"Kalideres","transit":false,"station_id":"KDS","i_long":106.701612,"distance":2504,"i_lat":-6.166068,"line":5},{"i_lat":-6.169933,"distance":2548,"time":3,"line":5,"station_name":"Poris","i_long":106.679458,"is_transit":false,"transit":false,"station_id":"PI"},{"transit":false,"i_lat":-6.171811,"distance":1834,"station_id":"BPR","i_long":106.665036,"station_name":"Batuceper","is_transit":false,"time":3,"line":5}],[{"transit":false,"i_long":106.977657,"line":1,"station_id":"KRI","is_transit":false,"i_lat":-6.224515,"distance":0,"station_name":"Kranji","time":0},{"is_transit":false,"station_id":"CUK","distance":3097,"transit":false,"station_name":"Cakung","time":3,"i_lat":-6.219053,"line":1,"i_long":106.951283},{"line":1,"is_transit":false,"i_lat":-6.217455,"station_name":"Klenderbaru","station_id":"KLDB","distance":1385,"transit":false,"time":8,"i_long":106.939679},{"station_name":"Buaran","station_id":"BUA","i_long":106.922662,"transit":false,"line":1,"i_lat":-6.215568,"is_transit":false,"time":1,"distance":1305},{"time":2,"distance":3100,"i_long":106.899548,"is_transit":false,"station_id":"KLD","station_name":"Klender","i_lat":-6.2135,"line":1,"transit":false},{"station_id":"JNG","distance":3395,"time":3,"line":1,"transit":true,"i_lat":-6.215091,"i_long":106.86807400000001,"is_transit":true,"station_name":"Jatinegara"},{"station_name":"Pondok Jati","transit":false,"distance":1236,"is_transit":false,"time":2,"i_lat":-6.209188,"station_id":"POK","i_long":106.861737,"line":11},{"is_transit":false,"i_lat":-6.193792,"line":11,"station_id":"KMT","transit":false,"station_name":"Kramat","time":2,"distance":1829,"i_long":106.855437},{"time":1,"transit":false,"is_transit":false,"i_long":106.850107,"station_id":"GST","i_lat":-6.185975,"line":11,"distance":973,"station_name":"Gang Sentiong"},{"i_lat":-6.174784,"station_id":"PSE","line":11,"station_name":"Pasar Senen","is_transit":false,"transit":false,"i_long":106.84368,"time":8,"distance":1567},{"station_name":"Kemayoran","station_id":"KMO","i_lat":-6.161728,"i_long":106.839204,"line":11,"distance":1436,"time":4,"is_transit":false,"transit":false},{"i_long":106.836569,"line":11,"station_name":"Rajawali","transit":false,"time":5,"i_lat":-6.14505,"station_id":"RJW","is_transit":false,"distance":1901},{"is_transit":true,"i_long":106.826365,"station_id":"KPB","distance":1444,"transit":true,"i_lat":-6.132549,"station_name":"Kampung Bandan","time":3,"line":4},{"transit":false,"station_name":"Angke","i_long":106.79867,"i_lat":-6.144674,"time":9,"station_id":"AK","distance":4102,"is_transit":false,"line":1},{"i_long":106.800832,"i_lat":-6.155215,"is_transit":true,"distance":1230,"line":1,"time":4,"transit":true,"station_name":"Duri","station_id":"DU"},{"time":3,"distance":1700,"i_lat":-6.162021,"is_transit":false,"station_id":"GGL","line":5,"station_name":"Grogol","transit":false,"i_long":106.788277},{"i_lat":-6.161433,"station_name":"Pesing","station_id":"PSG","line":5,"time":2,"distance":2036,"is_transit":false,"transit":false,"i_long":106.771379},{"distance":1614,"station_id":"TKO","is_transit":false,"i_lat":-6.1587309999999995,"i_long":106.756522,"transit":false,"line":5,"time":2,"station_name":"Taman Kota"},{"station_id":"BOI","i_lat":-6.159876,"is_transit":false,"time":2,"distance":2334,"transit":false,"line":5,"station_name":"Bojongindah","i_long":106.737035},{"is_transit":false,"transit":false,"line":5,"time":4,"distance":1152,"i_lat":-6.162758,"station_id":"RW","i_long":106.723064,"station_name":"Rawa Buaya"},{"station_name":"Kalideres","transit":false,"line":5,"time":3,"station_id":"KDS","distance":2504,"is_transit":false,"i_long":106.701612,"i_lat":-6.166068},{"is_transit":false,"line":5,"station_name":"Poris","time":3,"distance":2548,"i_long":106.679458,"transit":false,"i_lat":-6.169933,"station_id":"PI"},{"station_name":"Batuceper","transit":false,"line":5,"i_long":106.665036,"i_lat":-6.171811,"time":3,"distance":1834,"station_id":"BPR","is_transit":false}],[{"distance":0,"station_id":"KRI","is_transit":false,"i_lat":-6.224515,"line":1,"transit":false,"time":0,"i_long":106.977657,"station_name":"Kranji"},{"distance":3097,"is_transit":false,"station_name":"Cakung","line":1,"transit":false,"i_lat":-6.219053,"i_long":106.951283,"station_id":"CUK","time":3},{"i_lat":-6.217455,"transit":false,"is_transit":false,"distance":1385,"i_long":106.939679,"line":1,"station_name":"Klenderbaru","time":8,"station_id":"KLDB"},{"distance":1305,"transit":false,"station_id":"BUA","i_lat":-6.215568,"station_name":"Buaran","i_long":106.922662,"time":1,"is_transit":false,"line":1},{"is_transit":false,"line":1,"i_lat":-6.2135,"distance":3100,"station_id":"KLD","i_long":106.899548,"transit":false,"time":2,"station_name":"Klender"},{"transit":false,"i_lat":-6.215091,"line":1,"time":3,"i_long":106.86807400000001,"station_name":"Jatinegara","station_id":"JNG","distance":3395,"is_transit":false},{"time":2,"distance":1377,"transit":false,"is_transit":false,"i_lat":-6.212485,"i_long":106.858896,"line":1,"station_name":"Matraman","station_id":"MTR"},{"time":2,"distance":1275,"transit":true,"station_id":"MRI","station_name":"Manggarai","is_transit":true,"line":2,"i_lat":-6.209883,"i_long":106.84912},{"transit":false,"i_long":106.840169,"is_transit":false,"time":4,"station_id":"CKI","station_name":"Cikini","line":2,"i_lat":-6.198556,"distance":1590},{"i_long":106.832183,"station_name":"Gondangdia","station_id":"GDD","distance":1750,"is_transit":false,"i_lat":-6.186295,"line":2,"time":3,"transit":false},{"transit":false,"station_name":"Juanda","is_transit":false,"time":4,"distance":2015,"station_id":"JUA","i_lat":-6.166716,"i_long":106.828284,"line":2},{"is_transit":false,"i_long":106.827103,"line":2,"station_id":"SW","i_lat":-6.160725,"distance":1149,"time":2,"station_name":"Sawah Besar","transit":false},{"line":2,"distance":906,"i_lat":-6.149769,"station_name":"Manggabesar","station_id":"MGB","transit":false,"i_long":106.82482,"is_transit":false,"time":2},{"distance":1080,"i_long":106.820901,"i_lat":-6.141205,"is_transit":false,"transit":false,"station_name":"Jayakarta","time":2,"line":2,"station_id":"JAY"},{"is_transit":true,"station_id":"JAKK","i_lat":-6.137569,"i_long":106.812439,"time":4,"station_name":"Jakarta Kota","line":2,"transit":true,"distance":1264},{"i_long":106.826365,"time":3,"station_name":"Kampung Bandan","distance":1364,"station_id":"KPB","i_lat":-6.132549,"is_transit":true,"transit":true,"line":4},{"transit":false,"i_lat":-6.144674,"station_name":"Angke","is_transit":false,"distance":4102,"i_long":106.79867,"time":9,"line":1,"station_id":"AK"},{"is_transit":true,"station_name":"Duri","line":1,"station_id":"DU","distance":1230,"time":4,"i_lat":-6.155215,"transit":true,"i_long":106.800832},{"line":5,"station_name":"Grogol","station_id":"GGL","distance":1700,"is_transit":false,"transit":false,"i_lat":-6.162021,"time":3,"i_long":106.788277},{"station_id":"PSG","i_lat":-6.161433,"line":5,"distance":2036,"time":2,"is_transit":false,"i_long":106.771379,"station_name":"Pesing","transit":false},{"station_id":"TKO","i_lat":-6.1587309999999995,"is_transit":false,"transit":false,"i_long":106.756522,"line":5,"distance":1614,"station_name":"Taman Kota","time":2},{"line":5,"is_transit":false,"i_long":106.737035,"distance":2334,"station_id":"BOI","time":2,"station_name":"Bojongindah","transit":false,"i_lat":-6.159876},{"time":4,"i_lat":-6.162758,"distance":1152,"transit":false,"line":5,"station_id":"RW","i_long":106.723064,"station_name":"Rawa Buaya","is_transit":false},{"time":3,"i_long":106.701612,"station_id":"KDS","i_lat":-6.166068,"is_transit":false,"distance":2504,"line":5,"station_name":"Kalideres","transit":false},{"i_lat":-6.169933,"i_long":106.679458,"is_transit":false,"time":3,"station_name":"Poris","distance":2548,"transit":false,"station_id":"PI","line":5},{"is_transit":false,"i_long":106.665036,"line":5,"distance":1834,"i_lat":-6.171811,"time":3,"transit":false,"station_id":"BPR","station_name":"Batuceper"}],[{"distance":0,"transit":false,"i_long":106.977657,"time":0,"line":1,"i_lat":-6.224515,"is_transit":false,"station_name":"Kranji","station_id":"KRI"},{"time":3,"station_id":"CUK","i_long":106.951283,"station_name":"Cakung","line":1,"is_transit":false,"distance":3097,"i_lat":-6.219053,"transit":false},{"transit":false,"i_lat":-6.217455,"line":1,"time":8,"distance":1385,"is_transit":false,"i_long":106.939679,"station_id":"KLDB","station_name":"Klenderbaru"},{"distance":1305,"time":1,"i_long":106.922662,"station_id":"BUA","line":1,"is_transit":false,"transit":false,"i_lat":-6.215568,"station_name":"Buaran"},{"line":1,"distance":3100,"is_transit":false,"time":2,"station_id":"KLD","i_long":106.899548,"transit":false,"i_lat":-6.2135,"station_name":"Klender"},{"i_long":106.86807400000001,"station_name":"Jatinegara","i_lat":-6.215091,"transit":true,"station_id":"JNG","line":1,"distance":3395,"is_transit":true,"time":3},{"is_transit":false,"transit":false,"line":11,"station_id":"POK","i_lat":-6.209188,"distance":1236,"time":2,"i_long":106.861737,"station_name":"Pondok Jati"},{"is_transit":false,"distance":1829,"i_lat":-6.193792,"i_long":106.855437,"line":11,"transit":false,"station_name":"Kramat","time":2,"station_id":"KMT"},{"is_transit":false,"transit":false,"i_lat":-6.185975,"line":11,"station_name":"Gang Sentiong","i_long":106.850107,"station_id":"GST","distance":973,"time":1},{"line":11,"i_lat":-6.174784,"i_long":106.84368,"station_id":"PSE","transit":false,"time":8,"station_name":"Pasar Senen","distance":1567,"is_transit":false},{"distance":1436,"i_lat":-6.161728,"i_long":106.839204,"station_name":"Kemayoran","is_transit":false,"station_id":"KMO","line":11,"time":4,"transit":false},{"time":5,"station_name":"Rajawali","is_transit":false,"distance":1901,"transit":false,"i_lat":-6.14505,"i_long":106.836569,"station_id":"RJW","line":11},{"distance":1444,"i_lat":-6.132549,"station_name":"Kampung Bandan","transit":true,"i_long":106.826365,"is_transit":true,"station_id":"KPB","line":4,"time":3},{"time":3,"i_lat":-6.137569,"station_name":"Jakarta Kota","distance":1364,"station_id":"JAKK","transit":true,"i_long":106.812439,"line":2,"is_transit":true},{"station_id":"JAY","station_name":"Jayakarta","is_transit":false,"line":2,"transit":false,"distance":1264,"i_long":106.820901,"i_lat":-6.141205,"time":4},{"time":2,"distance":1080,"station_name":"Manggabesar","i_long":106.82482,"line":2,"station_id":"MGB","i_lat":-6.149769,"is_transit":false,"transit":false},{"station_id":"SW","time":2,"is_transit":false,"i_long":106.827103,"i_lat":-6.160725,"line":2,"distance":906,"transit":false,"station_name":"Sawah Besar"},{"i_long":106.828284,"station_name":"Juanda","is_transit":false,"distance":1149,"line":2,"time":2,"station_id":"JUA","i_lat":-6.166716,"transit":false},{"is_transit":false,"transit":false,"distance":2015,"i_long":106.832183,"line":2,"station_name":"Gondangdia","station_id":"GDD","i_lat":-6.186295,"time":4},{"time":3,"station_id":"CKI","i_long":106.840169,"station_name":"Cikini","distance":1750,"line":2,"is_transit":false,"transit":false,"i_lat":-6.198556},{"is_transit":true,"station_id":"MRI","time":4,"i_lat":-6.209883,"station_name":"Manggarai","distance":1590,"i_long":106.84912,"line":2,"transit":true},{"station_name":"Sudirman","i_lat":-6.202263,"line":1,"time":4,"is_transit":false,"distance":3186,"transit":false,"i_long":106.822649,"station_id":"SUD"},{"station_id":"SUDB","i_lat":-6.201433,"is_transit":false,"transit":false,"line":1,"time":1,"i_long":106.819881,"distance":280,"station_name":"Sudirman Baru"},{"is_transit":false,"transit":false,"station_name":"Karet","line":1,"i_lat":-6.20132,"time":1,"distance":471,"station_id":"KAT","i_long":106.816351},{"station_name":"Tanah Abang","line":1,"time":5,"is_transit":false,"distance":2029,"transit":false,"i_lat":-6.185545,"station_id":"THB","i_long":106.811091},{"distance":3632,"station_name":"Duri","i_lat":-6.155215,"transit":true,"time":8,"station_id":"DU","line":1,"is_transit":true,"i_long":106.800832},{"time":3,"station_name":"Grogol","line":5,"i_lat":-6.162021,"distance":1700,"is_transit":false,"i_long":106.788277,"transit":false,"station_id":"GGL"},{"is_transit":false,"time":2,"distance":2036,"i_lat":-6.161433,"line":5,"transit":false,"station_id":"PSG","i_long":106.771379,"station_name":"Pesing"},{"is_transit":false,"time":2,"i_lat":-6.1587309999999995,"i_long":106.756522,"transit":false,"line":5,"station_name":"Taman Kota","station_id":"TKO","distance":1614},{"station_id":"BOI","station_name":"Bojongindah","time":2,"i_long":106.737035,"line":5,"transit":false,"is_transit":false,"i_lat":-6.159876,"distance":2334},{"distance":1152,"station_id":"RW","is_transit":false,"station_name":"Rawa Buaya","i_long":106.723064,"time":4,"i_lat":-6.162758,"transit":false,"line":5},{"transit":false,"station_name":"Kalideres","time":3,"distance":2504,"station_id":"KDS","line":5,"is_transit":false,"i_long":106.701612,"i_lat":-6.166068},{"distance":2548,"i_long":106.679458,"line":5,"station_name":"Poris","transit":false,"i_lat":-6.169933,"time":3,"station_id":"PI","is_transit":false},{"transit":false,"station_id":"BPR","i_long":106.665036,"line":5,"distance":1834,"i_lat":-6.171811,"time":3,"is_transit":false,"station_name":"Batuceper"}]]}