{"data":[[{"station_name":"Kranji","is_transit":false,"distance":0,"i_lat":-6.224515,"line":1,"station_id":"KRI","i_long":106.977657,"time":0,"transit":false},{"time":3,"i_long":106.951283,"distance":3097,"transit":false,"is_transit":false,"station_id":"CUK","station_name":"Cakung","i_lat":-6.219053,"line":1},{"is_transit":false,"i_long":106.939679,"station_id":"KLDB","i_lat":-6.217455,"line":1,"time":8,"distance":1385,"transit":false,"station_name":"Klenderbaru"},{"transit":false,"time":1,"i_long":106.922662,"station_id":"BUA","distance":1305,"station_name":"Buaran","i_lat":-6.215568,"line":1,"is_transit":false},{"time":2,"is_transit":false,"i_long":106.899548,"station_id":"KLD","i_lat":-6.2135,"distance":3100,"station_name":"Klender","line":1,"transit":false},{"transit":false,"time":3,"line":1,"station_name":"Jatinegara","station_id":"JNG","i_lat":-6.215091,"distance":3395,"i_long":106.86807400000001,"is_transit":false},{"station_name":"Matraman","i_lat":-6.212485,"line":1,"transit":false,"is_transit":false,"time":2,"i_long":106.858896,"station_id":"MTR","distance":1377},{"distance":1275,"line":2,"transit":false,"i_long":106.84912,"station_name":"Manggarai","station_id":"MRI","is_transit":false,"i_lat":-6.209883,"time":2},{"station_name":"Sudirman","station_id":"SUD","i_lat":-6.202263,"is_transit":false,"i_long":106.822649,"distance":3186,"transit":false,"time":4,"line":1},{"i_lat":-6.201433,"station_name":"Sudirman Baru","transit":false,"distance":280,"line":1,"i_long":106.819881,"station_id":"SUDB","is_transit":false,"time":1},{"i_long":106.816351,"i_lat":-6.20132,"distance":471,"transit":false,"time":1,"line":1,"is_transit":false,"station_name":"Karet","station_id":"KAT"},{"time":5,"distance":2029,"station_id":"THB","line":1,"is_transit":true,"station_name":"Tanah Abang","transit":true,"i_lat":-6.185545,"i_long":106.811091},{"transit":false,"time":6,"i_long":106.79689,"i_lat":-6.207404,"station_id":"PLM","distance":3191,"station_name":"Palmerah","line":6,"is_transit":false}],[{"line":1,"station_name":"Kranji","station_id":"KRI","transit":false,"distance":0,"is_transit":false,"i_long":106.977657,"time":0,"i_lat":-6.224515},{"i_lat":-6.219053,"line":1,"station_id":"CUK","distance":3097,"is_transit":false,"transit":false,"time":3,"station_name":"Cakung","i_long":106.951283},{"i_long":106.939679,"distance":1385,"transit":false,"i_lat":-6.217455,"time":8,"line":1,"station_id":"KLDB","is_transit":false,"station_name":"Klenderbaru"},{"i_lat":-6.215568,"is_transit":false,"line":1,"transit":false,"i_long":106.922662,"distance":1305,"time":1,"station_id":"BUA","station_name":"Buaran"},{"station_name":"Klender","line":1,"transit":false,"time":2,"station_id":"KLD","is_transit":false,"i_lat":-6.2135,"i_long":106.899548,"distance":3100},{"i_lat":-6.215091,"transit":true,"time":3,"distance":3395,"station_id":"JNG","is_transit":true,"i_long":106.86807400000001,"station_name":"Jatinegara","line":1},{"station_name":"Pondok Jati","distance":1236,"i_long":106.861737,"station_id":"POK","time":2,"transit":false,"i_lat":-6.209188,"is_transit":false,"line":11},{"station_id":"KMT","distance":1829,"i_lat":-6.193792,"is_transit":false,"time":2,"station_name":"Kramat","transit":false,"i_long":106.855437,"line":11},{"time":1,"transit":false,"station_id":"GST","i_long":106.850107,"distance":973,"i_lat":-6.185975,"is_transit":false,"station_name":"Gang Sentiong","line":11},{"is_transit":false,"time":8,"i_lat":-6.174784,"station_id":"PSE","line":11,"transit":false,"station_name":"Pasar Senen","i_long":106.84368,"distance":1567},{"transit":false,"time":4,"station_name":"Kemayoran","i_long":106.839204,"distance":1436,"is_transit":false,"line":11,"i_lat":-6.161728,"station_id":"KMO"},{"i_lat":-6.14505,"time":5,"is_transit":false,"station_name":"Rajawali","distance":1901,"transit":false,"line":11,"i_long":106.836569,"station_id":"RJW"},{"transit":true,"distance":1444,"line":4,"i_long":106.826365,"station_id":"KPB","is_transit":true,"time":3,"i_lat":-6.132549,"station_name":"Kampung Bandan"},{"is_transit":false,"station_id":"AK","i_lat":-6.144674,"transit":false,"station_name":"Angke","time":9,"distance":4102,"i_long":106.79867,"line":1},{"is_transit":false,"time":4,"i_long":106.800832,"distance":1230,"i_lat":-6.155215,"line":1,"station_id":"DU","station_name":"Duri","transit":false},{"line":1,"i_long":106.811091,"is_transit":true,"transit":true,"station_id":"THB","distance":3632,"station_name":"Tanah Abang","time":8,"i_lat":-6.185545},{"distance":3191,"line":6,"transit":false,"is_transit":false,"time":6,"i_long":106.79689,"i_lat":-6.207404,"station_id":"PLM","station_name":"Palmerah"}],[{"distance":0,"time":0,"line":1,"i_lat":-6.224515,"is_transit":false,"i_long":106.977657,"station_name":"Kranji","station_id":"KRI","transit":false},{"station_name":"Cakung","distance":3097,"is_transit":false,"station_id":"CUK","time":3,"i_lat":-6.219053,"line":1,"i_long":106.951283,"transit":false},{"i_lat":-6.217455,"time":8,"is_transit":false,"station_id":"KLDB","distance":1385,"transit":false,"line":1,"station_name":"Klenderbaru","i_long":106.939679},{"time":1,"line":1,"i_lat":-6.215568,"station_id":"BUA","distance":1305,"i_long":106.922662,"station_name":"Buaran","is_transit":false,"transit":false},{"line":1,"distance":3100,"station_name":"Klender","i_long":106.899548,"transit":false,"i_lat":-6.2135,"time":2,"is_transit":false,"station_id":"KLD"},{"i_lat":-6.215091,"i_long":106.86807400000001,"is_transit":false,"transit":false,"station_id":"JNG","time":3,"station_name":"Jatinegara","line":1,"distance":3395},{"distance":1377,"i_long":106.858896,"transit":false,"i_lat":-6.212485,"line":1,"is_transit":false,"station_id":"MTR","time":2,"station_name":"Matraman"},{"i_long":106.84912,"time":2,"transit":true,"station_id":"MRI","station_name":"Manggarai","i_lat":-6.209883,"distance":1275,"line":2,"is_transit":true},{"transit":false,"i_long":106.840169,"is_transit":false,"time":4,"station_id":"CKI","distance":1590,"line":2,"i_lat":-6.198556,"station_name":"Cikini"},{"station_id":"GDD","station_name":"Gondangdia","i_lat":-6.186295,"i_long":106.832183,"line":2,"time":3,"transit":false,"distance":1750,"is_transit":false},{"transit":false,"i_lat":-6.166716,"station_id":"JUA","distance":2015,"time":4,"i_long":106.828284,"line":2,"is_transit":false,"station_name":"Juanda"},{"i_lat":-6.160725,"distance":1149,"station_id":"SW","is_transit":false,"time":2,"station_name":"Sawah Besar","i_long":106.827103,"transit":false,"line":2},{"distance":906,"time":2,"is_transit":false,"transit":false,"station_name":"Manggabesar","station_id":"MGB","i_lat":-6.149769,"i_long":106.82482,"line":2},{"transit":false,"is_transit":false,"i_long":106.820901,"line":2,"time":2,"distance":1080,"station_name":"Jayakarta","station_id":"JAY","i_lat":-6.141205},{"is_transit":true,"station_name":"Jakarta Kota","i_long":106.812439,"line":2,"transit":true,"station_id":"JAKK","distance":1264,"time":4,"i_lat":-6.137569},{"station_name":"Kampung Bandan","distance":1364,"i_lat":-6.132549,"transit":true,"i_long":106.826365,"time":3,"line":4,"station_id":"KPB","is_transit":true},{"time":9,"line":1,"i_lat":-6.144674,"station_id":"AK","station_name":"Angke","distance":4102,"is_transit":false,"transit":false,"i_long":106.79867},{"distance":1230,"station_name":"Duri","station_id":"DU","i_long":106.800832,"line":1,"i_lat":-6.155215,"transit":false,"is_transit":false,"time":4},{"distance":3632,"time":8,"station_name":"Tanah Abang","is_transit":true,"i_long":106.811091,"i_lat":-6.185545,"line":1,"transit":true,"station_id":"THB"},{"station_id":"PLM","is_transit":false,"time":6,"i_lat":-6.207404,"line":6,"station_name":"Palmerah","i_long":106.79689,"distance":3191,"transit":false}],[{"line":1,"transit":false,"i_long":106.977657,"station_name":"Kranji","station_id":"KRI","i_lat":-6.224515,"is_transit":false,"distance":0,"time":0},{"time":3,"station_name":"Cakung","transit":false,"i_lat":-6.219053,"station_id":"CUK","line":1,"distance":3097,"is_transit":false,"i_long":106.951283},{"station_name":"Klenderbaru","station_id":"KLDB","is_transit":false,"i_lat":-6.217455,"line":1,"transit":false,"i_long":106.939679,"time":8,"distance":1385},{"station_id":"BUA","is_transit":false,"i_lat":-6.215568,"station_name":"Buaran","i_long":106.922662,"transit":false,"distance":1305,"line":1,"time":1},{"station_id":"KLD","distance":3100,"time":2,"line":1,"i_long":106.899548,"station_name":"Klender","i_lat":-6.2135,"is_transit":false,"transit":false},{"time":3,"line":1,"i_long":106.86807400000001,"station_id":"JNG","distance":3395,"is_transit":true,"transit":true,"station_name":"Jatinegara","i_lat":-6.215091},{"transit":false,"station_id":"POK","station_name":"Pondok Jati","i_long":106.861737,"i_lat":-6.209188,"distance":1236,"is_transit":false,"time":2,"line":11},{"time":2,"i_long":106.855437,"station_id":"KMT","is_transit":false,"station_name":"Kramat","i_lat":-6.193792,"line":11,"transit":false,"distance":1829},{"i_lat":-6.185975,"line":11,"transit":false,"i_long":106.850107,"station_name":"Gang Sentiong","station_id":"GST","distance":973,"is_transit":false,"time":1},{"distance":1567,"is_transit":false,"i_long":106.84368,"transit":false,"station_id":"PSE","time":8,"i_lat":-6.174784,"station_name":"Pasar Senen","line":11},{"station_name":"Kemayoran","is_transit":false,"distance":1436,"time":4,"transit":false,"line":11,"i_lat":-6.161728,"station_id":"KMO","i_long":106.839204},{"station_id":"RJW","transit":false,"time":5,"distance":1901,"i_long":106.836569,"station_name":"Rajawali","is_transit":false,"i_lat":-6.14505,"line":11},{"distance":1444,"transit":true,"is_transit":true,"line":4,"i_lat":-6.132549,"time":3,"station_name":"Kampung Bandan","i_long":106.826365,"station_id":"KPB"},{"is_transit":true,"station_id":"JAKK","i_lat":-6.137569,"transit":true,"line":2,"distance":1364,"time":3,"i_long":106.812439,"station_name":"Jakarta Kota"},{"i_lat":-6.141205,"is_transit":false,"transit":false,"distance":1264,"time":4,"station_id":"JAY","line":2,"station_name":"Jayakarta","i_long":106.820901},{"time":2,"station_id":"MGB","i_lat":-6.149769,"line":2,"distance":1080,"transit":false,"station_name":"Manggabesar","is_transit":false,"i_long":106.82482},{"time":2,"i_long":106.827103,"station_name":"Sawah Besar","station_id":"SW","line":2,"transit":false,"distance":906,"is_transit":false,"i_lat":-6.160725},{"i_long":106.828284,"distance":1149,"i_lat":-6.166716,"line":2,"is_transit":false,"time":2,"station_name":"Juanda","transit":false,"station_id":"JUA"},{"time":4,"is_transit":false,"distance":2015,"station_name":"Gondangdia","i_lat":-6.186295,"transit":false,"line":2,"station_id":"GDD","i_long":106.832183},{"station_id":"CKI","is_transit":false,"time":3,"i_long":106.840169,"transit":false,"distance":1750,"i_lat":-6.198556,"line":2,"station_name":"Cikini"},{"time":4,"transit":true,"i_long":106.84912,"distance":1590,"is_transit":true,"line":2,"station_id":"MRI","i_lat":-6.209883,"station_name":"Manggarai"},{"line":1,"station_name":"Sudirman","i_lat":-6.202263,"station_id":"SUD","i_long":106.822649,"transit":false,"distance":3186,"time":4,"is_transit":false},{"station_name":"Sudirman Baru","distance":280,"is_transit":false,"i_lat":-6.201433,"transit":false,"i_long":106.819881,"station_id":"SUDB","time":1,"line":1},{"distance":471,"is_transit":false,"line":1,"i_lat":-6.20132,"i_long":106.816351,"station_name":"Karet","time":1,"transit":false,"station_id":"KAT"},{"station_id":"THB","line":1,"transit":true,"time":5,"station_name":"Tanah Abang","i_lat":-6.185545,"distance":2029,"i_long":106.811091,"is_transit":true},{"station_id":"PLM","i_long":106.79689,"transit":false,"distance":3191,"i_lat":-6.207404,"is_transit":false,"time":6,"station_name":"Palmerah","line":6}]]}