{"data":[[{"time":0,"distance":0,"line":1,"i_long":106.977657,"station_name":"Kranji","transit":false,"i_lat":-6.224515,"station_id":"KRI","is_transit":false},{"i_long":106.951283,"station_id":"CUK","time":3,"i_lat":-6.219053,"station_name":"Cakung","line":1,"is_transit":false,"distance":3097,"transit":false},{"distance":1385,"station_id":"KLDB","station_name":"Klenderbaru","i_lat":-6.217455,"i_long":106.939679,"transit":false,"time":8,"line":1,"is_transit":false},{"i_lat":-6.215568,"i_long":106.922662,"station_name":"Buaran","distance":1305,"is_transit":false,"time":1,"station_id":"BUA","transit":false,"line":1},{"i_lat":-6.2135,"transit":false,"time":2,"station_id":"KLD","line":1,"distance":3100,"station_name":"Klender","is_transit":false,"i_long":106.899548},{"time":3,"transit":false,"i_lat":-6.215091,"station_id":"JNG","i_long":106.86807400000001,"line":1,"is_transit":false,"distance":3395,"station_name":"Jatinegara"},{"line":1,"distance":1377,"is_transit":false,"time":2,"station_name":"Matraman","station_id":"MTR","transit":false,"i_lat":-6.212485,"i_long":106.858896},{"line":2,"time":2,"is_transit":true,"transit":true,"station_name":"Manggarai","station_id":"MRI","i_lat":-6.209883,"distance":1275,"i_long":106.84912},{"is_transit":false,"distance":2610,"i_lat":-6.226659,"station_id":"TEB","i_long":106.857948,"line":2,"transit":false,"station_name":"Tebet","time":4},{"station_name":"Cawang","transit":false,"i_lat":-6.242512,"is_transit":false,"i_long":106.856607,"time":2,"distance":1230,"station_id":"CW","line":2},{"time":3,"is_transit":false,"transit":false,"station_id":"DRN","i_lat":-6.255332,"line":2,"station_name":"Duren Kalibata","i_long":106.85449,"distance":1546},{"station_name":"Pasar Minggu Baru","distance":824,"i_lat":-6.263214,"i_long":106.851577,"line":2,"time":2,"station_id":"PSMB","is_transit":false,"transit":false},{"line":2,"is_transit":false,"station_id":"PSM","transit":false,"i_lat":-6.2842400000000005,"time":2,"i_long":106.843999,"distance":2380,"station_name":"Pasar Minggu"},{"distance":2820,"transit":false,"time":4,"is_transit":false,"station_name":"Tanjung Barat","station_id":"TNT","i_lat":-6.3080680000000005,"i_long":106.838896,"line":2},{"distance":2671,"i_lat":-6.330363,"time":3,"transit":false,"station_name":"Lenteng Agung","station_id":"LNA","is_transit":false,"line":2,"i_long":106.832616},{"transit":false,"i_long":106.834175,"line":2,"time":2,"is_transit":false,"station_name":"Univ. Pancasila","station_id":"UP","i_lat":-6.339291,"distance":1029},{"i_lat":-6.360749,"station_name":"Univ. Indonesia","time":3,"transit":false,"is_transit":false,"distance":2264,"i_long":106.831474,"line":2,"station_id":"UI"},{"line":2,"is_transit":false,"time":2,"station_name":"Pondok Cina","station_id":"POC","transit":false,"i_lat":-6.369073,"distance":1109,"i_long":106.831114},{"i_long":106.819451,"distance":2727,"line":2,"time":4,"is_transit":false,"station_name":"Depokbaru","station_id":"DPB","transit":false,"i_lat":-6.391065},{"station_name":"Depok","time":3,"station_id":"DP","i_lat":-6.405256,"is_transit":false,"transit":false,"distance":1584,"i_long":106.816926,"line":2},{"station_id":"CTA","i_lat":-6.448811,"i_long":106.800298,"line":2,"is_transit":true,"transit":true,"station_name":"Citayam","distance":5084,"time":6},{"station_id":"PDRG","transit":false,"i_lat":-6.460735,"time":0,"is_transit":false,"station_name":"Pondok Rajeg","distance":0,"i_long":106.824374,"line":21}],[{"time":0,"distance":0,"is_transit":false,"station_id":"KRI","transit":false,"line":1,"station_name":"Kranji","i_lat":-6.224515,"i_long":106.977657},{"i_lat":-6.219053,"distance":3097,"time":3,"transit":false,"is_transit":false,"station_name":"Cakung","station_id":"CUK","i_long":106.951283,"line":1},{"time":8,"i_lat":-6.217455,"station_id":"KLDB","is_transit":false,"transit":false,"line":1,"i_long":106.939679,"distance":1385,"station_name":"Klenderbaru"},{"station_name":"Buaran","time":1,"distance":1305,"transit":false,"is_transit":false,"station_id":"BUA","i_lat":-6.215568,"line":1,"i_long":106.922662},{"line":1,"time":2,"is_transit":false,"station_id":"KLD","transit":false,"distance":3100,"i_lat":-6.2135,"station_name":"Klender","i_long":106.899548},{"transit":true,"station_name":"Jatinegara","station_id":"JNG","i_long":106.86807400000001,"line":1,"distance":3395,"i_lat":-6.215091,"is_transit":true,"time":3},{"i_long":106.861737,"time":2,"station_name":"Pondok Jati","station_id":"POK","transit":false,"is_transit":false,"distance":1236,"i_lat":-6.209188,"line":11},{"station_name":"Kramat","is_transit":false,"transit":false,"line":11,"i_long":106.855437,"i_lat":-6.193792,"distance":1829,"station_id":"KMT","time":2},{"i_lat":-6.185975,"time":1,"is_transit":false,"transit":false,"line":11,"station_id":"GST","station_name":"Gang Sentiong","i_long":106.850107,"distance":973},{"i_long":106.84368,"distance":1567,"time":8,"i_lat":-6.174784,"is_transit":false,"station_name":"Pasar Senen","line":11,"station_id":"PSE","transit":false},{"time":4,"i_long":106.839204,"i_lat":-6.161728,"is_transit":false,"distance":1436,"transit":false,"station_id":"KMO","line":11,"station_name":"Kemayoran"},{"i_lat":-6.14505,"station_id":"RJW","transit":false,"is_transit":false,"time":5,"station_name":"Rajawali","line":11,"distance":1901,"i_long":106.836569},{"distance":1444,"station_id":"KPB","i_lat":-6.132549,"line":4,"station_name":"Kampung Bandan","time":3,"is_transit":true,"transit":true,"i_long":106.826365},{"i_lat":-6.144674,"station_id":"AK","line":1,"is_transit":false,"station_name":"Angke","time":9,"distance":4102,"transit":false,"i_long":106.79867},{"station_id":"DU","time":4,"station_name":"Duri","transit":false,"i_lat":-6.155215,"is_transit":false,"i_long":106.800832,"line":1,"distance":1230},{"i_lat":-6.185545,"station_id":"THB","distance":3632,"transit":false,"line":1,"time":8,"is_transit":false,"i_long":106.811091,"station_name":"Tanah Abang"},{"station_name":"Karet","line":1,"station_id":"KAT","transit":false,"i_lat":-6.20132,"time":5,"distance":2029,"i_long":106.816351,"is_transit":false},{"is_transit":false,"distance":471,"time":1,"station_id":"SUDB","line":1,"station_name":"Sudirman Baru","i_long":106.819881,"i_lat":-6.201433,"transit":false},{"is_transit":false,"i_lat":-6.202263,"transit":false,"i_long":106.822649,"time":1,"line":1,"distance":280,"station_id":"SUD","station_name":"Sudirman"},{"is_transit":true,"station_name":"Manggarai","transit":true,"distance":3186,"station_id":"MRI","time":4,"line":2,"i_lat":-6.209883,"i_long":106.84912},{"station_id":"TEB","i_long":106.857948,"distance":2610,"is_transit":false,"transit":false,"time":4,"line":2,"i_lat":-6.226659,"station_name":"Tebet"},{"station_id":"CW","i_lat":-6.242512,"i_long":106.856607,"distance":1230,"is_transit":false,"station_name":"Cawang","time":2,"transit":false,"line":2},{"is_transit":false,"time":3,"transit":false,"line":2,"station_name":"Duren Kalibata","station_id":"DRN","distance":1546,"i_lat":-6.255332,"i_long":106.85449},{"transit":false,"i_lat":-6.263214,"i_long":106.851577,"time":2,"is_transit":false,"line":2,"distance":824,"station_name":"Pasar Minggu Baru","station_id":"PSMB"},{"is_transit":false,"station_id":"PSM","line":2,"station_name":"Pasar Minggu","distance":2380,"time":2,"i_long":106.843999,"i_lat":-6.2842400000000005,"transit":false},{"transit":false,"is_transit":false,"station_name":"Tanjung Barat","station_id":"TNT","line":2,"distance":2820,"i_lat":-6.3080680000000005,"time":4,"i_long":106.838896},{"transit":false,"is_transit":false,"station_name":"Lenteng Agung","time":3,"distance":2671,"i_lat":-6.330363,"i_long":106.832616,"line":2,"station_id":"LNA"},{"time":2,"transit":false,"i_long":106.834175,"station_id":"UP","line":2,"i_lat":-6.339291,"is_transit":false,"distance":1029,"station_name":"Univ. Pancasila"},{"i_long":106.831474,"distance":2264,"is_transit":false,"time":3,"station_name":"Univ. Indonesia","i_lat":-6.360749,"line":2,"station_id":"UI","transit":false},{"station_id":"POC","distance":1109,"time":2,"line":2,"station_name":"Pondok Cina","is_transit":false,"transit":false,"i_long":106.831114,"i_lat":-6.369073},{"line":2,"is_transit":false,"station_name":"Depokbaru","time":4,"station_id":"DPB","i_lat":-6.391065,"distance":2727,"i_long":106.819451,"transit":false},{"is_transit":false,"time":3,"transit":false,"station_name":"Depok","i_long":106.816926,"i_lat":-6.405256,"line":2,"station_id":"DP","distance":1584},{"station_name":"Citayam","i_long":106.800298,"i_lat":-6.448811,"line":2,"transit":true,"station_id":"CTA","time":6,"is_transit":true,"distance":5084},{"time":0,"station_name":"Pondok Rajeg","distance":0,"i_long":106.824374,"is_transit":false,"station_id":"PDRG","i_lat":-6.460735,"line":21,"transit":false}],[{"station_name":"Kranji","i_lat":-6.224515,"line":1,"time":0,"distance":0,"transit":false,"i_long":106.977657,"is_transit":false,"station_id":"KRI"},{"line":1,"time":3,"distance":3097,"i_long":106.951283,"is_transit":false,"station_id":"CUK","station_name":"Cakung","i_lat":-6.219053,"transit":false},{"station_name":"Klenderbaru","transit":false,"i_lat":-6.217455,"is_transit":false,"distance":1385,"i_long":106.939679,"station_id":"KLDB","time":8,"line":1},{"station_name":"Buaran","i_lat":-6.215568,"transit":false,"is_transit":false,"distance":1305,"time":1,"station_id":"BUA","line":1,"i_long":106.922662},{"is_transit":false,"station_id":"KLD","station_name":"Klender","line":1,"i_lat":-6.2135,"i_long":106.899548,"transit":false,"distance":3100,"time":2},{"is_transit":true,"time":3,"i_long":106.86807400000001,"i_lat":-6.215091,"station_name":"Jatinegara","distance":3395,"station_id":"JNG","line":1,"transit":true},{"transit":false,"is_transit":false,"station_id":"POK","station_name":"Pondok Jati","i_long":106.861737,"line":11,"i_lat":-6.209188,"time":2,"distance":1236},{"is_transit":false,"i_long":106.855437,"station_id":"KMT","time":2,"station_name":"Kramat","distance":1829,"line":11,"transit":false,"i_lat":-6.193792},{"is_transit":false,"time":1,"line":11,"station_id":"GST","transit":false,"station_name":"Gang Sentiong","distance":973,"i_long":106.850107,"i_lat":-6.185975},{"station_name":"Pasar Senen","i_lat":-6.174784,"station_id":"PSE","line":11,"is_transit":false,"i_long":106.84368,"time":8,"distance":1567,"transit":false},{"distance":1436,"is_transit":false,"station_name":"Kemayoran","i_lat":-6.161728,"line":11,"transit":false,"station_id":"KMO","time":4,"i_long":106.839204},{"transit":false,"time":5,"station_id":"RJW","i_lat":-6.14505,"station_name":"Rajawali","i_long":106.836569,"line":11,"is_transit":false,"distance":1901},{"line":4,"station_id":"KPB","is_transit":true,"distance":1444,"i_long":106.826365,"i_lat":-6.132549,"transit":true,"station_name":"Kampung Bandan","time":3},{"i_lat":-6.137569,"station_name":"Jakarta Kota","transit":true,"i_long":106.812439,"is_transit":true,"line":2,"distance":1364,"time":3,"station_id":"JAKK"},{"station_id":"JAY","distance":1264,"station_name":"Jayakarta","i_lat":-6.141205,"i_long":106.820901,"is_transit":false,"transit":false,"line":2,"time":4},{"distance":1080,"station_id":"MGB","transit":false,"i_long":106.82482,"line":2,"time":2,"station_name":"Manggabesar","i_lat":-6.149769,"is_transit":false},{"is_transit":false,"i_lat":-6.160725,"distance":906,"time":2,"station_id":"SW","transit":false,"line":2,"i_long":106.827103,"station_name":"Sawah Besar"},{"station_name":"Juanda","i_lat":-6.166716,"line":2,"time":2,"station_id":"JUA","distance":1149,"i_long":106.828284,"is_transit":false,"transit":false},{"time":4,"is_transit":false,"i_long":106.832183,"line":2,"i_lat":-6.186295,"station_id":"GDD","distance":2015,"station_name":"Gondangdia","transit":false},{"line":2,"is_transit":false,"time":3,"station_name":"Cikini","transit":false,"i_lat":-6.198556,"station_id":"CKI","i_long":106.840169,"distance":1750},{"is_transit":false,"transit":false,"station_name":"Manggarai","i_lat":-6.209883,"time":4,"line":2,"station_id":"MRI","distance":1590,"i_long":106.84912},{"distance":2610,"line":2,"is_transit":false,"time":4,"station_name":"Tebet","transit":false,"i_lat":-6.226659,"i_long":106.857948,"station_id":"TEB"},{"station_name":"Cawang","transit":false,"line":2,"i_lat":-6.242512,"station_id":"CW","i_long":106.856607,"is_transit":false,"time":2,"distance":1230},{"station_name":"Duren Kalibata","i_long":106.85449,"line":2,"station_id":"DRN","time":3,"distance":1546,"transit":false,"i_lat":-6.255332,"is_transit":false},{"line":2,"transit":false,"is_transit":false,"time":2,"station_name":"Pasar Minggu Baru","i_lat":-6.263214,"i_long":106.851577,"station_id":"PSMB","distance":824},{"station_id":"PSM","i_lat":-6.2842400000000005,"time":2,"distance":2380,"transit":false,"is_transit":false,"i_long":106.843999,"station_name":"Pasar Minggu","line":2},{"time":4,"transit":false,"is_transit":false,"i_lat":-6.3080680000000005,"station_id":"TNT","station_name":"Tanjung Barat","distance":2820,"i_long":106.838896,"line":2},{"is_transit":false,"station_id":"LNA","station_name":"Lenteng Agung","transit":false,"line":2,"distance":2671,"i_lat":-6.330363,"time":3,"i_long":106.832616},{"station_name":"Univ. Pancasila","transit":false,"distance":1029,"time":2,"station_id":"UP","is_transit":false,"line":2,"i_lat":-6.339291,"i_long":106.834175},{"line":2,"is_transit":false,"station_name":"Univ. Indonesia","distance":2264,"station_id":"UI","transit":false,"i_lat":-6.360749,"i_long":106.831474,"time":3},{"time":2,"station_name":"Pondok Cina","i_long":106.831114,"i_lat":-6.369073,"line":2,"station_id":"POC","transit":false,"distance":1109,"is_transit":false},{"transit":false,"i_lat":-6.391065,"station_name":"Depokbaru","i_long":106.819451,"station_id":"DPB","time":4,"line":2,"is_transit":false,"distance":2727},{"station_id":"DP","i_lat":-6.405256,"i_long":106.816926,"distance":1584,"time":3,"line":2,"station_name":"Depok","transit":false,"is_transit":false},{"station_name":"Citayam","i_lat":-6.448811,"time":6,"station_id":"CTA","is_transit":true,"i_long":106.800298,"distance":5084,"transit":true,"line":2},{"station_name":"Pondok Rajeg","time":0,"transit":false,"i_long":106.824374,"line":21,"station_id":"PDRG","i_lat":-6.460735,"is_transit":false,"distance":0}]]}