{"data":[[{"station_name":"Kranji","time":0,"line":1,"is_transit":false,"i_long":106.977657,"distance":0,"i_lat":-6.224515,"station_id":"KRI","transit":false},{"distance":3097,"i_long":106.951283,"time":3,"i_lat":-6.219053,"station_id":"CUK","line":1,"station_name":"Cakung","is_transit":false,"transit":false},{"station_name":"Klenderbaru","transit":false,"time":8,"station_id":"KLDB","distance":1385,"i_lat":-6.217455,"line":1,"is_transit":false,"i_long":106.939679},{"is_transit":false,"line":1,"station_id":"BUA","transit":false,"i_lat":-6.215568,"time":1,"distance":1305,"station_name":"Buaran","i_long":106.922662},{"station_id":"KLD","time":2,"is_transit":false,"i_lat":-6.2135,"line":1,"transit":false,"distance":3100,"station_name":"Klender","i_long":106.899548},{"station_name":"Jatinegara","line":1,"station_id":"JNG","distance":3395,"i_lat":-6.215091,"transit":false,"i_long":106.86807400000001,"is_transit":false,"time":3},{"transit":false,"station_id":"MTR","i_long":106.858896,"i_lat":-6.212485,"distance":1377,"is_transit":false,"line":1,"time":2,"station_name":"Matraman"},{"distance":1275,"is_transit":false,"time":2,"station_name":"Manggarai","i_lat":-6.209883,"line":2,"transit":false,"station_id":"MRI","i_long":106.84912},{"transit":false,"distance":3186,"station_id":"SUD","is_transit":false,"line":1,"i_long":106.822649,"time":4,"i_lat":-6.202263,"station_name":"Sudirman"},{"time":1,"distance":280,"transit":false,"i_lat":-6.201433,"i_long":106.819881,"line":1,"station_id":"SUDB","station_name":"Sudirman Baru","is_transit":false},{"transit":false,"distance":471,"station_name":"Karet","is_transit":false,"line":1,"i_long":106.816351,"station_id":"KAT","i_lat":-6.20132,"time":1},{"station_id":"THB","transit":true,"time":5,"station_name":"Tanah Abang","is_transit":true,"distance":2029,"i_lat":-6.185545,"i_long":106.811091,"line":1},{"is_transit":false,"transit":false,"i_long":106.79689,"time":6,"line":6,"station_name":"Palmerah","station_id":"PLM","i_lat":-6.207404,"distance":3191},{"line":6,"i_lat":-6.237242,"station_name":"Kebayoran","distance":3737,"i_long":106.780334,"transit":false,"is_transit":false,"time":7,"station_id":"KBY"},{"i_long":106.74273,"station_name":"Pondokranji","line":6,"i_lat":-6.276362,"station_id":"PDJ","transit":false,"distance":6218,"time":8,"is_transit":false},{"transit":false,"time":3,"distance":2179,"i_lat":-6.288927,"line":6,"i_long":106.728916,"is_transit":false,"station_name":"Jurangmangu","station_id":"JMU"},{"station_id":"SDM","transit":false,"is_transit":false,"i_lat":-6.296963,"line":6,"station_name":"Sudimara","distance":1994,"time":4,"i_long":106.712277},{"line":6,"time":6,"distance":4566,"i_long":106.675475,"is_transit":false,"station_name":"Rawa Buntu","i_lat":-6.314823,"transit":false,"station_id":"RU"},{"time":4,"i_lat":-6.319871,"is_transit":false,"distance":2413,"i_long":106.66566,"line":6,"transit":false,"station_name":"Serpong","station_id":"SRP"},{"time":4,"station_id":"CSK","distance":1784,"is_transit":false,"i_lat":-6.32484,"station_name":"Cisauk","transit":false,"line":3,"i_long":106.640411},{"i_lat":-6.329547,"i_long":106.617853,"time":4,"station_id":"CC","distance":2519,"transit":false,"station_name":"Cicayur","is_transit":false,"line":3},{"station_name":"Parung Panjang","is_transit":false,"station_id":"PRP","time":8,"i_lat":-6.3441410000000005,"line":6,"transit":false,"distance":5968,"i_long":106.568863},{"transit":false,"distance":7025,"line":3,"i_lat":-6.354349,"i_long":106.508482,"is_transit":false,"station_name":"Cilejit","station_id":"CJT","time":9},{"line":0,"transit":false,"distance":2675,"station_id":"DAR","station_name":"Daru","i_long":106.491338,"i_lat":-6.338021,"time":6,"is_transit":false},{"distance":3902,"i_long":106.460812,"station_name":"Tenjo","transit":false,"station_id":"TEJ","i_lat":-6.327251,"line":6,"is_transit":false,"time":5}],[{"distance":0,"time":0,"station_id":"KRI","i_long":106.977657,"transit":false,"station_name":"Kranji","is_transit":false,"line":1,"i_lat":-6.224515},{"i_lat":-6.219053,"line":1,"time":3,"i_long":106.951283,"distance":3097,"is_transit":false,"station_name":"Cakung","transit":false,"station_id":"CUK"},{"time":8,"i_lat":-6.217455,"station_id":"KLDB","station_name":"Klenderbaru","i_long":106.939679,"transit":false,"distance":1385,"is_transit":false,"line":1},{"line":1,"station_id":"BUA","distance":1305,"i_lat":-6.215568,"i_long":106.922662,"time":1,"station_name":"Buaran","is_transit":false,"transit":false},{"station_name":"Klender","transit":false,"station_id":"KLD","time":2,"i_long":106.899548,"line":1,"i_lat":-6.2135,"is_transit":false,"distance":3100},{"line":1,"i_long":106.86807400000001,"time":3,"distance":3395,"is_transit":true,"transit":true,"station_name":"Jatinegara","i_lat":-6.215091,"station_id":"JNG"},{"time":2,"station_name":"Pondok Jati","distance":1236,"station_id":"POK","line":11,"is_transit":false,"i_long":106.861737,"transit":false,"i_lat":-6.209188},{"is_transit":false,"station_id":"KMT","time":2,"line":11,"transit":false,"i_lat":-6.193792,"i_long":106.855437,"station_name":"Kramat","distance":1829},{"station_id":"GST","i_long":106.850107,"transit":false,"distance":973,"line":11,"time":1,"is_transit":false,"station_name":"Gang Sentiong","i_lat":-6.185975},{"distance":1567,"station_name":"Pasar Senen","transit":false,"i_long":106.84368,"line":11,"time":8,"is_transit":false,"i_lat":-6.174784,"station_id":"PSE"},{"is_transit":false,"time":4,"station_name":"Kemayoran","line":11,"distance":1436,"i_lat":-6.161728,"station_id":"KMO","transit":false,"i_long":106.839204},{"station_name":"Rajawali","i_lat":-6.14505,"i_long":106.836569,"distance":1901,"line":11,"transit":false,"station_id":"RJW","is_transit":false,"time":5},{"transit":true,"station_name":"Kampung Bandan","time":3,"line":4,"distance":1444,"is_transit":true,"station_id":"KPB","i_lat":-6.132549,"i_long":106.826365},{"is_transit":false,"station_id":"AK","time":9,"transit":false,"line":1,"i_lat":-6.144674,"distance":4102,"station_name":"Angke","i_long":106.79867},{"station_id":"DU","time":4,"transit":false,"i_lat":-6.155215,"is_transit":false,"station_name":"Duri","distance":1230,"i_long":106.800832,"line":1},{"line":1,"station_id":"THB","distance":3632,"time":8,"i_long":106.811091,"i_lat":-6.185545,"station_name":"Tanah Abang","is_transit":true,"transit":true},{"is_transit":false,"i_long":106.79689,"station_name":"Palmerah","station_id":"PLM","time":6,"distance":3191,"i_lat":-6.207404,"transit":false,"line":6},{"time":7,"station_id":"KBY","transit":false,"is_transit":false,"i_lat":-6.237242,"distance":3737,"line":6,"station_name":"Kebayoran","i_long":106.780334},{"distance":6218,"station_name":"Pondokranji","i_long":106.74273,"is_transit":false,"transit":false,"time":8,"line":6,"i_lat":-6.276362,"station_id":"PDJ"},{"time":3,"station_id":"JMU","distance":2179,"i_lat":-6.288927,"i_long":106.728916,"station_name":"Jurangmangu","transit":false,"line":6,"is_transit":false},{"is_transit":false,"distance":1994,"line":6,"i_lat":-6.296963,"station_name":"Sudimara","station_id":"SDM","time":4,"i_long":106.712277,"transit":false},{"i_long":106.675475,"transit":false,"distance":4566,"line":6,"station_name":"Rawa Buntu","time":6,"station_id":"RU","is_transit":false,"i_lat":-6.314823},{"station_id":"SRP","station_name":"Serpong","line":6,"i_long":106.66566,"is_transit":false,"time":4,"transit":false,"distance":2413,"i_lat":-6.319871},{"transit":false,"station_name":"Cisauk","i_lat":-6.32484,"i_long":106.640411,"time":4,"is_transit":false,"line":3,"station_id":"CSK","distance":1784},{"distance":2519,"transit":false,"station_name":"Cicayur","station_id":"CC","line":3,"is_transit":false,"time":4,"i_lat":-6.329547,"i_long":106.617853},{"line":6,"is_transit":false,"station_id":"PRP","i_long":106.568863,"station_name":"Parung Panjang","time":8,"transit":false,"distance":5968,"i_lat":-6.3441410000000005},{"station_id":"CJT","transit":false,"is_transit":false,"station_name":"Cilejit","time":9,"distance":7025,"i_lat":-6.354349,"i_long":106.508482,"line":3},{"station_name":"Daru","distance":2675,"i_lat":-6.338021,"line":0,"transit":false,"is_transit":false,"station_id":"DAR","time":6,"i_long":106.491338},{"distance":3902,"transit":false,"time":5,"i_long":106.460812,"line":6,"i_lat":-6.327251,"is_transit":false,"station_name":"Tenjo","station_id":"TEJ"}],[{"transit":false,"i_long":106.977657,"line":1,"time":0,"is_transit":false,"station_id":"KRI","distance":0,"station_name":"Kranji","i_lat":-6.224515},{"station_name":"Cakung","i_lat":-6.219053,"transit":false,"station_id":"CUK","i_long":106.951283,"time":3,"distance":3097,"is_transit":false,"line":1},{"station_id":"KLDB","station_name":"Klenderbaru","line":1,"i_lat":-6.217455,"is_transit":false,"distance":1385,"transit":false,"i_long":106.939679,"time":8},{"is_transit":false,"station_id":"BUA","i_lat":-6.215568,"line":1,"transit":false,"station_name":"Buaran","i_long":106.922662,"distance":1305,"time":1},{"station_name":"Klender","station_id":"KLD","distance":3100,"i_long":106.899548,"line":1,"time":2,"is_transit":false,"i_lat":-6.2135,"transit":false},{"transit":false,"station_id":"JNG","i_long":106.86807400000001,"is_transit":false,"distance":3395,"i_lat":-6.215091,"station_name":"Jatinegara","time":3,"line":1},{"is_transit":false,"i_lat":-6.212485,"i_long":106.858896,"time":2,"station_name":"Matraman","station_id":"MTR","distance":1377,"transit":false,"line":1},{"time":2,"i_long":106.84912,"i_lat":-6.209883,"station_name":"Manggarai","station_id":"MRI","is_transit":true,"line":2,"transit":true,"distance":1275},{"i_lat":-6.198556,"time":4,"station_name":"Cikini","station_id":"CKI","distance":1590,"i_long":106.840169,"transit":false,"is_transit":false,"line":2},{"time":3,"i_lat":-6.186295,"i_long":106.832183,"is_transit":false,"distance":1750,"transit":false,"station_name":"Gondangdia","line":2,"station_id":"GDD"},{"line":2,"transit":false,"station_name":"Juanda","is_transit":false,"i_lat":-6.166716,"i_long":106.828284,"distance":2015,"time":4,"station_id":"JUA"},{"station_id":"SW","station_name":"Sawah Besar","is_transit":false,"i_lat":-6.160725,"distance":1149,"line":2,"transit":false,"time":2,"i_long":106.827103},{"station_name":"Manggabesar","station_id":"MGB","time":2,"distance":906,"i_long":106.82482,"line":2,"is_transit":false,"i_lat":-6.149769,"transit":false},{"is_transit":false,"distance":1080,"i_long":106.820901,"station_name":"Jayakarta","time":2,"i_lat":-6.141205,"station_id":"JAY","transit":false,"line":2},{"station_id":"JAKK","transit":true,"distance":1264,"line":2,"i_lat":-6.137569,"station_name":"Jakarta Kota","is_transit":true,"i_long":106.812439,"time":4},{"time":3,"transit":true,"i_lat":-6.132549,"distance":1364,"station_id":"KPB","station_name":"Kampung Bandan","is_transit":true,"line":4,"i_long":106.826365},{"station_name":"Angke","transit":false,"i_lat":-6.144674,"i_long":106.79867,"is_transit":false,"station_id":"AK","time":9,"distance":4102,"line":1},{"station_name":"Duri","line":1,"time":4,"i_long":106.800832,"is_transit":false,"distance":1230,"transit":false,"i_lat":-6.155215,"station_id":"DU"},{"time":8,"is_transit":true,"i_long":106.811091,"station_name":"Tanah Abang","line":1,"distance":3632,"i_lat":-6.185545,"transit":true,"station_id":"THB"},{"is_transit":false,"station_name":"Palmerah","i_long":106.79689,"station_id":"PLM","distance":3191,"line":6,"transit":false,"time":6,"i_lat":-6.207404},{"time":7,"station_id":"KBY","station_name":"Kebayoran","transit":false,"is_transit":false,"line":6,"distance":3737,"i_lat":-6.237242,"i_long":106.780334},{"station_name":"Pondokranji","transit":false,"station_id":"PDJ","time":8,"distance":6218,"i_lat":-6.276362,"i_long":106.74273,"is_transit":false,"line":6},{"i_lat":-6.288927,"line":6,"time":3,"distance":2179,"is_transit":false,"station_name":"Jurangmangu","station_id":"JMU","i_long":106.728916,"transit":false},{"i_long":106.712277,"transit":false,"station_id":"SDM","distance":1994,"line":6,"station_name":"Sudimara","time":4,"is_transit":false,"i_lat":-6.296963},{"i_long":106.675475,"distance":4566,"station_id":"RU","time":6,"transit":false,"station_name":"Rawa Buntu","line":6,"is_transit":false,"i_lat":-6.314823},{"line":6,"station_id":"SRP","transit":false,"is_transit":false,"distance":2413,"time":4,"i_long":106.66566,"station_name":"Serpong","i_lat":-6.319871},{"line":3,"i_long":106.640411,"station_id":"CSK","is_transit":false,"i_lat":-6.32484,"distance":1784,"transit":false,"time":4,"station_name":"Cisauk"},{"i_lat":-6.329547,"distance":2519,"station_id":"CC","time":4,"station_name":"Cicayur","line":3,"is_transit":false,"i_long":106.617853,"transit":false},{"transit":false,"time":8,"station_name":"Parung Panjang","i_long":106.568863,"line":6,"station_id":"PRP","distance":5968,"is_transit":false,"i_lat":-6.3441410000000005},{"transit":false,"station_id":"CJT","i_lat":-6.354349,"distance":7025,"station_name":"Cilejit","line":3,"i_long":106.508482,"time":9,"is_transit":false},{"transit":false,"distance":2675,"time":6,"i_long":106.491338,"station_id":"DAR","station_name":"Daru","is_transit":false,"i_lat":-6.338021,"line":0},{"distance":3902,"i_long":106.460812,"line":6,"is_transit":false,"station_id":"TEJ","transit":false,"station_name":"Tenjo","time":5,"i_lat":-6.327251}],[{"time":0,"transit":false,"distance":0,"station_name":"Kranji","station_id":"KRI","is_transit":false,"i_long":106.977657,"line":1,"i_lat":-6.224515},{"station_name":"Cakung","distance":3097,"is_transit":false,"time":3,"station_id":"CUK","i_lat":-6.219053,"line":1,"i_long":106.951283,"transit":false},{"time":8,"line":1,"distance":1385,"is_transit":false,"i_long":106.939679,"i_lat":-6.217455,"station_id":"KLDB","station_name":"Klenderbaru","transit":false},{"time":1,"station_name":"Buaran","i_lat":-6.215568,"is_transit":false,"distance":1305,"transit":false,"i_long":106.922662,"station_id":"BUA","line":1},{"i_lat":-6.2135,"station_id":"KLD","i_long":106.899548,"is_transit":false,"transit":false,"line":1,"station_name":"Klender","time":2,"distance":3100},{"line":1,"i_lat":-6.215091,"transit":true,"time":3,"station_name":"Jatinegara","distance":3395,"station_id":"JNG","is_transit":true,"i_long":106.86807400000001},{"station_name":"Pondok Jati","transit":false,"line":11,"time":2,"i_long":106.861737,"is_transit":false,"station_id":"POK","i_lat":-6.209188,"distance":1236},{"is_transit":false,"time":2,"station_name":"Kramat","line":11,"i_lat":-6.193792,"transit":false,"station_id":"KMT","distance":1829,"i_long":106.855437},{"distance":973,"line":11,"station_id":"GST","i_lat":-6.185975,"station_name":"Gang Sentiong","i_long":106.850107,"time":1,"is_transit":false,"transit":false},{"transit":false,"distance":1567,"station_id":"PSE","time":8,"i_lat":-6.174784,"station_name":"Pasar Senen","i_long":106.84368,"is_transit":false,"line":11},{"i_long":106.839204,"transit":false,"i_lat":-6.161728,"line":11,"is_transit":false,"station_id":"KMO","time":4,"station_name":"Kemayoran","distance":1436},{"transit":false,"is_transit":false,"i_lat":-6.14505,"line":11,"station_id":"RJW","i_long":106.836569,"time":5,"station_name":"Rajawali","distance":1901},{"station_name":"Kampung Bandan","is_transit":true,"time":3,"line":4,"station_id":"KPB","transit":true,"i_long":106.826365,"distance":1444,"i_lat":-6.132549},{"transit":true,"station_id":"JAKK","distance":1364,"line":2,"i_long":106.812439,"station_name":"Jakarta Kota","is_transit":true,"time":3,"i_lat":-6.137569},{"time":4,"i_lat":-6.141205,"transit":false,"distance":1264,"i_long":106.820901,"line":2,"is_transit":false,"station_name":"Jayakarta","station_id":"JAY"},{"time":2,"is_transit":false,"station_name":"Manggabesar","distance":1080,"i_long":106.82482,"station_id":"MGB","line":2,"i_lat":-6.149769,"transit":false},{"transit":false,"station_name":"Sawah Besar","station_id":"SW","i_long":106.827103,"line":2,"is_transit":false,"time":2,"distance":906,"i_lat":-6.160725},{"distance":1149,"i_long":106.828284,"transit":false,"station_id":"JUA","line":2,"station_name":"Juanda","time":2,"i_lat":-6.166716,"is_transit":false},{"line":2,"is_transit":false,"i_lat":-6.186295,"i_long":106.832183,"distance":2015,"station_id":"GDD","station_name":"Gondangdia","time":4,"transit":false},{"distance":1750,"i_long":106.840169,"station_name":"Cikini","station_id":"CKI","line":2,"is_transit":false,"transit":false,"i_lat":-6.198556,"time":3},{"station_name":"Manggarai","is_transit":true,"i_long":106.84912,"station_id":"MRI","transit":true,"distance":1590,"i_lat":-6.209883,"time":4,"line":2},{"i_long":106.822649,"station_id":"SUD","line":1,"transit":false,"i_lat":-6.202263,"time":4,"station_name":"Sudirman","is_transit":false,"distance":3186},{"is_transit":false,"station_name":"Sudirman Baru","i_lat":-6.201433,"transit":false,"line":1,"station_id":"SUDB","i_long":106.819881,"distance":280,"time":1},{"station_name":"Karet","line":1,"is_transit":false,"time":1,"i_lat":-6.20132,"i_long":106.816351,"distance":471,"transit":false,"station_id":"KAT"},{"distance":2029,"i_lat":-6.185545,"station_name":"Tanah Abang","i_long":106.811091,"is_transit":true,"station_id":"THB","line":1,"time":5,"transit":true},{"station_name":"Palmerah","i_long":106.79689,"time":6,"is_transit":false,"distance":3191,"transit":false,"station_id":"PLM","i_lat":-6.207404,"line":6},{"transit":false,"is_transit":false,"time":7,"distance":3737,"i_long":106.780334,"line":6,"station_id":"KBY","i_lat":-6.237242,"station_name":"Kebayoran"},{"station_id":"PDJ","transit":false,"i_lat":-6.276362,"is_transit":false,"distance":6218,"station_name":"Pondokranji","time":8,"i_long":106.74273,"line":6},{"station_name":"Jurangmangu","distance":2179,"is_transit":false,"line":6,"transit":false,"station_id":"JMU","i_long":106.728916,"i_lat":-6.288927,"time":3},{"i_long":106.712277,"station_id":"SDM","station_name":"Sudimara","transit":false,"i_lat":-6.296963,"distance":1994,"is_transit":false,"line":6,"time":4},{"station_name":"Rawa Buntu","transit":false,"distance":4566,"is_transit":false,"time":6,"i_long":106.675475,"line":6,"station_id":"RU","i_lat":-6.314823},{"transit":false,"station_id":"SRP","time":4,"is_transit":false,"i_lat":-6.319871,"distance":2413,"station_name":"Serpong","line":6,"i_long":106.66566},{"station_name":"Cisauk","station_id":"CSK","time":4,"i_lat":-6.32484,"i_long":106.640411,"line":3,"is_transit":false,"transit":false,"distance":1784},{"station_id":"CC","distance":2519,"station_name":"Cicayur","transit":false,"time":4,"line":3,"i_lat":-6.329547,"is_transit":false,"i_long":106.617853},{"transit":false,"station_name":"Parung Panjang","time":8,"i_long":106.568863,"line":6,"distance":5968,"i_lat":-6.3441410000000005,"is_transit":false,"station_id":"PRP"},{"i_lat":-6.354349,"transit":false,"station_name":"Cilejit","i_long":106.508482,"station_id":"CJT","time":9,"distance":7025,"line":3,"is_transit":false},{"i_lat":-6.338021,"distance":2675,"transit":false,"station_name":"Daru","time":6,"station_id":"DAR","line":0,"i_long":106.491338,"is_transit":false},{"transit":false,"station_name":"Tenjo","station_id":"TEJ","is_transit":false,"i_long":106.460812,"line":6,"i_lat":-6.327251,"time":5,"distance":3902}]]}