{"data":[[{"is_transit":false,"line":1,"time":0,"i_long":106.977657,"station_id":"KRI","i_lat":-6.224515,"transit":false,"station_name":"Kranji","distance":0},{"station_name":"Bekasi","distance":2520,"time":4,"transit":false,"i_long":106.997013,"i_lat":-6.236616,"line":1,"is_transit":false,"station_id":"BKS"},{"distance":2368,"time":2,"is_transit":false,"station_id":"BKST","i_long":107.016735,"i_lat":-6.248029,"line":1,"transit":false,"station_name":"Bekasi Timur"},{"i_lat":-6.258864,"i_long":107.055722,"is_transit":false,"distance":4460,"station_name":"Tambun","line":1,"time":7,"station_id":"TB","transit":false},{"line":1,"time":3,"station_id":"CIT","transit":false,"is_transit":false,"i_lat":-6.261877,"i_long":107.083084,"distance":3420,"station_name":"Cibitung"},{"distance":2800,"i_lat":-6.262938,"station_name":"Metland Telaga Murni","station_id":"TLM","i_long":107.093313,"transit":false,"time":2,"line":1,"is_transit":false}]]}