{"data":[[{"station_name":"Kranji","transit":false,"distance":0,"is_transit":false,"line":1,"time":0,"i_lat":-6.224515,"i_long":106.977657,"station_id":"KRI"},{"i_lat":-6.236616,"i_long":106.997013,"time":4,"station_id":"BKS","line":1,"station_name":"Bekasi","distance":2520,"is_transit":false,"transit":false},{"i_long":107.016735,"is_transit":false,"station_id":"BKST","station_name":"Bekasi Timur","transit":false,"i_lat":-6.248029,"line":1,"distance":2368,"time":2},{"i_lat":-6.258864,"distance":4460,"station_id":"TB","time":7,"transit":false,"station_name":"Tambun","line":1,"is_transit":false,"i_long":107.055722},{"i_long":107.083084,"time":3,"i_lat":-6.261877,"is_transit":false,"line":1,"station_id":"CIT","station_name":"Cibitung","distance":3420,"transit":false},{"i_long":107.093313,"i_lat":-6.262938,"line":1,"is_transit":false,"station_name":"Metland Telaga Murni","station_id":"TLM","time":2,"distance":2800,"transit":false}]]}