{"data":[[{"station_id":"KRI","transit":false,"station_name":"Kranji","i_long":106.977657,"distance":0,"line":1,"time":0,"is_transit":false,"i_lat":-6.224515},{"distance":3097,"station_name":"Cakung","i_long":106.951283,"is_transit":false,"time":3,"line":1,"transit":false,"station_id":"CUK","i_lat":-6.219053},{"i_lat":-6.217455,"time":8,"distance":1385,"line":1,"station_id":"KLDB","is_transit":false,"transit":false,"i_long":106.939679,"station_name":"Klenderbaru"},{"station_name":"Buaran","is_transit":false,"i_long":106.922662,"station_id":"BUA","time":1,"distance":1305,"line":1,"transit":false,"i_lat":-6.215568},{"station_name":"Klender","i_lat":-6.2135,"is_transit":false,"station_id":"KLD","line":1,"transit":false,"i_long":106.899548,"distance":3100,"time":2},{"is_transit":false,"station_id":"JNG","time":3,"station_name":"Jatinegara","i_lat":-6.215091,"i_long":106.86807400000001,"line":1,"distance":3395,"transit":false},{"time":2,"distance":1377,"i_lat":-6.212485,"i_long":106.858896,"transit":false,"station_id":"MTR","station_name":"Matraman","is_transit":false,"line":1},{"i_lat":-6.209883,"transit":false,"distance":1275,"time":2,"station_id":"MRI","station_name":"Manggarai","line":2,"i_long":106.84912,"is_transit":false},{"distance":3186,"i_lat":-6.202263,"station_name":"Sudirman","i_long":106.822649,"transit":false,"time":4,"line":1,"station_id":"SUD","is_transit":false},{"is_transit":false,"station_id":"SUDB","time":1,"i_lat":-6.201433,"line":1,"station_name":"Sudirman Baru","transit":false,"i_long":106.819881,"distance":280},{"station_id":"KAT","i_long":106.816351,"time":1,"i_lat":-6.20132,"line":1,"station_name":"Karet","distance":471,"transit":false,"is_transit":false},{"time":5,"distance":2029,"is_transit":true,"station_name":"Tanah Abang","line":1,"transit":true,"station_id":"THB","i_lat":-6.185545,"i_long":106.811091},{"distance":3191,"i_lat":-6.207404,"line":6,"time":6,"i_long":106.79689,"is_transit":false,"transit":false,"station_name":"Palmerah","station_id":"PLM"},{"distance":3737,"transit":false,"time":7,"is_transit":false,"line":6,"station_name":"Kebayoran","i_lat":-6.237242,"station_id":"KBY","i_long":106.780334},{"i_lat":-6.276362,"distance":6218,"is_transit":false,"time":8,"i_long":106.74273,"station_id":"PDJ","transit":false,"station_name":"Pondokranji","line":6},{"station_name":"Jurangmangu","line":6,"distance":2179,"i_long":106.728916,"time":3,"i_lat":-6.288927,"transit":false,"is_transit":false,"station_id":"JMU"},{"station_name":"Sudimara","distance":1994,"i_lat":-6.296963,"transit":false,"line":6,"i_long":106.712277,"time":4,"station_id":"SDM","is_transit":false},{"station_name":"Rawa Buntu","is_transit":false,"i_long":106.675475,"time":6,"i_lat":-6.314823,"distance":4566,"line":6,"transit":false,"station_id":"RU"},{"is_transit":false,"distance":2413,"transit":false,"station_id":"SRP","station_name":"Serpong","time":4,"i_lat":-6.319871,"i_long":106.66566,"line":6},{"i_lat":-6.32484,"distance":1784,"transit":false,"station_id":"CSK","time":4,"is_transit":false,"i_long":106.640411,"line":3,"station_name":"Cisauk"},{"time":4,"i_long":106.617853,"transit":false,"station_id":"CC","distance":2519,"line":3,"is_transit":false,"station_name":"Cicayur","i_lat":-6.329547},{"time":8,"station_id":"PRP","station_name":"Parung Panjang","i_long":106.568863,"is_transit":false,"distance":5968,"line":6,"i_lat":-6.3441410000000005,"transit":false},{"transit":false,"line":3,"station_name":"Cilejit","distance":7025,"station_id":"CJT","is_transit":false,"time":9,"i_lat":-6.354349,"i_long":106.508482},{"i_lat":-6.338021,"station_name":"Daru","time":6,"is_transit":false,"i_long":106.491338,"line":0,"station_id":"DAR","distance":2675,"transit":false},{"station_id":"TEJ","i_long":106.460812,"line":6,"distance":3902,"is_transit":false,"station_name":"Tenjo","time":5,"i_lat":-6.327251,"transit":false}],[{"line":1,"i_lat":-6.224515,"i_long":106.977657,"time":0,"is_transit":false,"transit":false,"station_name":"Kranji","station_id":"KRI","distance":0},{"i_long":106.951283,"distance":3097,"is_transit":false,"i_lat":-6.219053,"transit":false,"station_name":"Cakung","time":3,"station_id":"CUK","line":1},{"time":8,"distance":1385,"line":1,"i_long":106.939679,"i_lat":-6.217455,"transit":false,"station_id":"KLDB","is_transit":false,"station_name":"Klenderbaru"},{"i_lat":-6.215568,"station_id":"BUA","i_long":106.922662,"transit":false,"is_transit":false,"line":1,"station_name":"Buaran","distance":1305,"time":1},{"i_lat":-6.2135,"distance":3100,"transit":false,"time":2,"i_long":106.899548,"station_id":"KLD","station_name":"Klender","is_transit":false,"line":1},{"distance":3395,"is_transit":true,"station_name":"Jatinegara","line":1,"station_id":"JNG","i_long":106.86807400000001,"time":3,"i_lat":-6.215091,"transit":true},{"station_name":"Pondok Jati","i_long":106.861737,"is_transit":false,"line":11,"distance":1236,"time":2,"station_id":"POK","transit":false,"i_lat":-6.209188},{"line":11,"is_transit":false,"time":2,"i_lat":-6.193792,"distance":1829,"transit":false,"i_long":106.855437,"station_id":"KMT","station_name":"Kramat"},{"station_id":"GST","i_lat":-6.185975,"transit":false,"time":1,"i_long":106.850107,"is_transit":false,"station_name":"Gang Sentiong","distance":973,"line":11},{"time":8,"station_id":"PSE","is_transit":false,"distance":1567,"station_name":"Pasar Senen","i_long":106.84368,"line":11,"transit":false,"i_lat":-6.174784},{"i_lat":-6.161728,"line":11,"station_id":"KMO","i_long":106.839204,"transit":false,"distance":1436,"is_transit":false,"time":4,"station_name":"Kemayoran"},{"i_long":106.836569,"transit":false,"distance":1901,"time":5,"station_name":"Rajawali","line":11,"station_id":"RJW","is_transit":false,"i_lat":-6.14505},{"station_id":"KPB","station_name":"Kampung Bandan","is_transit":true,"i_long":106.826365,"line":4,"distance":1444,"time":3,"transit":true,"i_lat":-6.132549},{"transit":false,"time":9,"distance":4102,"station_id":"AK","i_lat":-6.144674,"i_long":106.79867,"line":1,"is_transit":false,"station_name":"Angke"},{"is_transit":false,"distance":1230,"i_lat":-6.155215,"station_name":"Duri","line":1,"station_id":"DU","transit":false,"i_long":106.800832,"time":4},{"station_id":"THB","is_transit":true,"distance":3632,"line":1,"time":8,"transit":true,"station_name":"Tanah Abang","i_long":106.811091,"i_lat":-6.185545},{"is_transit":false,"line":6,"station_name":"Palmerah","station_id":"PLM","distance":3191,"transit":false,"i_lat":-6.207404,"time":6,"i_long":106.79689},{"i_lat":-6.237242,"distance":3737,"i_long":106.780334,"is_transit":false,"time":7,"station_name":"Kebayoran","line":6,"station_id":"KBY","transit":false},{"station_name":"Pondokranji","i_lat":-6.276362,"i_long":106.74273,"transit":false,"station_id":"PDJ","is_transit":false,"line":6,"distance":6218,"time":8},{"i_lat":-6.288927,"time":3,"is_transit":false,"station_id":"JMU","distance":2179,"i_long":106.728916,"line":6,"station_name":"Jurangmangu","transit":false},{"line":6,"i_lat":-6.296963,"distance":1994,"transit":false,"station_name":"Sudimara","station_id":"SDM","is_transit":false,"time":4,"i_long":106.712277},{"i_lat":-6.314823,"is_transit":false,"transit":false,"i_long":106.675475,"station_id":"RU","distance":4566,"time":6,"line":6,"station_name":"Rawa Buntu"},{"i_lat":-6.319871,"distance":2413,"station_id":"SRP","is_transit":false,"line":6,"station_name":"Serpong","time":4,"i_long":106.66566,"transit":false},{"station_id":"CSK","i_long":106.640411,"line":3,"distance":1784,"is_transit":false,"i_lat":-6.32484,"transit":false,"time":4,"station_name":"Cisauk"},{"is_transit":false,"i_lat":-6.329547,"i_long":106.617853,"time":4,"line":3,"station_id":"CC","distance":2519,"transit":false,"station_name":"Cicayur"},{"station_name":"Parung Panjang","distance":5968,"i_long":106.568863,"station_id":"PRP","time":8,"line":6,"transit":false,"is_transit":false,"i_lat":-6.3441410000000005},{"time":9,"is_transit":false,"line":3,"station_id":"CJT","station_name":"Cilejit","i_long":106.508482,"i_lat":-6.354349,"transit":false,"distance":7025},{"station_name":"Daru","i_long":106.491338,"line":0,"distance":2675,"transit":false,"is_transit":false,"i_lat":-6.338021,"time":6,"station_id":"DAR"},{"transit":false,"line":6,"i_long":106.460812,"station_name":"Tenjo","time":5,"station_id":"TEJ","i_lat":-6.327251,"distance":3902,"is_transit":false}],[{"distance":0,"time":0,"station_name":"Kranji","line":1,"i_lat":-6.224515,"station_id":"KRI","is_transit":false,"i_long":106.977657,"transit":false},{"station_id":"CUK","i_long":106.951283,"line":1,"transit":false,"distance":3097,"is_transit":false,"station_name":"Cakung","i_lat":-6.219053,"time":3},{"station_id":"KLDB","transit":false,"i_lat":-6.217455,"station_name":"Klenderbaru","time":8,"is_transit":false,"line":1,"i_long":106.939679,"distance":1385},{"time":1,"station_name":"Buaran","station_id":"BUA","transit":false,"line":1,"distance":1305,"is_transit":false,"i_lat":-6.215568,"i_long":106.922662},{"is_transit":false,"time":2,"station_name":"Klender","i_long":106.899548,"line":1,"distance":3100,"station_id":"KLD","transit":false,"i_lat":-6.2135},{"time":3,"distance":3395,"transit":false,"station_name":"Jatinegara","line":1,"station_id":"JNG","i_long":106.86807400000001,"i_lat":-6.215091,"is_transit":false},{"station_name":"Matraman","station_id":"MTR","transit":false,"time":2,"distance":1377,"i_lat":-6.212485,"line":1,"is_transit":false,"i_long":106.858896},{"time":2,"station_name":"Manggarai","station_id":"MRI","transit":true,"is_transit":true,"i_lat":-6.209883,"line":2,"i_long":106.84912,"distance":1275},{"time":4,"station_name":"Cikini","line":2,"distance":1590,"transit":false,"station_id":"CKI","is_transit":false,"i_lat":-6.198556,"i_long":106.840169},{"time":3,"line":2,"station_id":"GDD","transit":false,"distance":1750,"station_name":"Gondangdia","i_long":106.832183,"i_lat":-6.186295,"is_transit":false},{"line":2,"i_long":106.828284,"time":4,"station_name":"Juanda","station_id":"JUA","distance":2015,"transit":false,"is_transit":false,"i_lat":-6.166716},{"time":2,"station_name":"Sawah Besar","distance":1149,"is_transit":false,"i_lat":-6.160725,"i_long":106.827103,"line":2,"transit":false,"station_id":"SW"},{"station_name":"Manggabesar","transit":false,"line":2,"distance":906,"is_transit":false,"time":2,"i_lat":-6.149769,"i_long":106.82482,"station_id":"MGB"},{"is_transit":false,"station_name":"Jayakarta","line":2,"transit":false,"i_lat":-6.141205,"station_id":"JAY","i_long":106.820901,"distance":1080,"time":2},{"station_name":"Jakarta Kota","i_lat":-6.137569,"i_long":106.812439,"transit":true,"is_transit":true,"line":2,"distance":1264,"time":4,"station_id":"JAKK"},{"distance":1364,"transit":true,"station_id":"KPB","i_long":106.826365,"i_lat":-6.132549,"station_name":"Kampung Bandan","line":4,"is_transit":true,"time":3},{"station_id":"AK","transit":false,"i_lat":-6.144674,"i_long":106.79867,"time":9,"is_transit":false,"station_name":"Angke","line":1,"distance":4102},{"time":4,"distance":1230,"station_id":"DU","is_transit":false,"station_name":"Duri","i_lat":-6.155215,"transit":false,"line":1,"i_long":106.800832},{"is_transit":true,"i_long":106.811091,"distance":3632,"time":8,"line":1,"station_name":"Tanah Abang","station_id":"THB","i_lat":-6.185545,"transit":true},{"distance":3191,"station_id":"PLM","is_transit":false,"line":6,"station_name":"Palmerah","time":6,"i_long":106.79689,"transit":false,"i_lat":-6.207404},{"i_long":106.780334,"is_transit":false,"transit":false,"time":7,"line":6,"distance":3737,"station_id":"KBY","i_lat":-6.237242,"station_name":"Kebayoran"},{"is_transit":false,"i_lat":-6.276362,"line":6,"station_name":"Pondokranji","transit":false,"i_long":106.74273,"time":8,"station_id":"PDJ","distance":6218},{"i_lat":-6.288927,"i_long":106.728916,"station_name":"Jurangmangu","time":3,"distance":2179,"line":6,"transit":false,"is_transit":false,"station_id":"JMU"},{"station_name":"Sudimara","i_lat":-6.296963,"station_id":"SDM","is_transit":false,"distance":1994,"line":6,"i_long":106.712277,"transit":false,"time":4},{"station_name":"Rawa Buntu","i_lat":-6.314823,"transit":false,"i_long":106.675475,"is_transit":false,"distance":4566,"line":6,"station_id":"RU","time":6},{"station_name":"Serpong","i_lat":-6.319871,"time":4,"transit":false,"distance":2413,"is_transit":false,"line":6,"station_id":"SRP","i_long":106.66566},{"station_id":"CSK","i_long":106.640411,"station_name":"Cisauk","line":3,"distance":1784,"transit":false,"i_lat":-6.32484,"time":4,"is_transit":false},{"is_transit":false,"i_lat":-6.329547,"i_long":106.617853,"line":3,"time":4,"distance":2519,"station_name":"Cicayur","station_id":"CC","transit":false},{"i_long":106.568863,"i_lat":-6.3441410000000005,"station_id":"PRP","line":6,"station_name":"Parung Panjang","transit":false,"distance":5968,"is_transit":false,"time":8},{"line":3,"transit":false,"i_long":106.508482,"time":9,"station_name":"Cilejit","station_id":"CJT","i_lat":-6.354349,"distance":7025,"is_transit":false},{"distance":2675,"station_id":"DAR","i_lat":-6.338021,"is_transit":false,"i_long":106.491338,"transit":false,"station_name":"Daru","time":6,"line":0},{"distance":3902,"i_lat":-6.327251,"i_long":106.460812,"line":6,"time":5,"station_id":"TEJ","transit":false,"is_transit":false,"station_name":"Tenjo"}],[{"is_transit":false,"distance":0,"station_name":"Kranji","i_long":106.977657,"transit":false,"time":0,"station_id":"KRI","i_lat":-6.224515,"line":1},{"station_id":"CUK","i_lat":-6.219053,"transit":false,"is_transit":false,"distance":3097,"station_name":"Cakung","i_long":106.951283,"time":3,"line":1},{"transit":false,"i_lat":-6.217455,"time":8,"station_name":"Klenderbaru","line":1,"station_id":"KLDB","distance":1385,"is_transit":false,"i_long":106.939679},{"i_long":106.922662,"is_transit":false,"transit":false,"station_id":"BUA","i_lat":-6.215568,"distance":1305,"time":1,"station_name":"Buaran","line":1},{"distance":3100,"time":2,"transit":false,"station_id":"KLD","i_long":106.899548,"is_transit":false,"station_name":"Klender","i_lat":-6.2135,"line":1},{"line":1,"transit":true,"is_transit":true,"i_lat":-6.215091,"station_id":"JNG","station_name":"Jatinegara","distance":3395,"time":3,"i_long":106.86807400000001},{"is_transit":false,"station_name":"Pondok Jati","i_long":106.861737,"line":11,"transit":false,"i_lat":-6.209188,"time":2,"distance":1236,"station_id":"POK"},{"station_name":"Kramat","line":11,"transit":false,"i_long":106.855437,"is_transit":false,"distance":1829,"time":2,"i_lat":-6.193792,"station_id":"KMT"},{"distance":973,"station_name":"Gang Sentiong","transit":false,"station_id":"GST","i_lat":-6.185975,"i_long":106.850107,"time":1,"is_transit":false,"line":11},{"station_id":"PSE","transit":false,"time":8,"i_long":106.84368,"distance":1567,"line":11,"is_transit":false,"station_name":"Pasar Senen","i_lat":-6.174784},{"time":4,"distance":1436,"line":11,"transit":false,"station_id":"KMO","is_transit":false,"station_name":"Kemayoran","i_lat":-6.161728,"i_long":106.839204},{"station_id":"RJW","station_name":"Rajawali","time":5,"is_transit":false,"distance":1901,"i_lat":-6.14505,"i_long":106.836569,"line":11,"transit":false},{"distance":1444,"transit":true,"is_transit":true,"time":3,"station_id":"KPB","i_lat":-6.132549,"i_long":106.826365,"line":4,"station_name":"Kampung Bandan"},{"distance":1364,"station_id":"JAKK","time":3,"i_long":106.812439,"is_transit":true,"line":2,"transit":true,"station_name":"Jakarta Kota","i_lat":-6.137569},{"line":2,"transit":false,"time":4,"i_long":106.820901,"station_id":"JAY","station_name":"Jayakarta","distance":1264,"is_transit":false,"i_lat":-6.141205},{"time":2,"station_name":"Manggabesar","station_id":"MGB","line":2,"is_transit":false,"i_long":106.82482,"distance":1080,"i_lat":-6.149769,"transit":false},{"time":2,"transit":false,"distance":906,"station_id":"SW","i_lat":-6.160725,"line":2,"is_transit":false,"i_long":106.827103,"station_name":"Sawah Besar"},{"is_transit":false,"i_long":106.828284,"station_id":"JUA","line":2,"i_lat":-6.166716,"distance":1149,"time":2,"station_name":"Juanda","transit":false},{"time":4,"station_name":"Gondangdia","station_id":"GDD","i_lat":-6.186295,"distance":2015,"transit":false,"is_transit":false,"i_long":106.832183,"line":2},{"i_long":106.840169,"distance":1750,"transit":false,"time":3,"i_lat":-6.198556,"is_transit":false,"station_name":"Cikini","station_id":"CKI","line":2},{"line":2,"station_id":"MRI","station_name":"Manggarai","i_lat":-6.209883,"is_transit":true,"i_long":106.84912,"time":4,"transit":true,"distance":1590},{"station_id":"SUD","distance":3186,"i_lat":-6.202263,"line":1,"is_transit":false,"station_name":"Sudirman","i_long":106.822649,"transit":false,"time":4},{"transit":false,"station_id":"SUDB","i_long":106.819881,"station_name":"Sudirman Baru","distance":280,"i_lat":-6.201433,"line":1,"time":1,"is_transit":false},{"station_id":"KAT","station_name":"Karet","line":1,"time":1,"transit":false,"is_transit":false,"i_lat":-6.20132,"i_long":106.816351,"distance":471},{"station_id":"THB","is_transit":true,"time":5,"transit":true,"line":1,"distance":2029,"station_name":"Tanah Abang","i_lat":-6.185545,"i_long":106.811091},{"station_name":"Palmerah","line":6,"station_id":"PLM","transit":false,"time":6,"is_transit":false,"i_lat":-6.207404,"distance":3191,"i_long":106.79689},{"i_lat":-6.237242,"line":6,"station_name":"Kebayoran","transit":false,"distance":3737,"i_long":106.780334,"station_id":"KBY","time":7,"is_transit":false},{"i_long":106.74273,"transit":false,"station_id":"PDJ","is_transit":false,"time":8,"distance":6218,"station_name":"Pondokranji","i_lat":-6.276362,"line":6},{"i_lat":-6.288927,"station_name":"Jurangmangu","line":6,"transit":false,"distance":2179,"station_id":"JMU","i_long":106.728916,"time":3,"is_transit":false},{"time":4,"is_transit":false,"transit":false,"distance":1994,"line":6,"i_lat":-6.296963,"station_id":"SDM","station_name":"Sudimara","i_long":106.712277},{"line":6,"is_transit":false,"time":6,"station_name":"Rawa Buntu","i_lat":-6.314823,"distance":4566,"transit":false,"i_long":106.675475,"station_id":"RU"},{"i_lat":-6.319871,"line":6,"transit":false,"station_name":"Serpong","distance":2413,"time":4,"is_transit":false,"i_long":106.66566,"station_id":"SRP"},{"i_long":106.640411,"line":3,"is_transit":false,"distance":1784,"transit":false,"time":4,"station_name":"Cisauk","i_lat":-6.32484,"station_id":"CSK"},{"i_long":106.617853,"station_id":"CC","station_name":"Cicayur","distance":2519,"is_transit":false,"line":3,"i_lat":-6.329547,"transit":false,"time":4},{"i_long":106.568863,"station_id":"PRP","i_lat":-6.3441410000000005,"station_name":"Parung Panjang","line":6,"distance":5968,"time":8,"transit":false,"is_transit":false},{"line":3,"is_transit":false,"station_name":"Cilejit","i_long":106.508482,"i_lat":-6.354349,"station_id":"CJT","transit":false,"distance":7025,"time":9},{"line":0,"i_lat":-6.338021,"transit":false,"distance":2675,"time":6,"station_id":"DAR","is_transit":false,"station_name":"Daru","i_long":106.491338},{"station_name":"Tenjo","transit":false,"station_id":"TEJ","i_lat":-6.327251,"line":6,"distance":3902,"time":5,"is_transit":false,"i_long":106.460812}]]}