{"data":[[{"transit":false,"station_id":"KRI","time":0,"i_long":106.977657,"line":1,"i_lat":-6.224515,"station_name":"Kranji","distance":0,"is_transit":false},{"time":3,"line":1,"i_long":106.951283,"is_transit":false,"station_name":"Cakung","distance":3097,"i_lat":-6.219053,"transit":false,"station_id":"CUK"},{"station_id":"KLDB","i_long":106.939679,"distance":1385,"line":1,"transit":false,"station_name":"Klenderbaru","is_transit":false,"time":8,"i_lat":-6.217455},{"i_long":106.922662,"line":1,"is_transit":false,"transit":false,"time":1,"i_lat":-6.215568,"station_id":"BUA","distance":1305,"station_name":"Buaran"},{"station_id":"KLD","is_transit":false,"distance":3100,"time":2,"station_name":"Klender","i_lat":-6.2135,"transit":false,"line":1,"i_long":106.899548},{"station_name":"Jatinegara","transit":false,"time":3,"distance":3395,"i_long":106.86807400000001,"i_lat":-6.215091,"is_transit":false,"line":1,"station_id":"JNG"},{"time":2,"distance":1377,"line":1,"i_long":106.858896,"i_lat":-6.212485,"station_id":"MTR","transit":false,"station_name":"Matraman","is_transit":false},{"i_lat":-6.209883,"line":2,"i_long":106.84912,"station_name":"Manggarai","station_id":"MRI","is_transit":true,"time":2,"transit":true,"distance":1275},{"transit":false,"station_id":"TEB","station_name":"Tebet","i_lat":-6.226659,"i_long":106.857948,"line":2,"time":4,"distance":2610,"is_transit":false},{"station_name":"Cawang","transit":false,"station_id":"CW","time":2,"distance":1230,"line":2,"i_lat":-6.242512,"i_long":106.856607,"is_transit":false},{"i_long":106.85449,"line":2,"i_lat":-6.255332,"is_transit":false,"station_id":"DRN","time":3,"transit":false,"station_name":"Duren Kalibata","distance":1546},{"i_long":106.851577,"line":2,"time":2,"transit":false,"station_id":"PSMB","is_transit":false,"distance":824,"i_lat":-6.263214,"station_name":"Pasar Minggu Baru"},{"i_long":106.843999,"station_id":"PSM","line":2,"transit":false,"station_name":"Pasar Minggu","time":2,"distance":2380,"i_lat":-6.2842400000000005,"is_transit":false},{"station_id":"TNT","time":4,"i_long":106.838896,"line":2,"is_transit":false,"station_name":"Tanjung Barat","distance":2820,"i_lat":-6.3080680000000005,"transit":false},{"line":2,"i_lat":-6.330363,"station_id":"LNA","is_transit":false,"transit":false,"i_long":106.832616,"station_name":"Lenteng Agung","time":3,"distance":2671},{"station_id":"UP","distance":1029,"station_name":"Univ. Pancasila","is_transit":false,"time":2,"i_long":106.834175,"line":2,"transit":false,"i_lat":-6.339291},{"i_long":106.831474,"transit":false,"is_transit":false,"station_name":"Univ. Indonesia","time":3,"distance":2264,"i_lat":-6.360749,"station_id":"UI","line":2},{"i_long":106.831114,"station_id":"POC","time":2,"distance":1109,"line":2,"is_transit":false,"transit":false,"i_lat":-6.369073,"station_name":"Pondok Cina"},{"i_long":106.819451,"i_lat":-6.391065,"distance":2727,"time":4,"station_name":"Depokbaru","line":2,"station_id":"DPB","transit":false,"is_transit":false},{"station_name":"Depok","distance":1584,"station_id":"DP","i_long":106.816926,"time":3,"is_transit":false,"transit":false,"i_lat":-6.405256,"line":2},{"line":2,"is_transit":false,"time":6,"station_name":"Citayam","transit":false,"i_long":106.800298,"distance":5084,"i_lat":-6.448811,"station_id":"CTA"},{"transit":false,"i_long":106.792719,"station_id":"BJD","is_transit":false,"distance":5197,"i_lat":-6.493243,"line":2,"station_name":"Bojonggede","time":5},{"transit":false,"i_lat":-6.530544,"i_long":106.800016,"line":2,"time":5,"station_id":"CLT","distance":4331,"is_transit":false,"station_name":"Cilebut"},{"transit":false,"line":2,"distance":7514,"station_name":"Bogor","i_lat":-6.594596,"is_transit":false,"i_long":106.790574,"time":9,"station_id":"BOO"}],[{"station_id":"KRI","station_name":"Kranji","time":0,"distance":0,"is_transit":false,"transit":false,"i_lat":-6.224515,"i_long":106.977657,"line":1},{"is_transit":false,"distance":3097,"i_long":106.951283,"i_lat":-6.219053,"line":1,"station_name":"Cakung","transit":false,"time":3,"station_id":"CUK"},{"station_name":"Klenderbaru","line":1,"distance":1385,"station_id":"KLDB","time":8,"is_transit":false,"i_lat":-6.217455,"i_long":106.939679,"transit":false},{"station_id":"BUA","time":1,"distance":1305,"station_name":"Buaran","transit":false,"i_lat":-6.215568,"i_long":106.922662,"line":1,"is_transit":false},{"time":2,"line":1,"distance":3100,"transit":false,"station_id":"KLD","i_long":106.899548,"station_name":"Klender","is_transit":false,"i_lat":-6.2135},{"is_transit":true,"transit":true,"i_lat":-6.215091,"i_long":106.86807400000001,"time":3,"line":1,"station_name":"Jatinegara","station_id":"JNG","distance":3395},{"station_id":"POK","station_name":"Pondok Jati","transit":false,"distance":1236,"is_transit":false,"i_lat":-6.209188,"line":11,"i_long":106.861737,"time":2},{"i_lat":-6.193792,"station_name":"Kramat","i_long":106.855437,"station_id":"KMT","distance":1829,"line":11,"transit":false,"is_transit":false,"time":2},{"station_name":"Gang Sentiong","is_transit":false,"line":11,"distance":973,"time":1,"station_id":"GST","i_lat":-6.185975,"i_long":106.850107,"transit":false},{"time":8,"station_id":"PSE","line":11,"i_lat":-6.174784,"i_long":106.84368,"distance":1567,"is_transit":false,"transit":false,"station_name":"Pasar Senen"},{"transit":false,"distance":1436,"is_transit":false,"i_lat":-6.161728,"i_long":106.839204,"station_id":"KMO","station_name":"Kemayoran","line":11,"time":4},{"distance":1901,"station_name":"Rajawali","transit":false,"is_transit":false,"i_long":106.836569,"station_id":"RJW","time":5,"i_lat":-6.14505,"line":11},{"time":3,"station_name":"Kampung Bandan","transit":true,"i_lat":-6.132549,"distance":1444,"line":4,"i_long":106.826365,"is_transit":true,"station_id":"KPB"},{"transit":false,"station_id":"AK","i_long":106.79867,"i_lat":-6.144674,"time":9,"is_transit":false,"station_name":"Angke","line":1,"distance":4102},{"line":1,"station_id":"DU","i_lat":-6.155215,"time":4,"station_name":"Duri","transit":false,"distance":1230,"is_transit":false,"i_long":106.800832},{"i_lat":-6.185545,"transit":false,"distance":3632,"line":1,"time":8,"is_transit":false,"station_name":"Tanah Abang","station_id":"THB","i_long":106.811091},{"i_lat":-6.20132,"time":5,"station_name":"Karet","is_transit":false,"i_long":106.816351,"line":1,"transit":false,"station_id":"KAT","distance":2029},{"is_transit":false,"time":1,"station_id":"SUDB","transit":false,"i_long":106.819881,"line":1,"i_lat":-6.201433,"distance":471,"station_name":"Sudirman Baru"},{"i_lat":-6.202263,"i_long":106.822649,"distance":280,"line":1,"time":1,"station_id":"SUD","station_name":"Sudirman","is_transit":false,"transit":false},{"i_long":106.84912,"is_transit":true,"line":2,"transit":true,"time":4,"station_id":"MRI","distance":3186,"station_name":"Manggarai","i_lat":-6.209883},{"station_id":"TEB","is_transit":false,"station_name":"Tebet","line":2,"transit":false,"i_lat":-6.226659,"i_long":106.857948,"time":4,"distance":2610},{"station_id":"CW","station_name":"Cawang","i_long":106.856607,"is_transit":false,"time":2,"transit":false,"distance":1230,"i_lat":-6.242512,"line":2},{"i_lat":-6.255332,"station_id":"DRN","transit":false,"station_name":"Duren Kalibata","i_long":106.85449,"distance":1546,"time":3,"line":2,"is_transit":false},{"i_lat":-6.263214,"time":2,"i_long":106.851577,"station_name":"Pasar Minggu Baru","transit":false,"station_id":"PSMB","is_transit":false,"distance":824,"line":2},{"line":2,"i_long":106.843999,"station_id":"PSM","transit":false,"time":2,"station_name":"Pasar Minggu","is_transit":false,"i_lat":-6.2842400000000005,"distance":2380},{"transit":false,"time":4,"station_id":"TNT","line":2,"distance":2820,"is_transit":false,"i_lat":-6.3080680000000005,"i_long":106.838896,"station_name":"Tanjung Barat"},{"station_name":"Lenteng Agung","transit":false,"time":3,"distance":2671,"is_transit":false,"i_lat":-6.330363,"i_long":106.832616,"station_id":"LNA","line":2},{"station_id":"UP","is_transit":false,"station_name":"Univ. Pancasila","transit":false,"i_lat":-6.339291,"i_long":106.834175,"time":2,"distance":1029,"line":2},{"time":3,"distance":2264,"i_lat":-6.360749,"line":2,"station_id":"UI","station_name":"Univ. Indonesia","i_long":106.831474,"transit":false,"is_transit":false},{"station_id":"POC","distance":1109,"transit":false,"i_lat":-6.369073,"line":2,"time":2,"i_long":106.831114,"is_transit":false,"station_name":"Pondok Cina"},{"i_lat":-6.391065,"is_transit":false,"station_name":"Depokbaru","i_long":106.819451,"time":4,"distance":2727,"transit":false,"line":2,"station_id":"DPB"},{"transit":false,"i_lat":-6.405256,"time":3,"station_id":"DP","distance":1584,"i_long":106.816926,"line":2,"is_transit":false,"station_name":"Depok"},{"i_lat":-6.448811,"i_long":106.800298,"station_id":"CTA","time":6,"station_name":"Citayam","transit":false,"distance":5084,"line":2,"is_transit":false},{"transit":false,"station_id":"BJD","i_lat":-6.493243,"i_long":106.792719,"time":5,"is_transit":false,"distance":5197,"station_name":"Bojonggede","line":2},{"i_long":106.800016,"is_transit":false,"line":2,"station_id":"CLT","transit":false,"time":5,"station_name":"Cilebut","distance":4331,"i_lat":-6.530544},{"station_name":"Bogor","i_long":106.790574,"line":2,"time":9,"is_transit":false,"transit":false,"i_lat":-6.594596,"distance":7514,"station_id":"BOO"}],[{"time":0,"is_transit":false,"distance":0,"i_lat":-6.224515,"line":1,"station_name":"Kranji","station_id":"KRI","i_long":106.977657,"transit":false},{"station_id":"CUK","i_lat":-6.219053,"line":1,"i_long":106.951283,"station_name":"Cakung","is_transit":false,"transit":false,"time":3,"distance":3097},{"is_transit":false,"station_name":"Klenderbaru","line":1,"station_id":"KLDB","distance":1385,"time":8,"i_lat":-6.217455,"transit":false,"i_long":106.939679},{"line":1,"station_name":"Buaran","station_id":"BUA","distance":1305,"is_transit":false,"transit":false,"i_lat":-6.215568,"time":1,"i_long":106.922662},{"station_id":"KLD","i_lat":-6.2135,"line":1,"distance":3100,"time":2,"is_transit":false,"i_long":106.899548,"station_name":"Klender","transit":false},{"station_id":"JNG","i_lat":-6.215091,"is_transit":true,"transit":true,"i_long":106.86807400000001,"line":1,"distance":3395,"time":3,"station_name":"Jatinegara"},{"line":11,"is_transit":false,"i_long":106.861737,"distance":1236,"station_id":"POK","time":2,"station_name":"Pondok Jati","transit":false,"i_lat":-6.209188},{"time":2,"i_lat":-6.193792,"distance":1829,"transit":false,"line":11,"station_id":"KMT","i_long":106.855437,"station_name":"Kramat","is_transit":false},{"time":1,"i_long":106.850107,"station_id":"GST","i_lat":-6.185975,"is_transit":false,"distance":973,"line":11,"station_name":"Gang Sentiong","transit":false},{"i_lat":-6.174784,"i_long":106.84368,"is_transit":false,"time":8,"distance":1567,"station_id":"PSE","station_name":"Pasar Senen","transit":false,"line":11},{"station_name":"Kemayoran","i_long":106.839204,"line":11,"distance":1436,"i_lat":-6.161728,"time":4,"station_id":"KMO","transit":false,"is_transit":false},{"distance":1901,"transit":false,"i_long":106.836569,"time":5,"line":11,"i_lat":-6.14505,"is_transit":false,"station_name":"Rajawali","station_id":"RJW"},{"time":3,"station_id":"KPB","i_long":106.826365,"station_name":"Kampung Bandan","line":4,"distance":1444,"is_transit":true,"i_lat":-6.132549,"transit":true},{"transit":true,"i_lat":-6.137569,"line":2,"time":3,"distance":1364,"is_transit":true,"i_long":106.812439,"station_id":"JAKK","station_name":"Jakarta Kota"},{"distance":1264,"time":4,"i_long":106.820901,"station_id":"JAY","line":2,"is_transit":false,"transit":false,"i_lat":-6.141205,"station_name":"Jayakarta"},{"line":2,"distance":1080,"is_transit":false,"time":2,"station_id":"MGB","i_long":106.82482,"transit":false,"i_lat":-6.149769,"station_name":"Manggabesar"},{"i_long":106.827103,"station_name":"Sawah Besar","i_lat":-6.160725,"transit":false,"station_id":"SW","line":2,"distance":906,"is_transit":false,"time":2},{"station_name":"Juanda","transit":false,"line":2,"station_id":"JUA","i_lat":-6.166716,"distance":1149,"time":2,"i_long":106.828284,"is_transit":false},{"distance":2015,"is_transit":false,"i_lat":-6.186295,"i_long":106.832183,"line":2,"transit":false,"station_name":"Gondangdia","time":4,"station_id":"GDD"},{"is_transit":false,"transit":false,"i_lat":-6.198556,"line":2,"station_name":"Cikini","i_long":106.840169,"station_id":"CKI","distance":1750,"time":3},{"line":2,"i_lat":-6.209883,"i_long":106.84912,"station_id":"MRI","transit":false,"time":4,"distance":1590,"station_name":"Manggarai","is_transit":false},{"distance":2610,"i_lat":-6.226659,"i_long":106.857948,"station_name":"Tebet","station_id":"TEB","is_transit":false,"line":2,"time":4,"transit":false},{"time":2,"station_name":"Cawang","distance":1230,"is_transit":false,"transit":false,"i_lat":-6.242512,"i_long":106.856607,"station_id":"CW","line":2},{"distance":1546,"i_lat":-6.255332,"station_name":"Duren Kalibata","transit":false,"i_long":106.85449,"station_id":"DRN","is_transit":false,"line":2,"time":3},{"is_transit":false,"i_lat":-6.263214,"station_name":"Pasar Minggu Baru","distance":824,"station_id":"PSMB","transit":false,"i_long":106.851577,"line":2,"time":2},{"station_id":"PSM","station_name":"Pasar Minggu","is_transit":false,"line":2,"transit":false,"distance":2380,"i_long":106.843999,"i_lat":-6.2842400000000005,"time":2},{"time":4,"distance":2820,"station_name":"Tanjung Barat","i_long":106.838896,"line":2,"station_id":"TNT","i_lat":-6.3080680000000005,"is_transit":false,"transit":false},{"station_id":"LNA","time":3,"is_transit":false,"i_long":106.832616,"i_lat":-6.330363,"line":2,"distance":2671,"transit":false,"station_name":"Lenteng Agung"},{"time":2,"i_long":106.834175,"line":2,"transit":false,"i_lat":-6.339291,"distance":1029,"station_name":"Univ. Pancasila","station_id":"UP","is_transit":false},{"is_transit":false,"line":2,"time":3,"distance":2264,"i_lat":-6.360749,"station_id":"UI","station_name":"Univ. Indonesia","i_long":106.831474,"transit":false},{"distance":1109,"is_transit":false,"station_id":"POC","station_name":"Pondok Cina","time":2,"transit":false,"i_lat":-6.369073,"i_long":106.831114,"line":2},{"time":4,"i_long":106.819451,"station_id":"DPB","station_name":"Depokbaru","i_lat":-6.391065,"is_transit":false,"distance":2727,"transit":false,"line":2},{"is_transit":false,"i_lat":-6.405256,"i_long":106.816926,"line":2,"station_id":"DP","time":3,"distance":1584,"station_name":"Depok","transit":false},{"i_lat":-6.448811,"distance":5084,"time":6,"is_transit":false,"transit":false,"line":2,"station_name":"Citayam","station_id":"CTA","i_long":106.800298},{"i_lat":-6.493243,"line":2,"station_name":"Bojonggede","i_long":106.792719,"transit":false,"time":5,"distance":5197,"station_id":"BJD","is_transit":false},{"time":5,"transit":false,"station_id":"CLT","is_transit":false,"i_long":106.800016,"station_name":"Cilebut","distance":4331,"i_lat":-6.530544,"line":2},{"transit":false,"line":2,"is_transit":false,"time":9,"station_id":"BOO","station_name":"Bogor","i_long":106.790574,"distance":7514,"i_lat":-6.594596}]]}