{"data":[[{"distance":0,"station_name":"Kranji","transit":false,"time":0,"station_id":"KRI","i_lat":-6.224515,"line":1,"i_long":106.977657,"is_transit":false},{"i_lat":-6.219053,"i_long":106.951283,"transit":false,"station_name":"Cakung","station_id":"CUK","distance":3097,"line":1,"time":3,"is_transit":false},{"station_id":"KLDB","transit":false,"i_lat":-6.217455,"distance":1385,"is_transit":false,"line":1,"i_long":106.939679,"station_name":"Klenderbaru","time":8},{"is_transit":false,"station_id":"BUA","i_lat":-6.215568,"line":1,"i_long":106.922662,"transit":false,"station_name":"Buaran","time":1,"distance":1305},{"i_long":106.899548,"station_id":"KLD","station_name":"Klender","time":2,"i_lat":-6.2135,"transit":false,"line":1,"is_transit":false,"distance":3100},{"transit":false,"is_transit":false,"time":3,"station_id":"JNG","distance":3395,"i_long":106.86807400000001,"station_name":"Jatinegara","i_lat":-6.215091,"line":1},{"is_transit":false,"i_long":106.858896,"time":2,"i_lat":-6.212485,"transit":false,"line":1,"station_name":"Matraman","station_id":"MTR","distance":1377},{"line":2,"i_lat":-6.209883,"i_long":106.84912,"station_name":"Manggarai","is_transit":true,"station_id":"MRI","transit":true,"distance":1275,"time":2},{"station_id":"TEB","is_transit":false,"i_long":106.857948,"distance":2610,"line":2,"transit":false,"station_name":"Tebet","time":4,"i_lat":-6.226659},{"i_lat":-6.242512,"line":2,"station_name":"Cawang","i_long":106.856607,"transit":false,"time":2,"distance":1230,"is_transit":false,"station_id":"CW"},{"distance":1546,"is_transit":false,"time":3,"station_name":"Duren Kalibata","i_long":106.85449,"station_id":"DRN","transit":false,"i_lat":-6.255332,"line":2},{"i_lat":-6.263214,"i_long":106.851577,"is_transit":false,"station_name":"Pasar Minggu Baru","transit":false,"time":2,"station_id":"PSMB","distance":824,"line":2},{"time":2,"station_id":"PSM","distance":2380,"transit":false,"i_lat":-6.2842400000000005,"line":2,"station_name":"Pasar Minggu","is_transit":false,"i_long":106.843999},{"line":2,"transit":false,"distance":2820,"time":4,"i_long":106.838896,"is_transit":false,"i_lat":-6.3080680000000005,"station_name":"Tanjung Barat","station_id":"TNT"},{"i_lat":-6.330363,"station_name":"Lenteng Agung","line":2,"distance":2671,"transit":false,"is_transit":false,"i_long":106.832616,"station_id":"LNA","time":3},{"station_id":"UP","time":2,"transit":false,"station_name":"Univ. Pancasila","distance":1029,"i_long":106.834175,"line":2,"i_lat":-6.339291,"is_transit":false},{"transit":false,"distance":2264,"is_transit":false,"line":2,"station_id":"UI","time":3,"i_long":106.831474,"i_lat":-6.360749,"station_name":"Univ. Indonesia"},{"i_long":106.831114,"transit":false,"station_id":"POC","time":2,"is_transit":false,"distance":1109,"station_name":"Pondok Cina","i_lat":-6.369073,"line":2},{"i_long":106.819451,"station_name":"Depokbaru","line":2,"distance":2727,"station_id":"DPB","is_transit":false,"transit":false,"i_lat":-6.391065,"time":4},{"time":3,"line":2,"is_transit":false,"transit":false,"i_long":106.816926,"station_name":"Depok","station_id":"DP","distance":1584,"i_lat":-6.405256},{"station_name":"Citayam","distance":5084,"is_transit":false,"i_long":106.800298,"i_lat":-6.448811,"line":2,"time":6,"station_id":"CTA","transit":false},{"station_id":"BJD","station_name":"Bojonggede","time":5,"is_transit":false,"i_long":106.792719,"line":2,"i_lat":-6.493243,"transit":false,"distance":5197},{"distance":4331,"line":2,"station_id":"CLT","station_name":"Cilebut","i_lat":-6.530544,"i_long":106.800016,"is_transit":false,"time":5,"transit":false},{"is_transit":false,"line":2,"time":9,"distance":7514,"station_name":"Bogor","i_long":106.790574,"transit":false,"i_lat":-6.594596,"station_id":"BOO"}],[{"is_transit":false,"time":0,"i_long":106.977657,"station_id":"KRI","transit":false,"line":1,"distance":0,"i_lat":-6.224515,"station_name":"Kranji"},{"transit":false,"station_id":"CUK","time":3,"i_lat":-6.219053,"i_long":106.951283,"line":1,"station_name":"Cakung","distance":3097,"is_transit":false},{"station_id":"KLDB","distance":1385,"time":8,"i_long":106.939679,"is_transit":false,"station_name":"Klenderbaru","line":1,"i_lat":-6.217455,"transit":false},{"time":1,"distance":1305,"i_lat":-6.215568,"line":1,"transit":false,"i_long":106.922662,"station_name":"Buaran","is_transit":false,"station_id":"BUA"},{"distance":3100,"i_lat":-6.2135,"station_name":"Klender","i_long":106.899548,"is_transit":false,"time":2,"transit":false,"line":1,"station_id":"KLD"},{"station_name":"Jatinegara","is_transit":true,"station_id":"JNG","line":1,"transit":true,"time":3,"i_long":106.86807400000001,"distance":3395,"i_lat":-6.215091},{"is_transit":false,"i_lat":-6.209188,"distance":1236,"line":11,"time":2,"station_name":"Pondok Jati","station_id":"POK","i_long":106.861737,"transit":false},{"station_name":"Kramat","time":2,"transit":false,"line":11,"is_transit":false,"i_lat":-6.193792,"i_long":106.855437,"station_id":"KMT","distance":1829},{"station_name":"Gang Sentiong","line":11,"distance":973,"i_lat":-6.185975,"i_long":106.850107,"station_id":"GST","is_transit":false,"time":1,"transit":false},{"i_long":106.84368,"is_transit":false,"line":11,"station_name":"Pasar Senen","i_lat":-6.174784,"transit":false,"station_id":"PSE","distance":1567,"time":8},{"i_long":106.839204,"transit":false,"station_name":"Kemayoran","distance":1436,"station_id":"KMO","time":4,"i_lat":-6.161728,"is_transit":false,"line":11},{"is_transit":false,"distance":1901,"transit":false,"line":11,"i_lat":-6.14505,"time":5,"i_long":106.836569,"station_id":"RJW","station_name":"Rajawali"},{"distance":1444,"i_long":106.826365,"is_transit":true,"line":4,"i_lat":-6.132549,"transit":true,"station_name":"Kampung Bandan","time":3,"station_id":"KPB"},{"station_name":"Angke","distance":4102,"time":9,"line":1,"is_transit":false,"transit":false,"i_lat":-6.144674,"i_long":106.79867,"station_id":"AK"},{"i_lat":-6.155215,"transit":false,"distance":1230,"station_id":"DU","time":4,"station_name":"Duri","is_transit":false,"line":1,"i_long":106.800832},{"time":8,"distance":3632,"station_name":"Tanah Abang","i_long":106.811091,"transit":false,"station_id":"THB","i_lat":-6.185545,"is_transit":false,"line":1},{"station_id":"KAT","is_transit":false,"time":5,"distance":2029,"station_name":"Karet","transit":false,"i_lat":-6.20132,"i_long":106.816351,"line":1},{"transit":false,"distance":471,"i_long":106.819881,"station_name":"Sudirman Baru","is_transit":false,"i_lat":-6.201433,"line":1,"time":1,"station_id":"SUDB"},{"station_name":"Sudirman","i_long":106.822649,"line":1,"time":1,"distance":280,"station_id":"SUD","is_transit":false,"transit":false,"i_lat":-6.202263},{"is_transit":true,"station_id":"MRI","time":4,"transit":true,"distance":3186,"i_long":106.84912,"line":2,"station_name":"Manggarai","i_lat":-6.209883},{"time":4,"distance":2610,"line":2,"transit":false,"i_lat":-6.226659,"i_long":106.857948,"is_transit":false,"station_name":"Tebet","station_id":"TEB"},{"is_transit":false,"line":2,"station_name":"Cawang","i_lat":-6.242512,"i_long":106.856607,"transit":false,"time":2,"station_id":"CW","distance":1230},{"is_transit":false,"line":2,"station_name":"Duren Kalibata","i_long":106.85449,"station_id":"DRN","distance":1546,"i_lat":-6.255332,"transit":false,"time":3},{"is_transit":false,"station_name":"Pasar Minggu Baru","time":2,"distance":824,"transit":false,"i_lat":-6.263214,"line":2,"station_id":"PSMB","i_long":106.851577},{"i_long":106.843999,"station_name":"Pasar Minggu","distance":2380,"line":2,"time":2,"is_transit":false,"transit":false,"i_lat":-6.2842400000000005,"station_id":"PSM"},{"station_id":"TNT","distance":2820,"transit":false,"i_long":106.838896,"time":4,"station_name":"Tanjung Barat","line":2,"i_lat":-6.3080680000000005,"is_transit":false},{"distance":2671,"i_lat":-6.330363,"transit":false,"is_transit":false,"i_long":106.832616,"line":2,"time":3,"station_name":"Lenteng Agung","station_id":"LNA"},{"transit":false,"station_id":"UP","distance":1029,"time":2,"i_long":106.834175,"i_lat":-6.339291,"station_name":"Univ. Pancasila","line":2,"is_transit":false},{"distance":2264,"station_id":"UI","line":2,"is_transit":false,"i_lat":-6.360749,"transit":false,"station_name":"Univ. Indonesia","time":3,"i_long":106.831474},{"i_lat":-6.369073,"i_long":106.831114,"distance":1109,"transit":false,"station_id":"POC","line":2,"time":2,"station_name":"Pondok Cina","is_transit":false},{"is_transit":false,"station_name":"Depokbaru","station_id":"DPB","line":2,"transit":false,"distance":2727,"i_lat":-6.391065,"i_long":106.819451,"time":4},{"station_name":"Depok","transit":false,"i_lat":-6.405256,"station_id":"DP","is_transit":false,"distance":1584,"line":2,"time":3,"i_long":106.816926},{"i_long":106.800298,"i_lat":-6.448811,"distance":5084,"time":6,"station_id":"CTA","is_transit":false,"transit":false,"station_name":"Citayam","line":2},{"station_id":"BJD","time":5,"transit":false,"is_transit":false,"station_name":"Bojonggede","i_lat":-6.493243,"i_long":106.792719,"line":2,"distance":5197},{"distance":4331,"transit":false,"station_name":"Cilebut","station_id":"CLT","is_transit":false,"line":2,"i_long":106.800016,"time":5,"i_lat":-6.530544},{"i_long":106.790574,"line":2,"is_transit":false,"station_id":"BOO","transit":false,"i_lat":-6.594596,"station_name":"Bogor","time":9,"distance":7514}],[{"i_long":106.977657,"station_id":"KRI","i_lat":-6.224515,"line":1,"is_transit":false,"time":0,"transit":false,"distance":0,"station_name":"Kranji"},{"station_name":"Cakung","distance":3097,"transit":false,"time":3,"line":1,"is_transit":false,"i_long":106.951283,"station_id":"CUK","i_lat":-6.219053},{"time":8,"transit":false,"distance":1385,"line":1,"station_id":"KLDB","is_transit":false,"station_name":"Klenderbaru","i_lat":-6.217455,"i_long":106.939679},{"i_lat":-6.215568,"station_name":"Buaran","line":1,"distance":1305,"is_transit":false,"station_id":"BUA","time":1,"i_long":106.922662,"transit":false},{"station_id":"KLD","is_transit":false,"i_long":106.899548,"transit":false,"station_name":"Klender","line":1,"i_lat":-6.2135,"distance":3100,"time":2},{"station_name":"Jatinegara","is_transit":true,"distance":3395,"transit":true,"i_lat":-6.215091,"station_id":"JNG","time":3,"line":1,"i_long":106.86807400000001},{"distance":1236,"line":11,"station_name":"Pondok Jati","i_lat":-6.209188,"is_transit":false,"transit":false,"i_long":106.861737,"station_id":"POK","time":2},{"is_transit":false,"time":2,"station_name":"Kramat","i_lat":-6.193792,"transit":false,"station_id":"KMT","distance":1829,"i_long":106.855437,"line":11},{"i_long":106.850107,"i_lat":-6.185975,"line":11,"distance":973,"transit":false,"is_transit":false,"station_name":"Gang Sentiong","station_id":"GST","time":1},{"i_lat":-6.174784,"is_transit":false,"transit":false,"i_long":106.84368,"station_name":"Pasar Senen","distance":1567,"station_id":"PSE","line":11,"time":8},{"station_name":"Kemayoran","station_id":"KMO","distance":1436,"time":4,"line":11,"transit":false,"is_transit":false,"i_long":106.839204,"i_lat":-6.161728},{"transit":false,"time":5,"i_lat":-6.14505,"line":11,"station_name":"Rajawali","station_id":"RJW","distance":1901,"is_transit":false,"i_long":106.836569},{"i_long":106.826365,"i_lat":-6.132549,"transit":true,"station_id":"KPB","station_name":"Kampung Bandan","time":3,"line":4,"distance":1444,"is_transit":true},{"i_lat":-6.137569,"transit":true,"station_name":"Jakarta Kota","i_long":106.812439,"station_id":"JAKK","line":2,"distance":1364,"time":3,"is_transit":true},{"is_transit":false,"i_long":106.820901,"distance":1264,"transit":false,"station_id":"JAY","time":4,"station_name":"Jayakarta","i_lat":-6.141205,"line":2},{"line":2,"i_long":106.82482,"time":2,"transit":false,"station_id":"MGB","is_transit":false,"distance":1080,"station_name":"Manggabesar","i_lat":-6.149769},{"i_long":106.827103,"station_name":"Sawah Besar","is_transit":false,"i_lat":-6.160725,"time":2,"line":2,"station_id":"SW","transit":false,"distance":906},{"i_long":106.828284,"i_lat":-6.166716,"distance":1149,"transit":false,"is_transit":false,"station_name":"Juanda","station_id":"JUA","time":2,"line":2},{"is_transit":false,"time":4,"line":2,"station_name":"Gondangdia","station_id":"GDD","distance":2015,"i_lat":-6.186295,"i_long":106.832183,"transit":false},{"station_name":"Cikini","is_transit":false,"transit":false,"i_lat":-6.198556,"station_id":"CKI","time":3,"distance":1750,"line":2,"i_long":106.840169},{"distance":1590,"time":4,"i_lat":-6.209883,"line":2,"transit":false,"station_name":"Manggarai","station_id":"MRI","is_transit":false,"i_long":106.84912},{"i_lat":-6.226659,"i_long":106.857948,"station_id":"TEB","line":2,"is_transit":false,"time":4,"station_name":"Tebet","distance":2610,"transit":false},{"line":2,"is_transit":false,"station_id":"CW","distance":1230,"i_lat":-6.242512,"time":2,"i_long":106.856607,"transit":false,"station_name":"Cawang"},{"transit":false,"station_name":"Duren Kalibata","station_id":"DRN","i_lat":-6.255332,"time":3,"line":2,"i_long":106.85449,"is_transit":false,"distance":1546},{"distance":824,"i_long":106.851577,"station_id":"PSMB","station_name":"Pasar Minggu Baru","i_lat":-6.263214,"line":2,"transit":false,"time":2,"is_transit":false},{"station_name":"Pasar Minggu","distance":2380,"i_lat":-6.2842400000000005,"is_transit":false,"line":2,"station_id":"PSM","transit":false,"time":2,"i_long":106.843999},{"distance":2820,"line":2,"transit":false,"station_name":"Tanjung Barat","is_transit":false,"time":4,"i_lat":-6.3080680000000005,"i_long":106.838896,"station_id":"TNT"},{"i_lat":-6.330363,"distance":2671,"is_transit":false,"transit":false,"station_name":"Lenteng Agung","i_long":106.832616,"line":2,"station_id":"LNA","time":3},{"transit":false,"time":2,"station_id":"UP","is_transit":false,"station_name":"Univ. Pancasila","line":2,"i_lat":-6.339291,"i_long":106.834175,"distance":1029},{"distance":2264,"station_id":"UI","is_transit":false,"station_name":"Univ. Indonesia","time":3,"i_long":106.831474,"line":2,"i_lat":-6.360749,"transit":false},{"line":2,"station_name":"Pondok Cina","station_id":"POC","is_transit":false,"time":2,"i_lat":-6.369073,"i_long":106.831114,"transit":false,"distance":1109},{"time":4,"station_name":"Depokbaru","transit":false,"distance":2727,"i_lat":-6.391065,"is_transit":false,"i_long":106.819451,"line":2,"station_id":"DPB"},{"i_lat":-6.405256,"time":3,"station_name":"Depok","line":2,"is_transit":false,"station_id":"DP","distance":1584,"i_long":106.816926,"transit":false},{"is_transit":false,"i_long":106.800298,"time":6,"distance":5084,"line":2,"transit":false,"station_id":"CTA","i_lat":-6.448811,"station_name":"Citayam"},{"time":5,"transit":false,"station_id":"BJD","station_name":"Bojonggede","is_transit":false,"distance":5197,"i_long":106.792719,"line":2,"i_lat":-6.493243},{"i_long":106.800016,"line":2,"time":5,"station_id":"CLT","i_lat":-6.530544,"is_transit":false,"transit":false,"station_name":"Cilebut","distance":4331},{"line":2,"transit":false,"station_name":"Bogor","is_transit":false,"station_id":"BOO","i_long":106.790574,"distance":7514,"time":9,"i_lat":-6.594596}]]}