{"data":[[{"i_long":106.977657,"transit":false,"time":0,"distance":0,"station_name":"Kranji","i_lat":-6.224515,"is_transit":false,"station_id":"KRI","line":1},{"distance":3097,"station_name":"Cakung","is_transit":false,"transit":false,"time":3,"line":0,"i_lat":-6.219053,"station_id":"CUK","i_long":106.951283},{"i_lat":-6.217455,"station_id":"KLDB","i_long":106.939679,"station_name":"Klenderbaru","line":1,"is_transit":false,"distance":1385,"transit":false,"time":8},{"distance":1305,"i_lat":-6.215568,"is_transit":false,"station_id":"BUA","time":1,"transit":false,"line":0,"station_name":"Buaran","i_long":106.922662},{"station_id":"KLD","distance":3100,"time":2,"transit":false,"line":1,"station_name":"Klender","i_long":106.899548,"i_lat":-6.2135,"is_transit":false},{"time":3,"station_name":"Jatinegara","i_long":106.86807400000001,"station_id":"JNG","i_lat":-6.215091,"distance":3395,"transit":false,"is_transit":true,"line":0},{"transit":false,"is_transit":false,"station_name":"Matraman","i_lat":-6.212485,"station_id":"MTR","distance":1377,"time":2,"i_long":106.858896,"line":1},{"is_transit":true,"i_long":106.84912,"station_name":"Manggarai","transit":false,"time":2,"line":0,"station_id":"MRI","distance":1275,"i_lat":-6.209883},{"distance":3186,"transit":false,"time":4,"station_id":"SUD","i_lat":-6.202263,"is_transit":false,"i_long":106.822649,"line":1,"station_name":"Sudirman"},{"is_transit":false,"station_id":"SUDB","time":1,"distance":280,"station_name":"Sudirman Baru","i_long":106.819881,"line":1,"transit":false,"i_lat":-6.201433},{"i_long":106.816351,"is_transit":false,"distance":471,"station_name":"Karet","station_id":"KAT","transit":false,"i_lat":-6.20132,"time":1,"line":1},{"i_long":106.811091,"line":1,"transit":true,"station_id":"THB","is_transit":true,"distance":2029,"i_lat":-6.185545,"time":5,"station_name":"Tanah Abang"},{"transit":false,"station_id":"PLM","is_transit":false,"time":6,"i_long":106.79689,"line":6,"station_name":"Palmerah","distance":3191,"i_lat":-6.207404},{"station_name":"Kebayoran","i_lat":-6.237242,"transit":false,"is_transit":false,"distance":3737,"station_id":"KBY","line":6,"time":7,"i_long":106.780334},{"line":6,"time":8,"station_id":"PDJ","distance":6218,"is_transit":false,"station_name":"Pondokranji","transit":false,"i_lat":-6.276362,"i_long":106.74273},{"distance":2179,"station_id":"JMU","time":3,"station_name":"Jurangmangu","transit":false,"is_transit":false,"line":6,"i_lat":-6.288927,"i_long":106.728916},{"i_long":106.712277,"i_lat":-6.296963,"station_id":"SDM","station_name":"Sudimara","time":4,"line":6,"transit":false,"is_transit":false,"distance":1994},{"i_long":106.675475,"station_id":"RU","station_name":"Rawa Buntu","transit":false,"is_transit":false,"i_lat":-6.314823,"time":6,"line":6,"distance":4566},{"distance":2413,"i_long":106.66566,"is_transit":false,"transit":false,"station_name":"Serpong","i_lat":-6.319871,"line":6,"station_id":"SRP","time":4},{"station_id":"CSK","i_long":106.640411,"distance":1784,"is_transit":false,"line":0,"i_lat":-6.32484,"time":4,"station_name":"Cisauk","transit":false},{"line":0,"station_id":"CC","time":4,"distance":2519,"is_transit":false,"transit":false,"station_name":"Cicayur","i_long":106.617853,"i_lat":-6.329547},{"station_id":"PRP","distance":5968,"line":6,"i_lat":-6.3441410000000005,"is_transit":false,"i_long":106.568863,"station_name":"Parung Panjang","transit":false,"time":8}],[{"time":0,"transit":false,"distance":0,"i_long":106.977657,"station_name":"Kranji","station_id":"KRI","line":1,"i_lat":-6.224515,"is_transit":false},{"station_name":"Cakung","i_long":106.951283,"i_lat":-6.219053,"station_id":"CUK","transit":false,"is_transit":false,"time":3,"distance":3097,"line":0},{"station_id":"KLDB","transit":false,"time":8,"is_transit":false,"station_name":"Klenderbaru","i_lat":-6.217455,"distance":1385,"i_long":106.939679,"line":1},{"time":1,"i_long":106.922662,"i_lat":-6.215568,"line":0,"is_transit":false,"distance":1305,"transit":false,"station_name":"Buaran","station_id":"BUA"},{"transit":false,"i_long":106.899548,"i_lat":-6.2135,"line":1,"station_name":"Klender","time":2,"distance":3100,"is_transit":false,"station_id":"KLD"},{"station_name":"Jatinegara","i_lat":-6.215091,"time":3,"distance":3395,"transit":true,"i_long":106.86807400000001,"line":0,"is_transit":true,"station_id":"JNG"},{"transit":false,"distance":1236,"time":2,"station_name":"Pondok Jati","is_transit":false,"line":11,"i_lat":-6.209188,"i_long":106.861737,"station_id":"POK"},{"i_long":106.855437,"i_lat":-6.193792,"station_name":"Kramat","line":11,"is_transit":false,"station_id":"KMT","time":2,"distance":1829,"transit":false},{"i_long":106.850107,"line":11,"time":1,"i_lat":-6.185975,"station_name":"Gang Sentiong","is_transit":false,"distance":973,"transit":false,"station_id":"GST"},{"time":8,"station_id":"PSE","is_transit":false,"distance":1567,"transit":false,"i_long":106.84368,"line":11,"station_name":"Pasar Senen","i_lat":-6.174784},{"i_lat":-6.161728,"time":4,"i_long":106.839204,"transit":false,"distance":1436,"is_transit":false,"station_name":"Kemayoran","station_id":"KMO","line":11},{"station_name":"Rajawali","transit":false,"i_long":106.836569,"is_transit":false,"time":5,"line":11,"distance":1901,"i_lat":-6.14505,"station_id":"RJW"},{"time":3,"line":0,"distance":1444,"is_transit":true,"transit":true,"i_lat":-6.132549,"station_id":"KPB","i_long":106.826365,"station_name":"Kampung Bandan"},{"is_transit":false,"distance":4102,"station_id":"AK","line":0,"time":9,"station_name":"Angke","i_lat":-6.144674,"i_long":106.79867,"transit":false},{"line":1,"is_transit":true,"transit":true,"i_lat":-6.155215,"i_long":106.800832,"time":4,"station_id":"DU","distance":1230,"station_name":"Duri"},{"transit":true,"distance":3632,"station_name":"Tanah Abang","is_transit":true,"time":8,"i_long":106.811091,"i_lat":-6.185545,"station_id":"THB","line":1},{"transit":false,"line":6,"station_id":"PLM","distance":3191,"is_transit":false,"i_lat":-6.207404,"station_name":"Palmerah","i_long":106.79689,"time":6},{"is_transit":false,"i_lat":-6.237242,"i_long":106.780334,"station_name":"Kebayoran","distance":3737,"time":7,"station_id":"KBY","line":6,"transit":false},{"i_long":106.74273,"time":8,"station_id":"PDJ","transit":false,"line":6,"station_name":"Pondokranji","is_transit":false,"i_lat":-6.276362,"distance":6218},{"i_lat":-6.288927,"station_name":"Jurangmangu","i_long":106.728916,"time":3,"distance":2179,"line":6,"is_transit":false,"transit":false,"station_id":"JMU"},{"station_name":"Sudimara","i_lat":-6.296963,"is_transit":false,"distance":1994,"line":6,"i_long":106.712277,"transit":false,"station_id":"SDM","time":4},{"time":6,"line":6,"distance":4566,"i_long":106.675475,"transit":false,"station_name":"Rawa Buntu","station_id":"RU","is_transit":false,"i_lat":-6.314823},{"station_id":"SRP","transit":false,"is_transit":false,"i_long":106.66566,"distance":2413,"line":6,"i_lat":-6.319871,"time":4,"station_name":"Serpong"},{"line":0,"i_lat":-6.32484,"station_name":"Cisauk","transit":false,"time":4,"i_long":106.640411,"distance":1784,"station_id":"CSK","is_transit":false},{"distance":2519,"station_name":"Cicayur","station_id":"CC","transit":false,"i_long":106.617853,"line":0,"i_lat":-6.329547,"is_transit":false,"time":4},{"station_id":"PRP","line":6,"is_transit":false,"distance":5968,"i_lat":-6.3441410000000005,"time":8,"station_name":"Parung Panjang","i_long":106.568863,"transit":false}],[{"line":1,"time":0,"i_long":106.977657,"distance":0,"station_name":"Kranji","transit":false,"i_lat":-6.224515,"station_id":"KRI","is_transit":false},{"station_id":"CUK","transit":false,"distance":3097,"i_lat":-6.219053,"is_transit":false,"station_name":"Cakung","line":0,"i_long":106.951283,"time":3},{"i_long":106.939679,"transit":false,"i_lat":-6.217455,"station_name":"Klenderbaru","is_transit":false,"time":8,"line":1,"station_id":"KLDB","distance":1385},{"line":0,"distance":1305,"station_name":"Buaran","time":1,"transit":false,"i_long":106.922662,"station_id":"BUA","i_lat":-6.215568,"is_transit":false},{"time":2,"is_transit":false,"transit":false,"i_long":106.899548,"station_id":"KLD","distance":3100,"station_name":"Klender","i_lat":-6.2135,"line":1},{"station_name":"Jatinegara","is_transit":true,"distance":3395,"i_lat":-6.215091,"transit":false,"i_long":106.86807400000001,"station_id":"JNG","time":3,"line":0},{"station_name":"Matraman","i_lat":-6.212485,"i_long":106.858896,"transit":false,"line":1,"distance":1377,"station_id":"MTR","is_transit":false,"time":2},{"transit":true,"line":0,"time":2,"i_lat":-6.209883,"is_transit":true,"distance":1275,"i_long":106.84912,"station_id":"MRI","station_name":"Manggarai"},{"is_transit":false,"i_long":106.840169,"time":4,"station_id":"CKI","transit":false,"distance":1590,"station_name":"Cikini","line":0,"i_lat":-6.198556},{"time":3,"line":2,"is_transit":false,"transit":false,"i_long":106.832183,"station_id":"GDD","distance":1750,"i_lat":-6.186295,"station_name":"Gondangdia"},{"distance":2015,"i_long":106.828284,"station_id":"JUA","transit":false,"is_transit":false,"time":4,"i_lat":-6.166716,"station_name":"Juanda","line":2},{"i_long":106.827103,"station_name":"Sawah Besar","station_id":"SW","transit":false,"distance":1149,"line":2,"time":2,"is_transit":false,"i_lat":-6.160725},{"is_transit":false,"station_name":"Manggabesar","transit":false,"distance":906,"time":2,"i_long":106.82482,"i_lat":-6.149769,"station_id":"MGB","line":2},{"station_id":"JAY","time":2,"line":7,"is_transit":false,"transit":false,"i_lat":-6.141205,"distance":1080,"i_long":106.820901,"station_name":"Jayakarta"},{"station_id":"JAKK","i_lat":-6.137569,"transit":true,"i_long":106.812439,"time":4,"is_transit":true,"distance":1264,"station_name":"Jakarta Kota","line":0},{"line":0,"time":3,"i_long":106.826365,"station_name":"Kampung Bandan","transit":false,"is_transit":true,"station_id":"KPB","distance":1364,"i_lat":-6.132549},{"station_id":"AK","distance":4102,"line":0,"time":9,"station_name":"Angke","transit":false,"i_lat":-6.144674,"is_transit":false,"i_long":106.79867},{"station_id":"DU","i_lat":-6.155215,"i_long":106.800832,"is_transit":true,"distance":1230,"time":4,"station_name":"Duri","transit":true,"line":1},{"transit":true,"distance":3632,"time":8,"line":1,"is_transit":true,"station_name":"Tanah Abang","i_lat":-6.185545,"station_id":"THB","i_long":106.811091},{"station_id":"PLM","line":6,"is_transit":false,"i_lat":-6.207404,"distance":3191,"i_long":106.79689,"time":6,"transit":false,"station_name":"Palmerah"},{"station_id":"KBY","distance":3737,"time":7,"station_name":"Kebayoran","line":6,"transit":false,"is_transit":false,"i_long":106.780334,"i_lat":-6.237242},{"time":8,"distance":6218,"i_long":106.74273,"is_transit":false,"line":6,"transit":false,"station_name":"Pondokranji","i_lat":-6.276362,"station_id":"PDJ"},{"line":6,"is_transit":false,"time":3,"i_long":106.728916,"distance":2179,"station_id":"JMU","transit":false,"i_lat":-6.288927,"station_name":"Jurangmangu"},{"time":4,"distance":1994,"transit":false,"line":6,"i_lat":-6.296963,"i_long":106.712277,"station_id":"SDM","is_transit":false,"station_name":"Sudimara"},{"is_transit":false,"time":6,"i_lat":-6.314823,"i_long":106.675475,"line":6,"station_id":"RU","station_name":"Rawa Buntu","transit":false,"distance":4566},{"distance":2413,"i_lat":-6.319871,"i_long":106.66566,"transit":false,"station_id":"SRP","station_name":"Serpong","time":4,"line":6,"is_transit":false},{"time":4,"station_id":"CSK","i_lat":-6.32484,"distance":1784,"i_long":106.640411,"transit":false,"is_transit":false,"station_name":"Cisauk","line":0},{"is_transit":false,"time":4,"station_id":"CC","station_name":"Cicayur","distance":2519,"line":0,"transit":false,"i_lat":-6.329547,"i_long":106.617853},{"i_long":106.568863,"transit":false,"i_lat":-6.3441410000000005,"is_transit":false,"station_name":"Parung Panjang","line":6,"station_id":"PRP","time":8,"distance":5968}],[{"i_long":106.977657,"time":0,"distance":0,"line":1,"station_id":"KRI","is_transit":false,"station_name":"Kranji","i_lat":-6.224515,"transit":false},{"time":3,"i_lat":-6.219053,"station_id":"CUK","is_transit":false,"distance":3097,"station_name":"Cakung","line":0,"transit":false,"i_long":106.951283},{"time":8,"line":1,"i_lat":-6.217455,"station_id":"KLDB","is_transit":false,"distance":1385,"station_name":"Klenderbaru","i_long":106.939679,"transit":false},{"is_transit":false,"time":1,"line":0,"distance":1305,"station_name":"Buaran","transit":false,"station_id":"BUA","i_long":106.922662,"i_lat":-6.215568},{"i_lat":-6.2135,"station_name":"Klender","time":2,"is_transit":false,"line":1,"station_id":"KLD","distance":3100,"transit":false,"i_long":106.899548},{"distance":3395,"i_long":106.86807400000001,"station_id":"JNG","transit":true,"time":3,"is_transit":true,"station_name":"Jatinegara","i_lat":-6.215091,"line":0},{"line":11,"station_id":"POK","distance":1236,"is_transit":false,"i_lat":-6.209188,"time":2,"station_name":"Pondok Jati","i_long":106.861737,"transit":false},{"station_name":"Kramat","i_lat":-6.193792,"time":2,"is_transit":false,"distance":1829,"line":11,"i_long":106.855437,"transit":false,"station_id":"KMT"},{"is_transit":false,"station_name":"Gang Sentiong","station_id":"GST","transit":false,"i_lat":-6.185975,"i_long":106.850107,"time":1,"distance":973,"line":11},{"distance":1567,"line":11,"i_long":106.84368,"transit":false,"i_lat":-6.174784,"station_id":"PSE","time":8,"station_name":"Pasar Senen","is_transit":false},{"transit":false,"i_lat":-6.161728,"i_long":106.839204,"line":11,"distance":1436,"is_transit":false,"time":4,"station_id":"KMO","station_name":"Kemayoran"},{"is_transit":false,"time":5,"station_id":"RJW","distance":1901,"i_long":106.836569,"transit":false,"i_lat":-6.14505,"line":11,"station_name":"Rajawali"},{"i_long":106.826365,"time":3,"line":0,"distance":1444,"is_transit":true,"station_id":"KPB","station_name":"Kampung Bandan","transit":true,"i_lat":-6.132549},{"station_id":"JAKK","is_transit":true,"line":0,"transit":true,"i_lat":-6.137569,"i_long":106.812439,"time":3,"station_name":"Jakarta Kota","distance":1364},{"i_long":106.820901,"is_transit":false,"distance":1264,"time":4,"station_name":"Jayakarta","i_lat":-6.141205,"station_id":"JAY","transit":false,"line":7},{"distance":1080,"is_transit":false,"time":2,"i_lat":-6.149769,"i_long":106.82482,"station_id":"MGB","transit":false,"line":2,"station_name":"Manggabesar"},{"i_lat":-6.160725,"time":2,"distance":906,"is_transit":false,"transit":false,"station_name":"Sawah Besar","station_id":"SW","line":2,"i_long":106.827103},{"station_id":"JUA","transit":false,"is_transit":false,"i_lat":-6.166716,"distance":1149,"i_long":106.828284,"time":2,"line":2,"station_name":"Juanda"},{"station_name":"Gondangdia","station_id":"GDD","transit":false,"time":4,"distance":2015,"i_lat":-6.186295,"i_long":106.832183,"is_transit":false,"line":2},{"transit":false,"i_lat":-6.198556,"line":0,"station_id":"CKI","time":3,"i_long":106.840169,"station_name":"Cikini","distance":1750,"is_transit":false},{"station_name":"Manggarai","station_id":"MRI","i_long":106.84912,"is_transit":true,"distance":1590,"line":0,"i_lat":-6.209883,"time":4,"transit":true},{"line":1,"station_name":"Sudirman","station_id":"SUD","transit":false,"i_lat":-6.202263,"time":4,"i_long":106.822649,"distance":3186,"is_transit":false},{"transit":false,"station_name":"Sudirman Baru","distance":280,"station_id":"SUDB","line":1,"time":1,"is_transit":false,"i_long":106.819881,"i_lat":-6.201433},{"i_long":106.816351,"station_id":"KAT","is_transit":false,"i_lat":-6.20132,"line":1,"station_name":"Karet","distance":471,"time":1,"transit":false},{"station_id":"THB","time":5,"distance":2029,"transit":true,"i_lat":-6.185545,"line":1,"is_transit":true,"station_name":"Tanah Abang","i_long":106.811091},{"is_transit":false,"time":6,"station_id":"PLM","distance":3191,"transit":false,"station_name":"Palmerah","i_lat":-6.207404,"line":6,"i_long":106.79689},{"line":6,"i_long":106.780334,"time":7,"transit":false,"i_lat":-6.237242,"station_name":"Kebayoran","is_transit":false,"distance":3737,"station_id":"KBY"},{"distance":6218,"transit":false,"is_transit":false,"time":8,"station_name":"Pondokranji","i_lat":-6.276362,"i_long":106.74273,"line":6,"station_id":"PDJ"},{"station_id":"JMU","i_long":106.728916,"is_transit":false,"i_lat":-6.288927,"line":6,"time":3,"distance":2179,"station_name":"Jurangmangu","transit":false},{"station_name":"Sudimara","transit":false,"i_lat":-6.296963,"is_transit":false,"time":4,"distance":1994,"line":6,"i_long":106.712277,"station_id":"SDM"},{"i_long":106.675475,"distance":4566,"is_transit":false,"time":6,"station_name":"Rawa Buntu","line":6,"transit":false,"i_lat":-6.314823,"station_id":"RU"},{"transit":false,"i_lat":-6.319871,"distance":2413,"station_name":"Serpong","station_id":"SRP","is_transit":false,"time":4,"i_long":106.66566,"line":6},{"station_name":"Cisauk","i_long":106.640411,"station_id":"CSK","i_lat":-6.32484,"time":4,"is_transit":false,"distance":1784,"line":0,"transit":false},{"time":4,"is_transit":false,"transit":false,"i_lat":-6.329547,"station_id":"CC","distance":2519,"line":0,"i_long":106.617853,"station_name":"Cicayur"},{"distance":5968,"i_long":106.568863,"line":6,"station_name":"Parung Panjang","transit":false,"is_transit":false,"i_lat":-6.3441410000000005,"time":8,"station_id":"PRP"}]]}