{"data":[[{"station_id":"KRI","station_name":"Kranji","transit":false,"line":1,"is_transit":false,"distance":0,"i_long":106.977657,"i_lat":-6.224515,"time":0},{"i_long":106.951283,"station_id":"CUK","transit":false,"time":3,"line":1,"station_name":"Cakung","i_lat":-6.219053,"is_transit":false,"distance":3097},{"is_transit":false,"station_name":"Klenderbaru","time":8,"distance":1385,"line":1,"transit":false,"station_id":"KLDB","i_lat":-6.217455,"i_long":106.939679},{"station_id":"BUA","transit":false,"station_name":"Buaran","is_transit":false,"distance":1305,"time":1,"i_lat":-6.215568,"i_long":106.922662,"line":1},{"distance":3100,"time":2,"i_lat":-6.2135,"transit":false,"station_id":"KLD","is_transit":false,"station_name":"Klender","i_long":106.899548,"line":1},{"line":1,"is_transit":false,"station_name":"Jatinegara","distance":3395,"i_lat":-6.215091,"time":3,"i_long":106.86807400000001,"transit":false,"station_id":"JNG"},{"is_transit":false,"time":2,"i_lat":-6.212485,"station_id":"MTR","i_long":106.858896,"line":1,"distance":1377,"transit":false,"station_name":"Matraman"},{"line":2,"is_transit":false,"distance":1275,"transit":false,"i_long":106.84912,"station_name":"Manggarai","time":2,"station_id":"MRI","i_lat":-6.209883},{"time":4,"i_lat":-6.202263,"line":1,"i_long":106.822649,"transit":false,"is_transit":false,"station_name":"Sudirman","distance":3186,"station_id":"SUD"},{"is_transit":false,"line":1,"distance":280,"transit":false,"station_name":"Sudirman Baru","i_lat":-6.201433,"time":1,"i_long":106.819881,"station_id":"SUDB"},{"station_name":"Karet","distance":471,"line":1,"transit":false,"time":1,"is_transit":false,"i_long":106.816351,"i_lat":-6.20132,"station_id":"KAT"},{"i_lat":-6.185545,"i_long":106.811091,"line":1,"station_name":"Tanah Abang","is_transit":true,"time":5,"distance":2029,"station_id":"THB","transit":true},{"transit":false,"i_lat":-6.207404,"station_id":"PLM","i_long":106.79689,"station_name":"Palmerah","line":6,"time":6,"is_transit":false,"distance":3191}],[{"i_lat":-6.224515,"transit":false,"i_long":106.977657,"station_name":"Kranji","distance":0,"line":1,"station_id":"KRI","is_transit":false,"time":0},{"is_transit":false,"transit":false,"line":1,"i_lat":-6.219053,"station_id":"CUK","i_long":106.951283,"distance":3097,"time":3,"station_name":"Cakung"},{"i_long":106.939679,"station_id":"KLDB","line":1,"is_transit":false,"distance":1385,"transit":false,"i_lat":-6.217455,"station_name":"Klenderbaru","time":8},{"i_lat":-6.215568,"i_long":106.922662,"line":1,"station_name":"Buaran","distance":1305,"transit":false,"station_id":"BUA","is_transit":false,"time":1},{"i_lat":-6.2135,"line":1,"station_name":"Klender","station_id":"KLD","is_transit":false,"time":2,"distance":3100,"i_long":106.899548,"transit":false},{"line":1,"transit":true,"i_lat":-6.215091,"distance":3395,"i_long":106.86807400000001,"is_transit":true,"time":3,"station_name":"Jatinegara","station_id":"JNG"},{"station_name":"Pondok Jati","station_id":"POK","is_transit":false,"distance":1236,"line":11,"time":2,"i_long":106.861737,"i_lat":-6.209188,"transit":false},{"time":2,"station_id":"KMT","distance":1829,"transit":false,"i_lat":-6.193792,"station_name":"Kramat","is_transit":false,"i_long":106.855437,"line":11},{"line":11,"station_name":"Gang Sentiong","i_lat":-6.185975,"is_transit":false,"distance":973,"station_id":"GST","transit":false,"time":1,"i_long":106.850107},{"station_name":"Pasar Senen","distance":1567,"transit":false,"is_transit":false,"time":8,"station_id":"PSE","line":11,"i_long":106.84368,"i_lat":-6.174784},{"station_id":"KMO","i_lat":-6.161728,"is_transit":false,"time":4,"transit":false,"station_name":"Kemayoran","line":11,"i_long":106.839204,"distance":1436},{"distance":1901,"station_id":"RJW","i_lat":-6.14505,"station_name":"Rajawali","time":5,"is_transit":false,"line":11,"transit":false,"i_long":106.836569},{"line":4,"distance":1444,"station_id":"KPB","is_transit":true,"transit":true,"time":3,"i_long":106.826365,"station_name":"Kampung Bandan","i_lat":-6.132549},{"line":1,"station_name":"Angke","distance":4102,"transit":false,"i_lat":-6.144674,"is_transit":false,"station_id":"AK","time":9,"i_long":106.79867},{"line":1,"is_transit":false,"i_long":106.800832,"i_lat":-6.155215,"station_id":"DU","transit":false,"station_name":"Duri","time":4,"distance":1230},{"i_lat":-6.185545,"station_id":"THB","distance":3632,"line":1,"is_transit":true,"time":8,"i_long":106.811091,"transit":true,"station_name":"Tanah Abang"},{"station_id":"PLM","i_lat":-6.207404,"i_long":106.79689,"distance":3191,"station_name":"Palmerah","time":6,"line":6,"transit":false,"is_transit":false}],[{"time":0,"i_lat":-6.224515,"is_transit":false,"transit":false,"station_id":"KRI","i_long":106.977657,"distance":0,"line":1,"station_name":"Kranji"},{"line":1,"distance":3097,"station_id":"CUK","time":3,"station_name":"Cakung","transit":false,"i_long":106.951283,"i_lat":-6.219053,"is_transit":false},{"transit":false,"i_lat":-6.217455,"station_id":"KLDB","station_name":"Klenderbaru","time":8,"is_transit":false,"distance":1385,"i_long":106.939679,"line":1},{"line":1,"i_lat":-6.215568,"is_transit":false,"station_id":"BUA","distance":1305,"transit":false,"time":1,"station_name":"Buaran","i_long":106.922662},{"is_transit":false,"i_long":106.899548,"line":1,"i_lat":-6.2135,"station_name":"Klender","transit":false,"station_id":"KLD","time":2,"distance":3100},{"time":3,"station_id":"JNG","transit":false,"line":1,"distance":3395,"i_lat":-6.215091,"is_transit":false,"station_name":"Jatinegara","i_long":106.86807400000001},{"station_id":"MTR","is_transit":false,"station_name":"Matraman","distance":1377,"i_lat":-6.212485,"time":2,"line":1,"i_long":106.858896,"transit":false},{"is_transit":true,"time":2,"distance":1275,"station_id":"MRI","i_lat":-6.209883,"line":2,"transit":true,"station_name":"Manggarai","i_long":106.84912},{"i_long":106.840169,"station_name":"Cikini","is_transit":false,"transit":false,"time":4,"station_id":"CKI","line":2,"i_lat":-6.198556,"distance":1590},{"distance":1750,"line":2,"transit":false,"time":3,"station_name":"Gondangdia","i_lat":-6.186295,"is_transit":false,"i_long":106.832183,"station_id":"GDD"},{"i_lat":-6.166716,"time":4,"station_name":"Juanda","is_transit":false,"station_id":"JUA","distance":2015,"i_long":106.828284,"transit":false,"line":2},{"time":2,"transit":false,"i_lat":-6.160725,"is_transit":false,"line":2,"i_long":106.827103,"station_id":"SW","distance":1149,"station_name":"Sawah Besar"},{"distance":906,"i_long":106.82482,"station_id":"MGB","line":2,"transit":false,"station_name":"Manggabesar","time":2,"i_lat":-6.149769,"is_transit":false},{"time":2,"distance":1080,"is_transit":false,"transit":false,"station_name":"Jayakarta","i_lat":-6.141205,"line":2,"station_id":"JAY","i_long":106.820901},{"i_lat":-6.137569,"is_transit":true,"time":4,"distance":1264,"station_id":"JAKK","transit":true,"line":2,"station_name":"Jakarta Kota","i_long":106.812439},{"transit":true,"is_transit":true,"distance":1364,"i_lat":-6.132549,"line":4,"station_name":"Kampung Bandan","station_id":"KPB","time":3,"i_long":106.826365},{"time":9,"line":1,"i_long":106.79867,"transit":false,"i_lat":-6.144674,"station_name":"Angke","distance":4102,"station_id":"AK","is_transit":false},{"distance":1230,"i_lat":-6.155215,"station_name":"Duri","station_id":"DU","is_transit":false,"line":1,"transit":false,"time":4,"i_long":106.800832},{"line":1,"station_name":"Tanah Abang","is_transit":true,"time":8,"i_long":106.811091,"distance":3632,"i_lat":-6.185545,"station_id":"THB","transit":true},{"station_id":"PLM","transit":false,"station_name":"Palmerah","distance":3191,"is_transit":false,"line":6,"time":6,"i_lat":-6.207404,"i_long":106.79689}],[{"line":1,"station_id":"KRI","station_name":"Kranji","is_transit":false,"transit":false,"i_long":106.977657,"distance":0,"time":0,"i_lat":-6.224515},{"i_lat":-6.219053,"station_name":"Cakung","i_long":106.951283,"transit":false,"line":1,"is_transit":false,"time":3,"distance":3097,"station_id":"CUK"},{"station_name":"Klenderbaru","transit":false,"i_lat":-6.217455,"line":1,"i_long":106.939679,"time":8,"station_id":"KLDB","is_transit":false,"distance":1385},{"is_transit":false,"line":1,"station_id":"BUA","transit":false,"i_long":106.922662,"station_name":"Buaran","time":1,"distance":1305,"i_lat":-6.215568},{"time":2,"station_name":"Klender","distance":3100,"transit":false,"i_long":106.899548,"i_lat":-6.2135,"line":1,"station_id":"KLD","is_transit":false},{"station_name":"Jatinegara","time":3,"station_id":"JNG","line":1,"i_long":106.86807400000001,"transit":true,"i_lat":-6.215091,"is_transit":true,"distance":3395},{"station_name":"Pondok Jati","is_transit":false,"time":2,"station_id":"POK","i_lat":-6.209188,"i_long":106.861737,"transit":false,"line":11,"distance":1236},{"station_id":"KMT","i_long":106.855437,"is_transit":false,"station_name":"Kramat","time":2,"transit":false,"distance":1829,"i_lat":-6.193792,"line":11},{"distance":973,"i_long":106.850107,"transit":false,"line":11,"station_name":"Gang Sentiong","station_id":"GST","i_lat":-6.185975,"is_transit":false,"time":1},{"transit":false,"station_id":"PSE","line":11,"time":8,"station_name":"Pasar Senen","is_transit":false,"distance":1567,"i_lat":-6.174784,"i_long":106.84368},{"is_transit":false,"station_name":"Kemayoran","time":4,"i_long":106.839204,"station_id":"KMO","line":11,"i_lat":-6.161728,"distance":1436,"transit":false},{"i_long":106.836569,"station_name":"Rajawali","station_id":"RJW","time":5,"i_lat":-6.14505,"line":11,"is_transit":false,"distance":1901,"transit":false},{"station_name":"Kampung Bandan","station_id":"KPB","time":3,"i_lat":-6.132549,"i_long":106.826365,"line":4,"transit":true,"distance":1444,"is_transit":true},{"i_long":106.812439,"time":3,"transit":true,"line":2,"station_name":"Jakarta Kota","station_id":"JAKK","is_transit":true,"distance":1364,"i_lat":-6.137569},{"transit":false,"line":2,"station_id":"JAY","is_transit":false,"i_lat":-6.141205,"station_name":"Jayakarta","time":4,"distance":1264,"i_long":106.820901},{"line":2,"i_lat":-6.149769,"transit":false,"station_name":"Manggabesar","time":2,"is_transit":false,"station_id":"MGB","distance":1080,"i_long":106.82482},{"station_id":"SW","distance":906,"transit":false,"line":2,"station_name":"Sawah Besar","i_lat":-6.160725,"time":2,"is_transit":false,"i_long":106.827103},{"distance":1149,"i_long":106.828284,"time":2,"station_name":"Juanda","i_lat":-6.166716,"line":2,"transit":false,"is_transit":false,"station_id":"JUA"},{"time":4,"is_transit":false,"i_lat":-6.186295,"distance":2015,"i_long":106.832183,"station_name":"Gondangdia","transit":false,"line":2,"station_id":"GDD"},{"line":2,"station_id":"CKI","i_long":106.840169,"is_transit":false,"time":3,"transit":false,"station_name":"Cikini","i_lat":-6.198556,"distance":1750},{"transit":true,"i_lat":-6.209883,"line":2,"distance":1590,"is_transit":true,"time":4,"i_long":106.84912,"station_id":"MRI","station_name":"Manggarai"},{"i_long":106.822649,"line":1,"is_transit":false,"distance":3186,"time":4,"i_lat":-6.202263,"station_name":"Sudirman","station_id":"SUD","transit":false},{"station_name":"Sudirman Baru","station_id":"SUDB","is_transit":false,"i_lat":-6.201433,"distance":280,"transit":false,"time":1,"i_long":106.819881,"line":1},{"i_long":106.816351,"transit":false,"time":1,"i_lat":-6.20132,"distance":471,"station_name":"Karet","station_id":"KAT","is_transit":false,"line":1},{"is_transit":true,"distance":2029,"station_id":"THB","line":1,"i_long":106.811091,"transit":true,"time":5,"i_lat":-6.185545,"station_name":"Tanah Abang"},{"is_transit":false,"station_name":"Palmerah","distance":3191,"i_long":106.79689,"i_lat":-6.207404,"time":6,"station_id":"PLM","transit":false,"line":6}]]}