{"data":[[{"line":1,"i_lat":-6.224515,"station_name":"Kranji","transit":false,"distance":0,"is_transit":false,"station_id":"KRI","time":0,"i_long":106.977657},{"i_long":106.951283,"time":3,"distance":3097,"i_lat":-6.219053,"transit":false,"line":1,"station_id":"CUK","is_transit":false,"station_name":"Cakung"},{"time":8,"i_lat":-6.217455,"i_long":106.939679,"distance":1385,"transit":false,"is_transit":false,"station_name":"Klenderbaru","station_id":"KLDB","line":1},{"transit":false,"station_name":"Buaran","i_lat":-6.215568,"station_id":"BUA","i_long":106.922662,"line":1,"time":1,"is_transit":false,"distance":1305},{"time":2,"is_transit":false,"station_name":"Klender","i_long":106.899548,"station_id":"KLD","distance":3100,"transit":false,"i_lat":-6.2135,"line":1},{"i_long":106.86807400000001,"i_lat":-6.215091,"transit":true,"is_transit":true,"time":3,"station_id":"JNG","distance":3395,"line":1,"station_name":"Jatinegara"},{"transit":false,"distance":1236,"i_long":106.861737,"line":11,"time":2,"station_name":"Pondok Jati","i_lat":-6.209188,"station_id":"POK","is_transit":false},{"is_transit":false,"transit":false,"station_name":"Kramat","i_lat":-6.193792,"time":2,"station_id":"KMT","i_long":106.855437,"distance":1829,"line":11},{"transit":false,"line":11,"station_id":"GST","time":1,"distance":973,"station_name":"Gang Sentiong","i_long":106.850107,"i_lat":-6.185975,"is_transit":false},{"transit":false,"is_transit":false,"line":11,"station_id":"PSE","distance":1567,"i_lat":-6.174784,"time":8,"i_long":106.84368,"station_name":"Pasar Senen"},{"transit":false,"distance":1436,"station_name":"Kemayoran","time":4,"is_transit":false,"station_id":"KMO","i_lat":-6.161728,"i_long":106.839204,"line":11},{"i_lat":-6.14505,"time":5,"line":11,"i_long":106.836569,"station_name":"Rajawali","is_transit":false,"station_id":"RJW","distance":1901,"transit":false},{"line":4,"station_id":"KPB","station_name":"Kampung Bandan","time":3,"is_transit":false,"distance":1444,"i_lat":-6.132549,"i_long":106.826365,"transit":false}],[{"station_id":"KRI","line":1,"is_transit":false,"time":0,"distance":0,"i_long":106.977657,"station_name":"Kranji","i_lat":-6.224515,"transit":false},{"transit":false,"is_transit":false,"station_id":"CUK","station_name":"Cakung","i_long":106.951283,"time":3,"i_lat":-6.219053,"line":1,"distance":3097},{"line":1,"i_long":106.939679,"station_id":"KLDB","time":8,"is_transit":false,"distance":1385,"i_lat":-6.217455,"transit":false,"station_name":"Klenderbaru"},{"station_id":"BUA","i_long":106.922662,"is_transit":false,"transit":false,"station_name":"Buaran","i_lat":-6.215568,"line":1,"time":1,"distance":1305},{"transit":false,"time":2,"is_transit":false,"station_id":"KLD","i_long":106.899548,"station_name":"Klender","i_lat":-6.2135,"line":1,"distance":3100},{"line":1,"transit":false,"time":3,"i_long":106.86807400000001,"is_transit":false,"station_name":"Jatinegara","distance":3395,"station_id":"JNG","i_lat":-6.215091},{"i_lat":-6.212485,"transit":false,"line":1,"distance":1377,"time":2,"i_long":106.858896,"station_name":"Matraman","is_transit":false,"station_id":"MTR"},{"is_transit":false,"station_name":"Manggarai","i_lat":-6.209883,"time":2,"i_long":106.84912,"line":2,"distance":1275,"transit":false,"station_id":"MRI"},{"time":4,"i_lat":-6.202263,"transit":false,"i_long":106.822649,"station_name":"Sudirman","is_transit":false,"station_id":"SUD","line":1,"distance":3186},{"line":1,"i_long":106.819881,"time":1,"i_lat":-6.201433,"is_transit":false,"distance":280,"transit":false,"station_id":"SUDB","station_name":"Sudirman Baru"},{"line":1,"station_name":"Karet","is_transit":false,"time":1,"distance":471,"transit":false,"i_lat":-6.20132,"station_id":"KAT","i_long":106.816351},{"station_name":"Tanah Abang","i_lat":-6.185545,"distance":2029,"i_long":106.811091,"line":1,"transit":false,"is_transit":false,"station_id":"THB","time":5},{"distance":3632,"station_name":"Duri","station_id":"DU","time":8,"i_lat":-6.155215,"i_long":106.800832,"line":1,"transit":false,"is_transit":false},{"i_lat":-6.144674,"i_long":106.79867,"station_name":"Angke","transit":false,"distance":1230,"is_transit":false,"time":4,"station_id":"AK","line":1},{"is_transit":false,"station_id":"KPB","time":9,"station_name":"Kampung Bandan","distance":4102,"i_long":106.826365,"transit":false,"line":4,"i_lat":-6.132549}],[{"is_transit":false,"line":1,"distance":0,"i_lat":-6.224515,"station_name":"Kranji","station_id":"KRI","time":0,"i_long":106.977657,"transit":false},{"i_lat":-6.219053,"transit":false,"time":3,"station_id":"CUK","line":1,"station_name":"Cakung","i_long":106.951283,"is_transit":false,"distance":3097},{"i_long":106.939679,"distance":1385,"i_lat":-6.217455,"line":1,"time":8,"station_id":"KLDB","station_name":"Klenderbaru","is_transit":false,"transit":false},{"time":1,"station_id":"BUA","i_lat":-6.215568,"station_name":"Buaran","transit":false,"i_long":106.922662,"line":1,"is_transit":false,"distance":1305},{"distance":3100,"i_lat":-6.2135,"time":2,"station_id":"KLD","is_transit":false,"i_long":106.899548,"line":1,"transit":false,"station_name":"Klender"},{"station_name":"Jatinegara","i_lat":-6.215091,"i_long":106.86807400000001,"transit":false,"distance":3395,"station_id":"JNG","line":1,"time":3,"is_transit":false},{"station_name":"Matraman","transit":false,"distance":1377,"i_long":106.858896,"is_transit":false,"i_lat":-6.212485,"station_id":"MTR","time":2,"line":1},{"time":2,"station_name":"Manggarai","i_long":106.84912,"station_id":"MRI","transit":true,"is_transit":true,"i_lat":-6.209883,"line":2,"distance":1275},{"station_id":"CKI","transit":false,"i_long":106.840169,"i_lat":-6.198556,"distance":1590,"is_transit":false,"time":4,"station_name":"Cikini","line":2},{"i_long":106.832183,"is_transit":false,"station_id":"GDD","time":3,"line":2,"transit":false,"station_name":"Gondangdia","distance":1750,"i_lat":-6.186295},{"line":2,"is_transit":false,"station_name":"Juanda","distance":2015,"i_long":106.828284,"transit":false,"time":4,"station_id":"JUA","i_lat":-6.166716},{"distance":1149,"line":2,"is_transit":false,"station_id":"SW","time":2,"station_name":"Sawah Besar","i_lat":-6.160725,"i_long":106.827103,"transit":false},{"i_long":106.82482,"station_name":"Manggabesar","line":2,"distance":906,"station_id":"MGB","time":2,"i_lat":-6.149769,"transit":false,"is_transit":false},{"transit":false,"time":2,"station_name":"Jayakarta","i_lat":-6.141205,"i_long":106.820901,"line":2,"is_transit":false,"station_id":"JAY","distance":1080},{"line":2,"is_transit":true,"time":4,"i_long":106.812439,"distance":1264,"station_name":"Jakarta Kota","i_lat":-6.137569,"station_id":"JAKK","transit":true},{"time":3,"station_id":"KPB","distance":1364,"station_name":"Kampung Bandan","i_lat":-6.132549,"i_long":106.826365,"transit":false,"is_transit":false,"line":4}]]}