{"data":[[{"station_name":"Kranji","station_id":"KRI","line":1,"i_lat":-6.224515,"is_transit":false,"time":0,"distance":0,"transit":false,"i_long":106.977657},{"station_id":"CUK","i_lat":-6.219053,"distance":3097,"is_transit":false,"line":1,"i_long":106.951283,"time":3,"station_name":"Cakung","transit":false},{"distance":1385,"station_name":"Klenderbaru","is_transit":false,"transit":false,"station_id":"KLDB","time":8,"i_long":106.939679,"i_lat":-6.217455,"line":1},{"time":1,"is_transit":false,"line":1,"i_long":106.922662,"station_name":"Buaran","transit":false,"station_id":"BUA","i_lat":-6.215568,"distance":1305},{"i_long":106.899548,"transit":false,"station_id":"KLD","line":1,"distance":3100,"time":2,"is_transit":false,"i_lat":-6.2135,"station_name":"Klender"},{"line":1,"transit":false,"distance":3395,"is_transit":false,"i_long":106.86807400000001,"i_lat":-6.215091,"station_name":"Jatinegara","station_id":"JNG","time":3},{"transit":false,"station_name":"Matraman","time":2,"distance":1377,"is_transit":false,"i_long":106.858896,"line":1,"station_id":"MTR","i_lat":-6.212485},{"is_transit":false,"i_long":106.84912,"i_lat":-6.209883,"distance":1275,"station_id":"MRI","time":2,"transit":false,"line":2,"station_name":"Manggarai"},{"line":1,"transit":false,"station_name":"Sudirman","station_id":"SUD","time":4,"i_long":106.822649,"distance":3186,"i_lat":-6.202263,"is_transit":false},{"line":1,"distance":280,"i_long":106.819881,"is_transit":false,"station_id":"SUDB","transit":false,"time":1,"i_lat":-6.201433,"station_name":"Sudirman Baru"},{"station_name":"Karet","is_transit":false,"i_long":106.816351,"line":1,"transit":false,"time":1,"station_id":"KAT","i_lat":-6.20132,"distance":471},{"station_name":"Tanah Abang","i_lat":-6.185545,"station_id":"THB","is_transit":true,"transit":true,"distance":2029,"line":1,"time":5,"i_long":106.811091},{"i_long":106.79689,"station_name":"Palmerah","transit":false,"station_id":"PLM","i_lat":-6.207404,"time":6,"line":6,"distance":3191,"is_transit":false},{"i_long":106.780334,"station_id":"KBY","transit":false,"is_transit":false,"i_lat":-6.237242,"distance":3737,"line":6,"station_name":"Kebayoran","time":7},{"transit":false,"is_transit":false,"station_id":"PDJ","i_lat":-6.276362,"station_name":"Pondokranji","line":6,"i_long":106.74273,"time":8,"distance":6218},{"line":6,"i_long":106.728916,"transit":false,"distance":2179,"station_name":"Jurangmangu","is_transit":false,"station_id":"JMU","i_lat":-6.288927,"time":3},{"line":6,"transit":false,"time":4,"i_lat":-6.296963,"distance":1994,"i_long":106.712277,"station_name":"Sudimara","is_transit":false,"station_id":"SDM"},{"i_long":106.675475,"i_lat":-6.314823,"transit":false,"station_id":"RU","distance":4566,"time":6,"station_name":"Rawa Buntu","is_transit":false,"line":6},{"distance":2413,"is_transit":false,"station_id":"SRP","time":4,"i_long":106.66566,"line":6,"i_lat":-6.319871,"station_name":"Serpong","transit":false},{"station_id":"CSK","i_lat":-6.32484,"i_long":106.640411,"station_name":"Cisauk","distance":1784,"line":3,"time":4,"is_transit":false,"transit":false},{"time":4,"distance":2519,"i_long":106.617853,"line":3,"station_name":"Cicayur","i_lat":-6.329547,"transit":false,"is_transit":false,"station_id":"CC"},{"i_long":106.568863,"i_lat":-6.3441410000000005,"time":8,"line":6,"distance":5968,"transit":false,"is_transit":false,"station_name":"Parung Panjang","station_id":"PRP"}],[{"line":1,"distance":0,"station_name":"Kranji","i_long":106.977657,"is_transit":false,"transit":false,"station_id":"KRI","i_lat":-6.224515,"time":0},{"i_long":106.951283,"distance":3097,"i_lat":-6.219053,"station_id":"CUK","station_name":"Cakung","is_transit":false,"line":1,"transit":false,"time":3},{"distance":1385,"station_id":"KLDB","is_transit":false,"i_lat":-6.217455,"station_name":"Klenderbaru","i_long":106.939679,"line":1,"transit":false,"time":8},{"station_name":"Buaran","line":1,"station_id":"BUA","distance":1305,"time":1,"transit":false,"is_transit":false,"i_long":106.922662,"i_lat":-6.215568},{"transit":false,"distance":3100,"station_id":"KLD","time":2,"i_lat":-6.2135,"i_long":106.899548,"is_transit":false,"line":1,"station_name":"Klender"},{"time":3,"i_long":106.86807400000001,"distance":3395,"transit":true,"station_id":"JNG","is_transit":true,"line":1,"i_lat":-6.215091,"station_name":"Jatinegara"},{"time":2,"distance":1236,"station_name":"Pondok Jati","transit":false,"i_lat":-6.209188,"station_id":"POK","i_long":106.861737,"is_transit":false,"line":11},{"is_transit":false,"station_id":"KMT","distance":1829,"i_long":106.855437,"transit":false,"line":11,"time":2,"i_lat":-6.193792,"station_name":"Kramat"},{"station_name":"Gang Sentiong","transit":false,"station_id":"GST","line":11,"i_lat":-6.185975,"distance":973,"time":1,"is_transit":false,"i_long":106.850107},{"station_name":"Pasar Senen","is_transit":false,"i_long":106.84368,"transit":false,"i_lat":-6.174784,"time":8,"station_id":"PSE","line":11,"distance":1567},{"line":11,"distance":1436,"transit":false,"station_name":"Kemayoran","is_transit":false,"time":4,"i_lat":-6.161728,"i_long":106.839204,"station_id":"KMO"},{"station_id":"RJW","transit":false,"is_transit":false,"distance":1901,"line":11,"time":5,"i_long":106.836569,"station_name":"Rajawali","i_lat":-6.14505},{"distance":1444,"station_name":"Kampung Bandan","is_transit":true,"i_lat":-6.132549,"time":3,"transit":true,"line":4,"i_long":106.826365,"station_id":"KPB"},{"line":1,"i_lat":-6.144674,"distance":4102,"station_name":"Angke","transit":false,"station_id":"AK","is_transit":false,"time":9,"i_long":106.79867},{"i_long":106.800832,"transit":false,"is_transit":false,"time":4,"station_id":"DU","i_lat":-6.155215,"station_name":"Duri","line":1,"distance":1230},{"transit":true,"is_transit":true,"i_long":106.811091,"i_lat":-6.185545,"distance":3632,"station_name":"Tanah Abang","station_id":"THB","line":1,"time":8},{"time":6,"distance":3191,"line":6,"station_id":"PLM","station_name":"Palmerah","is_transit":false,"transit":false,"i_lat":-6.207404,"i_long":106.79689},{"transit":false,"i_lat":-6.237242,"i_long":106.780334,"is_transit":false,"line":6,"station_id":"KBY","station_name":"Kebayoran","distance":3737,"time":7},{"station_name":"Pondokranji","station_id":"PDJ","is_transit":false,"time":8,"transit":false,"i_lat":-6.276362,"line":6,"distance":6218,"i_long":106.74273},{"distance":2179,"station_name":"Jurangmangu","is_transit":false,"station_id":"JMU","i_lat":-6.288927,"transit":false,"time":3,"i_long":106.728916,"line":6},{"station_name":"Sudimara","distance":1994,"i_long":106.712277,"line":6,"time":4,"station_id":"SDM","transit":false,"is_transit":false,"i_lat":-6.296963},{"transit":false,"station_name":"Rawa Buntu","station_id":"RU","i_long":106.675475,"line":6,"i_lat":-6.314823,"time":6,"is_transit":false,"distance":4566},{"time":4,"station_id":"SRP","transit":false,"line":6,"is_transit":false,"distance":2413,"station_name":"Serpong","i_lat":-6.319871,"i_long":106.66566},{"station_name":"Cisauk","i_lat":-6.32484,"time":4,"i_long":106.640411,"line":3,"is_transit":false,"distance":1784,"transit":false,"station_id":"CSK"},{"transit":false,"i_long":106.617853,"is_transit":false,"time":4,"line":3,"station_name":"Cicayur","station_id":"CC","i_lat":-6.329547,"distance":2519},{"station_id":"PRP","distance":5968,"station_name":"Parung Panjang","is_transit":false,"time":8,"i_long":106.568863,"transit":false,"line":6,"i_lat":-6.3441410000000005}],[{"transit":false,"i_lat":-6.224515,"line":1,"station_id":"KRI","station_name":"Kranji","is_transit":false,"time":0,"i_long":106.977657,"distance":0},{"station_id":"CUK","time":3,"station_name":"Cakung","i_lat":-6.219053,"line":1,"transit":false,"i_long":106.951283,"distance":3097,"is_transit":false},{"is_transit":false,"line":1,"distance":1385,"transit":false,"station_id":"KLDB","time":8,"station_name":"Klenderbaru","i_lat":-6.217455,"i_long":106.939679},{"i_long":106.922662,"distance":1305,"time":1,"i_lat":-6.215568,"line":1,"station_id":"BUA","station_name":"Buaran","is_transit":false,"transit":false},{"time":2,"distance":3100,"i_lat":-6.2135,"transit":false,"station_name":"Klender","i_long":106.899548,"line":1,"is_transit":false,"station_id":"KLD"},{"station_id":"JNG","line":1,"i_long":106.86807400000001,"transit":false,"station_name":"Jatinegara","time":3,"i_lat":-6.215091,"distance":3395,"is_transit":false},{"i_lat":-6.212485,"transit":false,"distance":1377,"time":2,"is_transit":false,"station_name":"Matraman","station_id":"MTR","i_long":106.858896,"line":1},{"distance":1275,"i_lat":-6.209883,"i_long":106.84912,"is_transit":true,"transit":true,"time":2,"line":2,"station_name":"Manggarai","station_id":"MRI"},{"station_id":"CKI","line":2,"station_name":"Cikini","i_lat":-6.198556,"i_long":106.840169,"distance":1590,"is_transit":false,"time":4,"transit":false},{"station_name":"Gondangdia","transit":false,"line":2,"time":3,"i_long":106.832183,"is_transit":false,"station_id":"GDD","i_lat":-6.186295,"distance":1750},{"i_long":106.828284,"i_lat":-6.166716,"station_id":"JUA","distance":2015,"line":2,"is_transit":false,"station_name":"Juanda","time":4,"transit":false},{"line":2,"station_id":"SW","transit":false,"i_long":106.827103,"distance":1149,"station_name":"Sawah Besar","i_lat":-6.160725,"is_transit":false,"time":2},{"i_lat":-6.149769,"distance":906,"time":2,"station_id":"MGB","line":2,"station_name":"Manggabesar","transit":false,"is_transit":false,"i_long":106.82482},{"i_lat":-6.141205,"is_transit":false,"station_id":"JAY","transit":false,"time":2,"distance":1080,"station_name":"Jayakarta","line":2,"i_long":106.820901},{"distance":1264,"time":4,"is_transit":true,"station_name":"Jakarta Kota","i_lat":-6.137569,"i_long":106.812439,"transit":true,"line":2,"station_id":"JAKK"},{"station_name":"Kampung Bandan","is_transit":true,"time":3,"i_lat":-6.132549,"station_id":"KPB","distance":1364,"transit":true,"i_long":106.826365,"line":4},{"time":9,"i_lat":-6.144674,"line":1,"transit":false,"is_transit":false,"station_name":"Angke","i_long":106.79867,"station_id":"AK","distance":4102},{"station_id":"DU","distance":1230,"time":4,"transit":false,"i_long":106.800832,"line":1,"station_name":"Duri","i_lat":-6.155215,"is_transit":false},{"line":1,"i_lat":-6.185545,"station_name":"Tanah Abang","time":8,"is_transit":true,"distance":3632,"transit":true,"station_id":"THB","i_long":106.811091},{"is_transit":false,"transit":false,"station_id":"PLM","time":6,"i_long":106.79689,"line":6,"distance":3191,"station_name":"Palmerah","i_lat":-6.207404},{"i_long":106.780334,"i_lat":-6.237242,"transit":false,"station_id":"KBY","is_transit":false,"time":7,"distance":3737,"station_name":"Kebayoran","line":6},{"i_lat":-6.276362,"line":6,"time":8,"station_id":"PDJ","station_name":"Pondokranji","is_transit":false,"distance":6218,"transit":false,"i_long":106.74273},{"i_long":106.728916,"transit":false,"i_lat":-6.288927,"station_name":"Jurangmangu","is_transit":false,"line":6,"time":3,"distance":2179,"station_id":"JMU"},{"time":4,"station_name":"Sudimara","station_id":"SDM","i_long":106.712277,"is_transit":false,"i_lat":-6.296963,"line":6,"distance":1994,"transit":false},{"is_transit":false,"time":6,"transit":false,"line":6,"i_lat":-6.314823,"station_id":"RU","distance":4566,"station_name":"Rawa Buntu","i_long":106.675475},{"line":6,"station_id":"SRP","time":4,"distance":2413,"i_lat":-6.319871,"i_long":106.66566,"is_transit":false,"transit":false,"station_name":"Serpong"},{"distance":1784,"station_name":"Cisauk","time":4,"i_lat":-6.32484,"is_transit":false,"i_long":106.640411,"station_id":"CSK","line":3,"transit":false},{"station_id":"CC","time":4,"distance":2519,"is_transit":false,"station_name":"Cicayur","transit":false,"i_long":106.617853,"line":3,"i_lat":-6.329547},{"i_long":106.568863,"is_transit":false,"i_lat":-6.3441410000000005,"transit":false,"distance":5968,"station_id":"PRP","station_name":"Parung Panjang","time":8,"line":6}],[{"transit":false,"is_transit":false,"distance":0,"time":0,"i_lat":-6.224515,"station_name":"Kranji","station_id":"KRI","i_long":106.977657,"line":1},{"i_lat":-6.219053,"is_transit":false,"station_name":"Cakung","station_id":"CUK","line":1,"transit":false,"time":3,"i_long":106.951283,"distance":3097},{"distance":1385,"station_name":"Klenderbaru","i_long":106.939679,"time":8,"is_transit":false,"i_lat":-6.217455,"transit":false,"station_id":"KLDB","line":1},{"i_long":106.922662,"station_id":"BUA","transit":false,"station_name":"Buaran","i_lat":-6.215568,"line":1,"is_transit":false,"distance":1305,"time":1},{"time":2,"transit":false,"station_id":"KLD","line":1,"i_lat":-6.2135,"distance":3100,"station_name":"Klender","is_transit":false,"i_long":106.899548},{"line":1,"transit":true,"i_long":106.86807400000001,"time":3,"station_id":"JNG","station_name":"Jatinegara","distance":3395,"is_transit":true,"i_lat":-6.215091},{"time":2,"line":11,"station_name":"Pondok Jati","is_transit":false,"distance":1236,"transit":false,"station_id":"POK","i_long":106.861737,"i_lat":-6.209188},{"station_name":"Kramat","time":2,"i_long":106.855437,"is_transit":false,"distance":1829,"line":11,"station_id":"KMT","transit":false,"i_lat":-6.193792},{"station_id":"GST","i_lat":-6.185975,"station_name":"Gang Sentiong","line":11,"distance":973,"i_long":106.850107,"time":1,"transit":false,"is_transit":false},{"distance":1567,"station_id":"PSE","is_transit":false,"line":11,"i_long":106.84368,"i_lat":-6.174784,"transit":false,"time":8,"station_name":"Pasar Senen"},{"station_name":"Kemayoran","station_id":"KMO","time":4,"is_transit":false,"i_long":106.839204,"transit":false,"i_lat":-6.161728,"line":11,"distance":1436},{"distance":1901,"time":5,"station_name":"Rajawali","line":11,"transit":false,"is_transit":false,"i_lat":-6.14505,"i_long":106.836569,"station_id":"RJW"},{"i_lat":-6.132549,"line":4,"distance":1444,"i_long":106.826365,"transit":true,"is_transit":true,"station_id":"KPB","time":3,"station_name":"Kampung Bandan"},{"transit":true,"station_id":"JAKK","is_transit":true,"i_long":106.812439,"line":2,"station_name":"Jakarta Kota","i_lat":-6.137569,"distance":1364,"time":3},{"line":2,"transit":false,"is_transit":false,"distance":1264,"time":4,"i_lat":-6.141205,"station_name":"Jayakarta","station_id":"JAY","i_long":106.820901},{"i_lat":-6.149769,"time":2,"line":2,"is_transit":false,"distance":1080,"transit":false,"station_id":"MGB","i_long":106.82482,"station_name":"Manggabesar"},{"is_transit":false,"line":2,"station_id":"SW","i_long":106.827103,"distance":906,"i_lat":-6.160725,"station_name":"Sawah Besar","time":2,"transit":false},{"i_lat":-6.166716,"i_long":106.828284,"distance":1149,"station_name":"Juanda","is_transit":false,"transit":false,"time":2,"line":2,"station_id":"JUA"},{"station_id":"GDD","i_long":106.832183,"distance":2015,"is_transit":false,"station_name":"Gondangdia","time":4,"transit":false,"i_lat":-6.186295,"line":2},{"time":3,"line":2,"transit":false,"i_lat":-6.198556,"i_long":106.840169,"station_id":"CKI","distance":1750,"station_name":"Cikini","is_transit":false},{"station_id":"MRI","i_lat":-6.209883,"i_long":106.84912,"time":4,"transit":true,"station_name":"Manggarai","is_transit":true,"line":2,"distance":1590},{"i_long":106.822649,"distance":3186,"is_transit":false,"transit":false,"i_lat":-6.202263,"line":1,"time":4,"station_name":"Sudirman","station_id":"SUD"},{"station_id":"SUDB","station_name":"Sudirman Baru","is_transit":false,"time":1,"i_long":106.819881,"transit":false,"i_lat":-6.201433,"line":1,"distance":280},{"i_lat":-6.20132,"time":1,"line":1,"i_long":106.816351,"transit":false,"distance":471,"station_name":"Karet","is_transit":false,"station_id":"KAT"},{"transit":true,"distance":2029,"station_id":"THB","is_transit":true,"i_long":106.811091,"time":5,"i_lat":-6.185545,"line":1,"station_name":"Tanah Abang"},{"station_id":"PLM","is_transit":false,"i_lat":-6.207404,"time":6,"line":6,"distance":3191,"transit":false,"station_name":"Palmerah","i_long":106.79689},{"time":7,"distance":3737,"station_id":"KBY","i_lat":-6.237242,"i_long":106.780334,"line":6,"is_transit":false,"transit":false,"station_name":"Kebayoran"},{"time":8,"i_long":106.74273,"line":6,"is_transit":false,"transit":false,"distance":6218,"i_lat":-6.276362,"station_id":"PDJ","station_name":"Pondokranji"},{"i_long":106.728916,"station_name":"Jurangmangu","line":6,"station_id":"JMU","i_lat":-6.288927,"distance":2179,"is_transit":false,"transit":false,"time":3},{"transit":false,"station_id":"SDM","i_long":106.712277,"distance":1994,"time":4,"is_transit":false,"line":6,"station_name":"Sudimara","i_lat":-6.296963},{"i_long":106.675475,"i_lat":-6.314823,"station_name":"Rawa Buntu","station_id":"RU","transit":false,"line":6,"distance":4566,"is_transit":false,"time":6},{"transit":false,"i_long":106.66566,"distance":2413,"is_transit":false,"time":4,"i_lat":-6.319871,"line":6,"station_id":"SRP","station_name":"Serpong"},{"transit":false,"line":3,"i_lat":-6.32484,"i_long":106.640411,"is_transit":false,"distance":1784,"time":4,"station_name":"Cisauk","station_id":"CSK"},{"station_name":"Cicayur","station_id":"CC","time":4,"is_transit":false,"distance":2519,"i_lat":-6.329547,"i_long":106.617853,"line":3,"transit":false},{"distance":5968,"is_transit":false,"transit":false,"station_id":"PRP","time":8,"i_lat":-6.3441410000000005,"i_long":106.568863,"line":6,"station_name":"Parung Panjang"}]]}