{"data":[[{"time":0,"line":1,"distance":0,"station_name":"Kranji","i_long":106.977657,"transit":false,"i_lat":-6.224515,"is_transit":false,"station_id":"KRI"},{"i_long":106.951283,"station_id":"CUK","distance":3097,"is_transit":false,"station_name":"Cakung","i_lat":-6.219053,"line":1,"transit":false,"time":3},{"transit":false,"i_lat":-6.217455,"station_id":"KLDB","time":8,"is_transit":false,"station_name":"Klenderbaru","line":1,"i_long":106.939679,"distance":1385},{"is_transit":false,"transit":false,"distance":1305,"station_name":"Buaran","time":1,"station_id":"BUA","i_long":106.922662,"line":1,"i_lat":-6.215568},{"transit":false,"station_id":"KLD","distance":3100,"station_name":"Klender","line":1,"is_transit":false,"time":2,"i_lat":-6.2135,"i_long":106.899548},{"station_name":"Jatinegara","i_lat":-6.215091,"transit":false,"distance":3395,"i_long":106.86807400000001,"is_transit":false,"time":3,"line":1,"station_id":"JNG"},{"is_transit":false,"i_lat":-6.212485,"station_name":"Matraman","time":2,"transit":false,"station_id":"MTR","distance":1377,"line":1,"i_long":106.858896},{"distance":1275,"is_transit":true,"station_name":"Manggarai","transit":true,"time":2,"station_id":"MRI","i_long":106.84912,"i_lat":-6.209883,"line":2},{"station_id":"CKI","line":2,"transit":false,"station_name":"Cikini","distance":1590,"i_lat":-6.198556,"time":4,"i_long":106.840169,"is_transit":false},{"line":2,"is_transit":false,"time":3,"i_long":106.832183,"transit":false,"station_name":"Gondangdia","station_id":"GDD","distance":1750,"i_lat":-6.186295},{"is_transit":false,"station_name":"Juanda","i_lat":-6.166716,"station_id":"JUA","distance":2015,"i_long":106.828284,"transit":false,"time":4,"line":2},{"transit":false,"station_id":"SW","is_transit":false,"time":2,"i_lat":-6.160725,"station_name":"Sawah Besar","i_long":106.827103,"line":2,"distance":1149},{"line":2,"is_transit":false,"i_long":106.82482,"station_id":"MGB","transit":false,"station_name":"Manggabesar","time":2,"distance":906,"i_lat":-6.149769}],[{"line":1,"station_id":"KRI","i_lat":-6.224515,"station_name":"Kranji","transit":false,"time":0,"is_transit":false,"distance":0,"i_long":106.977657},{"time":3,"station_name":"Cakung","i_lat":-6.219053,"transit":false,"is_transit":false,"line":1,"distance":3097,"station_id":"CUK","i_long":106.951283},{"distance":1385,"i_lat":-6.217455,"station_name":"Klenderbaru","station_id":"KLDB","transit":false,"is_transit":false,"time":8,"i_long":106.939679,"line":1},{"line":1,"distance":1305,"station_name":"Buaran","i_long":106.922662,"i_lat":-6.215568,"transit":false,"station_id":"BUA","is_transit":false,"time":1},{"i_long":106.899548,"station_name":"Klender","time":2,"station_id":"KLD","transit":false,"is_transit":false,"distance":3100,"i_lat":-6.2135,"line":1},{"time":3,"station_name":"Jatinegara","i_long":106.86807400000001,"transit":true,"distance":3395,"line":1,"is_transit":true,"station_id":"JNG","i_lat":-6.215091},{"transit":false,"i_lat":-6.209188,"i_long":106.861737,"line":11,"station_name":"Pondok Jati","station_id":"POK","is_transit":false,"time":2,"distance":1236},{"is_transit":false,"time":2,"i_long":106.855437,"transit":false,"line":11,"station_name":"Kramat","distance":1829,"i_lat":-6.193792,"station_id":"KMT"},{"time":1,"line":11,"i_long":106.850107,"transit":false,"is_transit":false,"station_id":"GST","i_lat":-6.185975,"station_name":"Gang Sentiong","distance":973},{"station_name":"Pasar Senen","time":8,"i_lat":-6.174784,"i_long":106.84368,"is_transit":false,"transit":false,"line":11,"distance":1567,"station_id":"PSE"},{"line":11,"transit":false,"station_name":"Kemayoran","station_id":"KMO","is_transit":false,"time":4,"distance":1436,"i_long":106.839204,"i_lat":-6.161728},{"is_transit":false,"time":5,"distance":1901,"station_id":"RJW","i_long":106.836569,"transit":false,"station_name":"Rajawali","line":11,"i_lat":-6.14505},{"station_name":"Kampung Bandan","station_id":"KPB","distance":1444,"transit":true,"i_lat":-6.132549,"i_long":106.826365,"time":3,"line":4,"is_transit":true},{"transit":true,"station_name":"Jakarta Kota","time":3,"station_id":"JAKK","i_long":106.812439,"i_lat":-6.137569,"is_transit":true,"distance":1364,"line":2},{"i_lat":-6.141205,"time":4,"transit":false,"i_long":106.820901,"line":2,"distance":1264,"is_transit":false,"station_id":"JAY","station_name":"Jayakarta"},{"distance":1080,"i_long":106.82482,"is_transit":false,"i_lat":-6.149769,"station_id":"MGB","transit":false,"station_name":"Manggabesar","line":2,"time":2}],[{"i_long":106.977657,"line":1,"distance":0,"is_transit":false,"time":0,"i_lat":-6.224515,"transit":false,"station_name":"Kranji","station_id":"KRI"},{"line":1,"time":3,"transit":false,"station_id":"CUK","is_transit":false,"distance":3097,"station_name":"Cakung","i_lat":-6.219053,"i_long":106.951283},{"time":8,"line":1,"i_lat":-6.217455,"distance":1385,"transit":false,"station_id":"KLDB","station_name":"Klenderbaru","is_transit":false,"i_long":106.939679},{"is_transit":false,"station_name":"Buaran","i_lat":-6.215568,"distance":1305,"i_long":106.922662,"transit":false,"station_id":"BUA","time":1,"line":1},{"i_long":106.899548,"distance":3100,"station_id":"KLD","is_transit":false,"time":2,"line":1,"i_lat":-6.2135,"transit":false,"station_name":"Klender"},{"distance":3395,"i_long":106.86807400000001,"line":1,"transit":false,"station_id":"JNG","time":3,"i_lat":-6.215091,"station_name":"Jatinegara","is_transit":false},{"station_name":"Matraman","time":2,"i_long":106.858896,"line":1,"distance":1377,"transit":false,"station_id":"MTR","i_lat":-6.212485,"is_transit":false},{"time":2,"i_lat":-6.209883,"station_id":"MRI","transit":false,"station_name":"Manggarai","is_transit":false,"line":2,"i_long":106.84912,"distance":1275},{"station_name":"Sudirman","transit":false,"is_transit":false,"station_id":"SUD","time":4,"i_lat":-6.202263,"line":1,"distance":3186,"i_long":106.822649},{"distance":280,"station_id":"SUDB","line":1,"station_name":"Sudirman Baru","is_transit":false,"i_lat":-6.201433,"time":1,"i_long":106.819881,"transit":false},{"is_transit":false,"distance":471,"station_name":"Karet","i_lat":-6.20132,"transit":false,"time":1,"station_id":"KAT","line":1,"i_long":106.816351},{"station_name":"Tanah Abang","i_lat":-6.185545,"time":5,"line":1,"i_long":106.811091,"is_transit":false,"transit":false,"station_id":"THB","distance":2029},{"station_id":"DU","transit":false,"i_long":106.800832,"station_name":"Duri","i_lat":-6.155215,"distance":3632,"is_transit":false,"time":8,"line":1},{"time":4,"distance":1230,"station_id":"AK","i_lat":-6.144674,"line":1,"transit":false,"i_long":106.79867,"is_transit":false,"station_name":"Angke"},{"distance":4102,"i_long":106.826365,"line":4,"is_transit":true,"station_name":"Kampung Bandan","transit":true,"i_lat":-6.132549,"time":9,"station_id":"KPB"},{"is_transit":true,"time":3,"distance":1364,"station_name":"Jakarta Kota","line":2,"transit":true,"i_long":106.812439,"i_lat":-6.137569,"station_id":"JAKK"},{"time":4,"distance":1264,"line":2,"i_lat":-6.141205,"station_id":"JAY","i_long":106.820901,"transit":false,"is_transit":false,"station_name":"Jayakarta"},{"transit":false,"i_long":106.82482,"station_id":"MGB","i_lat":-6.149769,"is_transit":false,"distance":1080,"station_name":"Manggabesar","time":2,"line":2}],[{"station_name":"Kranji","line":1,"transit":false,"distance":0,"station_id":"KRI","is_transit":false,"i_long":106.977657,"i_lat":-6.224515,"time":0},{"i_long":106.951283,"line":1,"station_id":"CUK","time":3,"i_lat":-6.219053,"station_name":"Cakung","is_transit":false,"distance":3097,"transit":false},{"station_name":"Klenderbaru","station_id":"KLDB","is_transit":false,"i_lat":-6.217455,"i_long":106.939679,"line":1,"transit":false,"time":8,"distance":1385},{"station_id":"BUA","distance":1305,"station_name":"Buaran","i_long":106.922662,"time":1,"transit":false,"is_transit":false,"i_lat":-6.215568,"line":1},{"i_lat":-6.2135,"line":1,"station_id":"KLD","i_long":106.899548,"transit":false,"station_name":"Klender","time":2,"distance":3100,"is_transit":false},{"time":3,"is_transit":true,"transit":true,"i_lat":-6.215091,"i_long":106.86807400000001,"line":1,"station_id":"JNG","distance":3395,"station_name":"Jatinegara"},{"station_name":"Pondok Jati","transit":false,"distance":1236,"i_long":106.861737,"station_id":"POK","is_transit":false,"time":2,"i_lat":-6.209188,"line":11},{"i_lat":-6.193792,"i_long":106.855437,"is_transit":false,"time":2,"station_id":"KMT","distance":1829,"transit":false,"station_name":"Kramat","line":11},{"i_long":106.850107,"time":1,"station_id":"GST","line":11,"is_transit":false,"station_name":"Gang Sentiong","i_lat":-6.185975,"transit":false,"distance":973},{"i_lat":-6.174784,"station_id":"PSE","transit":false,"station_name":"Pasar Senen","i_long":106.84368,"line":11,"time":8,"is_transit":false,"distance":1567},{"station_name":"Kemayoran","line":11,"i_long":106.839204,"station_id":"KMO","time":4,"distance":1436,"is_transit":false,"i_lat":-6.161728,"transit":false},{"transit":false,"i_lat":-6.14505,"line":11,"is_transit":false,"time":5,"distance":1901,"station_name":"Rajawali","station_id":"RJW","i_long":106.836569},{"station_id":"KPB","i_long":106.826365,"distance":1444,"line":4,"is_transit":true,"i_lat":-6.132549,"station_name":"Kampung Bandan","transit":true,"time":3},{"station_name":"Angke","time":9,"distance":4102,"transit":false,"is_transit":false,"i_long":106.79867,"line":1,"station_id":"AK","i_lat":-6.144674},{"station_id":"DU","transit":false,"station_name":"Duri","time":4,"i_lat":-6.155215,"is_transit":false,"i_long":106.800832,"distance":1230,"line":1},{"station_name":"Tanah Abang","i_long":106.811091,"is_transit":false,"distance":3632,"line":1,"transit":false,"time":8,"i_lat":-6.185545,"station_id":"THB"},{"time":5,"i_lat":-6.20132,"i_long":106.816351,"station_id":"KAT","station_name":"Karet","is_transit":false,"line":1,"transit":false,"distance":2029},{"time":1,"transit":false,"station_name":"Sudirman Baru","distance":471,"i_long":106.819881,"is_transit":false,"i_lat":-6.201433,"station_id":"SUDB","line":1},{"i_lat":-6.202263,"is_transit":false,"time":1,"distance":280,"i_long":106.822649,"transit":false,"line":1,"station_id":"SUD","station_name":"Sudirman"},{"transit":true,"distance":3186,"station_id":"MRI","is_transit":true,"time":4,"i_lat":-6.209883,"line":2,"station_name":"Manggarai","i_long":106.84912},{"station_name":"Cikini","is_transit":false,"station_id":"CKI","time":4,"transit":false,"i_lat":-6.198556,"line":2,"i_long":106.840169,"distance":1590},{"station_name":"Gondangdia","is_transit":false,"distance":1750,"time":3,"station_id":"GDD","i_lat":-6.186295,"line":2,"transit":false,"i_long":106.832183},{"distance":2015,"transit":false,"station_name":"Juanda","i_lat":-6.166716,"time":4,"station_id":"JUA","i_long":106.828284,"is_transit":false,"line":2},{"transit":false,"time":2,"station_name":"Sawah Besar","is_transit":false,"i_long":106.827103,"distance":1149,"i_lat":-6.160725,"station_id":"SW","line":2},{"i_long":106.82482,"i_lat":-6.149769,"transit":false,"station_name":"Manggabesar","distance":906,"line":2,"time":2,"station_id":"MGB","is_transit":false}]]}