{"data":[[{"line":1,"station_name":"Kranji","transit":false,"is_transit":false,"i_lat":-6.224515,"i_long":106.977657,"station_id":"KRI","time":0,"distance":0},{"distance":3097,"transit":false,"i_long":106.951283,"time":3,"station_name":"Cakung","i_lat":-6.219053,"station_id":"CUK","line":1,"is_transit":false},{"transit":false,"line":1,"is_transit":false,"time":8,"station_name":"Klenderbaru","i_lat":-6.217455,"station_id":"KLDB","i_long":106.939679,"distance":1385},{"station_name":"Buaran","time":1,"station_id":"BUA","transit":false,"distance":1305,"i_long":106.922662,"line":1,"is_transit":false,"i_lat":-6.215568},{"distance":3100,"is_transit":false,"transit":false,"i_long":106.899548,"station_id":"KLD","line":1,"station_name":"Klender","time":2,"i_lat":-6.2135},{"station_id":"JNG","i_long":106.86807400000001,"time":3,"is_transit":false,"i_lat":-6.215091,"transit":false,"distance":3395,"station_name":"Jatinegara","line":1},{"transit":false,"time":2,"line":1,"distance":1377,"i_long":106.858896,"station_id":"MTR","is_transit":false,"i_lat":-6.212485,"station_name":"Matraman"},{"station_id":"MRI","transit":false,"i_lat":-6.209883,"time":2,"is_transit":false,"line":2,"distance":1275,"station_name":"Manggarai","i_long":106.84912},{"station_id":"SUD","is_transit":false,"distance":3186,"line":1,"time":4,"transit":false,"station_name":"Sudirman","i_long":106.822649,"i_lat":-6.202263},{"is_transit":false,"time":1,"station_id":"SUDB","i_lat":-6.201433,"i_long":106.819881,"line":1,"station_name":"Sudirman Baru","transit":false,"distance":280}],[{"i_long":106.977657,"is_transit":false,"distance":0,"station_name":"Kranji","time":0,"i_lat":-6.224515,"line":1,"station_id":"KRI","transit":false},{"line":1,"station_id":"CUK","station_name":"Cakung","time":3,"transit":false,"i_long":106.951283,"i_lat":-6.219053,"distance":3097,"is_transit":false},{"line":1,"is_transit":false,"distance":1385,"transit":false,"i_long":106.939679,"station_name":"Klenderbaru","i_lat":-6.217455,"station_id":"KLDB","time":8},{"i_lat":-6.215568,"station_id":"BUA","is_transit":false,"i_long":106.922662,"station_name":"Buaran","time":1,"distance":1305,"line":1,"transit":false},{"is_transit":false,"transit":false,"i_lat":-6.2135,"line":1,"station_id":"KLD","time":2,"station_name":"Klender","i_long":106.899548,"distance":3100},{"line":1,"station_id":"JNG","time":3,"i_long":106.86807400000001,"i_lat":-6.215091,"transit":true,"station_name":"Jatinegara","distance":3395,"is_transit":true},{"station_name":"Pondok Jati","i_lat":-6.209188,"transit":false,"is_transit":false,"station_id":"POK","i_long":106.861737,"line":11,"time":2,"distance":1236},{"station_name":"Kramat","line":11,"transit":false,"is_transit":false,"i_long":106.855437,"i_lat":-6.193792,"distance":1829,"station_id":"KMT","time":2},{"station_name":"Gang Sentiong","distance":973,"i_long":106.850107,"i_lat":-6.185975,"is_transit":false,"station_id":"GST","line":11,"transit":false,"time":1},{"line":11,"station_id":"PSE","time":8,"transit":false,"is_transit":false,"station_name":"Pasar Senen","distance":1567,"i_lat":-6.174784,"i_long":106.84368},{"i_long":106.839204,"line":11,"station_id":"KMO","station_name":"Kemayoran","time":4,"transit":false,"is_transit":false,"distance":1436,"i_lat":-6.161728},{"i_lat":-6.14505,"station_id":"RJW","is_transit":false,"time":5,"station_name":"Rajawali","transit":false,"distance":1901,"i_long":106.836569,"line":11},{"transit":true,"line":4,"station_id":"KPB","i_lat":-6.132549,"station_name":"Kampung Bandan","i_long":106.826365,"time":3,"is_transit":true,"distance":1444},{"station_id":"AK","station_name":"Angke","time":9,"i_lat":-6.144674,"transit":false,"is_transit":false,"i_long":106.79867,"distance":4102,"line":1},{"station_name":"Duri","time":4,"transit":false,"distance":1230,"line":1,"station_id":"DU","is_transit":false,"i_lat":-6.155215,"i_long":106.800832},{"is_transit":false,"time":8,"distance":3632,"station_id":"THB","transit":false,"i_lat":-6.185545,"i_long":106.811091,"line":1,"station_name":"Tanah Abang"},{"station_id":"KAT","time":5,"station_name":"Karet","is_transit":false,"line":1,"distance":2029,"i_long":106.816351,"transit":false,"i_lat":-6.20132},{"line":1,"station_name":"Sudirman Baru","i_lat":-6.201433,"transit":false,"distance":471,"station_id":"SUDB","time":1,"i_long":106.819881,"is_transit":false}],[{"line":1,"is_transit":false,"time":0,"station_id":"KRI","i_long":106.977657,"distance":0,"i_lat":-6.224515,"station_name":"Kranji","transit":false},{"station_id":"CUK","i_long":106.951283,"is_transit":false,"line":1,"distance":3097,"i_lat":-6.219053,"station_name":"Cakung","time":3,"transit":false},{"is_transit":false,"transit":false,"i_long":106.939679,"station_name":"Klenderbaru","station_id":"KLDB","time":8,"line":1,"distance":1385,"i_lat":-6.217455},{"is_transit":false,"distance":1305,"station_id":"BUA","line":1,"i_lat":-6.215568,"time":1,"transit":false,"i_long":106.922662,"station_name":"Buaran"},{"time":2,"station_id":"KLD","is_transit":false,"line":1,"station_name":"Klender","distance":3100,"i_long":106.899548,"i_lat":-6.2135,"transit":false},{"i_lat":-6.215091,"line":1,"is_transit":false,"station_id":"JNG","i_long":106.86807400000001,"station_name":"Jatinegara","transit":false,"time":3,"distance":3395},{"distance":1377,"station_name":"Matraman","i_long":106.858896,"is_transit":false,"time":2,"transit":false,"station_id":"MTR","line":1,"i_lat":-6.212485},{"time":2,"transit":true,"distance":1275,"station_id":"MRI","line":2,"i_long":106.84912,"station_name":"Manggarai","i_lat":-6.209883,"is_transit":true},{"time":4,"transit":false,"distance":1590,"line":2,"station_name":"Cikini","is_transit":false,"i_long":106.840169,"i_lat":-6.198556,"station_id":"CKI"},{"is_transit":false,"transit":false,"line":2,"i_lat":-6.186295,"station_id":"GDD","distance":1750,"station_name":"Gondangdia","i_long":106.832183,"time":3},{"station_name":"Juanda","is_transit":false,"transit":false,"station_id":"JUA","time":4,"i_long":106.828284,"i_lat":-6.166716,"line":2,"distance":2015},{"time":2,"station_id":"SW","i_lat":-6.160725,"station_name":"Sawah Besar","i_long":106.827103,"is_transit":false,"transit":false,"line":2,"distance":1149},{"time":2,"distance":906,"station_id":"MGB","transit":false,"i_long":106.82482,"line":2,"station_name":"Manggabesar","i_lat":-6.149769,"is_transit":false},{"transit":false,"i_lat":-6.141205,"time":2,"is_transit":false,"distance":1080,"station_id":"JAY","line":2,"i_long":106.820901,"station_name":"Jayakarta"},{"transit":true,"station_name":"Jakarta Kota","time":4,"station_id":"JAKK","distance":1264,"is_transit":true,"i_long":106.812439,"i_lat":-6.137569,"line":2},{"line":4,"time":3,"i_lat":-6.132549,"distance":1364,"is_transit":true,"transit":true,"station_id":"KPB","i_long":106.826365,"station_name":"Kampung Bandan"},{"is_transit":false,"time":9,"station_name":"Angke","transit":false,"i_long":106.79867,"i_lat":-6.144674,"station_id":"AK","distance":4102,"line":1},{"time":4,"is_transit":false,"line":1,"i_long":106.800832,"station_id":"DU","distance":1230,"transit":false,"station_name":"Duri","i_lat":-6.155215},{"distance":3632,"i_long":106.811091,"station_name":"Tanah Abang","station_id":"THB","i_lat":-6.185545,"transit":false,"line":1,"is_transit":false,"time":8},{"i_long":106.816351,"distance":2029,"line":1,"is_transit":false,"station_id":"KAT","time":5,"i_lat":-6.20132,"station_name":"Karet","transit":false},{"i_long":106.819881,"is_transit":false,"i_lat":-6.201433,"distance":471,"line":1,"transit":false,"time":1,"station_id":"SUDB","station_name":"Sudirman Baru"}],[{"is_transit":false,"i_lat":-6.224515,"i_long":106.977657,"time":0,"station_id":"KRI","line":1,"distance":0,"station_name":"Kranji","transit":false},{"is_transit":false,"i_long":106.951283,"time":3,"distance":3097,"station_id":"CUK","station_name":"Cakung","transit":false,"line":1,"i_lat":-6.219053},{"i_lat":-6.217455,"time":8,"transit":false,"station_id":"KLDB","is_transit":false,"station_name":"Klenderbaru","distance":1385,"i_long":106.939679,"line":1},{"time":1,"station_id":"BUA","distance":1305,"i_lat":-6.215568,"is_transit":false,"i_long":106.922662,"station_name":"Buaran","transit":false,"line":1},{"station_id":"KLD","distance":3100,"time":2,"line":1,"is_transit":false,"station_name":"Klender","i_lat":-6.2135,"transit":false,"i_long":106.899548},{"line":1,"station_name":"Jatinegara","transit":true,"station_id":"JNG","i_lat":-6.215091,"i_long":106.86807400000001,"distance":3395,"time":3,"is_transit":true},{"i_lat":-6.209188,"distance":1236,"station_id":"POK","station_name":"Pondok Jati","time":2,"i_long":106.861737,"line":11,"transit":false,"is_transit":false},{"is_transit":false,"transit":false,"time":2,"i_lat":-6.193792,"station_id":"KMT","distance":1829,"i_long":106.855437,"station_name":"Kramat","line":11},{"station_id":"GST","distance":973,"i_lat":-6.185975,"is_transit":false,"i_long":106.850107,"line":11,"time":1,"station_name":"Gang Sentiong","transit":false},{"station_id":"PSE","transit":false,"is_transit":false,"distance":1567,"i_lat":-6.174784,"station_name":"Pasar Senen","i_long":106.84368,"line":11,"time":8},{"is_transit":false,"i_lat":-6.161728,"transit":false,"distance":1436,"station_name":"Kemayoran","time":4,"i_long":106.839204,"line":11,"station_id":"KMO"},{"i_lat":-6.14505,"i_long":106.836569,"distance":1901,"station_id":"RJW","is_transit":false,"time":5,"station_name":"Rajawali","line":11,"transit":false},{"i_long":106.826365,"distance":1444,"line":4,"is_transit":true,"station_id":"KPB","i_lat":-6.132549,"station_name":"Kampung Bandan","time":3,"transit":true},{"distance":1364,"time":3,"station_id":"JAKK","i_lat":-6.137569,"transit":true,"is_transit":true,"line":2,"station_name":"Jakarta Kota","i_long":106.812439},{"i_long":106.820901,"line":2,"station_name":"Jayakarta","station_id":"JAY","time":4,"transit":false,"is_transit":false,"distance":1264,"i_lat":-6.141205},{"i_lat":-6.149769,"time":2,"distance":1080,"line":2,"station_name":"Manggabesar","is_transit":false,"i_long":106.82482,"transit":false,"station_id":"MGB"},{"i_long":106.827103,"line":2,"is_transit":false,"station_name":"Sawah Besar","transit":false,"distance":906,"station_id":"SW","i_lat":-6.160725,"time":2},{"line":2,"transit":false,"is_transit":false,"distance":1149,"i_lat":-6.166716,"time":2,"i_long":106.828284,"station_id":"JUA","station_name":"Juanda"},{"distance":2015,"i_long":106.832183,"transit":false,"line":2,"i_lat":-6.186295,"time":4,"station_name":"Gondangdia","station_id":"GDD","is_transit":false},{"i_lat":-6.198556,"time":3,"is_transit":false,"i_long":106.840169,"line":2,"station_name":"Cikini","station_id":"CKI","transit":false,"distance":1750},{"transit":true,"time":4,"is_transit":true,"station_id":"MRI","distance":1590,"i_lat":-6.209883,"station_name":"Manggarai","i_long":106.84912,"line":2},{"i_lat":-6.202263,"i_long":106.822649,"time":4,"station_id":"SUD","line":1,"is_transit":false,"transit":false,"station_name":"Sudirman","distance":3186},{"station_id":"SUDB","time":1,"distance":280,"line":1,"transit":false,"i_long":106.819881,"i_lat":-6.201433,"station_name":"Sudirman Baru","is_transit":false}]]}