{"data":[[{"is_transit":false,"time":0,"i_long":106.977657,"station_id":"KRI","line":1,"transit":false,"station_name":"Kranji","i_lat":-6.224515,"distance":0},{"time":3,"i_lat":-6.219053,"i_long":106.951283,"station_name":"Cakung","is_transit":false,"line":0,"distance":3097,"station_id":"CUK","transit":false},{"station_name":"Klenderbaru","i_long":106.939679,"line":1,"time":8,"transit":false,"station_id":"KLDB","is_transit":false,"distance":1385,"i_lat":-6.217455},{"is_transit":false,"time":1,"distance":1305,"transit":false,"i_long":106.922662,"line":0,"station_id":"BUA","i_lat":-6.215568,"station_name":"Buaran"},{"transit":false,"i_long":106.899548,"distance":3100,"is_transit":false,"station_id":"KLD","station_name":"Klender","line":1,"time":2,"i_lat":-6.2135},{"time":3,"line":0,"distance":3395,"station_id":"JNG","i_lat":-6.215091,"i_long":106.86807400000001,"transit":false,"is_transit":true,"station_name":"Jatinegara"},{"is_transit":false,"station_name":"Matraman","line":1,"i_long":106.858896,"i_lat":-6.212485,"station_id":"MTR","transit":false,"distance":1377,"time":2},{"station_id":"MRI","line":0,"time":2,"is_transit":true,"i_lat":-6.209883,"distance":1275,"i_long":106.84912,"station_name":"Manggarai","transit":false},{"i_long":106.822649,"transit":false,"station_id":"SUD","time":4,"is_transit":false,"line":1,"station_name":"Sudirman","distance":3186,"i_lat":-6.202263},{"transit":false,"distance":280,"is_transit":false,"i_long":106.819881,"line":1,"station_id":"SUDB","time":1,"i_lat":-6.201433,"station_name":"Sudirman Baru"},{"transit":false,"station_name":"Karet","is_transit":false,"time":1,"i_lat":-6.20132,"i_long":106.816351,"station_id":"KAT","line":1,"distance":471},{"time":5,"distance":2029,"station_id":"THB","is_transit":true,"station_name":"Tanah Abang","transit":true,"i_lat":-6.185545,"i_long":106.811091,"line":1},{"i_long":106.79689,"distance":3191,"line":6,"i_lat":-6.207404,"time":6,"station_id":"PLM","is_transit":false,"transit":false,"station_name":"Palmerah"},{"transit":false,"i_long":106.780334,"line":6,"station_name":"Kebayoran","station_id":"KBY","distance":3737,"i_lat":-6.237242,"time":7,"is_transit":false},{"i_long":106.74273,"i_lat":-6.276362,"line":6,"is_transit":false,"time":8,"station_name":"Pondokranji","station_id":"PDJ","distance":6218,"transit":false}],[{"station_name":"Kranji","distance":0,"i_lat":-6.224515,"transit":false,"time":0,"line":1,"station_id":"KRI","is_transit":false,"i_long":106.977657},{"distance":3097,"i_long":106.951283,"station_id":"CUK","i_lat":-6.219053,"transit":false,"is_transit":false,"line":0,"time":3,"station_name":"Cakung"},{"line":1,"i_lat":-6.217455,"i_long":106.939679,"station_id":"KLDB","is_transit":false,"time":8,"distance":1385,"station_name":"Klenderbaru","transit":false},{"station_id":"BUA","station_name":"Buaran","i_lat":-6.215568,"line":0,"i_long":106.922662,"is_transit":false,"time":1,"distance":1305,"transit":false},{"distance":3100,"i_lat":-6.2135,"station_name":"Klender","transit":false,"station_id":"KLD","time":2,"i_long":106.899548,"line":1,"is_transit":false},{"i_lat":-6.215091,"i_long":106.86807400000001,"distance":3395,"is_transit":true,"time":3,"line":0,"station_id":"JNG","station_name":"Jatinegara","transit":true},{"distance":1236,"station_name":"Pondok Jati","transit":false,"i_lat":-6.209188,"line":11,"station_id":"POK","i_long":106.861737,"is_transit":false,"time":2},{"is_transit":false,"transit":false,"i_lat":-6.193792,"time":2,"line":11,"station_id":"KMT","station_name":"Kramat","i_long":106.855437,"distance":1829},{"line":11,"station_id":"GST","time":1,"i_long":106.850107,"is_transit":false,"station_name":"Gang Sentiong","i_lat":-6.185975,"distance":973,"transit":false},{"transit":false,"time":8,"i_long":106.84368,"line":11,"is_transit":false,"distance":1567,"station_name":"Pasar Senen","i_lat":-6.174784,"station_id":"PSE"},{"line":11,"station_id":"KMO","distance":1436,"time":4,"i_lat":-6.161728,"i_long":106.839204,"transit":false,"station_name":"Kemayoran","is_transit":false},{"i_long":106.836569,"station_id":"RJW","station_name":"Rajawali","time":5,"distance":1901,"transit":false,"line":11,"is_transit":false,"i_lat":-6.14505},{"station_id":"KPB","i_long":106.826365,"distance":1444,"i_lat":-6.132549,"is_transit":true,"transit":true,"time":3,"line":0,"station_name":"Kampung Bandan"},{"is_transit":false,"station_id":"AK","time":9,"station_name":"Angke","transit":false,"distance":4102,"i_lat":-6.144674,"i_long":106.79867,"line":0},{"i_lat":-6.155215,"line":1,"transit":true,"is_transit":true,"time":4,"distance":1230,"station_id":"DU","station_name":"Duri","i_long":106.800832},{"line":1,"station_name":"Tanah Abang","is_transit":true,"i_long":106.811091,"time":8,"station_id":"THB","i_lat":-6.185545,"transit":true,"distance":3632},{"station_name":"Palmerah","transit":false,"i_long":106.79689,"is_transit":false,"distance":3191,"time":6,"i_lat":-6.207404,"station_id":"PLM","line":6},{"is_transit":false,"station_name":"Kebayoran","transit":false,"i_lat":-6.237242,"i_long":106.780334,"station_id":"KBY","line":6,"time":7,"distance":3737},{"line":6,"station_id":"PDJ","is_transit":false,"i_long":106.74273,"distance":6218,"transit":false,"i_lat":-6.276362,"time":8,"station_name":"Pondokranji"}],[{"i_lat":-6.224515,"i_long":106.977657,"is_transit":false,"station_id":"KRI","station_name":"Kranji","line":1,"time":0,"transit":false,"distance":0},{"station_id":"CUK","distance":3097,"i_lat":-6.219053,"is_transit":false,"time":3,"i_long":106.951283,"transit":false,"line":0,"station_name":"Cakung"},{"time":8,"distance":1385,"station_name":"Klenderbaru","transit":false,"i_long":106.939679,"line":1,"i_lat":-6.217455,"is_transit":false,"station_id":"KLDB"},{"transit":false,"i_long":106.922662,"line":0,"is_transit":false,"i_lat":-6.215568,"station_id":"BUA","station_name":"Buaran","time":1,"distance":1305},{"line":1,"is_transit":false,"i_long":106.899548,"transit":false,"time":2,"station_id":"KLD","station_name":"Klender","distance":3100,"i_lat":-6.2135},{"station_id":"JNG","line":0,"is_transit":true,"i_lat":-6.215091,"i_long":106.86807400000001,"transit":false,"distance":3395,"station_name":"Jatinegara","time":3},{"distance":1377,"i_long":106.858896,"time":2,"station_id":"MTR","station_name":"Matraman","transit":false,"i_lat":-6.212485,"is_transit":false,"line":1},{"transit":true,"is_transit":true,"time":2,"station_name":"Manggarai","distance":1275,"i_lat":-6.209883,"line":0,"station_id":"MRI","i_long":106.84912},{"time":4,"is_transit":false,"transit":false,"distance":1590,"station_name":"Cikini","i_long":106.840169,"line":0,"i_lat":-6.198556,"station_id":"CKI"},{"i_long":106.832183,"is_transit":false,"line":2,"transit":false,"station_id":"GDD","station_name":"Gondangdia","time":3,"i_lat":-6.186295,"distance":1750},{"is_transit":false,"distance":2015,"line":2,"i_long":106.828284,"transit":false,"i_lat":-6.166716,"station_id":"JUA","time":4,"station_name":"Juanda"},{"distance":1149,"time":2,"is_transit":false,"station_name":"Sawah Besar","i_long":106.827103,"station_id":"SW","i_lat":-6.160725,"transit":false,"line":2},{"i_long":106.82482,"station_id":"MGB","time":2,"distance":906,"is_transit":false,"transit":false,"line":2,"station_name":"Manggabesar","i_lat":-6.149769},{"line":7,"i_long":106.820901,"is_transit":false,"i_lat":-6.141205,"transit":false,"station_id":"JAY","time":2,"distance":1080,"station_name":"Jayakarta"},{"station_id":"JAKK","i_lat":-6.137569,"distance":1264,"transit":true,"line":0,"i_long":106.812439,"is_transit":true,"time":4,"station_name":"Jakarta Kota"},{"i_long":106.826365,"i_lat":-6.132549,"time":3,"line":0,"station_id":"KPB","transit":false,"distance":1364,"station_name":"Kampung Bandan","is_transit":true},{"is_transit":false,"transit":false,"station_id":"AK","distance":4102,"time":9,"i_long":106.79867,"i_lat":-6.144674,"station_name":"Angke","line":0},{"station_id":"DU","station_name":"Duri","i_lat":-6.155215,"i_long":106.800832,"line":1,"transit":true,"is_transit":true,"time":4,"distance":1230},{"transit":true,"i_long":106.811091,"line":1,"distance":3632,"station_id":"THB","station_name":"Tanah Abang","i_lat":-6.185545,"time":8,"is_transit":true},{"time":6,"line":6,"is_transit":false,"transit":false,"distance":3191,"i_long":106.79689,"station_id":"PLM","i_lat":-6.207404,"station_name":"Palmerah"},{"i_lat":-6.237242,"transit":false,"distance":3737,"is_transit":false,"time":7,"station_id":"KBY","station_name":"Kebayoran","i_long":106.780334,"line":6},{"transit":false,"i_lat":-6.276362,"i_long":106.74273,"distance":6218,"station_id":"PDJ","line":6,"station_name":"Pondokranji","is_transit":false,"time":8}],[{"transit":false,"station_id":"KRI","is_transit":false,"time":0,"i_long":106.977657,"station_name":"Kranji","line":1,"distance":0,"i_lat":-6.224515},{"transit":false,"i_long":106.951283,"station_id":"CUK","time":3,"station_name":"Cakung","is_transit":false,"i_lat":-6.219053,"distance":3097,"line":0},{"distance":1385,"station_id":"KLDB","station_name":"Klenderbaru","i_long":106.939679,"time":8,"i_lat":-6.217455,"line":1,"transit":false,"is_transit":false},{"i_lat":-6.215568,"is_transit":false,"distance":1305,"transit":false,"i_long":106.922662,"line":0,"station_name":"Buaran","time":1,"station_id":"BUA"},{"i_lat":-6.2135,"distance":3100,"time":2,"station_name":"Klender","transit":false,"line":1,"station_id":"KLD","is_transit":false,"i_long":106.899548},{"is_transit":true,"station_name":"Jatinegara","time":3,"distance":3395,"i_lat":-6.215091,"line":0,"station_id":"JNG","i_long":106.86807400000001,"transit":true},{"transit":false,"i_lat":-6.209188,"i_long":106.861737,"station_id":"POK","is_transit":false,"time":2,"station_name":"Pondok Jati","line":11,"distance":1236},{"line":11,"i_long":106.855437,"station_id":"KMT","distance":1829,"station_name":"Kramat","transit":false,"time":2,"is_transit":false,"i_lat":-6.193792},{"transit":false,"station_name":"Gang Sentiong","i_long":106.850107,"station_id":"GST","i_lat":-6.185975,"is_transit":false,"distance":973,"line":11,"time":1},{"transit":false,"i_long":106.84368,"is_transit":false,"station_id":"PSE","i_lat":-6.174784,"station_name":"Pasar Senen","line":11,"time":8,"distance":1567},{"distance":1436,"i_lat":-6.161728,"is_transit":false,"transit":false,"line":11,"station_id":"KMO","time":4,"station_name":"Kemayoran","i_long":106.839204},{"station_name":"Rajawali","is_transit":false,"time":5,"transit":false,"i_long":106.836569,"line":11,"station_id":"RJW","distance":1901,"i_lat":-6.14505},{"is_transit":true,"transit":true,"station_name":"Kampung Bandan","line":0,"distance":1444,"i_long":106.826365,"time":3,"station_id":"KPB","i_lat":-6.132549},{"time":3,"distance":1364,"line":0,"is_transit":true,"station_id":"JAKK","transit":true,"station_name":"Jakarta Kota","i_lat":-6.137569,"i_long":106.812439},{"distance":1264,"station_id":"JAY","i_lat":-6.141205,"is_transit":false,"transit":false,"i_long":106.820901,"time":4,"line":7,"station_name":"Jayakarta"},{"time":2,"station_name":"Manggabesar","is_transit":false,"distance":1080,"line":2,"transit":false,"i_lat":-6.149769,"i_long":106.82482,"station_id":"MGB"},{"transit":false,"line":2,"i_long":106.827103,"time":2,"i_lat":-6.160725,"station_name":"Sawah Besar","is_transit":false,"station_id":"SW","distance":906},{"is_transit":false,"distance":1149,"station_id":"JUA","i_lat":-6.166716,"transit":false,"i_long":106.828284,"time":2,"line":2,"station_name":"Juanda"},{"distance":2015,"time":4,"station_id":"GDD","i_lat":-6.186295,"transit":false,"i_long":106.832183,"line":2,"is_transit":false,"station_name":"Gondangdia"},{"is_transit":false,"distance":1750,"station_name":"Cikini","time":3,"transit":false,"station_id":"CKI","line":0,"i_lat":-6.198556,"i_long":106.840169},{"line":0,"i_long":106.84912,"distance":1590,"transit":true,"time":4,"is_transit":true,"station_name":"Manggarai","i_lat":-6.209883,"station_id":"MRI"},{"transit":false,"i_long":106.822649,"time":4,"is_transit":false,"station_id":"SUD","distance":3186,"i_lat":-6.202263,"line":1,"station_name":"Sudirman"},{"transit":false,"i_lat":-6.201433,"is_transit":false,"distance":280,"station_id":"SUDB","i_long":106.819881,"station_name":"Sudirman Baru","time":1,"line":1},{"distance":471,"transit":false,"station_id":"KAT","i_long":106.816351,"is_transit":false,"line":1,"i_lat":-6.20132,"time":1,"station_name":"Karet"},{"line":1,"station_name":"Tanah Abang","distance":2029,"is_transit":true,"station_id":"THB","transit":true,"i_lat":-6.185545,"time":5,"i_long":106.811091},{"i_long":106.79689,"i_lat":-6.207404,"station_id":"PLM","station_name":"Palmerah","is_transit":false,"transit":false,"line":6,"time":6,"distance":3191},{"distance":3737,"station_name":"Kebayoran","i_lat":-6.237242,"station_id":"KBY","time":7,"is_transit":false,"transit":false,"i_long":106.780334,"line":6},{"i_long":106.74273,"i_lat":-6.276362,"line":6,"station_id":"PDJ","station_name":"Pondokranji","time":8,"transit":false,"distance":6218,"is_transit":false}]]}