{"data":[[{"time":0,"distance":0,"i_lat":-6.224515,"line":1,"station_id":"KRI","station_name":"Kranji","is_transit":false,"transit":false,"i_long":106.977657},{"time":3,"station_id":"CUK","line":1,"i_long":106.951283,"transit":false,"is_transit":false,"distance":3097,"station_name":"Cakung","i_lat":-6.219053},{"station_name":"Klenderbaru","time":8,"station_id":"KLDB","line":1,"i_long":106.939679,"transit":false,"is_transit":false,"distance":1385,"i_lat":-6.217455},{"time":1,"is_transit":false,"i_lat":-6.215568,"transit":false,"station_id":"BUA","station_name":"Buaran","distance":1305,"line":1,"i_long":106.922662},{"i_long":106.899548,"station_name":"Klender","time":2,"line":1,"station_id":"KLD","i_lat":-6.2135,"transit":false,"is_transit":false,"distance":3100},{"station_id":"JNG","station_name":"Jatinegara","transit":false,"i_long":106.86807400000001,"distance":3395,"is_transit":false,"i_lat":-6.215091,"line":1,"time":3},{"station_id":"MTR","i_lat":-6.212485,"line":1,"transit":false,"is_transit":false,"i_long":106.858896,"distance":1377,"time":2,"station_name":"Matraman"},{"distance":1275,"time":2,"is_transit":true,"i_long":106.84912,"i_lat":-6.209883,"line":2,"transit":true,"station_id":"MRI","station_name":"Manggarai"},{"time":4,"station_id":"TEB","distance":2610,"station_name":"Tebet","is_transit":false,"i_long":106.857948,"line":2,"i_lat":-6.226659,"transit":false},{"line":2,"time":2,"station_name":"Cawang","station_id":"CW","distance":1230,"is_transit":false,"transit":false,"i_lat":-6.242512,"i_long":106.856607},{"i_long":106.85449,"distance":1546,"transit":false,"i_lat":-6.255332,"line":2,"station_name":"Duren Kalibata","time":3,"station_id":"DRN","is_transit":false},{"time":2,"i_lat":-6.263214,"station_name":"Pasar Minggu Baru","is_transit":false,"transit":false,"line":2,"i_long":106.851577,"distance":824,"station_id":"PSMB"},{"station_id":"PSM","is_transit":false,"i_lat":-6.2842400000000005,"i_long":106.843999,"transit":false,"station_name":"Pasar Minggu","line":2,"time":2,"distance":2380},{"station_id":"TNT","time":4,"transit":false,"i_long":106.838896,"is_transit":false,"line":2,"station_name":"Tanjung Barat","distance":2820,"i_lat":-6.3080680000000005},{"time":3,"distance":2671,"station_id":"LNA","i_long":106.832616,"station_name":"Lenteng Agung","line":2,"is_transit":false,"transit":false,"i_lat":-6.330363},{"distance":1029,"is_transit":false,"station_id":"UP","line":2,"i_long":106.834175,"i_lat":-6.339291,"station_name":"Univ. Pancasila","time":2,"transit":false},{"line":2,"distance":2264,"station_name":"Univ. Indonesia","transit":false,"i_lat":-6.360749,"station_id":"UI","is_transit":false,"i_long":106.831474,"time":3},{"transit":false,"station_name":"Pondok Cina","time":2,"station_id":"POC","distance":1109,"i_long":106.831114,"line":2,"i_lat":-6.369073,"is_transit":false},{"is_transit":false,"transit":false,"station_name":"Depokbaru","station_id":"DPB","i_lat":-6.391065,"i_long":106.819451,"line":2,"distance":2727,"time":4},{"transit":false,"time":3,"station_name":"Depok","i_long":106.816926,"station_id":"DP","distance":1584,"is_transit":false,"i_lat":-6.405256,"line":2},{"time":6,"is_transit":true,"line":2,"i_long":106.800298,"station_id":"CTA","transit":true,"distance":5084,"station_name":"Citayam","i_lat":-6.448811},{"distance":0,"station_id":"PDRG","i_lat":-6.460735,"line":21,"transit":false,"time":0,"is_transit":false,"i_long":106.824374,"station_name":"Pondok Rajeg"}],[{"i_lat":-6.224515,"station_name":"Kranji","station_id":"KRI","transit":false,"line":1,"distance":0,"i_long":106.977657,"time":0,"is_transit":false},{"line":1,"station_name":"Cakung","i_lat":-6.219053,"station_id":"CUK","distance":3097,"i_long":106.951283,"time":3,"is_transit":false,"transit":false},{"time":8,"i_long":106.939679,"distance":1385,"is_transit":false,"station_name":"Klenderbaru","station_id":"KLDB","line":1,"i_lat":-6.217455,"transit":false},{"i_long":106.922662,"time":1,"line":1,"is_transit":false,"station_name":"Buaran","distance":1305,"station_id":"BUA","i_lat":-6.215568,"transit":false},{"distance":3100,"is_transit":false,"transit":false,"station_name":"Klender","station_id":"KLD","i_long":106.899548,"i_lat":-6.2135,"line":1,"time":2},{"i_long":106.86807400000001,"distance":3395,"station_id":"JNG","transit":true,"line":1,"time":3,"i_lat":-6.215091,"station_name":"Jatinegara","is_transit":true},{"is_transit":false,"station_name":"Pondok Jati","station_id":"POK","i_lat":-6.209188,"distance":1236,"transit":false,"i_long":106.861737,"line":11,"time":2},{"i_lat":-6.193792,"line":11,"station_id":"KMT","is_transit":false,"transit":false,"i_long":106.855437,"station_name":"Kramat","distance":1829,"time":2},{"is_transit":false,"line":11,"station_id":"GST","transit":false,"station_name":"Gang Sentiong","time":1,"distance":973,"i_lat":-6.185975,"i_long":106.850107},{"station_id":"PSE","is_transit":false,"time":8,"i_lat":-6.174784,"transit":false,"line":11,"i_long":106.84368,"distance":1567,"station_name":"Pasar Senen"},{"i_lat":-6.161728,"line":11,"time":4,"distance":1436,"station_name":"Kemayoran","transit":false,"i_long":106.839204,"station_id":"KMO","is_transit":false},{"station_name":"Rajawali","station_id":"RJW","line":11,"i_lat":-6.14505,"i_long":106.836569,"transit":false,"distance":1901,"time":5,"is_transit":false},{"transit":true,"i_long":106.826365,"is_transit":true,"i_lat":-6.132549,"line":4,"time":3,"station_name":"Kampung Bandan","distance":1444,"station_id":"KPB"},{"station_id":"AK","i_lat":-6.144674,"transit":false,"station_name":"Angke","distance":4102,"time":9,"i_long":106.79867,"line":1,"is_transit":false},{"time":4,"distance":1230,"is_transit":false,"transit":false,"station_name":"Duri","i_long":106.800832,"i_lat":-6.155215,"station_id":"DU","line":1},{"station_name":"Tanah Abang","time":8,"distance":3632,"transit":false,"i_lat":-6.185545,"station_id":"THB","is_transit":false,"i_long":106.811091,"line":1},{"station_name":"Karet","i_long":106.816351,"is_transit":false,"transit":false,"distance":2029,"time":5,"station_id":"KAT","i_lat":-6.20132,"line":1},{"station_name":"Sudirman Baru","is_transit":false,"time":1,"station_id":"SUDB","i_long":106.819881,"line":1,"i_lat":-6.201433,"distance":471,"transit":false},{"distance":280,"time":1,"i_long":106.822649,"is_transit":false,"station_id":"SUD","transit":false,"line":1,"station_name":"Sudirman","i_lat":-6.202263},{"station_name":"Manggarai","i_lat":-6.209883,"distance":3186,"station_id":"MRI","time":4,"transit":true,"is_transit":true,"i_long":106.84912,"line":2},{"i_long":106.857948,"station_name":"Tebet","time":4,"station_id":"TEB","line":2,"distance":2610,"is_transit":false,"transit":false,"i_lat":-6.226659},{"transit":false,"station_id":"CW","i_lat":-6.242512,"line":2,"distance":1230,"is_transit":false,"station_name":"Cawang","time":2,"i_long":106.856607},{"time":3,"transit":false,"is_transit":false,"station_id":"DRN","i_long":106.85449,"distance":1546,"station_name":"Duren Kalibata","line":2,"i_lat":-6.255332},{"is_transit":false,"distance":824,"station_id":"PSMB","time":2,"i_lat":-6.263214,"line":2,"transit":false,"station_name":"Pasar Minggu Baru","i_long":106.851577},{"transit":false,"i_lat":-6.2842400000000005,"time":2,"is_transit":false,"distance":2380,"station_id":"PSM","i_long":106.843999,"line":2,"station_name":"Pasar Minggu"},{"distance":2820,"station_id":"TNT","i_long":106.838896,"station_name":"Tanjung Barat","time":4,"is_transit":false,"transit":false,"i_lat":-6.3080680000000005,"line":2},{"i_lat":-6.330363,"station_name":"Lenteng Agung","distance":2671,"station_id":"LNA","i_long":106.832616,"line":2,"time":3,"transit":false,"is_transit":false},{"time":2,"station_id":"UP","transit":false,"line":2,"i_lat":-6.339291,"distance":1029,"station_name":"Univ. Pancasila","is_transit":false,"i_long":106.834175},{"station_id":"UI","time":3,"distance":2264,"station_name":"Univ. Indonesia","i_long":106.831474,"i_lat":-6.360749,"line":2,"is_transit":false,"transit":false},{"time":2,"is_transit":false,"i_lat":-6.369073,"transit":false,"station_id":"POC","station_name":"Pondok Cina","distance":1109,"i_long":106.831114,"line":2},{"i_long":106.819451,"line":2,"distance":2727,"time":4,"i_lat":-6.391065,"transit":false,"station_id":"DPB","station_name":"Depokbaru","is_transit":false},{"i_long":106.816926,"time":3,"distance":1584,"station_id":"DP","line":2,"is_transit":false,"i_lat":-6.405256,"station_name":"Depok","transit":false},{"transit":true,"station_id":"CTA","i_lat":-6.448811,"station_name":"Citayam","i_long":106.800298,"is_transit":true,"line":2,"distance":5084,"time":6},{"distance":0,"time":0,"i_long":106.824374,"line":21,"i_lat":-6.460735,"is_transit":false,"station_name":"Pondok Rajeg","transit":false,"station_id":"PDRG"}],[{"station_id":"KRI","line":1,"is_transit":false,"i_lat":-6.224515,"distance":0,"i_long":106.977657,"time":0,"station_name":"Kranji","transit":false},{"transit":false,"line":1,"distance":3097,"time":3,"i_long":106.951283,"station_name":"Cakung","is_transit":false,"station_id":"CUK","i_lat":-6.219053},{"i_lat":-6.217455,"time":8,"transit":false,"line":1,"is_transit":false,"station_name":"Klenderbaru","i_long":106.939679,"distance":1385,"station_id":"KLDB"},{"station_name":"Buaran","is_transit":false,"time":1,"transit":false,"station_id":"BUA","i_lat":-6.215568,"i_long":106.922662,"distance":1305,"line":1},{"line":1,"is_transit":false,"i_lat":-6.2135,"station_name":"Klender","distance":3100,"time":2,"transit":false,"station_id":"KLD","i_long":106.899548},{"line":1,"time":3,"transit":true,"is_transit":true,"station_id":"JNG","station_name":"Jatinegara","distance":3395,"i_long":106.86807400000001,"i_lat":-6.215091},{"i_long":106.861737,"time":2,"distance":1236,"is_transit":false,"transit":false,"station_name":"Pondok Jati","line":11,"station_id":"POK","i_lat":-6.209188},{"is_transit":false,"i_lat":-6.193792,"distance":1829,"transit":false,"line":11,"time":2,"station_name":"Kramat","i_long":106.855437,"station_id":"KMT"},{"i_long":106.850107,"station_id":"GST","station_name":"Gang Sentiong","distance":973,"is_transit":false,"i_lat":-6.185975,"transit":false,"time":1,"line":11},{"transit":false,"station_name":"Pasar Senen","time":8,"i_lat":-6.174784,"station_id":"PSE","i_long":106.84368,"is_transit":false,"line":11,"distance":1567},{"i_lat":-6.161728,"transit":false,"station_name":"Kemayoran","time":4,"is_transit":false,"line":11,"station_id":"KMO","i_long":106.839204,"distance":1436},{"time":5,"line":11,"i_lat":-6.14505,"station_id":"RJW","station_name":"Rajawali","distance":1901,"transit":false,"is_transit":false,"i_long":106.836569},{"line":4,"is_transit":true,"distance":1444,"station_id":"KPB","time":3,"transit":true,"station_name":"Kampung Bandan","i_lat":-6.132549,"i_long":106.826365},{"distance":1364,"line":2,"time":3,"transit":true,"station_id":"JAKK","station_name":"Jakarta Kota","is_transit":true,"i_lat":-6.137569,"i_long":106.812439},{"station_name":"Jayakarta","time":4,"is_transit":false,"distance":1264,"station_id":"JAY","i_long":106.820901,"i_lat":-6.141205,"transit":false,"line":2},{"is_transit":false,"time":2,"distance":1080,"station_name":"Manggabesar","i_lat":-6.149769,"i_long":106.82482,"line":2,"transit":false,"station_id":"MGB"},{"i_lat":-6.160725,"station_name":"Sawah Besar","station_id":"SW","line":2,"distance":906,"time":2,"is_transit":false,"i_long":106.827103,"transit":false},{"is_transit":false,"i_lat":-6.166716,"i_long":106.828284,"line":2,"time":2,"station_id":"JUA","distance":1149,"station_name":"Juanda","transit":false},{"transit":false,"i_lat":-6.186295,"is_transit":false,"i_long":106.832183,"station_id":"GDD","station_name":"Gondangdia","line":2,"time":4,"distance":2015},{"i_long":106.840169,"station_id":"CKI","transit":false,"line":2,"station_name":"Cikini","is_transit":false,"distance":1750,"time":3,"i_lat":-6.198556},{"i_lat":-6.209883,"transit":false,"station_name":"Manggarai","i_long":106.84912,"distance":1590,"time":4,"is_transit":false,"line":2,"station_id":"MRI"},{"transit":false,"line":2,"station_id":"TEB","is_transit":false,"distance":2610,"station_name":"Tebet","i_lat":-6.226659,"i_long":106.857948,"time":4},{"time":2,"is_transit":false,"station_name":"Cawang","station_id":"CW","line":2,"i_lat":-6.242512,"i_long":106.856607,"distance":1230,"transit":false},{"station_name":"Duren Kalibata","i_long":106.85449,"distance":1546,"is_transit":false,"time":3,"transit":false,"line":2,"station_id":"DRN","i_lat":-6.255332},{"is_transit":false,"line":2,"distance":824,"transit":false,"i_lat":-6.263214,"station_id":"PSMB","time":2,"i_long":106.851577,"station_name":"Pasar Minggu Baru"},{"station_name":"Pasar Minggu","station_id":"PSM","i_long":106.843999,"i_lat":-6.2842400000000005,"distance":2380,"line":2,"is_transit":false,"time":2,"transit":false},{"station_id":"TNT","i_long":106.838896,"line":2,"is_transit":false,"station_name":"Tanjung Barat","time":4,"transit":false,"distance":2820,"i_lat":-6.3080680000000005},{"transit":false,"distance":2671,"is_transit":false,"i_lat":-6.330363,"i_long":106.832616,"line":2,"station_id":"LNA","station_name":"Lenteng Agung","time":3},{"i_long":106.834175,"time":2,"line":2,"station_name":"Univ. Pancasila","i_lat":-6.339291,"station_id":"UP","transit":false,"distance":1029,"is_transit":false},{"station_name":"Univ. Indonesia","time":3,"transit":false,"station_id":"UI","i_lat":-6.360749,"i_long":106.831474,"is_transit":false,"line":2,"distance":2264},{"time":2,"transit":false,"i_long":106.831114,"distance":1109,"line":2,"station_name":"Pondok Cina","station_id":"POC","i_lat":-6.369073,"is_transit":false},{"is_transit":false,"i_long":106.819451,"station_name":"Depokbaru","line":2,"transit":false,"i_lat":-6.391065,"time":4,"station_id":"DPB","distance":2727},{"station_name":"Depok","transit":false,"time":3,"distance":1584,"i_lat":-6.405256,"station_id":"DP","i_long":106.816926,"is_transit":false,"line":2},{"i_lat":-6.448811,"i_long":106.800298,"transit":true,"station_name":"Citayam","line":2,"time":6,"station_id":"CTA","distance":5084,"is_transit":true},{"transit":false,"time":0,"is_transit":false,"station_id":"PDRG","distance":0,"i_lat":-6.460735,"line":21,"station_name":"Pondok Rajeg","i_long":106.824374}]]}