{"data":[[{"is_transit":false,"station_name":"Kranji","i_lat":-6.224515,"time":0,"station_id":"KRI","line":1,"transit":false,"distance":0,"i_long":106.977657},{"i_long":106.951283,"is_transit":false,"line":1,"i_lat":-6.219053,"distance":3097,"station_name":"Cakung","transit":false,"station_id":"CUK","time":3},{"i_long":106.939679,"is_transit":false,"distance":1385,"station_id":"KLDB","time":8,"i_lat":-6.217455,"line":1,"station_name":"Klenderbaru","transit":false},{"station_name":"Buaran","station_id":"BUA","i_lat":-6.215568,"distance":1305,"transit":false,"line":1,"time":1,"is_transit":false,"i_long":106.922662},{"i_lat":-6.2135,"station_name":"Klender","i_long":106.899548,"line":1,"transit":false,"distance":3100,"is_transit":false,"time":2,"station_id":"KLD"},{"i_long":106.86807400000001,"station_name":"Jatinegara","i_lat":-6.215091,"line":1,"transit":false,"distance":3395,"is_transit":false,"station_id":"JNG","time":3},{"i_lat":-6.212485,"station_name":"Matraman","is_transit":false,"station_id":"MTR","i_long":106.858896,"transit":false,"distance":1377,"time":2,"line":1},{"i_lat":-6.209883,"station_id":"MRI","transit":true,"time":2,"is_transit":true,"distance":1275,"station_name":"Manggarai","i_long":106.84912,"line":2},{"distance":1590,"station_name":"Cikini","i_long":106.840169,"station_id":"CKI","transit":false,"line":2,"time":4,"is_transit":false,"i_lat":-6.198556},{"time":3,"is_transit":false,"station_name":"Gondangdia","line":2,"i_long":106.832183,"station_id":"GDD","transit":false,"i_lat":-6.186295,"distance":1750},{"transit":false,"time":4,"i_lat":-6.166716,"distance":2015,"station_name":"Juanda","line":2,"is_transit":false,"station_id":"JUA","i_long":106.828284},{"transit":false,"distance":1149,"time":2,"station_id":"SW","i_long":106.827103,"is_transit":false,"line":2,"station_name":"Sawah Besar","i_lat":-6.160725},{"is_transit":false,"time":2,"transit":false,"station_id":"MGB","line":2,"distance":906,"station_name":"Manggabesar","i_lat":-6.149769,"i_long":106.82482}],[{"i_long":106.977657,"i_lat":-6.224515,"line":1,"transit":false,"station_id":"KRI","station_name":"Kranji","is_transit":false,"distance":0,"time":0},{"station_name":"Cakung","i_long":106.951283,"transit":false,"i_lat":-6.219053,"line":1,"station_id":"CUK","is_transit":false,"time":3,"distance":3097},{"i_lat":-6.217455,"distance":1385,"station_id":"KLDB","i_long":106.939679,"transit":false,"line":1,"is_transit":false,"time":8,"station_name":"Klenderbaru"},{"distance":1305,"time":1,"i_lat":-6.215568,"is_transit":false,"line":1,"i_long":106.922662,"station_id":"BUA","transit":false,"station_name":"Buaran"},{"transit":false,"i_lat":-6.2135,"is_transit":false,"i_long":106.899548,"time":2,"distance":3100,"station_id":"KLD","station_name":"Klender","line":1},{"i_lat":-6.215091,"line":1,"station_name":"Jatinegara","distance":3395,"is_transit":true,"time":3,"i_long":106.86807400000001,"station_id":"JNG","transit":true},{"transit":false,"is_transit":false,"station_id":"POK","time":2,"station_name":"Pondok Jati","i_lat":-6.209188,"distance":1236,"line":11,"i_long":106.861737},{"station_id":"KMT","is_transit":false,"time":2,"i_lat":-6.193792,"i_long":106.855437,"station_name":"Kramat","transit":false,"line":11,"distance":1829},{"transit":false,"time":1,"station_id":"GST","station_name":"Gang Sentiong","i_lat":-6.185975,"distance":973,"line":11,"is_transit":false,"i_long":106.850107},{"transit":false,"station_name":"Pasar Senen","i_lat":-6.174784,"time":8,"is_transit":false,"distance":1567,"i_long":106.84368,"line":11,"station_id":"PSE"},{"transit":false,"distance":1436,"line":11,"station_id":"KMO","time":4,"is_transit":false,"i_long":106.839204,"station_name":"Kemayoran","i_lat":-6.161728},{"distance":1901,"transit":false,"is_transit":false,"time":5,"station_id":"RJW","line":11,"station_name":"Rajawali","i_long":106.836569,"i_lat":-6.14505},{"is_transit":true,"i_long":106.826365,"i_lat":-6.132549,"line":4,"station_name":"Kampung Bandan","transit":true,"station_id":"KPB","distance":1444,"time":3},{"station_id":"JAKK","transit":true,"station_name":"Jakarta Kota","time":3,"is_transit":true,"i_lat":-6.137569,"line":2,"i_long":106.812439,"distance":1364},{"transit":false,"is_transit":false,"i_lat":-6.141205,"i_long":106.820901,"station_id":"JAY","distance":1264,"time":4,"station_name":"Jayakarta","line":2},{"transit":false,"station_id":"MGB","distance":1080,"i_lat":-6.149769,"line":2,"station_name":"Manggabesar","time":2,"is_transit":false,"i_long":106.82482}],[{"i_lat":-6.224515,"transit":false,"distance":0,"line":1,"time":0,"station_name":"Kranji","station_id":"KRI","i_long":106.977657,"is_transit":false},{"i_long":106.951283,"i_lat":-6.219053,"line":1,"station_name":"Cakung","is_transit":false,"transit":false,"distance":3097,"time":3,"station_id":"CUK"},{"station_name":"Klenderbaru","i_lat":-6.217455,"line":1,"station_id":"KLDB","time":8,"i_long":106.939679,"is_transit":false,"transit":false,"distance":1385},{"station_id":"BUA","distance":1305,"transit":false,"i_long":106.922662,"i_lat":-6.215568,"station_name":"Buaran","is_transit":false,"time":1,"line":1},{"is_transit":false,"time":2,"i_lat":-6.2135,"distance":3100,"line":1,"i_long":106.899548,"station_id":"KLD","transit":false,"station_name":"Klender"},{"is_transit":false,"distance":3395,"time":3,"i_lat":-6.215091,"transit":false,"i_long":106.86807400000001,"station_name":"Jatinegara","station_id":"JNG","line":1},{"station_name":"Matraman","i_lat":-6.212485,"distance":1377,"is_transit":false,"transit":false,"station_id":"MTR","time":2,"i_long":106.858896,"line":1},{"line":2,"transit":false,"station_id":"MRI","station_name":"Manggarai","is_transit":false,"distance":1275,"time":2,"i_long":106.84912,"i_lat":-6.209883},{"station_name":"Sudirman","i_long":106.822649,"station_id":"SUD","transit":false,"is_transit":false,"line":1,"i_lat":-6.202263,"distance":3186,"time":4},{"i_long":106.819881,"transit":false,"distance":280,"station_id":"SUDB","is_transit":false,"station_name":"Sudirman Baru","time":1,"i_lat":-6.201433,"line":1},{"is_transit":false,"station_name":"Karet","i_long":106.816351,"distance":471,"i_lat":-6.20132,"station_id":"KAT","line":1,"time":1,"transit":false},{"time":5,"transit":false,"station_name":"Tanah Abang","i_long":106.811091,"is_transit":false,"distance":2029,"i_lat":-6.185545,"line":1,"station_id":"THB"},{"line":1,"distance":3632,"i_lat":-6.155215,"time":8,"is_transit":false,"station_id":"DU","i_long":106.800832,"transit":false,"station_name":"Duri"},{"time":4,"is_transit":false,"i_lat":-6.144674,"station_name":"Angke","transit":false,"distance":1230,"i_long":106.79867,"station_id":"AK","line":1},{"i_long":106.826365,"distance":4102,"is_transit":true,"line":4,"station_name":"Kampung Bandan","time":9,"i_lat":-6.132549,"station_id":"KPB","transit":true},{"station_id":"JAKK","transit":true,"is_transit":true,"distance":1364,"station_name":"Jakarta Kota","time":3,"i_long":106.812439,"i_lat":-6.137569,"line":2},{"line":2,"transit":false,"distance":1264,"station_id":"JAY","is_transit":false,"time":4,"i_lat":-6.141205,"i_long":106.820901,"station_name":"Jayakarta"},{"time":2,"i_long":106.82482,"station_name":"Manggabesar","line":2,"is_transit":false,"transit":false,"distance":1080,"i_lat":-6.149769,"station_id":"MGB"}],[{"distance":0,"station_name":"Kranji","i_lat":-6.224515,"line":1,"time":0,"i_long":106.977657,"is_transit":false,"transit":false,"station_id":"KRI"},{"transit":false,"distance":3097,"station_name":"Cakung","i_long":106.951283,"line":1,"is_transit":false,"time":3,"i_lat":-6.219053,"station_id":"CUK"},{"i_lat":-6.217455,"is_transit":false,"transit":false,"station_id":"KLDB","distance":1385,"station_name":"Klenderbaru","time":8,"i_long":106.939679,"line":1},{"transit":false,"station_id":"BUA","i_long":106.922662,"time":1,"line":1,"distance":1305,"i_lat":-6.215568,"is_transit":false,"station_name":"Buaran"},{"station_id":"KLD","station_name":"Klender","i_long":106.899548,"line":1,"time":2,"i_lat":-6.2135,"transit":false,"distance":3100,"is_transit":false},{"line":1,"station_id":"JNG","distance":3395,"i_long":106.86807400000001,"i_lat":-6.215091,"time":3,"transit":true,"station_name":"Jatinegara","is_transit":true},{"station_name":"Pondok Jati","station_id":"POK","is_transit":false,"i_lat":-6.209188,"transit":false,"i_long":106.861737,"time":2,"line":11,"distance":1236},{"time":2,"line":11,"transit":false,"station_name":"Kramat","station_id":"KMT","is_transit":false,"distance":1829,"i_lat":-6.193792,"i_long":106.855437},{"i_lat":-6.185975,"time":1,"station_id":"GST","station_name":"Gang Sentiong","is_transit":false,"line":11,"i_long":106.850107,"distance":973,"transit":false},{"station_id":"PSE","station_name":"Pasar Senen","time":8,"transit":false,"i_long":106.84368,"line":11,"is_transit":false,"distance":1567,"i_lat":-6.174784},{"distance":1436,"station_id":"KMO","i_lat":-6.161728,"transit":false,"line":11,"is_transit":false,"station_name":"Kemayoran","i_long":106.839204,"time":4},{"transit":false,"station_name":"Rajawali","i_long":106.836569,"line":11,"station_id":"RJW","is_transit":false,"distance":1901,"time":5,"i_lat":-6.14505},{"i_long":106.826365,"line":4,"is_transit":true,"station_id":"KPB","distance":1444,"station_name":"Kampung Bandan","time":3,"i_lat":-6.132549,"transit":true},{"i_long":106.79867,"is_transit":false,"line":1,"station_id":"AK","time":9,"i_lat":-6.144674,"distance":4102,"transit":false,"station_name":"Angke"},{"transit":false,"is_transit":false,"station_id":"DU","distance":1230,"i_lat":-6.155215,"line":1,"station_name":"Duri","time":4,"i_long":106.800832},{"is_transit":false,"i_lat":-6.185545,"time":8,"i_long":106.811091,"line":1,"station_name":"Tanah Abang","station_id":"THB","distance":3632,"transit":false},{"station_id":"KAT","transit":false,"time":5,"line":1,"station_name":"Karet","is_transit":false,"i_lat":-6.20132,"i_long":106.816351,"distance":2029},{"i_lat":-6.201433,"line":1,"transit":false,"i_long":106.819881,"distance":471,"is_transit":false,"station_name":"Sudirman Baru","time":1,"station_id":"SUDB"},{"distance":280,"station_name":"Sudirman","time":1,"i_long":106.822649,"i_lat":-6.202263,"line":1,"station_id":"SUD","is_transit":false,"transit":false},{"station_name":"Manggarai","transit":true,"station_id":"MRI","is_transit":true,"time":4,"i_lat":-6.209883,"distance":3186,"i_long":106.84912,"line":2},{"transit":false,"is_transit":false,"i_long":106.840169,"i_lat":-6.198556,"distance":1590,"station_id":"CKI","station_name":"Cikini","time":4,"line":2},{"distance":1750,"station_id":"GDD","time":3,"transit":false,"is_transit":false,"i_lat":-6.186295,"i_long":106.832183,"line":2,"station_name":"Gondangdia"},{"i_lat":-6.166716,"line":2,"time":4,"distance":2015,"station_id":"JUA","i_long":106.828284,"is_transit":false,"station_name":"Juanda","transit":false},{"station_name":"Sawah Besar","station_id":"SW","transit":false,"distance":1149,"time":2,"i_lat":-6.160725,"line":2,"is_transit":false,"i_long":106.827103},{"is_transit":false,"i_lat":-6.149769,"time":2,"line":2,"station_id":"MGB","i_long":106.82482,"transit":false,"station_name":"Manggabesar","distance":906}]]}