{"data":[[{"distance":0,"station_name":"Kranji","line":1,"transit":false,"i_lat":-6.224515,"i_long":106.977657,"time":0,"is_transit":false,"station_id":"KRI"},{"station_name":"Cakung","line":1,"station_id":"CUK","transit":false,"i_lat":-6.219053,"distance":3097,"i_long":106.951283,"time":3,"is_transit":false},{"i_long":106.939679,"transit":false,"time":8,"i_lat":-6.217455,"distance":1385,"station_id":"KLDB","is_transit":false,"line":1,"station_name":"Klenderbaru"},{"station_name":"Buaran","transit":false,"time":1,"i_lat":-6.215568,"distance":1305,"station_id":"BUA","is_transit":false,"line":1,"i_long":106.922662},{"is_transit":false,"transit":false,"station_id":"KLD","station_name":"Klender","line":1,"distance":3100,"i_lat":-6.2135,"time":2,"i_long":106.899548},{"i_lat":-6.215091,"time":3,"station_name":"Jatinegara","is_transit":false,"i_long":106.86807400000001,"station_id":"JNG","transit":false,"distance":3395,"line":1},{"station_name":"Matraman","line":1,"time":2,"is_transit":false,"i_lat":-6.212485,"station_id":"MTR","transit":false,"distance":1377,"i_long":106.858896},{"time":2,"is_transit":true,"i_lat":-6.209883,"distance":1275,"station_name":"Manggarai","transit":true,"i_long":106.84912,"station_id":"MRI","line":2},{"distance":1590,"station_name":"Cikini","is_transit":false,"line":2,"i_long":106.840169,"station_id":"CKI","transit":false,"i_lat":-6.198556,"time":4},{"distance":1750,"transit":false,"i_long":106.832183,"is_transit":false,"time":3,"station_id":"GDD","i_lat":-6.186295,"station_name":"Gondangdia","line":2},{"distance":2015,"station_id":"JUA","transit":false,"i_lat":-6.166716,"i_long":106.828284,"line":2,"is_transit":false,"station_name":"Juanda","time":4},{"station_id":"SW","i_lat":-6.160725,"transit":false,"station_name":"Sawah Besar","i_long":106.827103,"is_transit":false,"line":2,"distance":1149,"time":2}],[{"i_long":106.977657,"transit":false,"station_name":"Kranji","is_transit":false,"time":0,"line":1,"distance":0,"station_id":"KRI","i_lat":-6.224515},{"station_id":"CUK","line":1,"i_lat":-6.219053,"station_name":"Cakung","transit":false,"distance":3097,"is_transit":false,"i_long":106.951283,"time":3},{"is_transit":false,"i_long":106.939679,"time":8,"transit":false,"i_lat":-6.217455,"distance":1385,"station_name":"Klenderbaru","line":1,"station_id":"KLDB"},{"station_name":"Buaran","distance":1305,"station_id":"BUA","is_transit":false,"i_lat":-6.215568,"line":1,"time":1,"transit":false,"i_long":106.922662},{"line":1,"time":2,"is_transit":false,"i_long":106.899548,"transit":false,"distance":3100,"station_id":"KLD","station_name":"Klender","i_lat":-6.2135},{"distance":3395,"time":3,"transit":true,"i_long":106.86807400000001,"line":1,"is_transit":true,"station_name":"Jatinegara","i_lat":-6.215091,"station_id":"JNG"},{"time":2,"transit":false,"is_transit":false,"station_id":"POK","station_name":"Pondok Jati","i_long":106.861737,"line":11,"i_lat":-6.209188,"distance":1236},{"i_lat":-6.193792,"i_long":106.855437,"transit":false,"station_name":"Kramat","is_transit":false,"distance":1829,"line":11,"station_id":"KMT","time":2},{"time":1,"distance":973,"is_transit":false,"transit":false,"i_lat":-6.185975,"i_long":106.850107,"line":11,"station_id":"GST","station_name":"Gang Sentiong"},{"i_lat":-6.174784,"is_transit":false,"distance":1567,"station_id":"PSE","time":8,"station_name":"Pasar Senen","transit":false,"line":11,"i_long":106.84368},{"transit":false,"i_lat":-6.161728,"station_name":"Kemayoran","is_transit":false,"i_long":106.839204,"line":11,"time":4,"distance":1436,"station_id":"KMO"},{"transit":false,"time":5,"distance":1901,"i_lat":-6.14505,"station_name":"Rajawali","station_id":"RJW","is_transit":false,"i_long":106.836569,"line":11},{"station_name":"Kampung Bandan","distance":1444,"i_lat":-6.132549,"time":3,"i_long":106.826365,"line":4,"transit":true,"is_transit":true,"station_id":"KPB"},{"station_name":"Jakarta Kota","i_lat":-6.137569,"transit":true,"line":2,"distance":1364,"station_id":"JAKK","is_transit":true,"i_long":106.812439,"time":3},{"i_long":106.820901,"distance":1264,"i_lat":-6.141205,"time":4,"is_transit":false,"station_id":"JAY","line":2,"station_name":"Jayakarta","transit":false},{"distance":1080,"line":2,"is_transit":false,"station_name":"Manggabesar","i_lat":-6.149769,"station_id":"MGB","transit":false,"time":2,"i_long":106.82482},{"line":2,"is_transit":false,"i_long":106.827103,"time":2,"distance":906,"station_id":"SW","station_name":"Sawah Besar","transit":false,"i_lat":-6.160725}],[{"is_transit":false,"station_id":"KRI","i_long":106.977657,"i_lat":-6.224515,"distance":0,"station_name":"Kranji","line":1,"time":0,"transit":false},{"time":3,"station_name":"Cakung","distance":3097,"station_id":"CUK","i_long":106.951283,"transit":false,"i_lat":-6.219053,"is_transit":false,"line":1},{"is_transit":false,"distance":1385,"time":8,"transit":false,"station_id":"KLDB","station_name":"Klenderbaru","i_lat":-6.217455,"i_long":106.939679,"line":1},{"time":1,"distance":1305,"transit":false,"station_id":"BUA","station_name":"Buaran","is_transit":false,"i_lat":-6.215568,"i_long":106.922662,"line":1},{"distance":3100,"i_long":106.899548,"station_name":"Klender","line":1,"i_lat":-6.2135,"transit":false,"is_transit":false,"time":2,"station_id":"KLD"},{"is_transit":false,"i_long":106.86807400000001,"transit":false,"station_id":"JNG","time":3,"distance":3395,"station_name":"Jatinegara","i_lat":-6.215091,"line":1},{"i_lat":-6.212485,"station_name":"Matraman","i_long":106.858896,"time":2,"distance":1377,"transit":false,"line":1,"is_transit":false,"station_id":"MTR"},{"transit":false,"i_lat":-6.209883,"i_long":106.84912,"is_transit":false,"station_id":"MRI","line":2,"distance":1275,"station_name":"Manggarai","time":2},{"i_lat":-6.202263,"station_id":"SUD","i_long":106.822649,"station_name":"Sudirman","distance":3186,"line":1,"transit":false,"time":4,"is_transit":false},{"i_lat":-6.201433,"line":1,"transit":false,"station_name":"Sudirman Baru","station_id":"SUDB","time":1,"i_long":106.819881,"distance":280,"is_transit":false},{"i_lat":-6.20132,"time":1,"station_id":"KAT","i_long":106.816351,"line":1,"distance":471,"transit":false,"is_transit":false,"station_name":"Karet"},{"line":1,"time":5,"station_name":"Tanah Abang","station_id":"THB","is_transit":false,"i_lat":-6.185545,"transit":false,"i_long":106.811091,"distance":2029},{"time":8,"distance":3632,"transit":false,"is_transit":false,"line":1,"i_lat":-6.155215,"station_name":"Duri","station_id":"DU","i_long":106.800832},{"time":4,"station_id":"AK","distance":1230,"is_transit":false,"transit":false,"station_name":"Angke","i_long":106.79867,"line":1,"i_lat":-6.144674},{"i_lat":-6.132549,"i_long":106.826365,"time":9,"station_id":"KPB","line":4,"is_transit":true,"transit":true,"distance":4102,"station_name":"Kampung Bandan"},{"distance":1364,"station_id":"JAKK","is_transit":true,"station_name":"Jakarta Kota","i_lat":-6.137569,"i_long":106.812439,"line":2,"transit":true,"time":3},{"is_transit":false,"distance":1264,"station_id":"JAY","i_long":106.820901,"time":4,"i_lat":-6.141205,"line":2,"transit":false,"station_name":"Jayakarta"},{"station_id":"MGB","distance":1080,"is_transit":false,"time":2,"station_name":"Manggabesar","i_long":106.82482,"line":2,"transit":false,"i_lat":-6.149769},{"station_name":"Sawah Besar","i_lat":-6.160725,"transit":false,"distance":906,"i_long":106.827103,"is_transit":false,"line":2,"time":2,"station_id":"SW"}],[{"time":0,"i_long":106.977657,"station_name":"Kranji","line":1,"distance":0,"transit":false,"is_transit":false,"station_id":"KRI","i_lat":-6.224515},{"i_long":106.951283,"i_lat":-6.219053,"transit":false,"distance":3097,"line":1,"station_name":"Cakung","time":3,"station_id":"CUK","is_transit":false},{"distance":1385,"transit":false,"time":8,"i_long":106.939679,"station_name":"Klenderbaru","station_id":"KLDB","i_lat":-6.217455,"line":1,"is_transit":false},{"station_id":"BUA","i_long":106.922662,"distance":1305,"station_name":"Buaran","is_transit":false,"transit":false,"time":1,"i_lat":-6.215568,"line":1},{"time":2,"station_name":"Klender","is_transit":false,"i_lat":-6.2135,"distance":3100,"i_long":106.899548,"transit":false,"line":1,"station_id":"KLD"},{"station_name":"Jatinegara","line":1,"time":3,"i_long":106.86807400000001,"station_id":"JNG","is_transit":true,"transit":true,"distance":3395,"i_lat":-6.215091},{"i_lat":-6.209188,"line":11,"is_transit":false,"time":2,"i_long":106.861737,"station_name":"Pondok Jati","station_id":"POK","distance":1236,"transit":false},{"station_id":"KMT","distance":1829,"is_transit":false,"station_name":"Kramat","transit":false,"i_lat":-6.193792,"i_long":106.855437,"line":11,"time":2},{"i_lat":-6.185975,"i_long":106.850107,"distance":973,"transit":false,"time":1,"is_transit":false,"station_name":"Gang Sentiong","line":11,"station_id":"GST"},{"is_transit":false,"time":8,"line":11,"station_name":"Pasar Senen","i_lat":-6.174784,"transit":false,"i_long":106.84368,"distance":1567,"station_id":"PSE"},{"i_long":106.839204,"line":11,"distance":1436,"station_id":"KMO","time":4,"transit":false,"i_lat":-6.161728,"station_name":"Kemayoran","is_transit":false},{"i_lat":-6.14505,"time":5,"is_transit":false,"line":11,"station_id":"RJW","transit":false,"i_long":106.836569,"distance":1901,"station_name":"Rajawali"},{"is_transit":true,"time":3,"transit":true,"station_id":"KPB","i_long":106.826365,"line":4,"i_lat":-6.132549,"station_name":"Kampung Bandan","distance":1444},{"i_lat":-6.144674,"is_transit":false,"time":9,"line":1,"station_name":"Angke","station_id":"AK","transit":false,"distance":4102,"i_long":106.79867},{"station_name":"Duri","i_lat":-6.155215,"time":4,"station_id":"DU","transit":false,"i_long":106.800832,"is_transit":false,"line":1,"distance":1230},{"distance":3632,"transit":false,"station_id":"THB","station_name":"Tanah Abang","line":1,"i_long":106.811091,"i_lat":-6.185545,"is_transit":false,"time":8},{"station_id":"KAT","distance":2029,"i_lat":-6.20132,"transit":false,"i_long":106.816351,"station_name":"Karet","line":1,"time":5,"is_transit":false},{"i_lat":-6.201433,"station_id":"SUDB","time":1,"station_name":"Sudirman Baru","distance":471,"is_transit":false,"transit":false,"i_long":106.819881,"line":1},{"transit":false,"i_lat":-6.202263,"station_id":"SUD","is_transit":false,"line":1,"i_long":106.822649,"time":1,"distance":280,"station_name":"Sudirman"},{"station_id":"MRI","is_transit":true,"station_name":"Manggarai","time":4,"i_long":106.84912,"distance":3186,"i_lat":-6.209883,"line":2,"transit":true},{"i_lat":-6.198556,"is_transit":false,"i_long":106.840169,"station_name":"Cikini","station_id":"CKI","line":2,"distance":1590,"time":4,"transit":false},{"distance":1750,"time":3,"transit":false,"station_name":"Gondangdia","i_long":106.832183,"line":2,"station_id":"GDD","is_transit":false,"i_lat":-6.186295},{"line":2,"station_id":"JUA","is_transit":false,"i_lat":-6.166716,"distance":2015,"transit":false,"station_name":"Juanda","time":4,"i_long":106.828284},{"distance":1149,"station_name":"Sawah Besar","transit":false,"i_lat":-6.160725,"is_transit":false,"i_long":106.827103,"station_id":"SW","time":2,"line":2}]]}