{"data":[[{"station_name":"Kranji","is_transit":false,"station_id":"KRI","i_lat":-6.224515,"time":0,"distance":0,"transit":false,"i_long":106.977657,"line":1},{"time":4,"station_id":"BKS","is_transit":false,"station_name":"Bekasi","i_lat":-6.236616,"transit":false,"line":0,"distance":2520,"i_long":106.997013},{"station_id":"BKST","i_long":107.016735,"line":0,"time":2,"station_name":"Bekasi Timur","i_lat":-6.248029,"transit":false,"is_transit":false,"distance":2368},{"i_long":107.055722,"is_transit":false,"transit":false,"station_id":"TB","i_lat":-6.258864,"line":1,"station_name":"Tambun","time":7,"distance":4460},{"time":3,"is_transit":false,"i_long":107.083084,"i_lat":-6.261877,"transit":false,"distance":3420,"station_name":"Cibitung","line":0,"station_id":"CIT"},{"time":2,"is_transit":false,"station_id":"TLM","i_lat":-6.262938,"transit":false,"i_long":107.093313,"distance":2800,"station_name":"Metland Telaga Murni","line":1}]]}