{"data":[[{"line":1,"is_transit":false,"station_id":"KRI","i_long":106.977657,"time":0,"transit":false,"i_lat":-6.224515,"distance":0,"station_name":"Kranji"},{"distance":3097,"time":3,"i_lat":-6.219053,"transit":false,"i_long":106.951283,"line":1,"is_transit":false,"station_id":"CUK","station_name":"Cakung"},{"distance":1385,"station_name":"Klenderbaru","transit":false,"line":1,"is_transit":false,"i_lat":-6.217455,"station_id":"KLDB","i_long":106.939679,"time":8},{"station_name":"Buaran","is_transit":false,"distance":1305,"time":1,"station_id":"BUA","line":1,"i_lat":-6.215568,"i_long":106.922662,"transit":false},{"station_id":"KLD","i_lat":-6.2135,"transit":false,"station_name":"Klender","line":1,"is_transit":false,"distance":3100,"time":2,"i_long":106.899548},{"station_name":"Jatinegara","transit":false,"station_id":"JNG","is_transit":false,"time":3,"distance":3395,"i_long":106.86807400000001,"i_lat":-6.215091,"line":1},{"i_lat":-6.212485,"line":1,"transit":false,"distance":1377,"station_name":"Matraman","time":2,"i_long":106.858896,"is_transit":false,"station_id":"MTR"},{"station_id":"MRI","distance":1275,"transit":false,"i_long":106.84912,"line":2,"is_transit":false,"time":2,"station_name":"Manggarai","i_lat":-6.209883},{"is_transit":false,"time":4,"i_lat":-6.202263,"station_id":"SUD","transit":false,"station_name":"Sudirman","i_long":106.822649,"line":1,"distance":3186},{"time":1,"i_lat":-6.201433,"is_transit":false,"line":1,"i_long":106.819881,"station_id":"SUDB","distance":280,"station_name":"Sudirman Baru","transit":false},{"is_transit":false,"station_id":"KAT","transit":false,"i_lat":-6.20132,"distance":471,"time":1,"station_name":"Karet","line":1,"i_long":106.816351},{"i_long":106.811091,"is_transit":false,"transit":false,"i_lat":-6.185545,"line":1,"distance":2029,"station_name":"Tanah Abang","station_id":"THB","time":5},{"i_long":106.800832,"station_id":"DU","i_lat":-6.155215,"station_name":"Duri","is_transit":true,"time":8,"line":1,"transit":true,"distance":3632},{"i_lat":-6.162021,"i_long":106.788277,"time":3,"line":5,"transit":false,"is_transit":false,"station_id":"GGL","station_name":"Grogol","distance":1700},{"i_lat":-6.161433,"line":5,"time":2,"transit":false,"station_name":"Pesing","i_long":106.771379,"is_transit":false,"station_id":"PSG","distance":2036},{"i_long":106.756522,"station_id":"TKO","transit":false,"i_lat":-6.1587309999999995,"line":5,"is_transit":false,"distance":1614,"station_name":"Taman Kota","time":2},{"time":2,"i_lat":-6.159876,"line":5,"transit":false,"station_name":"Bojongindah","is_transit":false,"station_id":"BOI","distance":2334,"i_long":106.737035},{"is_transit":false,"transit":false,"station_name":"Rawa Buaya","line":5,"distance":1152,"time":4,"i_lat":-6.162758,"station_id":"RW","i_long":106.723064},{"transit":false,"is_transit":false,"station_name":"Kalideres","i_long":106.701612,"line":5,"station_id":"KDS","distance":2504,"time":3,"i_lat":-6.166068},{"time":3,"transit":false,"i_lat":-6.169933,"i_long":106.679458,"line":5,"is_transit":false,"distance":2548,"station_name":"Poris","station_id":"PI"},{"i_lat":-6.171811,"i_long":106.665036,"is_transit":false,"transit":false,"distance":1834,"station_name":"Batuceper","station_id":"BPR","time":3,"line":5}],[{"station_id":"KRI","transit":false,"time":0,"i_long":106.977657,"is_transit":false,"line":1,"station_name":"Kranji","distance":0,"i_lat":-6.224515},{"i_lat":-6.219053,"time":3,"station_id":"CUK","i_long":106.951283,"distance":3097,"line":1,"transit":false,"station_name":"Cakung","is_transit":false},{"distance":1385,"i_long":106.939679,"station_name":"Klenderbaru","station_id":"KLDB","time":8,"i_lat":-6.217455,"transit":false,"line":1,"is_transit":false},{"time":1,"line":1,"is_transit":false,"transit":false,"station_id":"BUA","distance":1305,"i_lat":-6.215568,"station_name":"Buaran","i_long":106.922662},{"is_transit":false,"time":2,"i_long":106.899548,"i_lat":-6.2135,"station_name":"Klender","transit":false,"station_id":"KLD","line":1,"distance":3100},{"station_name":"Jatinegara","distance":3395,"transit":true,"i_lat":-6.215091,"i_long":106.86807400000001,"station_id":"JNG","time":3,"line":1,"is_transit":true},{"station_id":"POK","station_name":"Pondok Jati","line":11,"time":2,"is_transit":false,"distance":1236,"transit":false,"i_lat":-6.209188,"i_long":106.861737},{"i_long":106.855437,"transit":false,"station_id":"KMT","distance":1829,"i_lat":-6.193792,"station_name":"Kramat","is_transit":false,"line":11,"time":2},{"i_long":106.850107,"is_transit":false,"station_id":"GST","station_name":"Gang Sentiong","distance":973,"transit":false,"i_lat":-6.185975,"line":11,"time":1},{"transit":false,"station_name":"Pasar Senen","station_id":"PSE","time":8,"i_lat":-6.174784,"i_long":106.84368,"is_transit":false,"line":11,"distance":1567},{"station_name":"Kemayoran","line":11,"station_id":"KMO","i_long":106.839204,"distance":1436,"is_transit":false,"time":4,"i_lat":-6.161728,"transit":false},{"station_name":"Rajawali","is_transit":false,"transit":false,"station_id":"RJW","distance":1901,"i_long":106.836569,"line":11,"time":5,"i_lat":-6.14505},{"i_lat":-6.132549,"transit":true,"i_long":106.826365,"is_transit":true,"station_id":"KPB","line":4,"distance":1444,"station_name":"Kampung Bandan","time":3},{"transit":false,"line":1,"i_lat":-6.144674,"i_long":106.79867,"is_transit":false,"station_name":"Angke","station_id":"AK","distance":4102,"time":9},{"i_lat":-6.155215,"distance":1230,"is_transit":true,"station_name":"Duri","i_long":106.800832,"line":1,"station_id":"DU","transit":true,"time":4},{"station_name":"Grogol","station_id":"GGL","i_lat":-6.162021,"time":3,"is_transit":false,"distance":1700,"i_long":106.788277,"transit":false,"line":5},{"station_id":"PSG","station_name":"Pesing","is_transit":false,"time":2,"distance":2036,"i_lat":-6.161433,"i_long":106.771379,"line":5,"transit":false},{"is_transit":false,"station_name":"Taman Kota","distance":1614,"time":2,"station_id":"TKO","transit":false,"i_lat":-6.1587309999999995,"i_long":106.756522,"line":5},{"is_transit":false,"time":2,"transit":false,"station_id":"BOI","i_lat":-6.159876,"i_long":106.737035,"line":5,"station_name":"Bojongindah","distance":2334},{"is_transit":false,"station_id":"RW","time":4,"i_lat":-6.162758,"distance":1152,"i_long":106.723064,"transit":false,"station_name":"Rawa Buaya","line":5},{"i_lat":-6.166068,"line":5,"station_id":"KDS","station_name":"Kalideres","i_long":106.701612,"time":3,"is_transit":false,"transit":false,"distance":2504},{"i_long":106.679458,"distance":2548,"time":3,"line":5,"transit":false,"is_transit":false,"station_name":"Poris","station_id":"PI","i_lat":-6.169933},{"line":5,"station_name":"Batuceper","transit":false,"station_id":"BPR","i_long":106.665036,"is_transit":false,"distance":1834,"time":3,"i_lat":-6.171811}],[{"station_id":"KRI","transit":false,"distance":0,"i_lat":-6.224515,"time":0,"line":1,"i_long":106.977657,"station_name":"Kranji","is_transit":false},{"station_name":"Cakung","is_transit":false,"transit":false,"i_long":106.951283,"i_lat":-6.219053,"station_id":"CUK","time":3,"distance":3097,"line":1},{"time":8,"i_long":106.939679,"station_name":"Klenderbaru","is_transit":false,"transit":false,"distance":1385,"i_lat":-6.217455,"station_id":"KLDB","line":1},{"station_name":"Buaran","distance":1305,"is_transit":false,"line":1,"i_lat":-6.215568,"i_long":106.922662,"transit":false,"station_id":"BUA","time":1},{"line":1,"time":2,"station_id":"KLD","i_long":106.899548,"distance":3100,"station_name":"Klender","transit":false,"is_transit":false,"i_lat":-6.2135},{"transit":false,"station_id":"JNG","i_long":106.86807400000001,"station_name":"Jatinegara","distance":3395,"time":3,"i_lat":-6.215091,"line":1,"is_transit":false},{"station_name":"Matraman","is_transit":false,"station_id":"MTR","transit":false,"i_long":106.858896,"line":1,"i_lat":-6.212485,"time":2,"distance":1377},{"i_long":106.84912,"i_lat":-6.209883,"transit":true,"station_id":"MRI","line":2,"time":2,"station_name":"Manggarai","is_transit":true,"distance":1275},{"i_lat":-6.198556,"station_name":"Cikini","time":4,"transit":false,"is_transit":false,"distance":1590,"station_id":"CKI","line":2,"i_long":106.840169},{"distance":1750,"i_long":106.832183,"transit":false,"line":2,"station_name":"Gondangdia","is_transit":false,"time":3,"i_lat":-6.186295,"station_id":"GDD"},{"is_transit":false,"time":4,"station_id":"JUA","distance":2015,"i_long":106.828284,"station_name":"Juanda","i_lat":-6.166716,"line":2,"transit":false},{"is_transit":false,"station_id":"SW","i_long":106.827103,"i_lat":-6.160725,"station_name":"Sawah Besar","transit":false,"distance":1149,"line":2,"time":2},{"station_name":"Manggabesar","distance":906,"time":2,"i_lat":-6.149769,"transit":false,"line":2,"station_id":"MGB","is_transit":false,"i_long":106.82482},{"station_id":"JAY","i_long":106.820901,"distance":1080,"line":2,"transit":false,"station_name":"Jayakarta","i_lat":-6.141205,"time":2,"is_transit":false},{"time":4,"transit":true,"i_lat":-6.137569,"i_long":106.812439,"line":2,"is_transit":true,"station_id":"JAKK","station_name":"Jakarta Kota","distance":1264},{"i_lat":-6.132549,"i_long":106.826365,"station_name":"Kampung Bandan","station_id":"KPB","transit":true,"distance":1364,"line":4,"time":3,"is_transit":true},{"transit":false,"station_name":"Angke","i_lat":-6.144674,"is_transit":false,"i_long":106.79867,"station_id":"AK","time":9,"line":1,"distance":4102},{"i_lat":-6.155215,"distance":1230,"line":1,"is_transit":true,"station_name":"Duri","transit":true,"station_id":"DU","i_long":106.800832,"time":4},{"transit":false,"is_transit":false,"station_id":"GGL","station_name":"Grogol","time":3,"line":5,"distance":1700,"i_lat":-6.162021,"i_long":106.788277},{"station_id":"PSG","line":5,"station_name":"Pesing","i_long":106.771379,"i_lat":-6.161433,"distance":2036,"transit":false,"is_transit":false,"time":2},{"station_id":"TKO","is_transit":false,"line":5,"transit":false,"i_long":106.756522,"station_name":"Taman Kota","distance":1614,"i_lat":-6.1587309999999995,"time":2},{"station_id":"BOI","distance":2334,"station_name":"Bojongindah","is_transit":false,"i_long":106.737035,"line":5,"time":2,"i_lat":-6.159876,"transit":false},{"i_lat":-6.162758,"is_transit":false,"transit":false,"i_long":106.723064,"station_name":"Rawa Buaya","line":5,"station_id":"RW","distance":1152,"time":4},{"is_transit":false,"station_id":"KDS","distance":2504,"station_name":"Kalideres","transit":false,"time":3,"i_lat":-6.166068,"i_long":106.701612,"line":5},{"line":5,"i_lat":-6.169933,"distance":2548,"transit":false,"time":3,"i_long":106.679458,"station_id":"PI","is_transit":false,"station_name":"Poris"},{"transit":false,"i_long":106.665036,"line":5,"station_id":"BPR","time":3,"station_name":"Batuceper","distance":1834,"is_transit":false,"i_lat":-6.171811}],[{"i_long":106.977657,"station_name":"Kranji","distance":0,"time":0,"i_lat":-6.224515,"line":1,"transit":false,"is_transit":false,"station_id":"KRI"},{"time":3,"is_transit":false,"transit":false,"station_id":"CUK","station_name":"Cakung","i_long":106.951283,"distance":3097,"line":1,"i_lat":-6.219053},{"station_name":"Klenderbaru","distance":1385,"i_long":106.939679,"transit":false,"i_lat":-6.217455,"line":1,"station_id":"KLDB","time":8,"is_transit":false},{"is_transit":false,"station_name":"Buaran","line":1,"i_lat":-6.215568,"transit":false,"i_long":106.922662,"time":1,"station_id":"BUA","distance":1305},{"is_transit":false,"distance":3100,"i_lat":-6.2135,"transit":false,"line":1,"station_id":"KLD","time":2,"i_long":106.899548,"station_name":"Klender"},{"station_name":"Jatinegara","transit":true,"distance":3395,"i_lat":-6.215091,"station_id":"JNG","is_transit":true,"time":3,"i_long":106.86807400000001,"line":1},{"line":11,"time":2,"is_transit":false,"station_name":"Pondok Jati","i_lat":-6.209188,"i_long":106.861737,"station_id":"POK","distance":1236,"transit":false},{"transit":false,"station_name":"Kramat","station_id":"KMT","line":11,"is_transit":false,"i_long":106.855437,"time":2,"distance":1829,"i_lat":-6.193792},{"station_name":"Gang Sentiong","i_long":106.850107,"line":11,"distance":973,"transit":false,"i_lat":-6.185975,"time":1,"station_id":"GST","is_transit":false},{"i_lat":-6.174784,"distance":1567,"is_transit":false,"time":8,"station_name":"Pasar Senen","i_long":106.84368,"transit":false,"station_id":"PSE","line":11},{"i_lat":-6.161728,"i_long":106.839204,"line":11,"station_name":"Kemayoran","time":4,"transit":false,"distance":1436,"station_id":"KMO","is_transit":false},{"transit":false,"time":5,"line":11,"station_name":"Rajawali","distance":1901,"i_lat":-6.14505,"is_transit":false,"i_long":106.836569,"station_id":"RJW"},{"is_transit":true,"station_id":"KPB","i_lat":-6.132549,"line":4,"transit":true,"time":3,"i_long":106.826365,"station_name":"Kampung Bandan","distance":1444},{"i_long":106.812439,"line":2,"station_name":"Jakarta Kota","transit":true,"distance":1364,"station_id":"JAKK","is_transit":true,"time":3,"i_lat":-6.137569},{"transit":false,"is_transit":false,"distance":1264,"i_lat":-6.141205,"time":4,"station_name":"Jayakarta","i_long":106.820901,"line":2,"station_id":"JAY"},{"time":2,"distance":1080,"station_id":"MGB","i_long":106.82482,"is_transit":false,"transit":false,"station_name":"Manggabesar","i_lat":-6.149769,"line":2},{"station_id":"SW","distance":906,"time":2,"i_lat":-6.160725,"i_long":106.827103,"line":2,"is_transit":false,"transit":false,"station_name":"Sawah Besar"},{"distance":1149,"i_long":106.828284,"time":2,"station_id":"JUA","station_name":"Juanda","i_lat":-6.166716,"is_transit":false,"line":2,"transit":false},{"line":2,"i_long":106.832183,"distance":2015,"is_transit":false,"station_id":"GDD","time":4,"i_lat":-6.186295,"transit":false,"station_name":"Gondangdia"},{"station_name":"Cikini","time":3,"transit":false,"i_long":106.840169,"i_lat":-6.198556,"line":2,"station_id":"CKI","is_transit":false,"distance":1750},{"i_long":106.84912,"time":4,"distance":1590,"i_lat":-6.209883,"line":2,"station_name":"Manggarai","station_id":"MRI","is_transit":true,"transit":true},{"is_transit":false,"distance":3186,"transit":false,"time":4,"i_long":106.822649,"line":1,"station_name":"Sudirman","i_lat":-6.202263,"station_id":"SUD"},{"i_lat":-6.201433,"line":1,"station_id":"SUDB","station_name":"Sudirman Baru","i_long":106.819881,"transit":false,"is_transit":false,"distance":280,"time":1},{"station_id":"KAT","i_long":106.816351,"station_name":"Karet","line":1,"time":1,"transit":false,"i_lat":-6.20132,"is_transit":false,"distance":471},{"station_id":"THB","line":1,"i_long":106.811091,"time":5,"i_lat":-6.185545,"station_name":"Tanah Abang","distance":2029,"transit":false,"is_transit":false},{"station_id":"DU","transit":true,"station_name":"Duri","is_transit":true,"i_long":106.800832,"distance":3632,"line":1,"time":8,"i_lat":-6.155215},{"transit":false,"station_id":"GGL","station_name":"Grogol","is_transit":false,"distance":1700,"line":5,"i_long":106.788277,"time":3,"i_lat":-6.162021},{"station_name":"Pesing","transit":false,"is_transit":false,"i_lat":-6.161433,"line":5,"time":2,"distance":2036,"i_long":106.771379,"station_id":"PSG"},{"station_id":"TKO","distance":1614,"time":2,"i_lat":-6.1587309999999995,"is_transit":false,"line":5,"i_long":106.756522,"transit":false,"station_name":"Taman Kota"},{"transit":false,"line":5,"i_long":106.737035,"station_name":"Bojongindah","time":2,"i_lat":-6.159876,"station_id":"BOI","is_transit":false,"distance":2334},{"i_lat":-6.162758,"station_name":"Rawa Buaya","line":5,"station_id":"RW","distance":1152,"time":4,"i_long":106.723064,"transit":false,"is_transit":false},{"distance":2504,"i_lat":-6.166068,"transit":false,"is_transit":false,"station_name":"Kalideres","time":3,"i_long":106.701612,"station_id":"KDS","line":5},{"transit":false,"station_id":"PI","line":5,"station_name":"Poris","time":3,"i_long":106.679458,"i_lat":-6.169933,"is_transit":false,"distance":2548},{"time":3,"i_long":106.665036,"i_lat":-6.171811,"is_transit":false,"distance":1834,"line":5,"station_id":"BPR","station_name":"Batuceper","transit":false}]]}