{"data":[[{"is_transit":false,"time":0,"station_id":"KRI","distance":0,"i_lat":-6.224515,"station_name":"Kranji","i_long":106.977657,"transit":false,"line":1},{"distance":3097,"transit":false,"i_lat":-6.219053,"time":3,"i_long":106.951283,"is_transit":false,"station_name":"Cakung","station_id":"CUK","line":1},{"transit":false,"station_name":"Klenderbaru","distance":1385,"is_transit":false,"time":8,"station_id":"KLDB","line":1,"i_lat":-6.217455,"i_long":106.939679},{"time":1,"station_id":"BUA","is_transit":false,"i_lat":-6.215568,"distance":1305,"station_name":"Buaran","i_long":106.922662,"transit":false,"line":1},{"is_transit":false,"station_name":"Klender","line":1,"transit":false,"distance":3100,"station_id":"KLD","time":2,"i_lat":-6.2135,"i_long":106.899548},{"transit":false,"i_lat":-6.215091,"time":3,"distance":3395,"station_name":"Jatinegara","i_long":106.86807400000001,"line":1,"is_transit":false,"station_id":"JNG"},{"transit":false,"i_long":106.858896,"time":2,"distance":1377,"station_name":"Matraman","i_lat":-6.212485,"station_id":"MTR","line":1,"is_transit":false},{"distance":1275,"is_transit":true,"station_name":"Manggarai","i_lat":-6.209883,"i_long":106.84912,"transit":true,"line":2,"time":2,"station_id":"MRI"},{"station_name":"Tebet","transit":false,"station_id":"TEB","is_transit":false,"i_long":106.857948,"distance":2610,"line":2,"i_lat":-6.226659,"time":4},{"station_name":"Cawang","station_id":"CW","time":2,"is_transit":false,"i_lat":-6.242512,"distance":1230,"i_long":106.856607,"line":2,"transit":false},{"transit":false,"distance":1546,"station_id":"DRN","i_lat":-6.255332,"i_long":106.85449,"is_transit":false,"station_name":"Duren Kalibata","time":3,"line":2},{"transit":false,"station_name":"Pasar Minggu Baru","line":2,"i_long":106.851577,"is_transit":false,"i_lat":-6.263214,"station_id":"PSMB","time":2,"distance":824},{"station_name":"Pasar Minggu","transit":false,"i_lat":-6.2842400000000005,"distance":2380,"i_long":106.843999,"time":2,"is_transit":false,"line":2,"station_id":"PSM"},{"transit":false,"distance":2820,"station_name":"Tanjung Barat","i_lat":-6.3080680000000005,"station_id":"TNT","i_long":106.838896,"time":4,"line":2,"is_transit":false},{"i_lat":-6.330363,"station_name":"Lenteng Agung","i_long":106.832616,"station_id":"LNA","time":3,"transit":false,"line":2,"is_transit":false,"distance":2671},{"station_id":"UP","i_long":106.834175,"line":2,"transit":false,"time":2,"station_name":"Univ. Pancasila","distance":1029,"i_lat":-6.339291,"is_transit":false},{"line":2,"distance":2264,"station_name":"Univ. Indonesia","station_id":"UI","transit":false,"i_lat":-6.360749,"is_transit":false,"time":3,"i_long":106.831474}],[{"line":1,"transit":false,"station_name":"Kranji","station_id":"KRI","i_long":106.977657,"i_lat":-6.224515,"time":0,"is_transit":false,"distance":0},{"is_transit":false,"i_long":106.951283,"distance":3097,"time":3,"station_name":"Cakung","transit":false,"station_id":"CUK","line":1,"i_lat":-6.219053},{"time":8,"station_id":"KLDB","i_lat":-6.217455,"line":1,"is_transit":false,"distance":1385,"transit":false,"station_name":"Klenderbaru","i_long":106.939679},{"transit":false,"i_lat":-6.215568,"line":1,"distance":1305,"time":1,"i_long":106.922662,"station_id":"BUA","station_name":"Buaran","is_transit":false},{"time":2,"station_name":"Klender","i_lat":-6.2135,"i_long":106.899548,"line":1,"distance":3100,"is_transit":false,"station_id":"KLD","transit":false},{"station_id":"JNG","i_lat":-6.215091,"i_long":106.86807400000001,"line":1,"is_transit":true,"distance":3395,"time":3,"transit":true,"station_name":"Jatinegara"},{"station_name":"Pondok Jati","station_id":"POK","distance":1236,"transit":false,"i_long":106.861737,"time":2,"i_lat":-6.209188,"is_transit":false,"line":11},{"station_name":"Kramat","station_id":"KMT","transit":false,"line":11,"i_long":106.855437,"time":2,"i_lat":-6.193792,"distance":1829,"is_transit":false},{"i_lat":-6.185975,"line":11,"is_transit":false,"station_id":"GST","transit":false,"distance":973,"time":1,"station_name":"Gang Sentiong","i_long":106.850107},{"is_transit":false,"i_long":106.84368,"transit":false,"station_name":"Pasar Senen","line":11,"time":8,"station_id":"PSE","distance":1567,"i_lat":-6.174784},{"distance":1436,"is_transit":false,"i_long":106.839204,"time":4,"transit":false,"line":11,"station_name":"Kemayoran","station_id":"KMO","i_lat":-6.161728},{"line":11,"is_transit":false,"time":5,"i_lat":-6.14505,"distance":1901,"transit":false,"station_id":"RJW","station_name":"Rajawali","i_long":106.836569},{"transit":true,"line":4,"is_transit":true,"station_name":"Kampung Bandan","distance":1444,"time":3,"station_id":"KPB","i_long":106.826365,"i_lat":-6.132549},{"line":1,"station_id":"AK","i_lat":-6.144674,"transit":false,"time":9,"i_long":106.79867,"station_name":"Angke","distance":4102,"is_transit":false},{"time":4,"distance":1230,"station_id":"DU","i_lat":-6.155215,"transit":false,"station_name":"Duri","is_transit":false,"i_long":106.800832,"line":1},{"distance":3632,"station_name":"Tanah Abang","transit":false,"time":8,"line":1,"i_lat":-6.185545,"is_transit":false,"station_id":"THB","i_long":106.811091},{"is_transit":false,"line":1,"transit":false,"station_id":"KAT","i_long":106.816351,"time":5,"i_lat":-6.20132,"station_name":"Karet","distance":2029},{"is_transit":false,"line":1,"distance":471,"transit":false,"time":1,"station_id":"SUDB","i_lat":-6.201433,"i_long":106.819881,"station_name":"Sudirman Baru"},{"transit":false,"line":1,"station_id":"SUD","distance":280,"i_long":106.822649,"station_name":"Sudirman","time":1,"is_transit":false,"i_lat":-6.202263},{"time":4,"i_long":106.84912,"station_id":"MRI","is_transit":true,"transit":true,"station_name":"Manggarai","i_lat":-6.209883,"line":2,"distance":3186},{"i_long":106.857948,"station_name":"Tebet","is_transit":false,"transit":false,"time":4,"line":2,"station_id":"TEB","i_lat":-6.226659,"distance":2610},{"transit":false,"distance":1230,"i_long":106.856607,"line":2,"station_name":"Cawang","is_transit":false,"i_lat":-6.242512,"station_id":"CW","time":2},{"is_transit":false,"transit":false,"i_long":106.85449,"station_id":"DRN","line":2,"distance":1546,"i_lat":-6.255332,"time":3,"station_name":"Duren Kalibata"},{"i_lat":-6.263214,"time":2,"i_long":106.851577,"line":2,"transit":false,"is_transit":false,"station_name":"Pasar Minggu Baru","station_id":"PSMB","distance":824},{"station_name":"Pasar Minggu","time":2,"transit":false,"i_lat":-6.2842400000000005,"i_long":106.843999,"station_id":"PSM","is_transit":false,"line":2,"distance":2380},{"is_transit":false,"station_id":"TNT","transit":false,"i_long":106.838896,"line":2,"time":4,"i_lat":-6.3080680000000005,"distance":2820,"station_name":"Tanjung Barat"},{"station_name":"Lenteng Agung","time":3,"transit":false,"is_transit":false,"station_id":"LNA","i_lat":-6.330363,"i_long":106.832616,"distance":2671,"line":2},{"station_name":"Univ. Pancasila","time":2,"distance":1029,"transit":false,"station_id":"UP","i_long":106.834175,"line":2,"i_lat":-6.339291,"is_transit":false},{"transit":false,"distance":2264,"is_transit":false,"time":3,"i_long":106.831474,"line":2,"station_name":"Univ. Indonesia","i_lat":-6.360749,"station_id":"UI"}],[{"time":0,"station_id":"KRI","i_long":106.977657,"is_transit":false,"line":1,"i_lat":-6.224515,"transit":false,"station_name":"Kranji","distance":0},{"station_name":"Cakung","line":1,"i_lat":-6.219053,"time":3,"distance":3097,"transit":false,"i_long":106.951283,"is_transit":false,"station_id":"CUK"},{"line":1,"transit":false,"i_lat":-6.217455,"i_long":106.939679,"time":8,"distance":1385,"station_name":"Klenderbaru","is_transit":false,"station_id":"KLDB"},{"distance":1305,"time":1,"transit":false,"line":1,"i_lat":-6.215568,"i_long":106.922662,"station_id":"BUA","station_name":"Buaran","is_transit":false},{"station_id":"KLD","station_name":"Klender","transit":false,"line":1,"is_transit":false,"i_long":106.899548,"i_lat":-6.2135,"time":2,"distance":3100},{"is_transit":true,"i_long":106.86807400000001,"distance":3395,"transit":true,"station_name":"Jatinegara","station_id":"JNG","line":1,"i_lat":-6.215091,"time":3},{"is_transit":false,"transit":false,"i_lat":-6.209188,"i_long":106.861737,"time":2,"station_id":"POK","station_name":"Pondok Jati","distance":1236,"line":11},{"line":11,"is_transit":false,"i_lat":-6.193792,"i_long":106.855437,"station_id":"KMT","distance":1829,"station_name":"Kramat","time":2,"transit":false},{"station_id":"GST","is_transit":false,"transit":false,"i_long":106.850107,"station_name":"Gang Sentiong","i_lat":-6.185975,"line":11,"distance":973,"time":1},{"i_lat":-6.174784,"line":11,"i_long":106.84368,"is_transit":false,"distance":1567,"station_name":"Pasar Senen","time":8,"station_id":"PSE","transit":false},{"transit":false,"is_transit":false,"time":4,"station_id":"KMO","line":11,"station_name":"Kemayoran","i_lat":-6.161728,"distance":1436,"i_long":106.839204},{"station_id":"RJW","station_name":"Rajawali","time":5,"distance":1901,"i_long":106.836569,"transit":false,"i_lat":-6.14505,"line":11,"is_transit":false},{"i_lat":-6.132549,"i_long":106.826365,"distance":1444,"transit":true,"line":4,"is_transit":true,"time":3,"station_id":"KPB","station_name":"Kampung Bandan"},{"is_transit":true,"distance":1364,"i_lat":-6.137569,"line":2,"time":3,"i_long":106.812439,"station_id":"JAKK","transit":true,"station_name":"Jakarta Kota"},{"i_lat":-6.141205,"i_long":106.820901,"line":2,"time":4,"station_name":"Jayakarta","station_id":"JAY","is_transit":false,"transit":false,"distance":1264},{"is_transit":false,"station_id":"MGB","time":2,"i_lat":-6.149769,"line":2,"station_name":"Manggabesar","transit":false,"distance":1080,"i_long":106.82482},{"distance":906,"i_long":106.827103,"i_lat":-6.160725,"line":2,"transit":false,"is_transit":false,"station_id":"SW","station_name":"Sawah Besar","time":2},{"transit":false,"distance":1149,"i_lat":-6.166716,"time":2,"is_transit":false,"station_name":"Juanda","station_id":"JUA","i_long":106.828284,"line":2},{"station_name":"Gondangdia","distance":2015,"i_long":106.832183,"line":2,"time":4,"i_lat":-6.186295,"transit":false,"is_transit":false,"station_id":"GDD"},{"i_long":106.840169,"transit":false,"line":2,"station_name":"Cikini","is_transit":false,"distance":1750,"station_id":"CKI","i_lat":-6.198556,"time":3},{"i_long":106.84912,"time":4,"station_id":"MRI","i_lat":-6.209883,"transit":false,"distance":1590,"station_name":"Manggarai","is_transit":false,"line":2},{"time":4,"is_transit":false,"distance":2610,"i_lat":-6.226659,"i_long":106.857948,"station_id":"TEB","line":2,"transit":false,"station_name":"Tebet"},{"distance":1230,"transit":false,"station_name":"Cawang","i_lat":-6.242512,"i_long":106.856607,"time":2,"is_transit":false,"station_id":"CW","line":2},{"i_long":106.85449,"station_name":"Duren Kalibata","transit":false,"is_transit":false,"line":2,"station_id":"DRN","i_lat":-6.255332,"distance":1546,"time":3},{"station_id":"PSMB","line":2,"i_lat":-6.263214,"is_transit":false,"i_long":106.851577,"station_name":"Pasar Minggu Baru","time":2,"distance":824,"transit":false},{"is_transit":false,"transit":false,"i_lat":-6.2842400000000005,"line":2,"i_long":106.843999,"station_name":"Pasar Minggu","distance":2380,"time":2,"station_id":"PSM"},{"station_name":"Tanjung Barat","station_id":"TNT","line":2,"time":4,"is_transit":false,"transit":false,"distance":2820,"i_long":106.838896,"i_lat":-6.3080680000000005},{"i_lat":-6.330363,"transit":false,"station_name":"Lenteng Agung","is_transit":false,"i_long":106.832616,"station_id":"LNA","distance":2671,"line":2,"time":3},{"time":2,"i_lat":-6.339291,"is_transit":false,"i_long":106.834175,"line":2,"station_id":"UP","station_name":"Univ. Pancasila","distance":1029,"transit":false},{"line":2,"distance":2264,"is_transit":false,"time":3,"transit":false,"station_name":"Univ. Indonesia","i_long":106.831474,"station_id":"UI","i_lat":-6.360749}]]}