{"data":[[{"time":0,"station_name":"Kranji","station_id":"KRI","i_lat":-6.224515,"is_transit":false,"distance":0,"i_long":106.977657,"line":1,"transit":false},{"i_long":106.951283,"line":1,"is_transit":false,"station_id":"CUK","station_name":"Cakung","transit":false,"distance":3097,"time":3,"i_lat":-6.219053},{"transit":false,"station_name":"Klenderbaru","distance":1385,"i_lat":-6.217455,"time":8,"station_id":"KLDB","i_long":106.939679,"is_transit":false,"line":1},{"station_id":"BUA","i_lat":-6.215568,"i_long":106.922662,"transit":false,"station_name":"Buaran","time":1,"distance":1305,"is_transit":false,"line":1},{"time":2,"i_long":106.899548,"transit":false,"station_name":"Klender","i_lat":-6.2135,"distance":3100,"station_id":"KLD","is_transit":false,"line":1},{"station_id":"JNG","is_transit":true,"station_name":"Jatinegara","distance":3395,"line":1,"time":3,"i_long":106.86807400000001,"i_lat":-6.215091,"transit":true},{"is_transit":false,"station_name":"Pondok Jati","i_lat":-6.209188,"transit":false,"time":2,"station_id":"POK","distance":1236,"i_long":106.861737,"line":11},{"distance":1829,"time":2,"transit":false,"is_transit":false,"i_long":106.855437,"station_name":"Kramat","station_id":"KMT","i_lat":-6.193792,"line":11},{"time":1,"distance":973,"is_transit":false,"i_lat":-6.185975,"station_name":"Gang Sentiong","station_id":"GST","i_long":106.850107,"line":11,"transit":false},{"time":8,"line":11,"transit":false,"station_id":"PSE","station_name":"Pasar Senen","distance":1567,"is_transit":false,"i_long":106.84368,"i_lat":-6.174784},{"is_transit":false,"station_name":"Kemayoran","i_lat":-6.161728,"line":11,"transit":false,"i_long":106.839204,"station_id":"KMO","distance":1436,"time":4},{"station_id":"RJW","station_name":"Rajawali","time":5,"distance":1901,"transit":false,"i_long":106.836569,"line":11,"i_lat":-6.14505,"is_transit":false}],[{"station_name":"Kranji","transit":false,"i_lat":-6.224515,"distance":0,"i_long":106.977657,"time":0,"is_transit":false,"station_id":"KRI","line":1},{"i_lat":-6.219053,"is_transit":false,"time":3,"station_id":"CUK","i_long":106.951283,"station_name":"Cakung","line":1,"distance":3097,"transit":false},{"is_transit":false,"station_id":"KLDB","i_long":106.939679,"i_lat":-6.217455,"time":8,"station_name":"Klenderbaru","distance":1385,"transit":false,"line":1},{"station_id":"BUA","i_long":106.922662,"transit":false,"distance":1305,"line":1,"i_lat":-6.215568,"time":1,"station_name":"Buaran","is_transit":false},{"time":2,"is_transit":false,"i_lat":-6.2135,"i_long":106.899548,"transit":false,"station_id":"KLD","line":1,"distance":3100,"station_name":"Klender"},{"transit":false,"i_lat":-6.215091,"i_long":106.86807400000001,"distance":3395,"time":3,"is_transit":false,"line":1,"station_name":"Jatinegara","station_id":"JNG"},{"i_long":106.858896,"station_name":"Matraman","i_lat":-6.212485,"station_id":"MTR","is_transit":false,"transit":false,"distance":1377,"line":1,"time":2},{"station_id":"MRI","station_name":"Manggarai","time":2,"is_transit":false,"i_lat":-6.209883,"distance":1275,"line":2,"i_long":106.84912,"transit":false},{"i_long":106.822649,"distance":3186,"station_id":"SUD","transit":false,"time":4,"line":1,"i_lat":-6.202263,"station_name":"Sudirman","is_transit":false},{"station_name":"Sudirman Baru","is_transit":false,"i_lat":-6.201433,"station_id":"SUDB","distance":280,"i_long":106.819881,"line":1,"transit":false,"time":1},{"line":1,"station_name":"Karet","station_id":"KAT","distance":471,"i_long":106.816351,"transit":false,"i_lat":-6.20132,"time":1,"is_transit":false},{"line":1,"transit":false,"i_long":106.811091,"distance":2029,"time":5,"station_name":"Tanah Abang","station_id":"THB","i_lat":-6.185545,"is_transit":false},{"station_id":"DU","i_lat":-6.155215,"station_name":"Duri","transit":false,"i_long":106.800832,"is_transit":false,"distance":3632,"line":1,"time":8},{"time":4,"i_lat":-6.144674,"station_name":"Angke","i_long":106.79867,"transit":false,"station_id":"AK","is_transit":false,"line":1,"distance":1230},{"line":4,"i_lat":-6.132549,"i_long":106.826365,"is_transit":true,"station_id":"KPB","station_name":"Kampung Bandan","transit":true,"time":9,"distance":4102},{"distance":1444,"station_id":"RJW","line":11,"is_transit":false,"time":3,"transit":false,"i_lat":-6.14505,"i_long":106.836569,"station_name":"Rajawali"}],[{"distance":0,"is_transit":false,"line":1,"transit":false,"i_lat":-6.224515,"i_long":106.977657,"time":0,"station_id":"KRI","station_name":"Kranji"},{"time":3,"i_lat":-6.219053,"station_name":"Cakung","transit":false,"i_long":106.951283,"distance":3097,"line":1,"station_id":"CUK","is_transit":false},{"i_lat":-6.217455,"line":1,"distance":1385,"is_transit":false,"time":8,"transit":false,"station_id":"KLDB","station_name":"Klenderbaru","i_long":106.939679},{"i_lat":-6.215568,"station_id":"BUA","station_name":"Buaran","time":1,"line":1,"is_transit":false,"i_long":106.922662,"distance":1305,"transit":false},{"i_long":106.899548,"is_transit":false,"line":1,"time":2,"transit":false,"station_name":"Klender","distance":3100,"station_id":"KLD","i_lat":-6.2135},{"i_lat":-6.215091,"distance":3395,"i_long":106.86807400000001,"line":1,"is_transit":false,"station_name":"Jatinegara","time":3,"transit":false,"station_id":"JNG"},{"transit":false,"distance":1377,"i_long":106.858896,"is_transit":false,"station_id":"MTR","time":2,"station_name":"Matraman","i_lat":-6.212485,"line":1},{"line":2,"time":2,"transit":true,"station_name":"Manggarai","station_id":"MRI","i_lat":-6.209883,"is_transit":true,"i_long":106.84912,"distance":1275},{"is_transit":false,"distance":1590,"time":4,"i_lat":-6.198556,"i_long":106.840169,"station_id":"CKI","line":2,"station_name":"Cikini","transit":false},{"line":2,"station_id":"GDD","station_name":"Gondangdia","transit":false,"is_transit":false,"i_long":106.832183,"time":3,"distance":1750,"i_lat":-6.186295},{"is_transit":false,"line":2,"i_long":106.828284,"transit":false,"station_name":"Juanda","distance":2015,"station_id":"JUA","i_lat":-6.166716,"time":4},{"transit":false,"i_lat":-6.160725,"line":2,"distance":1149,"station_id":"SW","time":2,"is_transit":false,"i_long":106.827103,"station_name":"Sawah Besar"},{"i_lat":-6.149769,"station_name":"Manggabesar","line":2,"i_long":106.82482,"time":2,"station_id":"MGB","is_transit":false,"transit":false,"distance":906},{"station_name":"Jayakarta","transit":false,"is_transit":false,"i_lat":-6.141205,"line":2,"station_id":"JAY","distance":1080,"i_long":106.820901,"time":2},{"transit":true,"station_id":"JAKK","station_name":"Jakarta Kota","distance":1264,"is_transit":true,"time":4,"i_lat":-6.137569,"i_long":106.812439,"line":2},{"is_transit":true,"line":4,"station_id":"KPB","time":3,"i_lat":-6.132549,"transit":true,"i_long":106.826365,"distance":1364,"station_name":"Kampung Bandan"},{"i_lat":-6.14505,"i_long":106.836569,"transit":false,"time":3,"is_transit":false,"line":11,"distance":1444,"station_name":"Rajawali","station_id":"RJW"}]]}