{"data":[[{"i_long":106.977657,"distance":0,"station_name":"Kranji","transit":false,"i_lat":-6.224515,"is_transit":false,"time":0,"station_id":"KRI","line":1},{"transit":false,"i_long":106.951283,"time":3,"station_id":"CUK","station_name":"Cakung","is_transit":false,"i_lat":-6.219053,"line":1,"distance":3097},{"station_name":"Klenderbaru","i_lat":-6.217455,"line":1,"is_transit":false,"distance":1385,"station_id":"KLDB","i_long":106.939679,"transit":false,"time":8},{"is_transit":false,"i_lat":-6.215568,"i_long":106.922662,"station_name":"Buaran","distance":1305,"time":1,"line":1,"transit":false,"station_id":"BUA"},{"i_long":106.899548,"time":2,"line":1,"is_transit":false,"station_id":"KLD","transit":false,"station_name":"Klender","distance":3100,"i_lat":-6.2135},{"distance":3395,"station_name":"Jatinegara","transit":false,"is_transit":false,"time":3,"station_id":"JNG","i_long":106.86807400000001,"line":1,"i_lat":-6.215091},{"i_long":106.858896,"i_lat":-6.212485,"station_id":"MTR","transit":false,"line":1,"distance":1377,"station_name":"Matraman","is_transit":false,"time":2},{"transit":false,"station_id":"MRI","i_long":106.84912,"station_name":"Manggarai","line":2,"distance":1275,"is_transit":false,"time":2,"i_lat":-6.209883},{"is_transit":false,"i_lat":-6.202263,"line":1,"station_name":"Sudirman","time":4,"station_id":"SUD","i_long":106.822649,"distance":3186,"transit":false},{"i_lat":-6.201433,"distance":280,"i_long":106.819881,"line":1,"is_transit":false,"transit":false,"station_id":"SUDB","time":1,"station_name":"Sudirman Baru"},{"i_long":106.816351,"line":1,"time":1,"is_transit":false,"station_id":"KAT","i_lat":-6.20132,"station_name":"Karet","distance":471,"transit":false},{"i_lat":-6.185545,"transit":true,"line":1,"is_transit":true,"station_name":"Tanah Abang","time":5,"station_id":"THB","distance":2029,"i_long":106.811091},{"i_long":106.79689,"line":6,"distance":3191,"i_lat":-6.207404,"station_name":"Palmerah","time":6,"station_id":"PLM","transit":false,"is_transit":false},{"distance":3737,"i_long":106.780334,"transit":false,"is_transit":false,"station_id":"KBY","time":7,"line":6,"station_name":"Kebayoran","i_lat":-6.237242},{"line":6,"station_id":"PDJ","transit":false,"time":8,"is_transit":false,"station_name":"Pondokranji","i_lat":-6.276362,"distance":6218,"i_long":106.74273},{"transit":false,"i_long":106.728916,"i_lat":-6.288927,"line":6,"station_id":"JMU","distance":2179,"time":3,"station_name":"Jurangmangu","is_transit":false},{"station_id":"SDM","time":4,"i_lat":-6.296963,"line":6,"is_transit":false,"transit":false,"i_long":106.712277,"distance":1994,"station_name":"Sudimara"},{"i_long":106.675475,"line":6,"transit":false,"distance":4566,"is_transit":false,"station_id":"RU","time":6,"station_name":"Rawa Buntu","i_lat":-6.314823},{"distance":2413,"time":4,"line":6,"i_long":106.66566,"is_transit":false,"station_id":"SRP","transit":false,"i_lat":-6.319871,"station_name":"Serpong"},{"is_transit":false,"line":3,"station_name":"Cisauk","station_id":"CSK","distance":1784,"i_long":106.640411,"i_lat":-6.32484,"time":4,"transit":false},{"station_id":"CC","i_long":106.617853,"line":3,"time":4,"station_name":"Cicayur","is_transit":false,"transit":false,"i_lat":-6.329547,"distance":2519},{"transit":false,"distance":5968,"time":8,"line":6,"station_name":"Parung Panjang","is_transit":false,"station_id":"PRP","i_lat":-6.3441410000000005,"i_long":106.568863}],[{"is_transit":false,"station_id":"KRI","i_long":106.977657,"i_lat":-6.224515,"transit":false,"station_name":"Kranji","line":1,"distance":0,"time":0},{"is_transit":false,"i_lat":-6.219053,"i_long":106.951283,"line":1,"time":3,"station_name":"Cakung","transit":false,"distance":3097,"station_id":"CUK"},{"is_transit":false,"time":8,"transit":false,"i_lat":-6.217455,"i_long":106.939679,"station_name":"Klenderbaru","station_id":"KLDB","line":1,"distance":1385},{"station_id":"BUA","i_lat":-6.215568,"time":1,"i_long":106.922662,"transit":false,"distance":1305,"station_name":"Buaran","line":1,"is_transit":false},{"i_long":106.899548,"station_name":"Klender","station_id":"KLD","time":2,"line":1,"distance":3100,"i_lat":-6.2135,"transit":false,"is_transit":false},{"i_lat":-6.215091,"distance":3395,"line":1,"time":3,"transit":true,"station_name":"Jatinegara","i_long":106.86807400000001,"is_transit":true,"station_id":"JNG"},{"line":11,"distance":1236,"station_name":"Pondok Jati","time":2,"i_long":106.861737,"i_lat":-6.209188,"is_transit":false,"transit":false,"station_id":"POK"},{"i_lat":-6.193792,"line":11,"distance":1829,"time":2,"is_transit":false,"transit":false,"i_long":106.855437,"station_name":"Kramat","station_id":"KMT"},{"time":1,"is_transit":false,"station_id":"GST","i_lat":-6.185975,"distance":973,"line":11,"transit":false,"station_name":"Gang Sentiong","i_long":106.850107},{"time":8,"is_transit":false,"distance":1567,"i_lat":-6.174784,"i_long":106.84368,"transit":false,"station_id":"PSE","station_name":"Pasar Senen","line":11},{"i_long":106.839204,"is_transit":false,"transit":false,"distance":1436,"line":11,"time":4,"i_lat":-6.161728,"station_id":"KMO","station_name":"Kemayoran"},{"is_transit":false,"transit":false,"station_id":"RJW","line":11,"distance":1901,"station_name":"Rajawali","i_long":106.836569,"i_lat":-6.14505,"time":5},{"station_id":"KPB","i_long":106.826365,"time":3,"is_transit":true,"line":4,"station_name":"Kampung Bandan","distance":1444,"transit":true,"i_lat":-6.132549},{"station_name":"Angke","line":1,"time":9,"i_long":106.79867,"is_transit":false,"distance":4102,"transit":false,"i_lat":-6.144674,"station_id":"AK"},{"transit":false,"station_name":"Duri","is_transit":false,"station_id":"DU","distance":1230,"time":4,"i_long":106.800832,"i_lat":-6.155215,"line":1},{"time":8,"station_id":"THB","transit":true,"station_name":"Tanah Abang","line":1,"is_transit":true,"i_lat":-6.185545,"distance":3632,"i_long":106.811091},{"i_lat":-6.207404,"transit":false,"station_name":"Palmerah","distance":3191,"time":6,"is_transit":false,"station_id":"PLM","line":6,"i_long":106.79689},{"station_id":"KBY","is_transit":false,"transit":false,"i_long":106.780334,"distance":3737,"i_lat":-6.237242,"line":6,"station_name":"Kebayoran","time":7},{"transit":false,"station_id":"PDJ","line":6,"i_long":106.74273,"i_lat":-6.276362,"distance":6218,"station_name":"Pondokranji","is_transit":false,"time":8},{"i_lat":-6.288927,"transit":false,"time":3,"station_id":"JMU","distance":2179,"station_name":"Jurangmangu","i_long":106.728916,"line":6,"is_transit":false},{"is_transit":false,"station_name":"Sudimara","i_long":106.712277,"transit":false,"time":4,"i_lat":-6.296963,"line":6,"distance":1994,"station_id":"SDM"},{"time":6,"line":6,"distance":4566,"i_lat":-6.314823,"station_name":"Rawa Buntu","station_id":"RU","i_long":106.675475,"is_transit":false,"transit":false},{"line":6,"distance":2413,"is_transit":false,"station_id":"SRP","i_lat":-6.319871,"i_long":106.66566,"time":4,"station_name":"Serpong","transit":false},{"station_name":"Cisauk","distance":1784,"station_id":"CSK","transit":false,"i_lat":-6.32484,"time":4,"i_long":106.640411,"line":3,"is_transit":false},{"station_name":"Cicayur","is_transit":false,"station_id":"CC","distance":2519,"line":3,"i_lat":-6.329547,"i_long":106.617853,"transit":false,"time":4},{"station_id":"PRP","distance":5968,"i_lat":-6.3441410000000005,"line":6,"transit":false,"station_name":"Parung Panjang","i_long":106.568863,"is_transit":false,"time":8}],[{"distance":0,"is_transit":false,"time":0,"station_name":"Kranji","i_lat":-6.224515,"i_long":106.977657,"station_id":"KRI","transit":false,"line":1},{"i_lat":-6.219053,"line":1,"i_long":106.951283,"time":3,"station_name":"Cakung","distance":3097,"is_transit":false,"station_id":"CUK","transit":false},{"is_transit":false,"line":1,"station_id":"KLDB","i_lat":-6.217455,"distance":1385,"station_name":"Klenderbaru","transit":false,"time":8,"i_long":106.939679},{"transit":false,"distance":1305,"station_name":"Buaran","is_transit":false,"time":1,"station_id":"BUA","i_lat":-6.215568,"i_long":106.922662,"line":1},{"transit":false,"is_transit":false,"time":2,"station_name":"Klender","i_long":106.899548,"i_lat":-6.2135,"line":1,"station_id":"KLD","distance":3100},{"station_name":"Jatinegara","distance":3395,"i_lat":-6.215091,"is_transit":false,"transit":false,"i_long":106.86807400000001,"line":1,"time":3,"station_id":"JNG"},{"distance":1377,"transit":false,"is_transit":false,"i_long":106.858896,"station_id":"MTR","i_lat":-6.212485,"line":1,"time":2,"station_name":"Matraman"},{"i_long":106.84912,"station_id":"MRI","i_lat":-6.209883,"time":2,"distance":1275,"transit":true,"is_transit":true,"line":2,"station_name":"Manggarai"},{"transit":false,"station_name":"Cikini","distance":1590,"is_transit":false,"i_lat":-6.198556,"time":4,"station_id":"CKI","i_long":106.840169,"line":2},{"line":2,"time":3,"i_long":106.832183,"is_transit":false,"transit":false,"i_lat":-6.186295,"station_name":"Gondangdia","distance":1750,"station_id":"GDD"},{"station_name":"Juanda","is_transit":false,"station_id":"JUA","i_lat":-6.166716,"distance":2015,"time":4,"i_long":106.828284,"transit":false,"line":2},{"line":2,"transit":false,"distance":1149,"time":2,"station_name":"Sawah Besar","is_transit":false,"station_id":"SW","i_lat":-6.160725,"i_long":106.827103},{"i_lat":-6.149769,"i_long":106.82482,"transit":false,"station_name":"Manggabesar","line":2,"is_transit":false,"station_id":"MGB","distance":906,"time":2},{"distance":1080,"time":2,"i_lat":-6.141205,"i_long":106.820901,"is_transit":false,"station_name":"Jayakarta","transit":false,"station_id":"JAY","line":2},{"transit":true,"i_lat":-6.137569,"station_id":"JAKK","station_name":"Jakarta Kota","line":2,"time":4,"is_transit":true,"i_long":106.812439,"distance":1264},{"station_name":"Kampung Bandan","transit":true,"line":4,"is_transit":true,"i_lat":-6.132549,"distance":1364,"i_long":106.826365,"time":3,"station_id":"KPB"},{"time":9,"i_long":106.79867,"i_lat":-6.144674,"distance":4102,"line":1,"station_name":"Angke","transit":false,"station_id":"AK","is_transit":false},{"is_transit":false,"time":4,"line":1,"transit":false,"distance":1230,"i_long":106.800832,"station_name":"Duri","i_lat":-6.155215,"station_id":"DU"},{"line":1,"station_id":"THB","is_transit":true,"station_name":"Tanah Abang","time":8,"transit":true,"i_lat":-6.185545,"distance":3632,"i_long":106.811091},{"time":6,"distance":3191,"i_lat":-6.207404,"station_name":"Palmerah","transit":false,"is_transit":false,"line":6,"station_id":"PLM","i_long":106.79689},{"distance":3737,"i_long":106.780334,"station_name":"Kebayoran","is_transit":false,"time":7,"station_id":"KBY","i_lat":-6.237242,"transit":false,"line":6},{"i_lat":-6.276362,"distance":6218,"is_transit":false,"transit":false,"i_long":106.74273,"station_id":"PDJ","time":8,"line":6,"station_name":"Pondokranji"},{"line":6,"time":3,"distance":2179,"station_id":"JMU","i_lat":-6.288927,"station_name":"Jurangmangu","is_transit":false,"transit":false,"i_long":106.728916},{"time":4,"distance":1994,"i_lat":-6.296963,"station_name":"Sudimara","station_id":"SDM","i_long":106.712277,"transit":false,"line":6,"is_transit":false},{"distance":4566,"time":6,"line":6,"station_id":"RU","transit":false,"i_lat":-6.314823,"station_name":"Rawa Buntu","i_long":106.675475,"is_transit":false},{"transit":false,"i_long":106.66566,"is_transit":false,"distance":2413,"station_id":"SRP","i_lat":-6.319871,"line":6,"station_name":"Serpong","time":4},{"distance":1784,"station_id":"CSK","line":3,"time":4,"is_transit":false,"transit":false,"i_long":106.640411,"i_lat":-6.32484,"station_name":"Cisauk"},{"transit":false,"is_transit":false,"i_lat":-6.329547,"distance":2519,"i_long":106.617853,"station_name":"Cicayur","time":4,"station_id":"CC","line":3},{"line":6,"station_id":"PRP","time":8,"distance":5968,"transit":false,"station_name":"Parung Panjang","i_lat":-6.3441410000000005,"i_long":106.568863,"is_transit":false}],[{"distance":0,"is_transit":false,"station_id":"KRI","line":1,"i_long":106.977657,"station_name":"Kranji","transit":false,"i_lat":-6.224515,"time":0},{"i_long":106.951283,"line":1,"distance":3097,"transit":false,"station_name":"Cakung","time":3,"is_transit":false,"station_id":"CUK","i_lat":-6.219053},{"transit":false,"station_name":"Klenderbaru","time":8,"i_lat":-6.217455,"station_id":"KLDB","is_transit":false,"i_long":106.939679,"line":1,"distance":1385},{"station_id":"BUA","i_lat":-6.215568,"i_long":106.922662,"line":1,"transit":false,"station_name":"Buaran","time":1,"distance":1305,"is_transit":false},{"time":2,"i_lat":-6.2135,"is_transit":false,"transit":false,"i_long":106.899548,"line":1,"distance":3100,"station_id":"KLD","station_name":"Klender"},{"station_id":"JNG","i_lat":-6.215091,"time":3,"transit":true,"station_name":"Jatinegara","i_long":106.86807400000001,"is_transit":true,"line":1,"distance":3395},{"transit":false,"time":2,"station_name":"Pondok Jati","line":11,"i_lat":-6.209188,"station_id":"POK","i_long":106.861737,"distance":1236,"is_transit":false},{"time":2,"i_lat":-6.193792,"is_transit":false,"line":11,"distance":1829,"transit":false,"station_name":"Kramat","station_id":"KMT","i_long":106.855437},{"distance":973,"station_name":"Gang Sentiong","station_id":"GST","transit":false,"time":1,"is_transit":false,"i_lat":-6.185975,"i_long":106.850107,"line":11},{"i_long":106.84368,"is_transit":false,"station_name":"Pasar Senen","i_lat":-6.174784,"distance":1567,"line":11,"time":8,"station_id":"PSE","transit":false},{"station_name":"Kemayoran","is_transit":false,"line":11,"distance":1436,"transit":false,"station_id":"KMO","i_long":106.839204,"time":4,"i_lat":-6.161728},{"transit":false,"line":11,"station_id":"RJW","time":5,"i_long":106.836569,"is_transit":false,"station_name":"Rajawali","distance":1901,"i_lat":-6.14505},{"time":3,"line":4,"is_transit":true,"station_name":"Kampung Bandan","distance":1444,"transit":true,"i_lat":-6.132549,"station_id":"KPB","i_long":106.826365},{"line":2,"time":3,"station_name":"Jakarta Kota","distance":1364,"i_long":106.812439,"i_lat":-6.137569,"transit":true,"station_id":"JAKK","is_transit":true},{"distance":1264,"station_name":"Jayakarta","is_transit":false,"i_long":106.820901,"time":4,"transit":false,"line":2,"i_lat":-6.141205,"station_id":"JAY"},{"station_id":"MGB","i_lat":-6.149769,"line":2,"station_name":"Manggabesar","is_transit":false,"time":2,"transit":false,"i_long":106.82482,"distance":1080},{"distance":906,"transit":false,"station_name":"Sawah Besar","i_lat":-6.160725,"station_id":"SW","time":2,"is_transit":false,"line":2,"i_long":106.827103},{"station_name":"Juanda","distance":1149,"i_long":106.828284,"i_lat":-6.166716,"transit":false,"station_id":"JUA","is_transit":false,"time":2,"line":2},{"station_name":"Gondangdia","transit":false,"i_lat":-6.186295,"station_id":"GDD","i_long":106.832183,"time":4,"is_transit":false,"line":2,"distance":2015},{"station_name":"Cikini","i_long":106.840169,"i_lat":-6.198556,"line":2,"is_transit":false,"distance":1750,"station_id":"CKI","transit":false,"time":3},{"line":2,"transit":true,"is_transit":true,"i_long":106.84912,"time":4,"station_id":"MRI","i_lat":-6.209883,"distance":1590,"station_name":"Manggarai"},{"i_lat":-6.202263,"transit":false,"distance":3186,"station_name":"Sudirman","time":4,"is_transit":false,"station_id":"SUD","i_long":106.822649,"line":1},{"station_id":"SUDB","time":1,"distance":280,"transit":false,"i_long":106.819881,"line":1,"is_transit":false,"station_name":"Sudirman Baru","i_lat":-6.201433},{"time":1,"line":1,"i_long":106.816351,"distance":471,"transit":false,"station_id":"KAT","station_name":"Karet","i_lat":-6.20132,"is_transit":false},{"i_lat":-6.185545,"distance":2029,"is_transit":true,"station_id":"THB","i_long":106.811091,"station_name":"Tanah Abang","transit":true,"time":5,"line":1},{"distance":3191,"line":6,"station_name":"Palmerah","time":6,"i_lat":-6.207404,"i_long":106.79689,"station_id":"PLM","is_transit":false,"transit":false},{"i_long":106.780334,"distance":3737,"line":6,"time":7,"i_lat":-6.237242,"station_id":"KBY","is_transit":false,"station_name":"Kebayoran","transit":false},{"distance":6218,"line":6,"is_transit":false,"station_name":"Pondokranji","i_lat":-6.276362,"station_id":"PDJ","i_long":106.74273,"time":8,"transit":false},{"transit":false,"i_lat":-6.288927,"distance":2179,"is_transit":false,"line":6,"i_long":106.728916,"station_name":"Jurangmangu","time":3,"station_id":"JMU"},{"station_id":"SDM","station_name":"Sudimara","i_long":106.712277,"i_lat":-6.296963,"transit":false,"time":4,"is_transit":false,"distance":1994,"line":6},{"station_name":"Rawa Buntu","transit":false,"time":6,"station_id":"RU","is_transit":false,"line":6,"i_long":106.675475,"distance":4566,"i_lat":-6.314823},{"station_id":"SRP","i_lat":-6.319871,"distance":2413,"is_transit":false,"time":4,"line":6,"transit":false,"i_long":106.66566,"station_name":"Serpong"},{"distance":1784,"time":4,"i_long":106.640411,"line":3,"transit":false,"station_id":"CSK","station_name":"Cisauk","i_lat":-6.32484,"is_transit":false},{"transit":false,"time":4,"i_long":106.617853,"distance":2519,"station_name":"Cicayur","line":3,"station_id":"CC","is_transit":false,"i_lat":-6.329547},{"station_id":"PRP","line":6,"station_name":"Parung Panjang","transit":false,"distance":5968,"i_long":106.568863,"is_transit":false,"i_lat":-6.3441410000000005,"time":8}]]}