{"data":[[{"transit":false,"station_id":"KRI","is_transit":false,"i_long":106.977657,"line":1,"station_name":"Kranji","i_lat":-6.224515,"distance":0,"time":0},{"i_lat":-6.219053,"station_id":"CUK","is_transit":false,"i_long":106.951283,"station_name":"Cakung","line":0,"time":3,"distance":3097,"transit":false},{"station_id":"KLDB","line":1,"i_long":106.939679,"is_transit":false,"i_lat":-6.217455,"distance":1385,"transit":false,"time":8,"station_name":"Klenderbaru"},{"station_name":"Buaran","distance":1305,"i_lat":-6.215568,"i_long":106.922662,"is_transit":false,"time":1,"transit":false,"line":0,"station_id":"BUA"},{"i_lat":-6.2135,"distance":3100,"i_long":106.899548,"line":1,"transit":false,"is_transit":false,"station_name":"Klender","time":2,"station_id":"KLD"},{"i_long":106.86807400000001,"i_lat":-6.215091,"transit":false,"station_id":"JNG","is_transit":true,"distance":3395,"time":3,"station_name":"Jatinegara","line":0},{"line":1,"distance":1377,"station_name":"Matraman","is_transit":false,"i_lat":-6.212485,"transit":false,"station_id":"MTR","i_long":106.858896,"time":2},{"i_lat":-6.209883,"i_long":106.84912,"is_transit":true,"line":0,"station_id":"MRI","station_name":"Manggarai","distance":1275,"time":2,"transit":false},{"time":4,"station_id":"SUD","is_transit":false,"distance":3186,"transit":false,"i_lat":-6.202263,"station_name":"Sudirman","i_long":106.822649,"line":1},{"i_lat":-6.201433,"station_id":"SUDB","line":1,"is_transit":false,"i_long":106.819881,"transit":false,"distance":280,"station_name":"Sudirman Baru","time":1},{"transit":false,"time":1,"i_lat":-6.20132,"distance":471,"station_id":"KAT","i_long":106.816351,"is_transit":false,"line":1,"station_name":"Karet"},{"i_lat":-6.185545,"i_long":106.811091,"is_transit":true,"station_id":"THB","distance":2029,"station_name":"Tanah Abang","line":1,"time":5,"transit":false},{"station_name":"Duri","is_transit":true,"i_long":106.800832,"station_id":"DU","time":8,"i_lat":-6.155215,"distance":3632,"transit":true,"line":1},{"i_long":106.788277,"station_name":"Grogol","i_lat":-6.162021,"time":3,"transit":false,"station_id":"GGL","is_transit":false,"distance":1700,"line":5},{"transit":false,"distance":2036,"time":2,"i_lat":-6.161433,"is_transit":false,"station_id":"PSG","station_name":"Pesing","line":5,"i_long":106.771379},{"distance":1614,"station_name":"Taman Kota","time":2,"is_transit":false,"station_id":"TKO","transit":false,"i_long":106.756522,"line":5,"i_lat":-6.1587309999999995},{"distance":2334,"station_name":"Bojongindah","is_transit":false,"transit":false,"line":0,"station_id":"BOI","i_lat":-6.159876,"time":2,"i_long":106.737035},{"i_lat":-6.162758,"is_transit":false,"transit":false,"station_id":"RW","distance":1152,"i_long":106.723064,"time":4,"line":5,"station_name":"Rawa Buaya"},{"transit":false,"i_lat":-6.166068,"station_id":"KDS","i_long":106.701612,"line":5,"station_name":"Kalideres","distance":2504,"time":3,"is_transit":false},{"time":3,"distance":2548,"transit":false,"is_transit":false,"i_lat":-6.169933,"i_long":106.679458,"station_name":"Poris","line":5,"station_id":"PI"},{"i_lat":-6.171811,"i_long":106.665036,"is_transit":false,"station_id":"BPR","station_name":"Batuceper","time":3,"distance":1834,"transit":false,"line":0}],[{"distance":0,"line":1,"station_id":"KRI","transit":false,"i_lat":-6.224515,"is_transit":false,"i_long":106.977657,"station_name":"Kranji","time":0},{"station_name":"Cakung","i_lat":-6.219053,"distance":3097,"transit":false,"station_id":"CUK","time":3,"i_long":106.951283,"line":0,"is_transit":false},{"is_transit":false,"i_long":106.939679,"line":1,"station_name":"Klenderbaru","station_id":"KLDB","time":8,"transit":false,"i_lat":-6.217455,"distance":1385},{"station_name":"Buaran","distance":1305,"i_lat":-6.215568,"station_id":"BUA","is_transit":false,"time":1,"transit":false,"i_long":106.922662,"line":0},{"i_long":106.899548,"time":2,"distance":3100,"station_name":"Klender","line":1,"station_id":"KLD","i_lat":-6.2135,"transit":false,"is_transit":false},{"station_id":"JNG","is_transit":true,"line":0,"i_lat":-6.215091,"distance":3395,"station_name":"Jatinegara","transit":true,"i_long":106.86807400000001,"time":3},{"i_lat":-6.209188,"station_name":"Pondok Jati","line":11,"distance":1236,"station_id":"POK","transit":false,"is_transit":false,"i_long":106.861737,"time":2},{"station_id":"KMT","i_long":106.855437,"i_lat":-6.193792,"is_transit":false,"distance":1829,"line":11,"time":2,"station_name":"Kramat","transit":false},{"time":1,"is_transit":false,"transit":false,"station_id":"GST","i_long":106.850107,"station_name":"Gang Sentiong","i_lat":-6.185975,"distance":973,"line":11},{"transit":false,"i_long":106.84368,"distance":1567,"is_transit":false,"station_name":"Pasar Senen","station_id":"PSE","time":8,"i_lat":-6.174784,"line":11},{"line":11,"time":4,"distance":1436,"transit":false,"station_id":"KMO","is_transit":false,"i_long":106.839204,"station_name":"Kemayoran","i_lat":-6.161728},{"is_transit":false,"transit":false,"i_long":106.836569,"station_name":"Rajawali","i_lat":-6.14505,"line":11,"distance":1901,"time":5,"station_id":"RJW"},{"i_long":106.826365,"time":3,"station_id":"KPB","is_transit":true,"transit":true,"i_lat":-6.132549,"line":0,"station_name":"Kampung Bandan","distance":1444},{"station_id":"AK","distance":4102,"is_transit":false,"transit":false,"station_name":"Angke","time":9,"i_lat":-6.144674,"i_long":106.79867,"line":0},{"transit":true,"i_lat":-6.155215,"station_id":"DU","line":1,"time":4,"station_name":"Duri","is_transit":true,"distance":1230,"i_long":106.800832},{"station_name":"Grogol","line":5,"i_lat":-6.162021,"i_long":106.788277,"time":3,"is_transit":false,"distance":1700,"transit":false,"station_id":"GGL"},{"is_transit":false,"distance":2036,"time":2,"i_lat":-6.161433,"station_id":"PSG","i_long":106.771379,"station_name":"Pesing","line":5,"transit":false},{"line":5,"time":2,"is_transit":false,"station_id":"TKO","transit":false,"station_name":"Taman Kota","i_lat":-6.1587309999999995,"i_long":106.756522,"distance":1614},{"distance":2334,"station_id":"BOI","i_lat":-6.159876,"line":0,"station_name":"Bojongindah","is_transit":false,"transit":false,"i_long":106.737035,"time":2},{"i_long":106.723064,"station_id":"RW","distance":1152,"line":5,"i_lat":-6.162758,"transit":false,"station_name":"Rawa Buaya","is_transit":false,"time":4},{"line":5,"time":3,"i_long":106.701612,"transit":false,"i_lat":-6.166068,"station_name":"Kalideres","is_transit":false,"station_id":"KDS","distance":2504},{"i_long":106.679458,"station_id":"PI","distance":2548,"i_lat":-6.169933,"station_name":"Poris","transit":false,"is_transit":false,"time":3,"line":5},{"transit":false,"line":0,"station_name":"Batuceper","is_transit":false,"time":3,"i_lat":-6.171811,"distance":1834,"i_long":106.665036,"station_id":"BPR"}],[{"time":0,"station_id":"KRI","is_transit":false,"transit":false,"i_lat":-6.224515,"line":1,"station_name":"Kranji","i_long":106.977657,"distance":0},{"distance":3097,"station_name":"Cakung","line":0,"time":3,"is_transit":false,"transit":false,"i_long":106.951283,"station_id":"CUK","i_lat":-6.219053},{"station_id":"KLDB","distance":1385,"station_name":"Klenderbaru","is_transit":false,"i_long":106.939679,"line":1,"i_lat":-6.217455,"time":8,"transit":false},{"i_long":106.922662,"station_name":"Buaran","time":1,"is_transit":false,"line":0,"distance":1305,"transit":false,"station_id":"BUA","i_lat":-6.215568},{"line":1,"i_lat":-6.2135,"station_name":"Klender","distance":3100,"station_id":"KLD","transit":false,"i_long":106.899548,"is_transit":false,"time":2},{"i_lat":-6.215091,"line":0,"station_name":"Jatinegara","time":3,"station_id":"JNG","transit":false,"distance":3395,"i_long":106.86807400000001,"is_transit":true},{"station_name":"Matraman","is_transit":false,"i_long":106.858896,"time":2,"transit":false,"i_lat":-6.212485,"distance":1377,"station_id":"MTR","line":1},{"station_id":"MRI","time":2,"i_lat":-6.209883,"line":0,"distance":1275,"station_name":"Manggarai","transit":true,"is_transit":true,"i_long":106.84912},{"i_lat":-6.198556,"line":0,"i_long":106.840169,"time":4,"is_transit":false,"transit":false,"station_id":"CKI","station_name":"Cikini","distance":1590},{"time":3,"transit":false,"line":2,"i_long":106.832183,"station_id":"GDD","station_name":"Gondangdia","is_transit":false,"distance":1750,"i_lat":-6.186295},{"station_name":"Juanda","i_long":106.828284,"is_transit":false,"line":2,"time":4,"transit":false,"i_lat":-6.166716,"distance":2015,"station_id":"JUA"},{"station_name":"Sawah Besar","station_id":"SW","is_transit":false,"i_long":106.827103,"time":2,"distance":1149,"transit":false,"i_lat":-6.160725,"line":2},{"transit":false,"i_lat":-6.149769,"line":2,"i_long":106.82482,"time":2,"station_name":"Manggabesar","is_transit":false,"station_id":"MGB","distance":906},{"station_id":"JAY","transit":false,"time":2,"is_transit":false,"line":7,"i_lat":-6.141205,"i_long":106.820901,"distance":1080,"station_name":"Jayakarta"},{"station_id":"JAKK","distance":1264,"line":0,"transit":true,"i_lat":-6.137569,"station_name":"Jakarta Kota","is_transit":true,"time":4,"i_long":106.812439},{"station_name":"Kampung Bandan","station_id":"KPB","distance":1364,"time":3,"is_transit":true,"transit":false,"i_lat":-6.132549,"i_long":106.826365,"line":0},{"i_lat":-6.144674,"i_long":106.79867,"line":0,"is_transit":false,"distance":4102,"transit":false,"station_id":"AK","station_name":"Angke","time":9},{"distance":1230,"i_lat":-6.155215,"station_name":"Duri","time":4,"line":1,"is_transit":true,"transit":true,"station_id":"DU","i_long":106.800832},{"is_transit":false,"i_long":106.788277,"time":3,"distance":1700,"line":5,"station_name":"Grogol","i_lat":-6.162021,"transit":false,"station_id":"GGL"},{"i_lat":-6.161433,"line":5,"is_transit":false,"time":2,"station_name":"Pesing","station_id":"PSG","transit":false,"distance":2036,"i_long":106.771379},{"time":2,"transit":false,"i_long":106.756522,"line":5,"i_lat":-6.1587309999999995,"station_id":"TKO","is_transit":false,"distance":1614,"station_name":"Taman Kota"},{"station_id":"BOI","time":2,"distance":2334,"i_lat":-6.159876,"transit":false,"station_name":"Bojongindah","i_long":106.737035,"line":0,"is_transit":false},{"i_lat":-6.162758,"transit":false,"station_name":"Rawa Buaya","is_transit":false,"line":5,"station_id":"RW","time":4,"distance":1152,"i_long":106.723064},{"i_long":106.701612,"time":3,"station_id":"KDS","station_name":"Kalideres","is_transit":false,"transit":false,"line":5,"i_lat":-6.166068,"distance":2504},{"distance":2548,"time":3,"station_name":"Poris","station_id":"PI","i_lat":-6.169933,"i_long":106.679458,"line":5,"is_transit":false,"transit":false},{"time":3,"i_lat":-6.171811,"is_transit":false,"station_id":"BPR","distance":1834,"transit":false,"line":0,"i_long":106.665036,"station_name":"Batuceper"}],[{"is_transit":false,"i_long":106.977657,"station_name":"Kranji","transit":false,"line":1,"distance":0,"i_lat":-6.224515,"station_id":"KRI","time":0},{"station_name":"Cakung","is_transit":false,"i_lat":-6.219053,"time":3,"i_long":106.951283,"line":0,"distance":3097,"station_id":"CUK","transit":false},{"line":1,"distance":1385,"transit":false,"station_id":"KLDB","is_transit":false,"time":8,"station_name":"Klenderbaru","i_long":106.939679,"i_lat":-6.217455},{"transit":false,"station_name":"Buaran","i_lat":-6.215568,"time":1,"station_id":"BUA","is_transit":false,"distance":1305,"i_long":106.922662,"line":0},{"line":1,"i_lat":-6.2135,"distance":3100,"transit":false,"station_id":"KLD","is_transit":false,"station_name":"Klender","i_long":106.899548,"time":2},{"time":3,"station_name":"Jatinegara","transit":true,"is_transit":true,"i_lat":-6.215091,"line":0,"i_long":106.86807400000001,"station_id":"JNG","distance":3395},{"is_transit":false,"station_id":"POK","transit":false,"i_long":106.861737,"station_name":"Pondok Jati","i_lat":-6.209188,"line":11,"distance":1236,"time":2},{"station_id":"KMT","i_long":106.855437,"station_name":"Kramat","distance":1829,"is_transit":false,"line":11,"time":2,"i_lat":-6.193792,"transit":false},{"transit":false,"time":1,"i_lat":-6.185975,"station_name":"Gang Sentiong","station_id":"GST","distance":973,"is_transit":false,"line":11,"i_long":106.850107},{"line":11,"is_transit":false,"station_id":"PSE","distance":1567,"time":8,"transit":false,"station_name":"Pasar Senen","i_lat":-6.174784,"i_long":106.84368},{"i_long":106.839204,"is_transit":false,"time":4,"station_id":"KMO","station_name":"Kemayoran","i_lat":-6.161728,"line":11,"distance":1436,"transit":false},{"i_lat":-6.14505,"i_long":106.836569,"station_name":"Rajawali","station_id":"RJW","distance":1901,"line":11,"transit":false,"is_transit":false,"time":5},{"line":0,"distance":1444,"station_name":"Kampung Bandan","station_id":"KPB","is_transit":true,"time":3,"transit":true,"i_lat":-6.132549,"i_long":106.826365},{"line":0,"i_long":106.812439,"station_name":"Jakarta Kota","station_id":"JAKK","time":3,"transit":true,"i_lat":-6.137569,"is_transit":true,"distance":1364},{"station_name":"Jayakarta","transit":false,"station_id":"JAY","time":4,"is_transit":false,"distance":1264,"i_lat":-6.141205,"i_long":106.820901,"line":7},{"i_lat":-6.149769,"line":2,"time":2,"station_id":"MGB","distance":1080,"station_name":"Manggabesar","i_long":106.82482,"is_transit":false,"transit":false},{"station_name":"Sawah Besar","time":2,"i_long":106.827103,"is_transit":false,"transit":false,"station_id":"SW","distance":906,"i_lat":-6.160725,"line":2},{"i_long":106.828284,"is_transit":false,"transit":false,"station_id":"JUA","line":2,"distance":1149,"time":2,"i_lat":-6.166716,"station_name":"Juanda"},{"line":2,"station_id":"GDD","time":4,"distance":2015,"transit":false,"i_lat":-6.186295,"station_name":"Gondangdia","i_long":106.832183,"is_transit":false},{"is_transit":false,"i_lat":-6.198556,"distance":1750,"station_id":"CKI","station_name":"Cikini","i_long":106.840169,"line":0,"time":3,"transit":false},{"i_lat":-6.209883,"line":0,"i_long":106.84912,"station_name":"Manggarai","time":4,"transit":true,"is_transit":true,"station_id":"MRI","distance":1590},{"time":4,"transit":false,"i_lat":-6.202263,"i_long":106.822649,"distance":3186,"station_name":"Sudirman","is_transit":false,"station_id":"SUD","line":1},{"i_long":106.819881,"station_name":"Sudirman Baru","is_transit":false,"time":1,"station_id":"SUDB","line":1,"transit":false,"distance":280,"i_lat":-6.201433},{"line":1,"station_name":"Karet","is_transit":false,"station_id":"KAT","transit":false,"distance":471,"i_lat":-6.20132,"i_long":106.816351,"time":1},{"station_name":"Tanah Abang","transit":false,"i_lat":-6.185545,"station_id":"THB","is_transit":true,"distance":2029,"i_long":106.811091,"line":1,"time":5},{"i_lat":-6.155215,"station_id":"DU","transit":true,"line":1,"station_name":"Duri","is_transit":true,"distance":3632,"time":8,"i_long":106.800832},{"i_lat":-6.162021,"station_id":"GGL","i_long":106.788277,"transit":false,"line":5,"time":3,"distance":1700,"is_transit":false,"station_name":"Grogol"},{"station_id":"PSG","transit":false,"i_long":106.771379,"line":5,"time":2,"is_transit":false,"i_lat":-6.161433,"distance":2036,"station_name":"Pesing"},{"station_name":"Taman Kota","time":2,"i_lat":-6.1587309999999995,"line":5,"i_long":106.756522,"distance":1614,"station_id":"TKO","transit":false,"is_transit":false},{"time":2,"distance":2334,"station_name":"Bojongindah","is_transit":false,"line":0,"station_id":"BOI","transit":false,"i_lat":-6.159876,"i_long":106.737035},{"station_name":"Rawa Buaya","i_long":106.723064,"time":4,"station_id":"RW","line":5,"transit":false,"is_transit":false,"distance":1152,"i_lat":-6.162758},{"station_id":"KDS","i_lat":-6.166068,"distance":2504,"time":3,"i_long":106.701612,"transit":false,"station_name":"Kalideres","line":5,"is_transit":false},{"station_id":"PI","i_lat":-6.169933,"is_transit":false,"transit":false,"distance":2548,"i_long":106.679458,"station_name":"Poris","line":5,"time":3},{"i_lat":-6.171811,"line":0,"is_transit":false,"i_long":106.665036,"time":3,"station_id":"BPR","distance":1834,"station_name":"Batuceper","transit":false}]]}