{"data":[[{"line":1,"is_transit":false,"i_lat":-6.224515,"station_name":"Kranji","distance":0,"time":0,"station_id":"KRI","transit":false,"i_long":106.977657},{"i_long":106.951283,"station_id":"CUK","station_name":"Cakung","i_lat":-6.219053,"time":3,"transit":false,"is_transit":false,"distance":3097,"line":0},{"is_transit":false,"i_long":106.939679,"time":8,"station_name":"Klenderbaru","i_lat":-6.217455,"line":1,"transit":false,"station_id":"KLDB","distance":1385},{"time":1,"distance":1305,"station_id":"BUA","transit":false,"line":0,"station_name":"Buaran","is_transit":false,"i_lat":-6.215568,"i_long":106.922662},{"i_long":106.899548,"time":2,"station_name":"Klender","line":1,"distance":3100,"i_lat":-6.2135,"station_id":"KLD","is_transit":false,"transit":false},{"transit":true,"line":0,"time":3,"station_id":"JNG","distance":3395,"is_transit":true,"i_long":106.86807400000001,"i_lat":-6.215091,"station_name":"Jatinegara"},{"station_id":"POK","i_long":106.861737,"is_transit":false,"line":11,"time":2,"transit":false,"station_name":"Pondok Jati","i_lat":-6.209188,"distance":1236},{"transit":false,"station_name":"Kramat","station_id":"KMT","is_transit":false,"i_lat":-6.193792,"i_long":106.855437,"distance":1829,"time":2,"line":11},{"station_name":"Gang Sentiong","transit":false,"station_id":"GST","time":1,"i_long":106.850107,"is_transit":false,"line":11,"i_lat":-6.185975,"distance":973},{"time":8,"station_name":"Pasar Senen","is_transit":false,"station_id":"PSE","i_lat":-6.174784,"distance":1567,"i_long":106.84368,"transit":false,"line":11},{"transit":false,"i_lat":-6.161728,"i_long":106.839204,"time":4,"line":11,"is_transit":false,"station_name":"Kemayoran","distance":1436,"station_id":"KMO"},{"distance":1901,"i_lat":-6.14505,"transit":false,"line":11,"station_id":"RJW","station_name":"Rajawali","is_transit":false,"time":5,"i_long":106.836569},{"distance":1444,"i_lat":-6.132549,"is_transit":true,"i_long":106.826365,"station_name":"Kampung Bandan","line":0,"station_id":"KPB","time":3,"transit":false}],[{"i_lat":-6.224515,"station_name":"Kranji","line":1,"station_id":"KRI","is_transit":false,"distance":0,"i_long":106.977657,"transit":false,"time":0},{"is_transit":false,"transit":false,"station_name":"Cakung","line":0,"station_id":"CUK","distance":3097,"i_long":106.951283,"time":3,"i_lat":-6.219053},{"i_long":106.939679,"transit":false,"i_lat":-6.217455,"station_name":"Klenderbaru","time":8,"distance":1385,"is_transit":false,"line":1,"station_id":"KLDB"},{"distance":1305,"is_transit":false,"transit":false,"line":0,"station_id":"BUA","station_name":"Buaran","time":1,"i_lat":-6.215568,"i_long":106.922662},{"transit":false,"i_long":106.899548,"is_transit":false,"time":2,"line":1,"i_lat":-6.2135,"distance":3100,"station_id":"KLD","station_name":"Klender"},{"i_long":106.86807400000001,"line":0,"is_transit":true,"transit":false,"station_name":"Jatinegara","station_id":"JNG","time":3,"distance":3395,"i_lat":-6.215091},{"station_name":"Matraman","is_transit":false,"transit":false,"line":1,"time":2,"i_long":106.858896,"i_lat":-6.212485,"station_id":"MTR","distance":1377},{"station_id":"MRI","line":0,"distance":1275,"is_transit":true,"station_name":"Manggarai","i_lat":-6.209883,"time":2,"transit":false,"i_long":106.84912},{"is_transit":false,"station_name":"Sudirman","transit":false,"station_id":"SUD","distance":3186,"time":4,"i_long":106.822649,"line":1,"i_lat":-6.202263},{"is_transit":false,"distance":280,"time":1,"transit":false,"station_id":"SUDB","station_name":"Sudirman Baru","i_lat":-6.201433,"i_long":106.819881,"line":1},{"line":1,"station_id":"KAT","time":1,"i_long":106.816351,"station_name":"Karet","is_transit":false,"transit":false,"i_lat":-6.20132,"distance":471},{"i_lat":-6.185545,"i_long":106.811091,"line":1,"distance":2029,"time":5,"station_id":"THB","transit":false,"station_name":"Tanah Abang","is_transit":true},{"time":8,"i_long":106.800832,"station_name":"Duri","distance":3632,"line":1,"station_id":"DU","is_transit":true,"transit":true,"i_lat":-6.155215},{"line":0,"transit":false,"is_transit":false,"station_id":"AK","distance":1230,"time":4,"i_long":106.79867,"i_lat":-6.144674,"station_name":"Angke"},{"station_id":"KPB","i_long":106.826365,"distance":4102,"transit":false,"is_transit":true,"station_name":"Kampung Bandan","i_lat":-6.132549,"line":0,"time":9}],[{"distance":0,"i_lat":-6.224515,"is_transit":false,"transit":false,"time":0,"station_name":"Kranji","i_long":106.977657,"line":1,"station_id":"KRI"},{"line":0,"station_name":"Cakung","station_id":"CUK","is_transit":false,"time":3,"distance":3097,"i_long":106.951283,"i_lat":-6.219053,"transit":false},{"i_lat":-6.217455,"station_id":"KLDB","i_long":106.939679,"distance":1385,"is_transit":false,"station_name":"Klenderbaru","time":8,"transit":false,"line":1},{"station_name":"Buaran","station_id":"BUA","time":1,"distance":1305,"transit":false,"i_lat":-6.215568,"i_long":106.922662,"line":0,"is_transit":false},{"transit":false,"line":1,"distance":3100,"time":2,"i_lat":-6.2135,"i_long":106.899548,"is_transit":false,"station_name":"Klender","station_id":"KLD"},{"transit":false,"station_name":"Jatinegara","i_lat":-6.215091,"i_long":106.86807400000001,"time":3,"station_id":"JNG","line":0,"distance":3395,"is_transit":true},{"transit":false,"i_long":106.858896,"is_transit":false,"i_lat":-6.212485,"station_name":"Matraman","time":2,"distance":1377,"line":1,"station_id":"MTR"},{"is_transit":true,"transit":true,"i_lat":-6.209883,"station_id":"MRI","distance":1275,"line":0,"station_name":"Manggarai","i_long":106.84912,"time":2},{"station_id":"CKI","line":0,"is_transit":false,"distance":1590,"transit":false,"time":4,"i_lat":-6.198556,"i_long":106.840169,"station_name":"Cikini"},{"time":3,"transit":false,"line":2,"i_lat":-6.186295,"station_id":"GDD","distance":1750,"station_name":"Gondangdia","i_long":106.832183,"is_transit":false},{"time":4,"transit":false,"i_lat":-6.166716,"distance":2015,"is_transit":false,"station_name":"Juanda","station_id":"JUA","line":2,"i_long":106.828284},{"is_transit":false,"station_name":"Sawah Besar","i_long":106.827103,"i_lat":-6.160725,"distance":1149,"line":2,"transit":false,"time":2,"station_id":"SW"},{"is_transit":false,"station_name":"Manggabesar","distance":906,"transit":false,"i_long":106.82482,"line":2,"time":2,"station_id":"MGB","i_lat":-6.149769},{"i_long":106.820901,"distance":1080,"time":2,"station_name":"Jayakarta","i_lat":-6.141205,"line":7,"station_id":"JAY","is_transit":false,"transit":false},{"station_id":"JAKK","is_transit":true,"time":4,"station_name":"Jakarta Kota","i_lat":-6.137569,"transit":true,"line":0,"distance":1264,"i_long":106.812439},{"line":0,"time":3,"distance":1364,"i_long":106.826365,"station_id":"KPB","station_name":"Kampung Bandan","is_transit":true,"transit":false,"i_lat":-6.132549}]]}