{"data":[[{"transit":false,"distance":0,"station_name":"Kranji","is_transit":false,"i_long":106.977657,"station_id":"KRI","time":0,"i_lat":-6.224515,"line":1},{"i_lat":-6.219053,"is_transit":false,"distance":3097,"station_name":"Cakung","station_id":"CUK","time":3,"i_long":106.951283,"line":1,"transit":false},{"transit":false,"i_lat":-6.217455,"i_long":106.939679,"station_name":"Klenderbaru","line":1,"distance":1385,"station_id":"KLDB","time":8,"is_transit":false},{"station_id":"BUA","transit":false,"station_name":"Buaran","time":1,"distance":1305,"is_transit":false,"i_long":106.922662,"i_lat":-6.215568,"line":1},{"i_lat":-6.2135,"transit":false,"i_long":106.899548,"line":1,"station_name":"Klender","station_id":"KLD","is_transit":false,"time":2,"distance":3100},{"i_long":106.86807400000001,"time":3,"station_id":"JNG","line":1,"station_name":"Jatinegara","is_transit":false,"i_lat":-6.215091,"distance":3395,"transit":false},{"transit":false,"i_lat":-6.212485,"station_name":"Matraman","i_long":106.858896,"line":1,"is_transit":false,"station_id":"MTR","time":2,"distance":1377},{"transit":true,"line":2,"i_lat":-6.209883,"station_id":"MRI","is_transit":true,"i_long":106.84912,"distance":1275,"time":2,"station_name":"Manggarai"},{"distance":1590,"is_transit":false,"i_long":106.840169,"line":2,"i_lat":-6.198556,"time":4,"station_name":"Cikini","transit":false,"station_id":"CKI"},{"is_transit":false,"transit":false,"station_name":"Gondangdia","station_id":"GDD","distance":1750,"line":2,"i_long":106.832183,"time":3,"i_lat":-6.186295},{"time":4,"station_name":"Juanda","line":2,"transit":false,"i_long":106.828284,"is_transit":false,"station_id":"JUA","distance":2015,"i_lat":-6.166716},{"is_transit":false,"time":2,"line":2,"i_long":106.827103,"station_id":"SW","station_name":"Sawah Besar","i_lat":-6.160725,"distance":1149,"transit":false},{"line":2,"station_name":"Manggabesar","time":2,"transit":false,"is_transit":false,"station_id":"MGB","distance":906,"i_long":106.82482,"i_lat":-6.149769}],[{"time":0,"line":1,"i_lat":-6.224515,"station_name":"Kranji","transit":false,"is_transit":false,"distance":0,"station_id":"KRI","i_long":106.977657},{"line":1,"station_name":"Cakung","transit":false,"time":3,"station_id":"CUK","is_transit":false,"distance":3097,"i_lat":-6.219053,"i_long":106.951283},{"is_transit":false,"time":8,"i_lat":-6.217455,"i_long":106.939679,"line":1,"station_id":"KLDB","station_name":"Klenderbaru","distance":1385,"transit":false},{"is_transit":false,"line":1,"transit":false,"distance":1305,"time":1,"station_name":"Buaran","i_lat":-6.215568,"station_id":"BUA","i_long":106.922662},{"distance":3100,"time":2,"is_transit":false,"station_name":"Klender","i_lat":-6.2135,"station_id":"KLD","line":1,"i_long":106.899548,"transit":false},{"distance":3395,"time":3,"transit":true,"i_long":106.86807400000001,"i_lat":-6.215091,"station_id":"JNG","line":1,"station_name":"Jatinegara","is_transit":true},{"station_name":"Pondok Jati","is_transit":false,"i_lat":-6.209188,"i_long":106.861737,"transit":false,"time":2,"line":11,"station_id":"POK","distance":1236},{"i_long":106.855437,"transit":false,"line":11,"i_lat":-6.193792,"is_transit":false,"distance":1829,"time":2,"station_name":"Kramat","station_id":"KMT"},{"station_name":"Gang Sentiong","time":1,"is_transit":false,"station_id":"GST","line":11,"i_long":106.850107,"i_lat":-6.185975,"transit":false,"distance":973},{"line":11,"i_lat":-6.174784,"station_name":"Pasar Senen","station_id":"PSE","distance":1567,"is_transit":false,"transit":false,"time":8,"i_long":106.84368},{"transit":false,"distance":1436,"i_lat":-6.161728,"line":11,"station_id":"KMO","i_long":106.839204,"time":4,"station_name":"Kemayoran","is_transit":false},{"time":5,"station_id":"RJW","i_lat":-6.14505,"station_name":"Rajawali","transit":false,"distance":1901,"is_transit":false,"i_long":106.836569,"line":11},{"time":3,"i_long":106.826365,"distance":1444,"is_transit":true,"station_name":"Kampung Bandan","station_id":"KPB","i_lat":-6.132549,"line":4,"transit":true},{"line":2,"station_name":"Jakarta Kota","time":3,"is_transit":true,"distance":1364,"i_long":106.812439,"station_id":"JAKK","transit":true,"i_lat":-6.137569},{"line":2,"distance":1264,"transit":false,"time":4,"station_name":"Jayakarta","station_id":"JAY","is_transit":false,"i_lat":-6.141205,"i_long":106.820901},{"i_long":106.82482,"distance":1080,"i_lat":-6.149769,"station_name":"Manggabesar","time":2,"station_id":"MGB","is_transit":false,"transit":false,"line":2}],[{"line":1,"time":0,"distance":0,"i_long":106.977657,"transit":false,"station_name":"Kranji","station_id":"KRI","is_transit":false,"i_lat":-6.224515},{"transit":false,"distance":3097,"time":3,"i_long":106.951283,"station_id":"CUK","line":1,"station_name":"Cakung","i_lat":-6.219053,"is_transit":false},{"time":8,"i_long":106.939679,"is_transit":false,"line":1,"transit":false,"station_id":"KLDB","i_lat":-6.217455,"station_name":"Klenderbaru","distance":1385},{"is_transit":false,"i_lat":-6.215568,"transit":false,"i_long":106.922662,"line":1,"station_name":"Buaran","distance":1305,"time":1,"station_id":"BUA"},{"transit":false,"time":2,"i_long":106.899548,"i_lat":-6.2135,"station_id":"KLD","is_transit":false,"station_name":"Klender","distance":3100,"line":1},{"i_lat":-6.215091,"i_long":106.86807400000001,"distance":3395,"line":1,"transit":false,"station_id":"JNG","station_name":"Jatinegara","is_transit":false,"time":3},{"line":1,"station_id":"MTR","i_long":106.858896,"is_transit":false,"station_name":"Matraman","transit":false,"distance":1377,"i_lat":-6.212485,"time":2},{"time":2,"transit":false,"station_id":"MRI","is_transit":false,"i_long":106.84912,"station_name":"Manggarai","i_lat":-6.209883,"distance":1275,"line":2},{"is_transit":false,"line":1,"station_id":"SUD","station_name":"Sudirman","time":4,"distance":3186,"i_lat":-6.202263,"transit":false,"i_long":106.822649},{"i_long":106.819881,"transit":false,"time":1,"distance":280,"station_id":"SUDB","line":1,"i_lat":-6.201433,"station_name":"Sudirman Baru","is_transit":false},{"i_lat":-6.20132,"station_id":"KAT","i_long":106.816351,"time":1,"line":1,"station_name":"Karet","transit":false,"distance":471,"is_transit":false},{"i_lat":-6.185545,"line":1,"i_long":106.811091,"station_id":"THB","station_name":"Tanah Abang","time":5,"distance":2029,"transit":false,"is_transit":false},{"station_name":"Duri","station_id":"DU","is_transit":false,"distance":3632,"i_long":106.800832,"time":8,"line":1,"transit":false,"i_lat":-6.155215},{"i_long":106.79867,"is_transit":false,"line":1,"transit":false,"station_id":"AK","station_name":"Angke","distance":1230,"time":4,"i_lat":-6.144674},{"is_transit":true,"transit":true,"station_name":"Kampung Bandan","distance":4102,"time":9,"line":4,"i_lat":-6.132549,"station_id":"KPB","i_long":106.826365},{"time":3,"station_name":"Jakarta Kota","transit":true,"distance":1364,"line":2,"i_long":106.812439,"is_transit":true,"i_lat":-6.137569,"station_id":"JAKK"},{"distance":1264,"line":2,"transit":false,"station_name":"Jayakarta","is_transit":false,"station_id":"JAY","time":4,"i_lat":-6.141205,"i_long":106.820901},{"distance":1080,"time":2,"station_id":"MGB","i_lat":-6.149769,"station_name":"Manggabesar","transit":false,"is_transit":false,"line":2,"i_long":106.82482}],[{"station_name":"Kranji","is_transit":false,"time":0,"i_lat":-6.224515,"i_long":106.977657,"distance":0,"station_id":"KRI","line":1,"transit":false},{"distance":3097,"station_name":"Cakung","transit":false,"i_long":106.951283,"line":1,"is_transit":false,"time":3,"station_id":"CUK","i_lat":-6.219053},{"station_name":"Klenderbaru","time":8,"station_id":"KLDB","i_long":106.939679,"distance":1385,"line":1,"transit":false,"i_lat":-6.217455,"is_transit":false},{"distance":1305,"station_name":"Buaran","is_transit":false,"line":1,"station_id":"BUA","i_lat":-6.215568,"i_long":106.922662,"time":1,"transit":false},{"i_lat":-6.2135,"line":1,"station_id":"KLD","i_long":106.899548,"distance":3100,"transit":false,"time":2,"station_name":"Klender","is_transit":false},{"i_lat":-6.215091,"transit":true,"is_transit":true,"station_name":"Jatinegara","distance":3395,"i_long":106.86807400000001,"line":1,"station_id":"JNG","time":3},{"distance":1236,"time":2,"i_lat":-6.209188,"i_long":106.861737,"station_id":"POK","line":11,"station_name":"Pondok Jati","is_transit":false,"transit":false},{"is_transit":false,"distance":1829,"station_id":"KMT","time":2,"i_long":106.855437,"station_name":"Kramat","i_lat":-6.193792,"line":11,"transit":false},{"i_long":106.850107,"is_transit":false,"station_id":"GST","line":11,"i_lat":-6.185975,"station_name":"Gang Sentiong","time":1,"transit":false,"distance":973},{"is_transit":false,"i_lat":-6.174784,"i_long":106.84368,"station_id":"PSE","time":8,"line":11,"distance":1567,"station_name":"Pasar Senen","transit":false},{"station_id":"KMO","time":4,"station_name":"Kemayoran","is_transit":false,"distance":1436,"transit":false,"line":11,"i_lat":-6.161728,"i_long":106.839204},{"line":11,"i_lat":-6.14505,"transit":false,"time":5,"station_id":"RJW","i_long":106.836569,"distance":1901,"is_transit":false,"station_name":"Rajawali"},{"i_lat":-6.132549,"transit":true,"distance":1444,"i_long":106.826365,"line":4,"station_id":"KPB","station_name":"Kampung Bandan","is_transit":true,"time":3},{"station_name":"Angke","line":1,"distance":4102,"is_transit":false,"i_lat":-6.144674,"transit":false,"station_id":"AK","i_long":106.79867,"time":9},{"is_transit":false,"i_long":106.800832,"distance":1230,"station_name":"Duri","station_id":"DU","time":4,"transit":false,"i_lat":-6.155215,"line":1},{"i_lat":-6.185545,"station_name":"Tanah Abang","transit":false,"line":1,"station_id":"THB","distance":3632,"i_long":106.811091,"time":8,"is_transit":false},{"i_long":106.816351,"line":1,"i_lat":-6.20132,"time":5,"distance":2029,"station_id":"KAT","is_transit":false,"transit":false,"station_name":"Karet"},{"station_id":"SUDB","distance":471,"i_lat":-6.201433,"i_long":106.819881,"transit":false,"line":1,"is_transit":false,"station_name":"Sudirman Baru","time":1},{"transit":false,"distance":280,"station_name":"Sudirman","is_transit":false,"station_id":"SUD","time":1,"i_lat":-6.202263,"line":1,"i_long":106.822649},{"station_id":"MRI","i_lat":-6.209883,"line":2,"transit":true,"i_long":106.84912,"is_transit":true,"station_name":"Manggarai","time":4,"distance":3186},{"is_transit":false,"distance":1590,"time":4,"station_id":"CKI","i_long":106.840169,"station_name":"Cikini","transit":false,"line":2,"i_lat":-6.198556},{"transit":false,"time":3,"station_name":"Gondangdia","is_transit":false,"station_id":"GDD","distance":1750,"i_lat":-6.186295,"i_long":106.832183,"line":2},{"line":2,"is_transit":false,"distance":2015,"time":4,"i_lat":-6.166716,"i_long":106.828284,"station_name":"Juanda","station_id":"JUA","transit":false},{"is_transit":false,"station_name":"Sawah Besar","transit":false,"i_lat":-6.160725,"i_long":106.827103,"station_id":"SW","time":2,"distance":1149,"line":2},{"is_transit":false,"transit":false,"distance":906,"station_id":"MGB","i_long":106.82482,"line":2,"i_lat":-6.149769,"station_name":"Manggabesar","time":2}]]}