{"data":[[{"is_transit":false,"time":0,"i_long":106.977657,"transit":false,"distance":0,"i_lat":-6.224515,"station_id":"KRI","line":1,"station_name":"Kranji"},{"distance":3097,"station_id":"CUK","i_lat":-6.219053,"station_name":"Cakung","time":3,"i_long":106.951283,"is_transit":false,"transit":false,"line":0},{"distance":1385,"i_lat":-6.217455,"transit":false,"is_transit":false,"time":8,"station_name":"Klenderbaru","i_long":106.939679,"station_id":"KLDB","line":1},{"transit":false,"time":1,"i_long":106.922662,"station_name":"Buaran","is_transit":false,"station_id":"BUA","distance":1305,"line":0,"i_lat":-6.215568},{"is_transit":false,"distance":3100,"i_long":106.899548,"transit":false,"station_id":"KLD","time":2,"station_name":"Klender","i_lat":-6.2135,"line":1},{"i_long":106.86807400000001,"i_lat":-6.215091,"station_name":"Jatinegara","time":3,"distance":3395,"is_transit":true,"line":0,"transit":false,"station_id":"JNG"},{"station_id":"MTR","station_name":"Matraman","transit":false,"i_long":106.858896,"time":2,"line":1,"is_transit":false,"i_lat":-6.212485,"distance":1377},{"station_id":"MRI","is_transit":true,"i_lat":-6.209883,"transit":false,"i_long":106.84912,"time":2,"distance":1275,"line":0,"station_name":"Manggarai"},{"station_name":"Sudirman","transit":false,"i_long":106.822649,"time":4,"distance":3186,"station_id":"SUD","i_lat":-6.202263,"is_transit":false,"line":1},{"distance":280,"transit":false,"line":1,"i_long":106.819881,"station_id":"SUDB","i_lat":-6.201433,"is_transit":false,"time":1,"station_name":"Sudirman Baru"},{"station_id":"KAT","station_name":"Karet","is_transit":false,"distance":471,"transit":false,"line":1,"i_long":106.816351,"time":1,"i_lat":-6.20132},{"time":5,"distance":2029,"transit":false,"line":1,"i_lat":-6.185545,"station_id":"THB","is_transit":true,"station_name":"Tanah Abang","i_long":106.811091},{"station_name":"Duri","is_transit":true,"transit":true,"i_lat":-6.155215,"line":1,"distance":3632,"i_long":106.800832,"station_id":"DU","time":8},{"station_name":"Grogol","i_long":106.788277,"transit":false,"i_lat":-6.162021,"station_id":"GGL","line":5,"time":3,"distance":1700,"is_transit":false},{"station_name":"Pesing","i_lat":-6.161433,"time":2,"i_long":106.771379,"line":5,"distance":2036,"transit":false,"station_id":"PSG","is_transit":false},{"i_long":106.756522,"transit":false,"line":5,"station_name":"Taman Kota","station_id":"TKO","i_lat":-6.1587309999999995,"is_transit":false,"time":2,"distance":1614},{"station_name":"Bojongindah","i_long":106.737035,"time":2,"station_id":"BOI","distance":2334,"i_lat":-6.159876,"transit":false,"is_transit":false,"line":0}],[{"station_id":"KRI","distance":0,"transit":false,"is_transit":false,"i_lat":-6.224515,"station_name":"Kranji","time":0,"i_long":106.977657,"line":1},{"station_id":"CUK","is_transit":false,"i_long":106.951283,"distance":3097,"i_lat":-6.219053,"station_name":"Cakung","line":0,"time":3,"transit":false},{"i_lat":-6.217455,"distance":1385,"line":1,"i_long":106.939679,"station_id":"KLDB","station_name":"Klenderbaru","transit":false,"is_transit":false,"time":8},{"time":1,"transit":false,"i_lat":-6.215568,"line":0,"is_transit":false,"station_id":"BUA","station_name":"Buaran","distance":1305,"i_long":106.922662},{"station_name":"Klender","i_long":106.899548,"time":2,"transit":false,"line":1,"station_id":"KLD","i_lat":-6.2135,"distance":3100,"is_transit":false},{"i_long":106.86807400000001,"line":0,"station_id":"JNG","i_lat":-6.215091,"transit":true,"station_name":"Jatinegara","is_transit":true,"distance":3395,"time":3},{"i_long":106.861737,"station_id":"POK","line":11,"station_name":"Pondok Jati","is_transit":false,"distance":1236,"transit":false,"time":2,"i_lat":-6.209188},{"is_transit":false,"line":11,"i_lat":-6.193792,"distance":1829,"i_long":106.855437,"time":2,"station_name":"Kramat","transit":false,"station_id":"KMT"},{"station_name":"Gang Sentiong","time":1,"transit":false,"station_id":"GST","is_transit":false,"distance":973,"i_long":106.850107,"line":11,"i_lat":-6.185975},{"transit":false,"i_long":106.84368,"line":11,"distance":1567,"i_lat":-6.174784,"is_transit":false,"station_id":"PSE","time":8,"station_name":"Pasar Senen"},{"transit":false,"station_name":"Kemayoran","i_long":106.839204,"i_lat":-6.161728,"line":11,"is_transit":false,"station_id":"KMO","time":4,"distance":1436},{"station_name":"Rajawali","is_transit":false,"line":11,"i_lat":-6.14505,"i_long":106.836569,"station_id":"RJW","transit":false,"time":5,"distance":1901},{"distance":1444,"line":0,"transit":true,"i_lat":-6.132549,"i_long":106.826365,"time":3,"is_transit":true,"station_id":"KPB","station_name":"Kampung Bandan"},{"transit":false,"distance":4102,"i_long":106.79867,"time":9,"line":0,"i_lat":-6.144674,"station_name":"Angke","station_id":"AK","is_transit":false},{"distance":1230,"station_name":"Duri","time":4,"i_lat":-6.155215,"i_long":106.800832,"is_transit":true,"station_id":"DU","line":1,"transit":true},{"i_long":106.788277,"is_transit":false,"time":3,"station_name":"Grogol","transit":false,"distance":1700,"i_lat":-6.162021,"line":5,"station_id":"GGL"},{"transit":false,"station_name":"Pesing","time":2,"distance":2036,"i_lat":-6.161433,"line":5,"i_long":106.771379,"station_id":"PSG","is_transit":false},{"is_transit":false,"distance":1614,"transit":false,"line":5,"time":2,"i_long":106.756522,"station_name":"Taman Kota","station_id":"TKO","i_lat":-6.1587309999999995},{"i_long":106.737035,"i_lat":-6.159876,"distance":2334,"station_name":"Bojongindah","transit":false,"station_id":"BOI","line":0,"time":2,"is_transit":false}],[{"distance":0,"i_long":106.977657,"is_transit":false,"station_name":"Kranji","time":0,"line":1,"transit":false,"station_id":"KRI","i_lat":-6.224515},{"i_long":106.951283,"time":3,"line":0,"transit":false,"distance":3097,"station_id":"CUK","station_name":"Cakung","i_lat":-6.219053,"is_transit":false},{"station_id":"KLDB","is_transit":false,"i_lat":-6.217455,"line":1,"transit":false,"distance":1385,"station_name":"Klenderbaru","time":8,"i_long":106.939679},{"station_name":"Buaran","i_long":106.922662,"line":0,"distance":1305,"time":1,"is_transit":false,"i_lat":-6.215568,"transit":false,"station_id":"BUA"},{"station_id":"KLD","distance":3100,"time":2,"is_transit":false,"i_lat":-6.2135,"station_name":"Klender","i_long":106.899548,"line":1,"transit":false},{"is_transit":true,"i_long":106.86807400000001,"i_lat":-6.215091,"station_name":"Jatinegara","time":3,"distance":3395,"transit":false,"station_id":"JNG","line":0},{"station_id":"MTR","i_long":106.858896,"distance":1377,"time":2,"transit":false,"i_lat":-6.212485,"is_transit":false,"line":1,"station_name":"Matraman"},{"is_transit":true,"i_lat":-6.209883,"i_long":106.84912,"transit":true,"time":2,"line":0,"station_name":"Manggarai","distance":1275,"station_id":"MRI"},{"is_transit":false,"transit":false,"distance":1590,"time":4,"line":0,"station_id":"CKI","i_long":106.840169,"i_lat":-6.198556,"station_name":"Cikini"},{"station_id":"GDD","time":3,"i_long":106.832183,"transit":false,"i_lat":-6.186295,"station_name":"Gondangdia","is_transit":false,"distance":1750,"line":2},{"station_id":"JUA","i_long":106.828284,"transit":false,"time":4,"distance":2015,"line":2,"is_transit":false,"station_name":"Juanda","i_lat":-6.166716},{"time":2,"i_long":106.827103,"distance":1149,"line":2,"station_id":"SW","transit":false,"is_transit":false,"i_lat":-6.160725,"station_name":"Sawah Besar"},{"transit":false,"time":2,"i_lat":-6.149769,"is_transit":false,"distance":906,"line":2,"station_name":"Manggabesar","i_long":106.82482,"station_id":"MGB"},{"distance":1080,"station_name":"Jayakarta","i_lat":-6.141205,"station_id":"JAY","time":2,"transit":false,"line":7,"i_long":106.820901,"is_transit":false},{"transit":true,"i_lat":-6.137569,"i_long":106.812439,"time":4,"line":0,"is_transit":true,"station_id":"JAKK","station_name":"Jakarta Kota","distance":1264},{"line":0,"station_id":"KPB","time":3,"distance":1364,"i_lat":-6.132549,"station_name":"Kampung Bandan","is_transit":true,"transit":false,"i_long":106.826365},{"i_long":106.79867,"station_id":"AK","is_transit":false,"line":0,"station_name":"Angke","i_lat":-6.144674,"distance":4102,"transit":false,"time":9},{"line":1,"station_id":"DU","station_name":"Duri","distance":1230,"i_long":106.800832,"i_lat":-6.155215,"is_transit":true,"time":4,"transit":true},{"station_id":"GGL","time":3,"i_long":106.788277,"station_name":"Grogol","line":5,"transit":false,"is_transit":false,"i_lat":-6.162021,"distance":1700},{"transit":false,"i_lat":-6.161433,"is_transit":false,"i_long":106.771379,"station_name":"Pesing","line":5,"station_id":"PSG","time":2,"distance":2036},{"i_lat":-6.1587309999999995,"line":5,"time":2,"is_transit":false,"i_long":106.756522,"transit":false,"station_name":"Taman Kota","distance":1614,"station_id":"TKO"},{"i_long":106.737035,"line":0,"station_id":"BOI","i_lat":-6.159876,"is_transit":false,"time":2,"transit":false,"station_name":"Bojongindah","distance":2334}],[{"i_long":106.977657,"line":1,"station_name":"Kranji","station_id":"KRI","distance":0,"is_transit":false,"time":0,"transit":false,"i_lat":-6.224515},{"transit":false,"station_name":"Cakung","is_transit":false,"station_id":"CUK","time":3,"distance":3097,"i_lat":-6.219053,"i_long":106.951283,"line":0},{"station_name":"Klenderbaru","transit":false,"is_transit":false,"i_lat":-6.217455,"i_long":106.939679,"time":8,"distance":1385,"line":1,"station_id":"KLDB"},{"distance":1305,"time":1,"i_lat":-6.215568,"is_transit":false,"transit":false,"i_long":106.922662,"station_id":"BUA","line":0,"station_name":"Buaran"},{"i_long":106.899548,"station_name":"Klender","is_transit":false,"time":2,"station_id":"KLD","transit":false,"i_lat":-6.2135,"line":1,"distance":3100},{"station_name":"Jatinegara","line":0,"is_transit":true,"i_lat":-6.215091,"transit":true,"time":3,"i_long":106.86807400000001,"distance":3395,"station_id":"JNG"},{"line":11,"i_lat":-6.209188,"time":2,"station_name":"Pondok Jati","i_long":106.861737,"station_id":"POK","is_transit":false,"distance":1236,"transit":false},{"i_long":106.855437,"transit":false,"time":2,"station_name":"Kramat","station_id":"KMT","is_transit":false,"line":11,"distance":1829,"i_lat":-6.193792},{"station_id":"GST","i_lat":-6.185975,"transit":false,"i_long":106.850107,"is_transit":false,"distance":973,"line":11,"station_name":"Gang Sentiong","time":1},{"transit":false,"i_long":106.84368,"time":8,"is_transit":false,"station_name":"Pasar Senen","line":11,"station_id":"PSE","i_lat":-6.174784,"distance":1567},{"distance":1436,"is_transit":false,"i_long":106.839204,"line":11,"i_lat":-6.161728,"station_name":"Kemayoran","station_id":"KMO","time":4,"transit":false},{"time":5,"station_id":"RJW","distance":1901,"line":11,"i_lat":-6.14505,"is_transit":false,"station_name":"Rajawali","i_long":106.836569,"transit":false},{"distance":1444,"station_id":"KPB","time":3,"station_name":"Kampung Bandan","transit":true,"is_transit":true,"line":0,"i_long":106.826365,"i_lat":-6.132549},{"i_lat":-6.137569,"distance":1364,"transit":true,"station_name":"Jakarta Kota","station_id":"JAKK","line":0,"i_long":106.812439,"is_transit":true,"time":3},{"line":7,"station_id":"JAY","distance":1264,"i_long":106.820901,"time":4,"is_transit":false,"station_name":"Jayakarta","i_lat":-6.141205,"transit":false},{"transit":false,"i_long":106.82482,"i_lat":-6.149769,"station_id":"MGB","line":2,"is_transit":false,"station_name":"Manggabesar","distance":1080,"time":2},{"station_id":"SW","line":2,"i_lat":-6.160725,"station_name":"Sawah Besar","is_transit":false,"distance":906,"time":2,"i_long":106.827103,"transit":false},{"time":2,"distance":1149,"is_transit":false,"transit":false,"i_lat":-6.166716,"station_name":"Juanda","station_id":"JUA","i_long":106.828284,"line":2},{"station_id":"GDD","line":2,"transit":false,"station_name":"Gondangdia","i_long":106.832183,"time":4,"is_transit":false,"distance":2015,"i_lat":-6.186295},{"station_name":"Cikini","time":3,"i_long":106.840169,"station_id":"CKI","distance":1750,"transit":false,"is_transit":false,"i_lat":-6.198556,"line":0},{"is_transit":true,"transit":true,"station_name":"Manggarai","time":4,"line":0,"distance":1590,"i_lat":-6.209883,"i_long":106.84912,"station_id":"MRI"},{"i_lat":-6.202263,"station_id":"SUD","time":4,"i_long":106.822649,"distance":3186,"transit":false,"line":1,"station_name":"Sudirman","is_transit":false},{"time":1,"i_long":106.819881,"distance":280,"station_name":"Sudirman Baru","line":1,"is_transit":false,"transit":false,"i_lat":-6.201433,"station_id":"SUDB"},{"time":1,"station_name":"Karet","distance":471,"i_long":106.816351,"line":1,"i_lat":-6.20132,"station_id":"KAT","is_transit":false,"transit":false},{"station_name":"Tanah Abang","transit":false,"i_long":106.811091,"distance":2029,"station_id":"THB","i_lat":-6.185545,"line":1,"time":5,"is_transit":true},{"i_lat":-6.155215,"station_id":"DU","is_transit":true,"station_name":"Duri","time":8,"distance":3632,"transit":true,"i_long":106.800832,"line":1},{"station_name":"Grogol","station_id":"GGL","time":3,"distance":1700,"transit":false,"i_lat":-6.162021,"i_long":106.788277,"line":5,"is_transit":false},{"line":5,"i_long":106.771379,"i_lat":-6.161433,"transit":false,"distance":2036,"station_id":"PSG","time":2,"station_name":"Pesing","is_transit":false},{"is_transit":false,"station_id":"TKO","time":2,"i_lat":-6.1587309999999995,"i_long":106.756522,"station_name":"Taman Kota","transit":false,"distance":1614,"line":5},{"is_transit":false,"station_id":"BOI","i_long":106.737035,"time":2,"distance":2334,"transit":false,"line":0,"i_lat":-6.159876,"station_name":"Bojongindah"}]]}