{"data":[[{"i_long":106.977657,"distance":0,"line":1,"transit":false,"station_id":"KRI","station_name":"Kranji","i_lat":-6.224515,"is_transit":false,"time":0},{"time":3,"i_lat":-6.219053,"i_long":106.951283,"transit":false,"line":1,"distance":3097,"station_id":"CUK","is_transit":false,"station_name":"Cakung"},{"is_transit":false,"distance":1385,"station_name":"Klenderbaru","i_lat":-6.217455,"station_id":"KLDB","time":8,"i_long":106.939679,"line":1,"transit":false},{"time":1,"i_lat":-6.215568,"station_name":"Buaran","transit":false,"distance":1305,"is_transit":false,"station_id":"BUA","i_long":106.922662,"line":1},{"distance":3100,"station_id":"KLD","i_long":106.899548,"line":1,"time":2,"i_lat":-6.2135,"station_name":"Klender","is_transit":false,"transit":false},{"is_transit":false,"station_id":"JNG","i_lat":-6.215091,"time":3,"station_name":"Jatinegara","i_long":106.86807400000001,"line":1,"transit":false,"distance":3395},{"time":2,"i_long":106.858896,"line":1,"i_lat":-6.212485,"transit":false,"is_transit":false,"station_name":"Matraman","distance":1377,"station_id":"MTR"},{"line":2,"station_id":"MRI","station_name":"Manggarai","is_transit":true,"distance":1275,"i_long":106.84912,"time":2,"i_lat":-6.209883,"transit":true},{"i_lat":-6.226659,"line":2,"station_name":"Tebet","i_long":106.857948,"time":4,"station_id":"TEB","transit":false,"is_transit":false,"distance":2610},{"transit":false,"station_id":"CW","distance":1230,"time":2,"station_name":"Cawang","i_lat":-6.242512,"is_transit":false,"i_long":106.856607,"line":2},{"is_transit":false,"station_id":"DRN","i_lat":-6.255332,"transit":false,"time":3,"line":2,"i_long":106.85449,"station_name":"Duren Kalibata","distance":1546},{"time":2,"station_id":"PSMB","line":2,"is_transit":false,"i_lat":-6.263214,"station_name":"Pasar Minggu Baru","distance":824,"i_long":106.851577,"transit":false},{"distance":2380,"is_transit":false,"transit":false,"i_long":106.843999,"station_name":"Pasar Minggu","line":2,"station_id":"PSM","time":2,"i_lat":-6.2842400000000005},{"distance":2820,"time":4,"station_id":"TNT","i_lat":-6.3080680000000005,"station_name":"Tanjung Barat","transit":false,"is_transit":false,"line":2,"i_long":106.838896},{"station_name":"Lenteng Agung","is_transit":false,"time":3,"i_lat":-6.330363,"i_long":106.832616,"distance":2671,"station_id":"LNA","line":2,"transit":false},{"distance":1029,"station_name":"Univ. Pancasila","transit":false,"i_long":106.834175,"line":2,"is_transit":false,"time":2,"station_id":"UP","i_lat":-6.339291},{"station_name":"Univ. Indonesia","time":3,"station_id":"UI","i_long":106.831474,"distance":2264,"line":2,"transit":false,"i_lat":-6.360749,"is_transit":false},{"is_transit":false,"transit":false,"time":2,"distance":1109,"i_long":106.831114,"station_id":"POC","line":2,"station_name":"Pondok Cina","i_lat":-6.369073},{"i_lat":-6.391065,"i_long":106.819451,"station_id":"DPB","station_name":"Depokbaru","transit":false,"line":2,"time":4,"distance":2727,"is_transit":false},{"distance":1584,"i_long":106.816926,"transit":false,"time":3,"line":2,"is_transit":false,"station_id":"DP","station_name":"Depok","i_lat":-6.405256},{"is_transit":true,"distance":5084,"i_lat":-6.448811,"line":2,"station_id":"CTA","time":6,"transit":true,"station_name":"Citayam","i_long":106.800298},{"line":21,"station_name":"Pondok Rajeg","distance":0,"time":0,"i_long":106.824374,"is_transit":false,"i_lat":-6.460735,"station_id":"PDRG","transit":false}],[{"i_long":106.977657,"station_name":"Kranji","distance":0,"transit":false,"is_transit":false,"station_id":"KRI","i_lat":-6.224515,"line":1,"time":0},{"line":1,"station_name":"Cakung","i_lat":-6.219053,"distance":3097,"transit":false,"time":3,"is_transit":false,"station_id":"CUK","i_long":106.951283},{"transit":false,"station_id":"KLDB","is_transit":false,"i_long":106.939679,"time":8,"line":1,"distance":1385,"i_lat":-6.217455,"station_name":"Klenderbaru"},{"time":1,"line":1,"station_name":"Buaran","is_transit":false,"transit":false,"station_id":"BUA","i_lat":-6.215568,"distance":1305,"i_long":106.922662},{"i_long":106.899548,"transit":false,"is_transit":false,"distance":3100,"line":1,"i_lat":-6.2135,"time":2,"station_name":"Klender","station_id":"KLD"},{"i_long":106.86807400000001,"distance":3395,"line":1,"station_id":"JNG","i_lat":-6.215091,"is_transit":true,"time":3,"transit":true,"station_name":"Jatinegara"},{"time":2,"station_name":"Pondok Jati","i_long":106.861737,"line":11,"i_lat":-6.209188,"distance":1236,"station_id":"POK","transit":false,"is_transit":false},{"i_long":106.855437,"station_name":"Kramat","line":11,"is_transit":false,"transit":false,"station_id":"KMT","i_lat":-6.193792,"time":2,"distance":1829},{"i_lat":-6.185975,"station_id":"GST","i_long":106.850107,"distance":973,"transit":false,"station_name":"Gang Sentiong","line":11,"time":1,"is_transit":false},{"station_id":"PSE","distance":1567,"i_lat":-6.174784,"i_long":106.84368,"transit":false,"line":11,"is_transit":false,"station_name":"Pasar Senen","time":8},{"transit":false,"distance":1436,"station_name":"Kemayoran","is_transit":false,"station_id":"KMO","time":4,"i_lat":-6.161728,"line":11,"i_long":106.839204},{"station_id":"RJW","i_lat":-6.14505,"line":11,"transit":false,"i_long":106.836569,"is_transit":false,"station_name":"Rajawali","time":5,"distance":1901},{"is_transit":true,"distance":1444,"time":3,"station_id":"KPB","i_long":106.826365,"station_name":"Kampung Bandan","transit":true,"line":4,"i_lat":-6.132549},{"transit":false,"time":9,"station_name":"Angke","is_transit":false,"distance":4102,"station_id":"AK","i_lat":-6.144674,"i_long":106.79867,"line":1},{"line":1,"is_transit":false,"distance":1230,"time":4,"i_lat":-6.155215,"i_long":106.800832,"station_name":"Duri","station_id":"DU","transit":false},{"is_transit":false,"station_name":"Tanah Abang","transit":false,"i_lat":-6.185545,"i_long":106.811091,"station_id":"THB","time":8,"distance":3632,"line":1},{"is_transit":false,"distance":2029,"transit":false,"station_id":"KAT","i_long":106.816351,"line":1,"i_lat":-6.20132,"station_name":"Karet","time":5},{"time":1,"distance":471,"transit":false,"station_id":"SUDB","i_lat":-6.201433,"i_long":106.819881,"line":1,"is_transit":false,"station_name":"Sudirman Baru"},{"i_lat":-6.202263,"station_id":"SUD","distance":280,"is_transit":false,"time":1,"transit":false,"station_name":"Sudirman","line":1,"i_long":106.822649},{"i_long":106.84912,"is_transit":true,"transit":true,"station_id":"MRI","distance":3186,"time":4,"i_lat":-6.209883,"station_name":"Manggarai","line":2},{"i_long":106.857948,"i_lat":-6.226659,"distance":2610,"line":2,"transit":false,"is_transit":false,"station_name":"Tebet","station_id":"TEB","time":4},{"station_name":"Cawang","transit":false,"is_transit":false,"time":2,"i_lat":-6.242512,"i_long":106.856607,"line":2,"station_id":"CW","distance":1230},{"i_long":106.85449,"line":2,"is_transit":false,"i_lat":-6.255332,"station_id":"DRN","station_name":"Duren Kalibata","time":3,"distance":1546,"transit":false},{"i_lat":-6.263214,"station_id":"PSMB","time":2,"transit":false,"i_long":106.851577,"is_transit":false,"distance":824,"line":2,"station_name":"Pasar Minggu Baru"},{"time":2,"station_name":"Pasar Minggu","line":2,"i_lat":-6.2842400000000005,"distance":2380,"is_transit":false,"transit":false,"i_long":106.843999,"station_id":"PSM"},{"is_transit":false,"i_long":106.838896,"station_id":"TNT","time":4,"line":2,"transit":false,"distance":2820,"station_name":"Tanjung Barat","i_lat":-6.3080680000000005},{"line":2,"station_id":"LNA","i_long":106.832616,"distance":2671,"station_name":"Lenteng Agung","transit":false,"is_transit":false,"time":3,"i_lat":-6.330363},{"is_transit":false,"station_name":"Univ. Pancasila","station_id":"UP","i_lat":-6.339291,"distance":1029,"i_long":106.834175,"line":2,"transit":false,"time":2},{"distance":2264,"i_lat":-6.360749,"station_name":"Univ. Indonesia","is_transit":false,"time":3,"i_long":106.831474,"line":2,"transit":false,"station_id":"UI"},{"transit":false,"station_id":"POC","i_long":106.831114,"line":2,"time":2,"is_transit":false,"station_name":"Pondok Cina","i_lat":-6.369073,"distance":1109},{"i_long":106.819451,"station_id":"DPB","is_transit":false,"station_name":"Depokbaru","i_lat":-6.391065,"line":2,"distance":2727,"transit":false,"time":4},{"line":2,"station_id":"DP","distance":1584,"is_transit":false,"i_lat":-6.405256,"i_long":106.816926,"transit":false,"time":3,"station_name":"Depok"},{"station_id":"CTA","time":6,"station_name":"Citayam","i_lat":-6.448811,"line":2,"is_transit":true,"transit":true,"i_long":106.800298,"distance":5084},{"station_id":"PDRG","is_transit":false,"i_long":106.824374,"station_name":"Pondok Rajeg","time":0,"i_lat":-6.460735,"line":21,"transit":false,"distance":0}],[{"time":0,"line":1,"station_name":"Kranji","i_long":106.977657,"distance":0,"is_transit":false,"transit":false,"station_id":"KRI","i_lat":-6.224515},{"transit":false,"station_id":"CUK","is_transit":false,"line":1,"time":3,"distance":3097,"station_name":"Cakung","i_lat":-6.219053,"i_long":106.951283},{"transit":false,"line":1,"station_id":"KLDB","station_name":"Klenderbaru","i_long":106.939679,"distance":1385,"time":8,"i_lat":-6.217455,"is_transit":false},{"transit":false,"i_long":106.922662,"is_transit":false,"time":1,"station_id":"BUA","i_lat":-6.215568,"line":1,"distance":1305,"station_name":"Buaran"},{"i_long":106.899548,"time":2,"station_name":"Klender","line":1,"i_lat":-6.2135,"station_id":"KLD","is_transit":false,"distance":3100,"transit":false},{"time":3,"i_lat":-6.215091,"station_name":"Jatinegara","is_transit":true,"transit":true,"station_id":"JNG","distance":3395,"i_long":106.86807400000001,"line":1},{"is_transit":false,"i_lat":-6.209188,"station_name":"Pondok Jati","station_id":"POK","transit":false,"distance":1236,"line":11,"i_long":106.861737,"time":2},{"is_transit":false,"transit":false,"line":11,"time":2,"i_long":106.855437,"distance":1829,"station_id":"KMT","i_lat":-6.193792,"station_name":"Kramat"},{"i_lat":-6.185975,"i_long":106.850107,"line":11,"station_id":"GST","is_transit":false,"distance":973,"station_name":"Gang Sentiong","time":1,"transit":false},{"i_long":106.84368,"distance":1567,"line":11,"station_id":"PSE","is_transit":false,"station_name":"Pasar Senen","transit":false,"time":8,"i_lat":-6.174784},{"line":11,"station_id":"KMO","i_long":106.839204,"i_lat":-6.161728,"time":4,"station_name":"Kemayoran","transit":false,"is_transit":false,"distance":1436},{"distance":1901,"line":11,"time":5,"i_long":106.836569,"station_name":"Rajawali","transit":false,"is_transit":false,"station_id":"RJW","i_lat":-6.14505},{"station_name":"Kampung Bandan","station_id":"KPB","time":3,"transit":true,"i_long":106.826365,"is_transit":true,"distance":1444,"i_lat":-6.132549,"line":4},{"station_name":"Jakarta Kota","i_long":106.812439,"line":2,"is_transit":true,"station_id":"JAKK","i_lat":-6.137569,"distance":1364,"time":3,"transit":true},{"station_id":"JAY","distance":1264,"is_transit":false,"time":4,"station_name":"Jayakarta","i_lat":-6.141205,"transit":false,"line":2,"i_long":106.820901},{"is_transit":false,"i_long":106.82482,"line":2,"station_name":"Manggabesar","distance":1080,"station_id":"MGB","time":2,"transit":false,"i_lat":-6.149769},{"station_name":"Sawah Besar","distance":906,"time":2,"i_lat":-6.160725,"is_transit":false,"station_id":"SW","line":2,"i_long":106.827103,"transit":false},{"time":2,"station_name":"Juanda","distance":1149,"station_id":"JUA","i_long":106.828284,"transit":false,"i_lat":-6.166716,"line":2,"is_transit":false},{"station_id":"GDD","i_lat":-6.186295,"is_transit":false,"i_long":106.832183,"distance":2015,"station_name":"Gondangdia","transit":false,"time":4,"line":2},{"station_name":"Cikini","station_id":"CKI","time":3,"i_lat":-6.198556,"line":2,"is_transit":false,"distance":1750,"i_long":106.840169,"transit":false},{"line":2,"transit":false,"station_id":"MRI","time":4,"i_lat":-6.209883,"station_name":"Manggarai","i_long":106.84912,"distance":1590,"is_transit":false},{"line":2,"i_long":106.857948,"is_transit":false,"station_id":"TEB","time":4,"distance":2610,"i_lat":-6.226659,"transit":false,"station_name":"Tebet"},{"distance":1230,"station_id":"CW","time":2,"station_name":"Cawang","i_long":106.856607,"i_lat":-6.242512,"line":2,"is_transit":false,"transit":false},{"is_transit":false,"time":3,"distance":1546,"i_long":106.85449,"station_name":"Duren Kalibata","line":2,"i_lat":-6.255332,"transit":false,"station_id":"DRN"},{"transit":false,"station_id":"PSMB","i_lat":-6.263214,"station_name":"Pasar Minggu Baru","distance":824,"time":2,"line":2,"i_long":106.851577,"is_transit":false},{"station_id":"PSM","time":2,"line":2,"i_long":106.843999,"i_lat":-6.2842400000000005,"station_name":"Pasar Minggu","is_transit":false,"transit":false,"distance":2380},{"transit":false,"station_name":"Tanjung Barat","station_id":"TNT","time":4,"i_long":106.838896,"is_transit":false,"i_lat":-6.3080680000000005,"distance":2820,"line":2},{"line":2,"time":3,"transit":false,"is_transit":false,"distance":2671,"station_id":"LNA","i_lat":-6.330363,"station_name":"Lenteng Agung","i_long":106.832616},{"time":2,"i_lat":-6.339291,"i_long":106.834175,"distance":1029,"line":2,"transit":false,"is_transit":false,"station_id":"UP","station_name":"Univ. Pancasila"},{"station_id":"UI","station_name":"Univ. Indonesia","is_transit":false,"time":3,"line":2,"i_lat":-6.360749,"transit":false,"distance":2264,"i_long":106.831474},{"station_name":"Pondok Cina","i_long":106.831114,"is_transit":false,"station_id":"POC","time":2,"transit":false,"distance":1109,"i_lat":-6.369073,"line":2},{"transit":false,"i_lat":-6.391065,"i_long":106.819451,"is_transit":false,"station_name":"Depokbaru","distance":2727,"station_id":"DPB","time":4,"line":2},{"distance":1584,"is_transit":false,"time":3,"line":2,"station_name":"Depok","i_long":106.816926,"transit":false,"i_lat":-6.405256,"station_id":"DP"},{"line":2,"station_name":"Citayam","distance":5084,"transit":true,"time":6,"i_long":106.800298,"is_transit":true,"station_id":"CTA","i_lat":-6.448811},{"i_long":106.824374,"station_id":"PDRG","station_name":"Pondok Rajeg","i_lat":-6.460735,"is_transit":false,"line":21,"distance":0,"transit":false,"time":0}]]}