{"data":[[{"time":0,"station_id":"KRI","i_long":106.977657,"is_transit":false,"distance":0,"line":1,"transit":false,"station_name":"Kranji","i_lat":-6.224515},{"is_transit":false,"time":3,"distance":3097,"station_name":"Cakung","i_lat":-6.219053,"line":1,"i_long":106.951283,"transit":false,"station_id":"CUK"},{"i_long":106.939679,"line":1,"is_transit":false,"transit":false,"i_lat":-6.217455,"distance":1385,"time":8,"station_id":"KLDB","station_name":"Klenderbaru"},{"line":1,"is_transit":false,"distance":1305,"transit":false,"i_lat":-6.215568,"i_long":106.922662,"time":1,"station_name":"Buaran","station_id":"BUA"},{"time":2,"distance":3100,"i_lat":-6.2135,"is_transit":false,"i_long":106.899548,"station_name":"Klender","line":1,"station_id":"KLD","transit":false},{"time":3,"line":1,"transit":false,"station_name":"Jatinegara","station_id":"JNG","distance":3395,"is_transit":false,"i_lat":-6.215091,"i_long":106.86807400000001},{"time":2,"station_name":"Matraman","i_lat":-6.212485,"distance":1377,"is_transit":false,"line":1,"station_id":"MTR","i_long":106.858896,"transit":false},{"line":2,"distance":1275,"station_id":"MRI","station_name":"Manggarai","is_transit":false,"i_lat":-6.209883,"i_long":106.84912,"transit":false,"time":2},{"i_long":106.822649,"line":1,"transit":false,"is_transit":false,"time":4,"distance":3186,"station_name":"Sudirman","i_lat":-6.202263,"station_id":"SUD"},{"line":1,"transit":false,"is_transit":false,"distance":280,"station_id":"SUDB","time":1,"i_lat":-6.201433,"station_name":"Sudirman Baru","i_long":106.819881},{"i_long":106.816351,"station_name":"Karet","transit":false,"distance":471,"is_transit":false,"i_lat":-6.20132,"time":1,"station_id":"KAT","line":1},{"distance":2029,"station_id":"THB","i_lat":-6.185545,"transit":false,"station_name":"Tanah Abang","line":1,"i_long":106.811091,"is_transit":false,"time":5},{"i_long":106.800832,"line":1,"transit":true,"is_transit":true,"i_lat":-6.155215,"time":8,"distance":3632,"station_name":"Duri","station_id":"DU"},{"station_name":"Grogol","is_transit":false,"station_id":"GGL","i_long":106.788277,"line":5,"distance":1700,"transit":false,"time":3,"i_lat":-6.162021},{"is_transit":false,"station_name":"Pesing","time":2,"i_lat":-6.161433,"i_long":106.771379,"distance":2036,"station_id":"PSG","transit":false,"line":5},{"transit":false,"line":5,"station_name":"Taman Kota","i_long":106.756522,"time":2,"is_transit":false,"station_id":"TKO","i_lat":-6.1587309999999995,"distance":1614},{"time":2,"distance":2334,"station_name":"Bojongindah","station_id":"BOI","i_long":106.737035,"is_transit":false,"i_lat":-6.159876,"line":5,"transit":false},{"time":4,"is_transit":false,"station_id":"RW","i_long":106.723064,"station_name":"Rawa Buaya","distance":1152,"transit":false,"line":5,"i_lat":-6.162758},{"line":5,"station_name":"Kalideres","transit":false,"distance":2504,"time":3,"is_transit":false,"station_id":"KDS","i_long":106.701612,"i_lat":-6.166068},{"station_id":"PI","i_long":106.679458,"is_transit":false,"transit":false,"i_lat":-6.169933,"station_name":"Poris","time":3,"line":5,"distance":2548},{"transit":false,"line":5,"i_long":106.665036,"station_id":"BPR","time":3,"distance":1834,"station_name":"Batuceper","is_transit":false,"i_lat":-6.171811}],[{"station_id":"KRI","time":0,"is_transit":false,"i_long":106.977657,"transit":false,"distance":0,"station_name":"Kranji","line":1,"i_lat":-6.224515},{"station_id":"CUK","line":1,"transit":false,"time":3,"station_name":"Cakung","i_lat":-6.219053,"is_transit":false,"i_long":106.951283,"distance":3097},{"i_long":106.939679,"transit":false,"i_lat":-6.217455,"is_transit":false,"line":1,"distance":1385,"station_id":"KLDB","station_name":"Klenderbaru","time":8},{"station_id":"BUA","time":1,"i_long":106.922662,"is_transit":false,"distance":1305,"transit":false,"i_lat":-6.215568,"station_name":"Buaran","line":1},{"is_transit":false,"line":1,"i_long":106.899548,"time":2,"i_lat":-6.2135,"station_id":"KLD","distance":3100,"station_name":"Klender","transit":false},{"station_id":"JNG","i_long":106.86807400000001,"is_transit":true,"time":3,"i_lat":-6.215091,"transit":true,"distance":3395,"line":1,"station_name":"Jatinegara"},{"is_transit":false,"line":11,"station_name":"Pondok Jati","time":2,"i_long":106.861737,"station_id":"POK","i_lat":-6.209188,"transit":false,"distance":1236},{"station_id":"KMT","is_transit":false,"i_long":106.855437,"i_lat":-6.193792,"time":2,"distance":1829,"transit":false,"line":11,"station_name":"Kramat"},{"time":1,"is_transit":false,"i_long":106.850107,"station_id":"GST","station_name":"Gang Sentiong","distance":973,"transit":false,"i_lat":-6.185975,"line":11},{"line":11,"time":8,"distance":1567,"station_name":"Pasar Senen","i_lat":-6.174784,"transit":false,"is_transit":false,"i_long":106.84368,"station_id":"PSE"},{"i_lat":-6.161728,"station_id":"KMO","distance":1436,"time":4,"i_long":106.839204,"transit":false,"station_name":"Kemayoran","is_transit":false,"line":11},{"line":11,"station_name":"Rajawali","i_long":106.836569,"time":5,"i_lat":-6.14505,"transit":false,"station_id":"RJW","distance":1901,"is_transit":false},{"line":4,"i_long":106.826365,"time":3,"distance":1444,"station_name":"Kampung Bandan","is_transit":true,"station_id":"KPB","transit":true,"i_lat":-6.132549},{"time":9,"station_name":"Angke","station_id":"AK","transit":false,"i_long":106.79867,"distance":4102,"i_lat":-6.144674,"line":1,"is_transit":false},{"time":4,"station_id":"DU","distance":1230,"is_transit":true,"i_lat":-6.155215,"transit":true,"i_long":106.800832,"line":1,"station_name":"Duri"},{"is_transit":false,"i_lat":-6.162021,"time":3,"transit":false,"distance":1700,"station_id":"GGL","i_long":106.788277,"line":5,"station_name":"Grogol"},{"time":2,"line":5,"transit":false,"distance":2036,"i_lat":-6.161433,"is_transit":false,"station_id":"PSG","i_long":106.771379,"station_name":"Pesing"},{"is_transit":false,"line":5,"station_id":"TKO","distance":1614,"station_name":"Taman Kota","time":2,"transit":false,"i_long":106.756522,"i_lat":-6.1587309999999995},{"i_lat":-6.159876,"station_name":"Bojongindah","time":2,"line":5,"transit":false,"i_long":106.737035,"distance":2334,"station_id":"BOI","is_transit":false},{"line":5,"time":4,"station_id":"RW","distance":1152,"transit":false,"is_transit":false,"i_long":106.723064,"station_name":"Rawa Buaya","i_lat":-6.162758},{"line":5,"station_id":"KDS","transit":false,"is_transit":false,"station_name":"Kalideres","i_long":106.701612,"distance":2504,"time":3,"i_lat":-6.166068},{"i_long":106.679458,"station_name":"Poris","time":3,"is_transit":false,"line":5,"i_lat":-6.169933,"distance":2548,"station_id":"PI","transit":false},{"transit":false,"line":5,"time":3,"distance":1834,"i_lat":-6.171811,"station_name":"Batuceper","is_transit":false,"station_id":"BPR","i_long":106.665036}],[{"i_long":106.977657,"line":1,"is_transit":false,"distance":0,"station_id":"KRI","i_lat":-6.224515,"station_name":"Kranji","time":0,"transit":false},{"time":3,"station_id":"CUK","is_transit":false,"i_lat":-6.219053,"line":1,"i_long":106.951283,"distance":3097,"station_name":"Cakung","transit":false},{"transit":false,"line":1,"station_name":"Klenderbaru","time":8,"is_transit":false,"distance":1385,"i_long":106.939679,"station_id":"KLDB","i_lat":-6.217455},{"i_long":106.922662,"time":1,"line":1,"i_lat":-6.215568,"station_id":"BUA","is_transit":false,"station_name":"Buaran","transit":false,"distance":1305},{"transit":false,"line":1,"distance":3100,"time":2,"i_lat":-6.2135,"i_long":106.899548,"station_id":"KLD","station_name":"Klender","is_transit":false},{"station_id":"JNG","time":3,"station_name":"Jatinegara","transit":false,"line":1,"i_long":106.86807400000001,"is_transit":false,"i_lat":-6.215091,"distance":3395},{"i_lat":-6.212485,"station_name":"Matraman","i_long":106.858896,"station_id":"MTR","is_transit":false,"distance":1377,"line":1,"transit":false,"time":2},{"is_transit":true,"distance":1275,"time":2,"station_id":"MRI","i_lat":-6.209883,"i_long":106.84912,"line":2,"station_name":"Manggarai","transit":true},{"transit":false,"line":2,"time":4,"station_name":"Cikini","i_lat":-6.198556,"distance":1590,"station_id":"CKI","i_long":106.840169,"is_transit":false},{"is_transit":false,"transit":false,"i_lat":-6.186295,"distance":1750,"line":2,"station_id":"GDD","station_name":"Gondangdia","i_long":106.832183,"time":3},{"time":4,"transit":false,"line":2,"is_transit":false,"station_name":"Juanda","i_long":106.828284,"distance":2015,"i_lat":-6.166716,"station_id":"JUA"},{"distance":1149,"station_name":"Sawah Besar","i_lat":-6.160725,"i_long":106.827103,"is_transit":false,"transit":false,"line":2,"time":2,"station_id":"SW"},{"station_name":"Manggabesar","station_id":"MGB","distance":906,"i_long":106.82482,"transit":false,"is_transit":false,"i_lat":-6.149769,"line":2,"time":2},{"i_long":106.820901,"distance":1080,"is_transit":false,"transit":false,"i_lat":-6.141205,"line":2,"station_name":"Jayakarta","station_id":"JAY","time":2},{"distance":1264,"station_id":"JAKK","i_long":106.812439,"line":2,"is_transit":true,"transit":true,"i_lat":-6.137569,"time":4,"station_name":"Jakarta Kota"},{"is_transit":true,"line":4,"station_name":"Kampung Bandan","station_id":"KPB","distance":1364,"time":3,"transit":true,"i_lat":-6.132549,"i_long":106.826365},{"line":1,"is_transit":false,"station_name":"Angke","station_id":"AK","transit":false,"i_lat":-6.144674,"i_long":106.79867,"time":9,"distance":4102},{"time":4,"distance":1230,"is_transit":true,"station_name":"Duri","transit":true,"line":1,"i_long":106.800832,"station_id":"DU","i_lat":-6.155215},{"i_lat":-6.162021,"transit":false,"station_name":"Grogol","time":3,"is_transit":false,"line":5,"distance":1700,"i_long":106.788277,"station_id":"GGL"},{"distance":2036,"i_lat":-6.161433,"i_long":106.771379,"station_id":"PSG","is_transit":false,"time":2,"transit":false,"station_name":"Pesing","line":5},{"is_transit":false,"time":2,"station_id":"TKO","distance":1614,"transit":false,"station_name":"Taman Kota","i_lat":-6.1587309999999995,"i_long":106.756522,"line":5},{"is_transit":false,"distance":2334,"station_name":"Bojongindah","line":5,"transit":false,"station_id":"BOI","i_long":106.737035,"time":2,"i_lat":-6.159876},{"transit":false,"is_transit":false,"i_lat":-6.162758,"station_name":"Rawa Buaya","time":4,"i_long":106.723064,"station_id":"RW","line":5,"distance":1152},{"station_id":"KDS","time":3,"distance":2504,"transit":false,"i_lat":-6.166068,"is_transit":false,"station_name":"Kalideres","line":5,"i_long":106.701612},{"distance":2548,"i_long":106.679458,"is_transit":false,"i_lat":-6.169933,"station_name":"Poris","station_id":"PI","transit":false,"time":3,"line":5},{"is_transit":false,"station_id":"BPR","transit":false,"time":3,"station_name":"Batuceper","distance":1834,"i_lat":-6.171811,"i_long":106.665036,"line":5}],[{"i_lat":-6.224515,"station_id":"KRI","i_long":106.977657,"line":1,"time":0,"distance":0,"station_name":"Kranji","is_transit":false,"transit":false},{"time":3,"station_name":"Cakung","transit":false,"i_long":106.951283,"i_lat":-6.219053,"station_id":"CUK","distance":3097,"line":1,"is_transit":false},{"transit":false,"station_name":"Klenderbaru","line":1,"is_transit":false,"time":8,"i_lat":-6.217455,"distance":1385,"i_long":106.939679,"station_id":"KLDB"},{"station_name":"Buaran","station_id":"BUA","distance":1305,"i_lat":-6.215568,"line":1,"i_long":106.922662,"time":1,"transit":false,"is_transit":false},{"line":1,"i_lat":-6.2135,"is_transit":false,"station_id":"KLD","time":2,"distance":3100,"transit":false,"i_long":106.899548,"station_name":"Klender"},{"transit":true,"distance":3395,"is_transit":true,"i_long":106.86807400000001,"station_id":"JNG","i_lat":-6.215091,"line":1,"time":3,"station_name":"Jatinegara"},{"i_long":106.861737,"line":11,"transit":false,"time":2,"distance":1236,"is_transit":false,"station_name":"Pondok Jati","i_lat":-6.209188,"station_id":"POK"},{"station_name":"Kramat","i_lat":-6.193792,"time":2,"distance":1829,"i_long":106.855437,"line":11,"station_id":"KMT","transit":false,"is_transit":false},{"station_id":"GST","station_name":"Gang Sentiong","time":1,"distance":973,"is_transit":false,"i_lat":-6.185975,"i_long":106.850107,"line":11,"transit":false},{"time":8,"distance":1567,"i_lat":-6.174784,"station_name":"Pasar Senen","line":11,"transit":false,"station_id":"PSE","i_long":106.84368,"is_transit":false},{"station_name":"Kemayoran","i_lat":-6.161728,"line":11,"time":4,"i_long":106.839204,"transit":false,"station_id":"KMO","distance":1436,"is_transit":false},{"transit":false,"i_long":106.836569,"i_lat":-6.14505,"line":11,"is_transit":false,"time":5,"station_id":"RJW","station_name":"Rajawali","distance":1901},{"time":3,"station_name":"Kampung Bandan","transit":true,"distance":1444,"i_lat":-6.132549,"line":4,"i_long":106.826365,"is_transit":true,"station_id":"KPB"},{"i_lat":-6.137569,"line":2,"distance":1364,"is_transit":true,"station_id":"JAKK","station_name":"Jakarta Kota","i_long":106.812439,"transit":true,"time":3},{"transit":false,"station_name":"Jayakarta","distance":1264,"station_id":"JAY","line":2,"time":4,"i_lat":-6.141205,"i_long":106.820901,"is_transit":false},{"distance":1080,"line":2,"station_id":"MGB","is_transit":false,"i_lat":-6.149769,"i_long":106.82482,"time":2,"station_name":"Manggabesar","transit":false},{"i_long":106.827103,"station_id":"SW","transit":false,"line":2,"time":2,"station_name":"Sawah Besar","is_transit":false,"distance":906,"i_lat":-6.160725},{"time":2,"i_lat":-6.166716,"distance":1149,"is_transit":false,"station_name":"Juanda","i_long":106.828284,"transit":false,"line":2,"station_id":"JUA"},{"line":2,"station_name":"Gondangdia","station_id":"GDD","distance":2015,"transit":false,"i_lat":-6.186295,"i_long":106.832183,"is_transit":false,"time":4},{"i_long":106.840169,"transit":false,"time":3,"is_transit":false,"station_name":"Cikini","distance":1750,"i_lat":-6.198556,"line":2,"station_id":"CKI"},{"transit":true,"time":4,"distance":1590,"station_name":"Manggarai","station_id":"MRI","is_transit":true,"i_long":106.84912,"line":2,"i_lat":-6.209883},{"i_lat":-6.202263,"station_id":"SUD","i_long":106.822649,"is_transit":false,"station_name":"Sudirman","line":1,"transit":false,"time":4,"distance":3186},{"distance":280,"line":1,"is_transit":false,"station_id":"SUDB","time":1,"station_name":"Sudirman Baru","transit":false,"i_lat":-6.201433,"i_long":106.819881},{"transit":false,"i_lat":-6.20132,"distance":471,"station_id":"KAT","is_transit":false,"station_name":"Karet","time":1,"i_long":106.816351,"line":1},{"station_id":"THB","is_transit":false,"transit":false,"i_lat":-6.185545,"line":1,"time":5,"station_name":"Tanah Abang","distance":2029,"i_long":106.811091},{"transit":true,"is_transit":true,"i_lat":-6.155215,"station_id":"DU","time":8,"line":1,"station_name":"Duri","distance":3632,"i_long":106.800832},{"distance":1700,"transit":false,"time":3,"line":5,"i_lat":-6.162021,"is_transit":false,"station_name":"Grogol","i_long":106.788277,"station_id":"GGL"},{"time":2,"distance":2036,"i_long":106.771379,"is_transit":false,"station_id":"PSG","transit":false,"station_name":"Pesing","i_lat":-6.161433,"line":5},{"i_long":106.756522,"time":2,"station_id":"TKO","distance":1614,"line":5,"is_transit":false,"station_name":"Taman Kota","transit":false,"i_lat":-6.1587309999999995},{"station_name":"Bojongindah","line":5,"station_id":"BOI","distance":2334,"time":2,"i_lat":-6.159876,"transit":false,"i_long":106.737035,"is_transit":false},{"line":5,"i_lat":-6.162758,"i_long":106.723064,"station_id":"RW","transit":false,"time":4,"station_name":"Rawa Buaya","is_transit":false,"distance":1152},{"is_transit":false,"transit":false,"time":3,"station_name":"Kalideres","distance":2504,"i_long":106.701612,"line":5,"station_id":"KDS","i_lat":-6.166068},{"distance":2548,"time":3,"station_id":"PI","line":5,"station_name":"Poris","transit":false,"is_transit":false,"i_lat":-6.169933,"i_long":106.679458},{"is_transit":false,"i_long":106.665036,"time":3,"station_name":"Batuceper","distance":1834,"transit":false,"station_id":"BPR","i_lat":-6.171811,"line":5}]]}