{"data":[[{"line":1,"station_id":"KRI","time":0,"i_lat":-6.224515,"is_transit":false,"distance":0,"transit":false,"station_name":"Kranji","i_long":106.977657},{"distance":3097,"transit":false,"i_lat":-6.219053,"time":3,"line":0,"station_id":"CUK","is_transit":false,"station_name":"Cakung","i_long":106.951283},{"distance":1385,"i_lat":-6.217455,"line":1,"time":8,"transit":false,"i_long":106.939679,"station_id":"KLDB","is_transit":false,"station_name":"Klenderbaru"},{"transit":false,"i_long":106.922662,"station_name":"Buaran","i_lat":-6.215568,"is_transit":false,"line":0,"time":1,"station_id":"BUA","distance":1305},{"station_id":"KLD","distance":3100,"transit":false,"i_long":106.899548,"line":1,"is_transit":false,"time":2,"station_name":"Klender","i_lat":-6.2135},{"i_long":106.86807400000001,"station_name":"Jatinegara","time":3,"line":0,"is_transit":true,"i_lat":-6.215091,"transit":false,"station_id":"JNG","distance":3395},{"station_id":"MTR","time":2,"transit":false,"i_long":106.858896,"distance":1377,"i_lat":-6.212485,"station_name":"Matraman","line":1,"is_transit":false},{"line":0,"station_name":"Manggarai","is_transit":true,"transit":true,"distance":1275,"i_lat":-6.209883,"i_long":106.84912,"time":2,"station_id":"MRI"},{"transit":false,"station_id":"CKI","station_name":"Cikini","is_transit":false,"time":4,"distance":1590,"i_lat":-6.198556,"line":0,"i_long":106.840169},{"station_id":"GDD","time":3,"i_lat":-6.186295,"i_long":106.832183,"line":2,"transit":false,"is_transit":false,"station_name":"Gondangdia","distance":1750},{"station_id":"JUA","transit":false,"distance":2015,"time":4,"i_lat":-6.166716,"i_long":106.828284,"station_name":"Juanda","is_transit":false,"line":2},{"i_long":106.827103,"line":2,"i_lat":-6.160725,"is_transit":false,"station_id":"SW","distance":1149,"station_name":"Sawah Besar","transit":false,"time":2}],[{"transit":false,"distance":0,"i_long":106.977657,"station_id":"KRI","i_lat":-6.224515,"station_name":"Kranji","line":1,"time":0,"is_transit":false},{"line":0,"station_id":"CUK","station_name":"Cakung","time":3,"transit":false,"i_lat":-6.219053,"i_long":106.951283,"is_transit":false,"distance":3097},{"time":8,"transit":false,"i_lat":-6.217455,"line":1,"station_id":"KLDB","station_name":"Klenderbaru","i_long":106.939679,"is_transit":false,"distance":1385},{"line":0,"i_long":106.922662,"time":1,"station_name":"Buaran","distance":1305,"station_id":"BUA","i_lat":-6.215568,"is_transit":false,"transit":false},{"distance":3100,"i_long":106.899548,"transit":false,"station_name":"Klender","station_id":"KLD","is_transit":false,"time":2,"line":1,"i_lat":-6.2135},{"i_lat":-6.215091,"time":3,"i_long":106.86807400000001,"station_name":"Jatinegara","line":0,"station_id":"JNG","distance":3395,"transit":true,"is_transit":true},{"i_lat":-6.209188,"line":11,"station_id":"POK","station_name":"Pondok Jati","time":2,"is_transit":false,"distance":1236,"transit":false,"i_long":106.861737},{"i_long":106.855437,"time":2,"i_lat":-6.193792,"line":11,"station_name":"Kramat","is_transit":false,"station_id":"KMT","transit":false,"distance":1829},{"station_name":"Gang Sentiong","transit":false,"i_long":106.850107,"distance":973,"line":11,"i_lat":-6.185975,"station_id":"GST","is_transit":false,"time":1},{"is_transit":false,"line":11,"distance":1567,"transit":false,"station_name":"Pasar Senen","i_lat":-6.174784,"time":8,"station_id":"PSE","i_long":106.84368},{"is_transit":false,"time":4,"transit":false,"station_id":"KMO","i_long":106.839204,"line":11,"distance":1436,"station_name":"Kemayoran","i_lat":-6.161728},{"time":5,"i_long":106.836569,"distance":1901,"transit":false,"station_name":"Rajawali","station_id":"RJW","i_lat":-6.14505,"line":11,"is_transit":false},{"distance":1444,"i_lat":-6.132549,"line":0,"i_long":106.826365,"station_id":"KPB","transit":true,"station_name":"Kampung Bandan","is_transit":true,"time":3},{"is_transit":true,"station_id":"JAKK","time":3,"station_name":"Jakarta Kota","distance":1364,"i_long":106.812439,"transit":true,"line":0,"i_lat":-6.137569},{"transit":false,"station_name":"Jayakarta","is_transit":false,"i_lat":-6.141205,"i_long":106.820901,"station_id":"JAY","time":4,"distance":1264,"line":7},{"time":2,"distance":1080,"line":2,"station_name":"Manggabesar","i_lat":-6.149769,"station_id":"MGB","i_long":106.82482,"transit":false,"is_transit":false},{"line":2,"distance":906,"station_name":"Sawah Besar","is_transit":false,"i_long":106.827103,"time":2,"station_id":"SW","transit":false,"i_lat":-6.160725}],[{"station_name":"Kranji","transit":false,"time":0,"station_id":"KRI","i_long":106.977657,"line":1,"i_lat":-6.224515,"distance":0,"is_transit":false},{"distance":3097,"station_id":"CUK","is_transit":false,"line":0,"i_lat":-6.219053,"time":3,"i_long":106.951283,"transit":false,"station_name":"Cakung"},{"distance":1385,"is_transit":false,"i_lat":-6.217455,"i_long":106.939679,"line":1,"station_id":"KLDB","station_name":"Klenderbaru","time":8,"transit":false},{"distance":1305,"is_transit":false,"transit":false,"station_id":"BUA","time":1,"i_long":106.922662,"line":0,"station_name":"Buaran","i_lat":-6.215568},{"transit":false,"line":1,"station_id":"KLD","station_name":"Klender","is_transit":false,"time":2,"i_lat":-6.2135,"i_long":106.899548,"distance":3100},{"i_long":106.86807400000001,"transit":false,"line":0,"time":3,"distance":3395,"is_transit":true,"station_id":"JNG","i_lat":-6.215091,"station_name":"Jatinegara"},{"is_transit":false,"distance":1377,"time":2,"station_id":"MTR","line":1,"transit":false,"i_lat":-6.212485,"i_long":106.858896,"station_name":"Matraman"},{"station_id":"MRI","line":0,"station_name":"Manggarai","distance":1275,"transit":false,"i_long":106.84912,"time":2,"is_transit":true,"i_lat":-6.209883},{"is_transit":false,"distance":3186,"line":1,"i_long":106.822649,"i_lat":-6.202263,"station_id":"SUD","station_name":"Sudirman","time":4,"transit":false},{"distance":280,"i_long":106.819881,"station_name":"Sudirman Baru","i_lat":-6.201433,"line":1,"is_transit":false,"transit":false,"station_id":"SUDB","time":1},{"line":1,"distance":471,"transit":false,"station_id":"KAT","i_lat":-6.20132,"station_name":"Karet","i_long":106.816351,"is_transit":false,"time":1},{"line":1,"is_transit":true,"station_id":"THB","time":5,"transit":false,"i_lat":-6.185545,"station_name":"Tanah Abang","i_long":106.811091,"distance":2029},{"station_id":"DU","is_transit":true,"time":8,"transit":true,"station_name":"Duri","distance":3632,"i_long":106.800832,"i_lat":-6.155215,"line":1},{"distance":1230,"station_id":"AK","station_name":"Angke","time":4,"i_long":106.79867,"is_transit":false,"i_lat":-6.144674,"transit":false,"line":0},{"i_long":106.826365,"station_id":"KPB","station_name":"Kampung Bandan","transit":false,"is_transit":true,"distance":4102,"i_lat":-6.132549,"line":0,"time":9},{"station_id":"JAKK","time":3,"station_name":"Jakarta Kota","i_lat":-6.137569,"distance":1364,"line":0,"transit":true,"i_long":106.812439,"is_transit":true},{"time":4,"transit":false,"distance":1264,"i_lat":-6.141205,"station_name":"Jayakarta","station_id":"JAY","line":7,"is_transit":false,"i_long":106.820901},{"i_lat":-6.149769,"line":2,"transit":false,"distance":1080,"is_transit":false,"i_long":106.82482,"time":2,"station_id":"MGB","station_name":"Manggabesar"},{"station_id":"SW","i_long":106.827103,"distance":906,"is_transit":false,"i_lat":-6.160725,"line":2,"transit":false,"station_name":"Sawah Besar","time":2}],[{"is_transit":false,"station_id":"KRI","i_long":106.977657,"transit":false,"distance":0,"i_lat":-6.224515,"time":0,"line":1,"station_name":"Kranji"},{"i_lat":-6.219053,"distance":3097,"is_transit":false,"time":3,"i_long":106.951283,"station_id":"CUK","transit":false,"station_name":"Cakung","line":0},{"station_name":"Klenderbaru","time":8,"transit":false,"i_lat":-6.217455,"station_id":"KLDB","is_transit":false,"distance":1385,"line":1,"i_long":106.939679},{"i_lat":-6.215568,"transit":false,"time":1,"i_long":106.922662,"station_name":"Buaran","station_id":"BUA","line":0,"distance":1305,"is_transit":false},{"station_id":"KLD","time":2,"distance":3100,"i_lat":-6.2135,"i_long":106.899548,"line":1,"transit":false,"is_transit":false,"station_name":"Klender"},{"distance":3395,"i_long":106.86807400000001,"transit":true,"line":0,"station_name":"Jatinegara","time":3,"i_lat":-6.215091,"station_id":"JNG","is_transit":true},{"i_lat":-6.209188,"is_transit":false,"distance":1236,"i_long":106.861737,"station_name":"Pondok Jati","time":2,"transit":false,"line":11,"station_id":"POK"},{"station_name":"Kramat","transit":false,"station_id":"KMT","i_lat":-6.193792,"line":11,"time":2,"distance":1829,"i_long":106.855437,"is_transit":false},{"line":11,"transit":false,"i_lat":-6.185975,"is_transit":false,"station_name":"Gang Sentiong","time":1,"station_id":"GST","distance":973,"i_long":106.850107},{"i_long":106.84368,"is_transit":false,"distance":1567,"transit":false,"station_name":"Pasar Senen","station_id":"PSE","i_lat":-6.174784,"time":8,"line":11},{"i_long":106.839204,"station_name":"Kemayoran","line":11,"distance":1436,"station_id":"KMO","time":4,"transit":false,"i_lat":-6.161728,"is_transit":false},{"station_id":"RJW","is_transit":false,"transit":false,"i_lat":-6.14505,"line":11,"station_name":"Rajawali","time":5,"i_long":106.836569,"distance":1901},{"distance":1444,"transit":true,"station_id":"KPB","i_long":106.826365,"station_name":"Kampung Bandan","time":3,"i_lat":-6.132549,"line":0,"is_transit":true},{"is_transit":false,"i_lat":-6.144674,"station_id":"AK","i_long":106.79867,"distance":4102,"line":0,"station_name":"Angke","time":9,"transit":false},{"station_name":"Duri","station_id":"DU","time":4,"transit":true,"i_long":106.800832,"i_lat":-6.155215,"distance":1230,"line":1,"is_transit":true},{"station_name":"Tanah Abang","line":1,"time":8,"station_id":"THB","i_lat":-6.185545,"distance":3632,"i_long":106.811091,"transit":false,"is_transit":true},{"i_long":106.816351,"is_transit":false,"distance":2029,"station_name":"Karet","time":5,"transit":false,"station_id":"KAT","i_lat":-6.20132,"line":1},{"distance":471,"i_long":106.819881,"station_name":"Sudirman Baru","is_transit":false,"line":1,"transit":false,"time":1,"station_id":"SUDB","i_lat":-6.201433},{"station_id":"SUD","i_lat":-6.202263,"distance":280,"line":1,"station_name":"Sudirman","transit":false,"time":1,"i_long":106.822649,"is_transit":false},{"line":0,"time":4,"i_long":106.84912,"is_transit":true,"transit":true,"i_lat":-6.209883,"station_name":"Manggarai","station_id":"MRI","distance":3186},{"distance":1590,"station_name":"Cikini","i_lat":-6.198556,"time":4,"line":0,"station_id":"CKI","is_transit":false,"transit":false,"i_long":106.840169},{"i_lat":-6.186295,"is_transit":false,"distance":1750,"time":3,"station_id":"GDD","station_name":"Gondangdia","i_long":106.832183,"transit":false,"line":2},{"i_long":106.828284,"line":2,"time":4,"station_id":"JUA","station_name":"Juanda","is_transit":false,"transit":false,"distance":2015,"i_lat":-6.166716},{"i_lat":-6.160725,"i_long":106.827103,"station_name":"Sawah Besar","distance":1149,"line":2,"transit":false,"station_id":"SW","is_transit":false,"time":2}]]}