{"data":[[{"time":0,"line":1,"is_transit":false,"transit":false,"station_id":"KRI","station_name":"Kranji","i_lat":-6.224515,"distance":0,"i_long":106.977657},{"is_transit":false,"distance":3097,"i_lat":-6.219053,"line":0,"station_id":"CUK","time":3,"station_name":"Cakung","transit":false,"i_long":106.951283},{"station_name":"Klenderbaru","is_transit":false,"transit":false,"distance":1385,"line":1,"time":8,"i_long":106.939679,"i_lat":-6.217455,"station_id":"KLDB"},{"i_lat":-6.215568,"station_name":"Buaran","i_long":106.922662,"line":0,"is_transit":false,"distance":1305,"time":1,"transit":false,"station_id":"BUA"},{"i_lat":-6.2135,"line":1,"time":2,"station_name":"Klender","is_transit":false,"transit":false,"i_long":106.899548,"distance":3100,"station_id":"KLD"},{"distance":3395,"transit":false,"station_id":"JNG","i_lat":-6.215091,"i_long":106.86807400000001,"line":0,"time":3,"station_name":"Jatinegara","is_transit":true},{"time":2,"line":1,"transit":false,"station_name":"Matraman","i_long":106.858896,"station_id":"MTR","distance":1377,"i_lat":-6.212485,"is_transit":false},{"transit":false,"station_name":"Manggarai","time":2,"i_long":106.84912,"line":0,"i_lat":-6.209883,"is_transit":true,"station_id":"MRI","distance":1275},{"transit":false,"distance":3186,"station_name":"Sudirman","station_id":"SUD","i_long":106.822649,"line":1,"time":4,"i_lat":-6.202263,"is_transit":false},{"distance":280,"i_long":106.819881,"line":1,"station_name":"Sudirman Baru","station_id":"SUDB","transit":false,"i_lat":-6.201433,"is_transit":false,"time":1},{"station_name":"Karet","i_long":106.816351,"line":1,"i_lat":-6.20132,"transit":false,"is_transit":false,"distance":471,"station_id":"KAT","time":1},{"transit":true,"i_long":106.811091,"station_name":"Tanah Abang","station_id":"THB","distance":2029,"i_lat":-6.185545,"is_transit":true,"line":1,"time":5},{"station_id":"PLM","i_long":106.79689,"transit":false,"line":6,"distance":3191,"time":6,"station_name":"Palmerah","is_transit":false,"i_lat":-6.207404},{"station_name":"Kebayoran","distance":3737,"i_long":106.780334,"time":7,"line":6,"transit":false,"is_transit":false,"station_id":"KBY","i_lat":-6.237242},{"time":8,"i_lat":-6.276362,"i_long":106.74273,"transit":false,"is_transit":false,"distance":6218,"station_name":"Pondokranji","station_id":"PDJ","line":6},{"line":6,"i_lat":-6.288927,"time":3,"station_name":"Jurangmangu","distance":2179,"station_id":"JMU","i_long":106.728916,"is_transit":false,"transit":false},{"time":4,"i_long":106.712277,"distance":1994,"station_id":"SDM","station_name":"Sudimara","is_transit":false,"line":6,"transit":false,"i_lat":-6.296963},{"station_name":"Rawa Buntu","is_transit":false,"station_id":"RU","i_long":106.675475,"time":6,"transit":false,"distance":4566,"i_lat":-6.314823,"line":6},{"i_long":106.66566,"line":6,"time":4,"is_transit":false,"station_id":"SRP","distance":2413,"i_lat":-6.319871,"station_name":"Serpong","transit":false}],[{"i_long":106.977657,"distance":0,"station_id":"KRI","i_lat":-6.224515,"transit":false,"line":1,"station_name":"Kranji","is_transit":false,"time":0},{"station_id":"CUK","time":3,"distance":3097,"station_name":"Cakung","is_transit":false,"i_lat":-6.219053,"transit":false,"i_long":106.951283,"line":0},{"is_transit":false,"transit":false,"station_name":"Klenderbaru","i_lat":-6.217455,"line":1,"station_id":"KLDB","time":8,"distance":1385,"i_long":106.939679},{"is_transit":false,"i_long":106.922662,"station_name":"Buaran","distance":1305,"i_lat":-6.215568,"station_id":"BUA","time":1,"transit":false,"line":0},{"station_name":"Klender","i_lat":-6.2135,"i_long":106.899548,"transit":false,"time":2,"distance":3100,"line":1,"is_transit":false,"station_id":"KLD"},{"i_lat":-6.215091,"distance":3395,"is_transit":true,"i_long":106.86807400000001,"station_name":"Jatinegara","time":3,"line":0,"station_id":"JNG","transit":true},{"i_long":106.861737,"station_name":"Pondok Jati","distance":1236,"transit":false,"station_id":"POK","i_lat":-6.209188,"line":11,"is_transit":false,"time":2},{"time":2,"is_transit":false,"station_id":"KMT","i_lat":-6.193792,"station_name":"Kramat","transit":false,"i_long":106.855437,"line":11,"distance":1829},{"line":11,"station_id":"GST","station_name":"Gang Sentiong","time":1,"transit":false,"i_long":106.850107,"distance":973,"is_transit":false,"i_lat":-6.185975},{"distance":1567,"transit":false,"station_name":"Pasar Senen","i_lat":-6.174784,"i_long":106.84368,"is_transit":false,"line":11,"station_id":"PSE","time":8},{"transit":false,"line":11,"distance":1436,"i_lat":-6.161728,"station_name":"Kemayoran","is_transit":false,"time":4,"station_id":"KMO","i_long":106.839204},{"distance":1901,"i_lat":-6.14505,"i_long":106.836569,"station_name":"Rajawali","is_transit":false,"line":11,"transit":false,"station_id":"RJW","time":5},{"station_id":"KPB","is_transit":true,"distance":1444,"i_long":106.826365,"transit":true,"station_name":"Kampung Bandan","time":3,"line":0,"i_lat":-6.132549},{"distance":4102,"line":0,"time":9,"i_lat":-6.144674,"station_name":"Angke","i_long":106.79867,"transit":false,"is_transit":false,"station_id":"AK"},{"line":1,"is_transit":true,"distance":1230,"station_id":"DU","transit":true,"station_name":"Duri","time":4,"i_lat":-6.155215,"i_long":106.800832},{"i_lat":-6.185545,"time":8,"transit":true,"station_name":"Tanah Abang","i_long":106.811091,"line":1,"is_transit":true,"station_id":"THB","distance":3632},{"station_name":"Palmerah","i_lat":-6.207404,"time":6,"station_id":"PLM","transit":false,"is_transit":false,"distance":3191,"i_long":106.79689,"line":6},{"station_name":"Kebayoran","time":7,"i_lat":-6.237242,"transit":false,"line":6,"station_id":"KBY","distance":3737,"i_long":106.780334,"is_transit":false},{"station_id":"PDJ","i_long":106.74273,"line":6,"is_transit":false,"time":8,"transit":false,"distance":6218,"station_name":"Pondokranji","i_lat":-6.276362},{"distance":2179,"line":6,"i_lat":-6.288927,"is_transit":false,"i_long":106.728916,"transit":false,"time":3,"station_name":"Jurangmangu","station_id":"JMU"},{"time":4,"transit":false,"i_lat":-6.296963,"i_long":106.712277,"line":6,"station_name":"Sudimara","is_transit":false,"station_id":"SDM","distance":1994},{"i_lat":-6.314823,"station_name":"Rawa Buntu","i_long":106.675475,"is_transit":false,"distance":4566,"time":6,"station_id":"RU","line":6,"transit":false},{"is_transit":false,"station_id":"SRP","line":6,"station_name":"Serpong","distance":2413,"transit":false,"i_long":106.66566,"time":4,"i_lat":-6.319871}],[{"distance":0,"station_name":"Kranji","time":0,"i_long":106.977657,"i_lat":-6.224515,"line":1,"station_id":"KRI","is_transit":false,"transit":false},{"transit":false,"station_id":"CUK","station_name":"Cakung","time":3,"line":0,"distance":3097,"i_long":106.951283,"is_transit":false,"i_lat":-6.219053},{"transit":false,"station_name":"Klenderbaru","station_id":"KLDB","i_lat":-6.217455,"distance":1385,"i_long":106.939679,"is_transit":false,"line":1,"time":8},{"is_transit":false,"distance":1305,"time":1,"station_id":"BUA","station_name":"Buaran","i_lat":-6.215568,"transit":false,"line":0,"i_long":106.922662},{"transit":false,"line":1,"station_name":"Klender","time":2,"is_transit":false,"i_long":106.899548,"i_lat":-6.2135,"station_id":"KLD","distance":3100},{"distance":3395,"station_name":"Jatinegara","time":3,"i_lat":-6.215091,"is_transit":true,"i_long":106.86807400000001,"line":0,"station_id":"JNG","transit":false},{"station_id":"MTR","transit":false,"is_transit":false,"i_long":106.858896,"station_name":"Matraman","line":1,"i_lat":-6.212485,"time":2,"distance":1377},{"is_transit":true,"i_lat":-6.209883,"station_id":"MRI","distance":1275,"transit":true,"i_long":106.84912,"line":0,"station_name":"Manggarai","time":2},{"station_id":"CKI","station_name":"Cikini","is_transit":false,"transit":false,"i_long":106.840169,"time":4,"distance":1590,"i_lat":-6.198556,"line":0},{"distance":1750,"transit":false,"i_long":106.832183,"station_id":"GDD","is_transit":false,"time":3,"line":2,"station_name":"Gondangdia","i_lat":-6.186295},{"distance":2015,"station_name":"Juanda","station_id":"JUA","time":4,"is_transit":false,"line":2,"i_lat":-6.166716,"transit":false,"i_long":106.828284},{"is_transit":false,"time":2,"i_long":106.827103,"transit":false,"distance":1149,"line":2,"station_name":"Sawah Besar","i_lat":-6.160725,"station_id":"SW"},{"is_transit":false,"time":2,"i_lat":-6.149769,"station_id":"MGB","line":2,"distance":906,"transit":false,"i_long":106.82482,"station_name":"Manggabesar"},{"i_lat":-6.141205,"station_name":"Jayakarta","distance":1080,"transit":false,"i_long":106.820901,"is_transit":false,"line":7,"time":2,"station_id":"JAY"},{"station_name":"Jakarta Kota","station_id":"JAKK","is_transit":true,"distance":1264,"time":4,"transit":true,"i_lat":-6.137569,"line":0,"i_long":106.812439},{"i_lat":-6.132549,"station_name":"Kampung Bandan","is_transit":true,"line":0,"time":3,"transit":false,"distance":1364,"i_long":106.826365,"station_id":"KPB"},{"i_lat":-6.144674,"transit":false,"i_long":106.79867,"distance":4102,"station_name":"Angke","station_id":"AK","line":0,"time":9,"is_transit":false},{"is_transit":true,"station_name":"Duri","i_lat":-6.155215,"distance":1230,"transit":true,"time":4,"i_long":106.800832,"line":1,"station_id":"DU"},{"is_transit":true,"station_id":"THB","station_name":"Tanah Abang","time":8,"distance":3632,"line":1,"i_long":106.811091,"transit":true,"i_lat":-6.185545},{"distance":3191,"station_id":"PLM","transit":false,"i_lat":-6.207404,"i_long":106.79689,"line":6,"is_transit":false,"time":6,"station_name":"Palmerah"},{"distance":3737,"i_lat":-6.237242,"i_long":106.780334,"is_transit":false,"station_name":"Kebayoran","station_id":"KBY","time":7,"line":6,"transit":false},{"transit":false,"is_transit":false,"station_id":"PDJ","i_long":106.74273,"line":6,"station_name":"Pondokranji","distance":6218,"i_lat":-6.276362,"time":8},{"time":3,"i_long":106.728916,"i_lat":-6.288927,"transit":false,"distance":2179,"is_transit":false,"line":6,"station_name":"Jurangmangu","station_id":"JMU"},{"line":6,"time":4,"distance":1994,"transit":false,"i_lat":-6.296963,"is_transit":false,"i_long":106.712277,"station_id":"SDM","station_name":"Sudimara"},{"time":6,"station_id":"RU","station_name":"Rawa Buntu","i_long":106.675475,"distance":4566,"transit":false,"i_lat":-6.314823,"is_transit":false,"line":6},{"transit":false,"line":6,"station_id":"SRP","station_name":"Serpong","time":4,"is_transit":false,"distance":2413,"i_lat":-6.319871,"i_long":106.66566}],[{"time":0,"transit":false,"i_long":106.977657,"distance":0,"station_name":"Kranji","is_transit":false,"station_id":"KRI","line":1,"i_lat":-6.224515},{"station_id":"CUK","time":3,"station_name":"Cakung","distance":3097,"i_long":106.951283,"line":0,"is_transit":false,"i_lat":-6.219053,"transit":false},{"station_name":"Klenderbaru","transit":false,"i_lat":-6.217455,"station_id":"KLDB","is_transit":false,"line":1,"i_long":106.939679,"time":8,"distance":1385},{"transit":false,"i_long":106.922662,"distance":1305,"station_id":"BUA","i_lat":-6.215568,"is_transit":false,"station_name":"Buaran","time":1,"line":0},{"distance":3100,"station_id":"KLD","line":1,"station_name":"Klender","i_long":106.899548,"is_transit":false,"time":2,"transit":false,"i_lat":-6.2135},{"i_lat":-6.215091,"i_long":106.86807400000001,"time":3,"line":0,"transit":true,"station_name":"Jatinegara","is_transit":true,"station_id":"JNG","distance":3395},{"i_lat":-6.209188,"line":11,"i_long":106.861737,"transit":false,"station_name":"Pondok Jati","time":2,"is_transit":false,"station_id":"POK","distance":1236},{"distance":1829,"station_name":"Kramat","station_id":"KMT","time":2,"i_lat":-6.193792,"i_long":106.855437,"transit":false,"line":11,"is_transit":false},{"station_name":"Gang Sentiong","station_id":"GST","time":1,"line":11,"is_transit":false,"i_long":106.850107,"transit":false,"distance":973,"i_lat":-6.185975},{"line":11,"is_transit":false,"distance":1567,"transit":false,"station_name":"Pasar Senen","station_id":"PSE","i_lat":-6.174784,"time":8,"i_long":106.84368},{"line":11,"distance":1436,"transit":false,"is_transit":false,"time":4,"i_long":106.839204,"station_id":"KMO","i_lat":-6.161728,"station_name":"Kemayoran"},{"is_transit":false,"line":11,"distance":1901,"station_name":"Rajawali","time":5,"transit":false,"i_lat":-6.14505,"i_long":106.836569,"station_id":"RJW"},{"i_lat":-6.132549,"i_long":106.826365,"transit":true,"station_name":"Kampung Bandan","time":3,"line":0,"station_id":"KPB","is_transit":true,"distance":1444},{"distance":1364,"time":3,"station_id":"JAKK","station_name":"Jakarta Kota","transit":true,"i_lat":-6.137569,"i_long":106.812439,"is_transit":true,"line":0},{"station_name":"Jayakarta","i_long":106.820901,"line":7,"is_transit":false,"distance":1264,"transit":false,"time":4,"station_id":"JAY","i_lat":-6.141205},{"is_transit":false,"distance":1080,"transit":false,"station_name":"Manggabesar","time":2,"i_lat":-6.149769,"i_long":106.82482,"line":2,"station_id":"MGB"},{"line":2,"transit":false,"station_id":"SW","station_name":"Sawah Besar","is_transit":false,"i_lat":-6.160725,"distance":906,"i_long":106.827103,"time":2},{"i_long":106.828284,"is_transit":false,"station_id":"JUA","i_lat":-6.166716,"line":2,"station_name":"Juanda","time":2,"distance":1149,"transit":false},{"station_name":"Gondangdia","i_lat":-6.186295,"i_long":106.832183,"line":2,"is_transit":false,"time":4,"station_id":"GDD","distance":2015,"transit":false},{"is_transit":false,"station_name":"Cikini","distance":1750,"station_id":"CKI","i_lat":-6.198556,"time":3,"line":0,"transit":false,"i_long":106.840169},{"distance":1590,"station_name":"Manggarai","transit":true,"i_lat":-6.209883,"is_transit":true,"line":0,"i_long":106.84912,"station_id":"MRI","time":4},{"i_lat":-6.202263,"i_long":106.822649,"line":1,"distance":3186,"is_transit":false,"station_name":"Sudirman","transit":false,"station_id":"SUD","time":4},{"station_id":"SUDB","line":1,"is_transit":false,"distance":280,"time":1,"i_lat":-6.201433,"station_name":"Sudirman Baru","transit":false,"i_long":106.819881},{"line":1,"time":1,"is_transit":false,"station_id":"KAT","i_long":106.816351,"i_lat":-6.20132,"distance":471,"station_name":"Karet","transit":false},{"is_transit":true,"line":1,"station_id":"THB","distance":2029,"transit":true,"station_name":"Tanah Abang","time":5,"i_lat":-6.185545,"i_long":106.811091},{"transit":false,"line":6,"is_transit":false,"distance":3191,"i_lat":-6.207404,"i_long":106.79689,"station_name":"Palmerah","time":6,"station_id":"PLM"},{"transit":false,"distance":3737,"is_transit":false,"i_lat":-6.237242,"line":6,"time":7,"station_id":"KBY","i_long":106.780334,"station_name":"Kebayoran"},{"line":6,"station_id":"PDJ","is_transit":false,"time":8,"i_lat":-6.276362,"distance":6218,"station_name":"Pondokranji","i_long":106.74273,"transit":false},{"time":3,"i_long":106.728916,"distance":2179,"transit":false,"station_id":"JMU","i_lat":-6.288927,"line":6,"is_transit":false,"station_name":"Jurangmangu"},{"station_id":"SDM","i_long":106.712277,"i_lat":-6.296963,"time":4,"is_transit":false,"line":6,"station_name":"Sudimara","distance":1994,"transit":false},{"station_id":"RU","distance":4566,"i_lat":-6.314823,"is_transit":false,"time":6,"i_long":106.675475,"station_name":"Rawa Buntu","line":6,"transit":false},{"line":6,"i_lat":-6.319871,"is_transit":false,"transit":false,"time":4,"i_long":106.66566,"station_name":"Serpong","distance":2413,"station_id":"SRP"}]]}